~Version ---------------------------------------------------
VERS.      2.0 : CWLS log ASCII Standard -VERSION 2.0
WRAP.       NO : One line per depth step
CREA. 12/18/14 : LAS Creation Date
~Well ------------------------------------------------------
STRT.M                       300.0 : START DEPTH
STOP.M                      4700.0 : STOP DEPTH
STEP.M                    50.00000 : STEP LENGTH
NULL.                      -999.25 : NULL VALUE
COMP.       DOME PETROLEUM LIMITED : COMPANY
WELL. DOME ET AL HANLAN 10-7-47-17 : WELL
FLD .                              : FIELD
LOC .                              : LOCATION
CTRY.                       CANADA : COUNTRY
SRVC.                 Schlumberger : SERVICE COMPANY
DATE.                  28-Dec-1979 : LOGDATE
PROV.                      Alberta : PROVINCE
UWI .             100100704717W500 : UNIQUE WELL ID
SLAT.WGS84                53.04215 : SURFACE LATITUDE
SLON.WGS84                -116.471 : SURFACE LONGITUDE
~Curve Information -----------------------------------------
DEPT    .M      : DEPTH METER
CALDED  .MM     : CALIPER FROM DENSITY LOG
CALSED  .MM     : CALIPER FROM SONIC LOG
CALWS   .MM     : CALIPER [CALSED]
CONDWS  .MMHO   : CONDUCTIVITY [1000/DRESWS]
DCORWS  .KG/M3  : DENSITY CORRECTION [DRHOED]
DENWS   .KG/M3  : FORMATION BULK DENSITY [CALC. FROM DPOLSWS, M=2710, F=1000]
DPHILSED.V/V    : DENSITY POROSITY LIMESTONE [M=2710, F=1000] FROM DENSITY LOG
DPHISSED.V/V    : DENSITY POROSITY SANDSTONE [M=2650, F=1000] FROM DENSITY LOG
DPOLSWS .V/V    : DENSITY POROSITY LIMESTONE [DPHISSED MATRIX CONVERTED TO LIMESTONE(M=2710, F=1000) & SPL. TO DPHILSED @3594M]
DRESWS  .OHMM   : DEEP RESISTIVITY [ILDED]
DRHOED  .KG/M3  : DENSITY CORRECTION FROM DENSITY LOG
DTED    .US/M   : DELTA TIME FROM SONIC LOG
DTWS    .US/M   : COMPRESSIONAL SONIC [DTED]
GRDED   .GAPI   : GAMMA RAY FROM DENSITY LOG
GRSED   .GAPI   : GAMMA RAY FROM SONIC LOG
GRWS    .GAPI   : GAMMA RAY [GRSED]
ILDED   .OHMM   : DEEP INDUCTION RESISTIVITY FROM RESISTIVITY LOG
ILMED   .OHMM   : MEDIUM INDUCTION RESISTIVITY FROM RESISTIVITY LOG
MRESWS  .OHMM   : MEDIUM RESISTIVITY [ILMED]
NPHILSED.V/V    : NEUTRON POROSITY  LIMESTONE FROM DENSITY LOG
NPHISSED.V/V    : NEUTRON POROSITY SANDSTONE FROM DENSITY LOG
NPOLSWS .V/V    : NEUTRON POROSITY LIMESTONE [NPHISSED MATRIX CONVERTED TO LIMESTONE(SLB-CNL) & SPL. TO NPHILSED @3599 M]
RHOBED  .KG/M3  : BULK DENSITY FROM DENSITY LOG
SFLED   .OHMM   : SHALLOW FOCUSED RESISTIVITY FROM RESISTIVITY LOG
SPRED   .MV     : SPONTANEOUS POTENTIAL FROM RESISTIVITY LOG
SPWS    .MV     : SPONTANEOUS POTENTIAL [BASELINE 0MV, SPRED]
SRESWS  .OHMM   : SHALLOW RESISTIVITY [SFLED]
~Params ----------------------------------------------------
PD  .                         GL : PERMANENT DATUM
EPD .M                   1240.25 : ELEVATION PERMANENT DATUM
LMF .                         KB : LOG MEASURED FROM
DAPD.M                      6.45 : FEET ABOVE PERMANENT DATUM
DMF .                         KB : DRILLING MEASURED FROM
EKB .M                    1246.7 : KELLY BUSHING
EGL .M                   1240.25 : GROUND LEVEL
DATE.                   12/28/79 : RUN DATE
RUN .                          3 : RUN NUMBER
DD  .M                      4708 : DEPTH DRILLER
DL  .M                      4701 : DEPTH LOGGER
BLI .M                      4700 : BOTTOM LOG INTERVAL
TLI .M                      3750 : TOP LOG INTERVAL
CS  .MM                      244 : CASING SIZE
CBD .M                      3180 : CASING BOTTOM DRILLER
CBL .M                      3173 : CASING BOTTOM LOGGER
BS  .MM                      216 : BIT SIZE
BSD .M                      4708 : BIT SIZE AT DEPTH
DFT .                    GEL MUD : DRILLING FLUID TYPE
DFD .                       1080 : DRILLING FLUID DENSITY
DFV .                         95 : DRILLING FLUID VISCOSITY
DFPH.                         11 : DRILLING FLUID PH
MSS .                   FLOWLINE : MUD SAMPLE SOURCE
RMS .OHMM                   0.65 : RESISTIVITY MUD SAMPLE
MST .DEGC                   14.5 : MUD SAMPLE TEMPERATURE
RMF .OHMM                    0.7 : RESISTIVITY MUD FILTRATE SAMPLE
MFST.DEGC                     17 : MUD FILTRATE SAMPLE TEMPERATURE
RMC .OHMM                   0.96 : RESISTIVITY MUD CAKE
MCST.DEGC                     15 : MUD CAKE SAMPLE TEMPERATURE
MFSS.                      PRESS : MUD FILTRATE SAMPLE SOURCE
RMB .OHMM                   0.29 : RESISTIVITY MUD AT BHT
TCS .HRS                     145 : TIME CIRCULATED STOPPED
TLAB.HRS                    1600 : TIME LOGGER AT BOTTOM
LUN .                       8105 : LOGGING UNIT NUMBER
LUL .                      EDSON : LOGGING UNIT LOCATION
ENGI.                     GILLIS : RECORDING ENGINEER
WITN.           ALTAMIRANO TOBIN : WITNESSED BY
CLNT.                    A2DTECH : CLIENT CODE
ORIG. 6.5"/100M 16.5"/100M PRINT : ORIGIN OF DATA
UWI .           100100704717W500 : UNIQUE WELL ID
DICO.     A2D Technologies, Inc. : DIGITIZING COMPANY
~Other -----------------------------------------------------
~ASCII -----------------------------------------------------
# ...
 2900.00000  506.07410  364.19520  236.49400  112.76370   36.55000 1943.96500    -999.25    0.42790    0.44800    8.86810   36.55000  278.45200  278.45200   86.64500   91.55000   91.55000    8.86810    8.78680    8.78680    -999.25    0.44690    0.40510 1946.95700   10.19210 -219.48990   -9.42860   10.19210
 2950.00000  447.26340  344.08960  211.36200   73.95520  100.12180 2028.11500    -999.25    0.37690    0.39880   13.52170  100.12180  270.83300  270.83300  102.05220   89.33300   89.33300   13.52170   13.15670   13.15670    -999.25    0.30810    0.26410 2011.33290   15.93480 -219.56490  -14.18800   15.93480
 3000.00000  595.37080  366.85600  239.82000   81.61470    2.47500 1787.05000    -999.25    0.52300    0.53970   12.25270    2.47500  285.40900  285.40900   75.16700   71.82000   71.82000   12.25270   10.12210   10.12210    -999.25    0.47910    0.43840 1790.46180   13.47820 -217.25000  -16.55760   13.47820
 3050.00000  586.95830  379.36960  255.46200  110.19650   60.64960 1961.12500    -999.25    0.41750    0.43790    9.07470   60.64960  270.37200  270.37200   67.28030   71.17100   71.17100    9.07470    8.09260    8.09260    -999.25    0.43940    0.39740 1999.96800   10.13640 -208.73490  -12.72690   10.13640
 3100.00000  567.11870  396.60960  277.01200  149.88910   -9.58290 1695.64000    -999.25    0.57840    0.59320    6.67160   -9.58290  298.76900  298.76900   72.75490   69.77500   69.77500    6.67160    5.27820    5.27820    -999.25    0.54110    0.50340 1697.09200    5.85530 -205.13000  -13.80650    5.85530
 3150.00000  423.72080  353.38080  222.97600  118.95130   70.75830 2006.17000    -999.25    0.39020    0.41160    8.40680   70.75830  276.57600  276.57600  106.67900   92.94900   92.94900    8.40680    8.13800    8.13800    -999.25    0.34950    0.30590 2018.91700    9.45920 -202.07490  -15.43590    9.45920
 3200.00000  298.42880  299.55390  299.55390   57.99220  178.34690 2233.21000    -999.25    0.25260    0.27880   17.24370  178.34690  164.45300  164.45300   61.61420   57.05500   57.05500   17.24370   18.93570   18.93570    -999.25    0.24650    0.20260 2247.33250   17.00680 -202.35390  -18.50940   17.00680
 3250.00000  274.83760  276.90600  276.90600   70.75690   52.29170 1974.65500    -999.25    0.40930    0.43000   14.13290   52.29170  274.19900  274.19900   61.09640   49.95500   49.95500   14.13290   16.18580   16.18580    -999.25    0.40990    0.36720 2062.53490   25.50750 -196.06990  -13.58240   25.50750
 3300.00000  300.28380  300.66100  300.66100   88.91420   65.38140 2119.85500    -999.25    0.32130    0.34510   11.24680   65.38140  270.15400  270.15400   89.00200   85.21600   85.21600   11.24680    7.38640    7.38640    -999.25    0.41970    0.37720 2111.17990   18.34240 -198.74000  -17.60960   18.34240
 3350.00000  312.70830  314.52200  314.52200   65.12830  102.03220 2136.19000    -999.25    0.31140    0.33560   15.35430  102.03220  262.66100  262.66100   69.57800   76.91000   76.91000   15.35430   11.57290   11.57290    -999.25    0.52760    0.48920 2029.91100   26.58080 -196.46990  -16.69660   26.58080
 3400.00000  268.14170  267.02900  267.02900   54.97560  228.15000 2596.54000    -999.25    0.03240    0.06640   18.18990  228.15000  160.06000  160.06000   57.87600   54.27400   54.27400   18.18990   15.55510   15.55510    -999.25    0.12690    0.08460 2590.62990   18.67090 -201.60010  -23.18380   18.67090
 3450.00000  247.04170  246.24200  246.24200   12.06060  160.31110 2668.31500    -999.25   -0.01110    0.02440   82.91440  160.31110  148.10200  148.10200   65.97300   71.10700   71.10700   82.91440   45.54390   45.54390    -999.25    0.12970    0.08730 2642.44090   96.96660 -198.56980  -21.51060   96.96660
 3500.00000  326.48990  325.50500  325.50500   92.50610  154.89460 2087.51500    -999.25    0.34090    0.36400   10.81010  154.89460  168.84700  168.84700   92.41080   89.97000   89.97000   10.81010   10.46570   10.46570    -999.25    0.25650    0.21260 2035.80400   12.60680 -198.18010  -22.47790   12.60680
 3550.00000  280.48760  282.39800  282.39800   11.45430  165.67500 2435.83000    -999.25    0.12980    0.16030   87.30320  165.67500  153.86900  153.86900   67.29910   62.81000   62.81000   87.30320   54.35840   54.35840    -999.25    0.13770    0.09530 2462.04490   67.68550 -198.61010  -24.26500   67.68550
 3600.00000  363.32550  321.28700  321.28700  102.08670  103.82660 1910.74600    0.46740    0.37120    0.46740    9.79560  103.82660  184.02400  184.02400   86.54900   77.84500   77.84500    9.79560    7.66960    7.66960    0.15520    -999.25    0.15520 2043.27400   12.03040 -190.63010  -17.64210   12.03040
 3650.00000  215.98330  216.34000  216.34000    0.50000    5.80090 2624.50000    0.05000    -999.25    0.05000 2000.00000    5.80090  254.49500  254.49500   46.88300   46.37500   46.37500 2000.00000 2000.00000 2000.00000    0.02120    -999.25    0.02120 2629.96680 1682.79050 -218.66990  -47.03890 1682.79050
 3700.00000  349.16670  349.49400  349.49400    0.50000  190.18140 2504.11600    0.12040    -999.25    0.12040 2000.00000  190.18140  231.76800  231.76800   19.20000   20.15400   20.15400 2000.00000  120.58460  120.58460    0.01850    -999.25    0.01850 2552.98390 1711.25820 -218.29940  -48.02550 1711.25820
 3750.00000  220.48320  233.05100  233.05100   15.95770   21.81670 2869.37200   -0.09320    -999.25   -0.09320   62.66570   21.81670  232.39800  232.39800    8.06400   19.28300   19.28300   62.66570   82.87670   82.87670    0.00940    -999.25    0.00940 2871.03590  671.18030 -211.61980  -42.70290  671.18030
 3800.00000  321.50000  248.90600  248.90600    0.99030  249.72410 2492.14600    0.12740    -999.25    0.12740 1009.78700  249.72410  225.17500  225.17500   16.09600   16.87100   16.87100 1009.78700  727.58530  727.58530   -0.00290    -999.25   -0.00290 2491.09500 2000.00000 -256.62990  -89.07010 2000.00000
 3850.00000  249.98360  242.54600  242.54600   19.18540  188.80000 2761.64200   -0.03020    -999.25   -0.03020   52.12310  188.80000  175.08700  175.08700   57.18500   53.02600   53.02600   52.12310   43.15180   43.15180    0.04090    -999.25    0.04090 2766.67530   72.09720 -183.78000  -17.57730   72.09720
 3900.00000  225.84170  226.96200  226.96200   11.48600    8.85000 2726.58700   -0.00970    -999.25   -0.00970   87.06230    8.85000  177.75000  177.75000   32.32980   30.33800   30.33800   87.06230   77.08320   77.08320    0.02500    -999.25    0.02500 2728.72710  104.35960 -187.22960  -22.38390  104.35960
 3950.00000  226.37500  227.80700  227.80700   12.91130    3.30830 2700.42400    0.00560    -999.25    0.00560   77.45150    3.30830  182.47900  182.47900   54.55700   47.26600   47.26600   77.45150   60.08690   60.08690    0.02300    -999.25    0.02300 2701.98900  104.51140 -166.99980   -3.51120  104.51140
 4000.00000  266.13330  239.45000  239.45000    0.50000  188.34170 2659.72600    0.02940    -999.25    0.02940 2000.00000  188.34170  161.56000  161.56000   16.55400   19.06700   19.06700 2000.00000  408.63860  408.63860    0.00000    -999.25    0.00000 2669.79810 1691.33610 -285.25030 -128.69640 1691.33610
 4050.00000  342.94560  275.22100  275.22100    0.50000  158.15000 2439.64900    0.15810    -999.25    0.15810 2000.00000  158.15000  170.04500  170.04500   12.47500   14.78000   14.78000 2000.00000   77.29980   77.29980    0.01030    -999.25    0.01030 2416.72190 1793.01400 -280.60990 -133.71320 1793.01400
 4100.00000  374.57500  242.27300  242.27300    0.50000  142.18210 2309.68900    0.23410    -999.25    0.23410 2000.00000  142.18210  160.14000  160.14000   14.55900    9.29800    9.29800 2000.00000   70.24410   70.24410    0.00440    -999.25    0.00440 2303.34200 1842.59500 -298.22130 -160.98180 1842.59500
 4150.00000  388.60420  338.36300  338.36300    6.39990   78.82650 2207.60200    0.29380    -999.25    0.29380  156.25360   78.82650  160.87800  160.87800   18.69680   18.31500   18.31500  156.25360   25.71780   25.71780    0.10450    -999.25    0.10450 2205.96510  520.75080 -308.72120 -181.13880  520.75080
