~Version ---------------------------------------------------
VERS. 2.0 : CWLS log ASCII Standard -VERSION 2.0
WRAP.  NO : ONE LINE PER DEPTH STEP
~Well ------------------------------------------------------
STRT.F                             1200.0 : START DEPTH
STOP.F                            11400.0 : STOP DEPTH
STEP.F                           50.00000 : STEP LENGTH
NULL.                             -999.25 : NULL VALUE
COMP.       AMOCO CANADA PETROLEUM CO LTD : COMPANY
WELL. AMOCO MOBIL L-2 WAHIGAN 10-16-64-23 : WELL
FLD .                                     : FIELD
LOC .                                     : LOCATION
CTRY.                              CANADA : COUNTRY
SRVC.                             Unknown : SERVICE COMPANY
DATE.                         06-Feb-1976 : LOGDATE
PROV.                             Alberta : PROVINCE
UWI .                    100101606423W500 : UNIQUE WELL ID
SLAT.WGS84                       54.53986 : SURFACE LATITUDE
SLON.WGS84                      -117.4124 : SURFACE LONGITUDE
~Curve Information -----------------------------------------
DEPT   .F    0   1   0  0 : 1 MEASURED DEPTH
GRS    .GAPI 60 310 01 00 : GAMMA RAY FROM SONIC LOG
AC     .US/F 60 500 41 00 : ACOUSTIC
CALS   .IN   60 280 50 00 : CALIPER FROM SONIC LOG
SPR    .MV   07 010 01 00 : SPONTANEOUS POTENTIAL FROM RESISTIVITY LOG
ILM    .OHMM 07 120 44 00 : INDUCTION MEDIUM RESISTIVITY
SFL    .OHMM 07 220 06 00 : SPHERICALLY FOCUSED LOG
ILD    .OHMM 07 120 46 00 : INDUCTION DEEP RESISTIVITY
GRD    .GAPI 45 310 01 00 : GAMMA RAY FROM DENSITY LOG
CORR   .G/C3 45 356 01 00 : DENSITY CORRECTION
RHOB   .G/C3 45 350 01 00 : BULK DENSITY
CALD   .IN   45 280 60 00 : CALIPER FROM DENSITY LOG
NPHI_SS.DEC  42 890 03 00 : NEUTRON POROSITY SANDSTONE
DPHI_SS.DEC  45 890 12 00 : DENSITY POROSITY SANDSTONE
NPHI_LS.DEC  42 890 01 00 : NEUTRON POROSITY LIMESTONE
DPHI_LS.DEC  45 890 10 00 : DENSITY POROSITY LIMESTONE
~Params ----------------------------------------------------
PD  .                     GL : PERMANENT DATUM
EPD .FT               2628.5 : ELEVATION PERMANENT DATUM
LMF .                     KB : LOG MEASURED FROM
DAPD.FT                 13.5 : FEET ABOVE PERMANENT DATUM
DMF .                     KB : DRILLING MEASURED FROM
EKB .FT                 2642 : KELLY BUSHING
EGL .FT               2628.5 : GROUND LEVEL
DATE.               02/06/76 : RUN DATE
RUN .                      1 : RUN NUMBER
DD  .FT                11378 : DEPTH DRILLER
DL  .FT                11410 : DEPTH LOGGER
BLI .FT                11408 : BOTTOM LOG INTERVAL
TLI .FT                 1219 : TOP LOG INTERVAL
CS  .IN                9.625 : CASING SIZE
CBD .FT                 1208 : CASING BOTTOM DRILLER
CBL .FT                 1219 : CASING BOTTOM LOGGER
BS  .IN                 8.75 : BIT SIZE
BSD .FT                11378 : BIT SIZE AT DEPTH
DFT .           MUD GEL CHEM : DRILLING FLUID TYPE
DFD .                    9.3 : DRILLING FLUID DENSITY
DFV .                    135 : DRILLING FLUID VISCOSITY
DFPH.                     10 : DRILLING FLUID PH
DFL .                    8.1 : DRILLING FLUID LOSS
MSS .                   CIRC : MUD SAMPLE SOURCE
RMS .OHMM                3.5 : RESISTIVITY MUD SAMPLE
MST .DEGF                 67 : MUD SAMPLE TEMPERATURE
RMF .OHMM                3.5 : RESISTIVITY MUD FILTRATE SAMPLE
MFST.DEGF                 62 : MUD FILTRATE SAMPLE TEMPERATURE
RMC .OHMM                2.8 : RESISTIVITY MUD CAKE
MCST.DEGF                 67 : MUD CAKE SAMPLE TEMPERATURE
MFSS.                   MEAS : MUD FILTRATE SAMPLE SOURCE
MCSS.                   MEAS : MUD CAKE SAMPLE SOURCE
RMB .OHMM               1.21 : RESISTIVITY MUD AT BHT
TCS .HRS                   7 : TIME CIRCULATED STOPPED
LUN .                   6155 : LOGGING UNIT NUMBER
LUL .                    EDM : LOGGING UNIT LOCATION
ENGI.                    GAU : RECORDING ENGINEER
WITN.                  KAREL : WITNESSED BY
CLNT.                A2DTECH : CLIENT CODE
ORIG.            2" 5" PRINT : ORIGIN OF DATA
UWI .       100101606423W500 : UNIQUE WELL ID
DICO. A2D Technologies, Inc. : DIGITIZING COMPANY
~Other -----------------------------------------------------
~ASCII -----------------------------------------------------
 1200.00000   63.47170    -999.25    -999.25    -999.25    -999.25    -999.25    -999.25   84.49770    -999.25    -999.25    -999.25    0.46240    -999.25    -999.25    -999.25
 1250.00000   79.59840   98.51450    9.63530  -62.10180    3.00640    3.73420    2.83640  110.68410    0.09170    2.38030   10.84930    0.33230    0.17820    -999.25    -999.25
 1300.00000  114.07660  109.97750   10.61320  -61.17160    2.20430    4.00200    1.90870  141.43830    0.12120    2.26590   11.59760    0.48230    0.22770    -999.25    -999.25
 1350.00000   68.39410   95.11370    9.89330  -54.43570    6.97560    8.72760    6.25580   91.52290    0.15360    2.42820   11.37140    0.32420    0.13660    -999.25    -999.25
 1400.00000   94.75630  123.67470   10.28150  -52.31350    2.43840    3.72380    2.18030  123.28590    0.13320    2.13300   13.60660    0.41020    0.35490    -999.25    -999.25
 1450.00000   95.33920  133.31290   10.39030  -53.77490    3.54670    4.06750    3.32640  133.33910    0.12630    2.03270   13.79690    0.37810    0.36540    -999.25    -999.25
 1500.00000   92.22740  117.01030   10.47930  -53.59140    2.60530    3.49450    2.48940  113.87260    0.14100    2.08090   13.36190    0.36020    0.33190    -999.25    -999.25
 1550.00000   87.70630  108.31530   10.15560  -53.90190    3.21330    3.92930    2.95980  125.49920    0.18090    2.31940   13.99640    0.41420    0.24310    -999.25    -999.25
 1600.00000   78.94420  116.57000   10.06160  -55.41720    4.23010    6.52750    4.02380  114.28490    0.07820    1.98150   13.00960    0.42100    0.26600    -999.25    -999.25
 1650.00000   85.10330  140.77620   10.48480  -64.40760    3.53210    5.31890    3.30810  122.28390    0.06130    1.77000   11.24800    0.47280    0.51380    -999.25    -999.25
 1700.00000   94.41960  102.89330   10.25770  -62.57550    3.19060    4.37420    2.99580  121.95850    0.11950    2.22450   13.86490    0.39260    0.23060    -999.25    -999.25
 1750.00000   85.12900  116.76680   10.49050  -62.39170    3.07360    4.07530    2.80100  135.35740    0.14540    2.33000   14.21660    0.42390    0.21010    -999.25    -999.25
 1800.00000   88.39440  108.38170   10.27170  -61.39730    7.59340    8.36780    6.99480  128.67870    0.19720    2.36710   14.11080    0.35230    0.18890    -999.25    -999.25
 1850.00000   99.59810  118.89530   10.21060  -60.42250    1.54010    2.84920    1.26630  137.30820    0.19860    2.37990   14.15320    0.38160    0.18000    -999.25    -999.25
 1900.00000   87.12210  103.85250    9.50240  -61.05370    3.44910    4.41050    3.16380  132.87920    0.18030    2.39640   14.28890    0.39980    0.11110    -999.25    -999.25
 1950.00000   70.77640   98.42630    9.92640  -72.30030   10.25680    8.72750    9.49580   93.72870    0.11990    2.53970   14.16630    0.20360    0.22360    -999.25    -999.25
 2000.00000   94.31890  111.15270   10.44860  -64.20200    2.92070    4.62550    2.60730  132.93670    0.09530    2.03600   13.57150    0.46710    0.50100    -999.25    -999.25
 2050.00000   75.01270   97.39940    9.70480  -62.16930    7.66310    7.49960    6.73750  106.83980    0.07380    2.35960   12.35370    0.31380    0.19430    -999.25    -999.25
 2100.00000   79.29410   91.87730    9.55850  -63.93650    2.57380    3.73890    2.25730  101.04990    0.14380    2.31710   12.32660    0.31290    0.16230    -999.25    -999.25
 2150.00000   67.58680   98.61690    9.31860  -63.34080    6.66550    6.41570    6.00190   86.10380    0.12730    2.28300   12.28660    0.35460    0.22590    -999.25    -999.25
 2200.00000   81.18790   90.46020    9.68460  -60.93920    2.16640    2.70470    1.92070  116.74120    0.13460    2.29980   13.71830    0.37340    0.21880    -999.25    -999.25
 2250.00000   59.82330   97.62310    8.90800  -65.13640    5.99750    6.20440    5.83580   80.18060    0.14280    2.37860    9.52410    0.34710    0.17930    -999.25    -999.25
 2300.00000   66.84850  142.96290   11.94840  -58.25000    4.32350    5.09400    4.11280   91.49690   -0.00490    1.92430   12.53570    0.32780    0.60000    -999.25    -999.25
 2350.00000   95.71530  134.15780   11.75260  -57.52970    2.55700    3.61770    2.38870  110.02140    0.06810    2.19300   13.89890    0.44830    0.27970    -999.25    -999.25
 2400.00000   90.31070   92.32510    8.87380  -57.13500    6.44920    5.83520    6.08400  103.37340    0.08330    2.42220   14.34130    0.32790    0.12840    -999.25    -999.25
 2450.00000   63.42520  100.22480   11.83110  -59.39330    4.80130    4.75350    4.52280  106.75900    0.14830    2.25740   14.09320    0.40020    0.44440    -999.25    -999.25
 2500.00000   79.27860  133.70280   11.12800  -57.31320    4.70530    4.12680    4.41500  116.06930    0.15020    2.09590   14.05410    0.49270    0.25410    -999.25    -999.25
 2550.00000   66.15720   89.90770    9.91650  -57.93470   10.77000   10.00210    9.19430   83.96540    0.09920    2.51070   12.32150    0.24420    0.10230    -999.25    -999.25
 2600.00000   81.25980   96.79140    9.79260  -58.58180    3.23620    4.11250    3.11030  107.07980    0.22770    2.21720   13.26470    0.42790    0.23190    -999.25    -999.25
 2650.00000   60.80890  121.40410   10.17680  -58.82930    8.42330    8.12590    8.09660  103.51880    0.19200    2.19180   13.48970    0.41110    0.23150    -999.25    -999.25
 2700.00000   81.75940   98.79870   10.71920  -57.36370    6.44980    7.27810    5.69590   93.93760    0.21240    2.06450   13.39720    0.42110    0.38230    -999.25    -999.25
 2750.00000   55.85570   90.06490    9.99780  -56.02880    7.53120    7.93800    7.15540   87.88910    0.06910    2.43840   11.49900    0.28780    0.12880    -999.25    -999.25
 2800.00000   63.49400   92.34050    9.33690  -61.21740   14.46650   11.72470   12.87130   77.95560    0.13090    2.31370   10.30960    0.31980    0.20360    -999.25    -999.25
 2850.00000   64.09630   87.60800    9.90130  -60.42530    4.47180    4.94940    4.01360   92.21450    0.18980    2.43320   12.29830    0.30550    0.06790    -999.25    -999.25
 2900.00000   61.62720  176.08090   12.11330  -63.16870    4.51140    5.10230    4.18670   87.96520    0.07160    1.57450   12.85840    0.52420    0.59960    -999.25    -999.25
 2950.00000   84.10370  101.13860    9.96070  -60.25210    7.07140    9.85990    5.95370   98.70680    0.16670    1.96810    9.54920    0.44960    0.49550    -999.25    -999.25
 3000.00000   81.02570  103.46280   11.02560  -60.35600    5.05800    5.83580    4.70030   98.86050    0.12480    1.66430   13.17990    0.43860    0.54940    -999.25    -999.25
 3050.00000   44.67990   95.67490    8.78670  -83.93320   13.96080   14.66020   11.11560   75.37710    0.19930    2.38100    9.26050    0.33960    0.17670    -999.25    -999.25
 3100.00000   73.31960  122.16960   11.58990  -57.21780    3.38400    7.49980    3.53580   96.61360    0.13110    1.84430   11.36590    0.38970    0.46590    -999.25    -999.25
 3150.00000   78.86450  101.05050   10.21740  -54.62170    4.23800    5.03620    3.96150  108.70930    0.15150    2.34440   10.20640    0.42270    0.30640    -999.25    -999.25
 3200.00000   63.65710   76.82710    9.52380  -54.38360    6.12780    7.47590    5.48540   93.51840    0.16840    2.49840   11.03220    0.33290    0.03370    -999.25    -999.25
 3250.00000   76.90750   92.67700   10.06960  -55.10250    5.65410    6.26690    5.04520  106.55270    0.21190    2.29710   12.19740    0.43240    0.11720    -999.25    -999.25
 3300.00000   96.24090   88.68810   11.20560  -55.45920    4.45580    6.02950    4.31220  128.31310    0.18400    2.08760   13.02440    0.45820    0.33290    -999.25    -999.25
 3350.00000  104.44930   88.33240   11.06330  -57.29110    6.44620    7.77080    6.04100  126.62410    0.22160    2.20820   13.50890    0.45790    0.30130    -999.25    -999.25
 3400.00000  114.68460   96.55480   10.85380  -55.61260    6.01350    7.55660    5.45870  150.08540    0.23080    2.13270   13.25840    0.48600    0.34360    -999.25    -999.25
 3450.00000  115.60280   93.52760   11.10020  -54.35200    6.85160    8.69750    6.06970  150.29040    0.23020    2.30140   13.21370    0.45870    0.23190    -999.25    -999.25
