~Version ---------------------------------------------------
VERS. 2.0 : CWLS log ASCII Standard -VERSION 2.0
WRAP. YES : MULTIPLE LINES PER DEPTH STEP
~Well ------------------------------------------------------
STRT.FT                      2000.0 : START DEPTH
STOP.FT                     17600.0 : STOP DEPTH
STEP.FT                    50.00000 : STEP LENGTH
NULL.                      -99925.0 : NULL VALUE
COMP.        SEAFORT PETROLEUM LTD. : COMPANY
WELL. SEAFORT ET AL KAKWA 2-20-61-7 : WELL
FLD .                               : FIELD
LOC .                               : LOCATION
CTRY.                        CANADA : COUNTRY
SRVC.        Schlumberger of Canada : SERVICE COMPANY
DATE.                   12-Aug-1975 : LOGDATE
PROV.                       Alberta : PROVINCE
UWI .              100022006107W600 : UNIQUE WELL ID
SLAT.WGS84                 54.28609 : SURFACE LATITUDE
SLON.WGS84                -119.0081 : SURFACE LONGITUDE
~Curve Information -----------------------------------------
DEPT    .FT    : DEPTH FEET
CALDED  .IN    : CALIPER FROM DENSITY LOG [ADJ TO GRRED]
CALSED  .IN    : CALIPER FROM SONIC LOG
CALWS   .IN    : CALIPER [CALSED]
CONDWS  .MMHO  : CONDUCTIVITY [1000/DRESWS]
DCORED  .G/C3  : DENSITY CORRECTION FROM DENSITY LOG [ADJ TO GRRED]
DCORWS  .G/C3  : DENSITY CORRECTION [DCORED]
DENWS   .G/C3  : BULK DENSITY [M=2.65 F=1.0] <14590> [M=2.71 F=1.0] [RHOBED]
DPHILSED.V/V   : DENSITY POROSITY [M=2.71 F=1.0] FROM DENSITY LOG [ADJ TO GRRED]
DPHISSED.V/V   : DENSITY POROSITY [M=2.65 F=1.0] FROM DENSITY LOG [ADJ TO GRRED]
DPOWS   .V/V   : DENSITY POROSITY [M=2.71 F=1.0] [CALCULATED FROM DENWS]
DRESWS  .OHMM  : DEEP RESISTIVITY [SPL ILDED <14590> LLDED]
DTED    .US/F  : DELTA TIME FROM SONIC LOG
DTWS    .US/F  : DELTA TIME [DTED]
GRDED   .GAPI  : GAMMA RAY FROM DENSITY LOG [ADJ TO GRRED]
GRRED   .GAPI  : GAMMA RAY FROM RESISTIVITY LOG
GRSED   .GAPI  : GAMMA RAY FROM SONIC LOG
GRWS    .GAPI  : GAMMA RAY [GRSED, CSG ABOVE 2005F]
ILDED   .OHMM  : INDUCTION LOG DEEP RESISTIVITY
ILMED   .OHMM  : INDUCTION LOG MEDIUM RESISTIVITY
LL8ED   .OHMM  : 8 INCH LATEROLOG RESISTIVITY
LLDED   .OHMM  : LATEROLOG DEEP RESISTIVITY
LLSED   .OHMM  : LATEROLOG SHALLOW RESISTIVITY
MRESWS  .OHMM  : MEDIUM RESISTIVITY [ILMED]
NPHILSED.V/V   : NEUTRON POROSITY LIMESTONE FROM DENSITY LOG [ADJ TO GRRED]
NPHISSED.V/V   : NEUTRON POROSITY SANDSTONE FROM DENSITY LOG [ADJ TO GRRED]
NPOWS   .V/V   : NEUTRON POROSITY LIMESTONE [CONVERTED NPHISSED TO LIMESTONE SPL WITH NPHILSED @14516F]
RHOBED  .G/C3  : BULK DENSITY FROM DENSITY LOG [ADJ TO GRRED]
SPRED   .MV    : SPONTANEOUS POTENTIAL FROM RESISTIVITY LOG
SPWS    .MV    : SPONTANEOUS POTENTIAL [BASELINE 0 MV] [SPRED]
SRESWS  .OHMM  : SHALLOW RESISTIVITY [SPL LL8ED <14590> LLSED]
~Params ----------------------------------------------------
PD  .                     GL : PERMANENT DATUM
EPD .FT                 3465 : ELEVATION PERMANENT DATUM
LMF .                     KB : LOG MEASURED FROM
DAPD.FT                   21 : FEET ABOVE PERMANENT DATUM
EKB .FT                 3486 : KELLY BUSHING
EGL .FT                 3465 : GROUND LEVEL
DATE.               10/06/75 : RUN DATE
RUN .                      2 : RUN NUMBER
DD  .FT                17618 : DEPTH DRILLER
DL  .FT                17600 : DEPTH LOGGER
BLI .FT                17600 : BOTTOM LOG INTERVAL
TLI .FT                14577 : TOP LOG INTERVAL
CBD .FT                14590 : CASING BOTTOM DRILLER
CBL .FT                14577 : CASING BOTTOM LOGGER
BS  .IN                  9.5 : BIT SIZE
BSD .FT                17618 : BIT SIZE AT DEPTH
DFT .                    GEL : DRILLING FLUID TYPE
DFD .                   13.8 : DRILLING FLUID DENSITY
DFV .                    115 : DRILLING FLUID VISCOSITY
DFPH.                     11 : DRILLING FLUID PH
DFL .                      7 : DRILLING FLUID LOSS
RMS .OHMM              0.809 : RESISTIVITY MUD SAMPLE
MST .DEGF                 75 : MUD SAMPLE TEMPERATURE
WITN.                  BROWN : WITNESSED BY
CLNT.                A2DTECH : CLIENT CODE
ORIG.               5" PRINT : ORIGIN OF DATA
UWI .       100022006107W600 : UNIQUE WELL ID
DICO. A2D Technologies, Inc. : DIGITIZING COMPANY
~Other -----------------------------------------------------
~ASCII -----------------------------------------------------
# ...
 9200.00000   16.49480   16.57640   16.57640  428.13720    0.12680    0.12680    2.27900   -99925.0    0.22620    0.25200    2.33570   99.25040   99.25040   78.02640   76.71930   73.09010   73.09010    2.33570    3.79850    2.93970    4.77890    4.51170    3.79850   -99925.0    0.30000    0.25600    2.27900  -74.08460    4.25090    2.93970
 9250.00000   -99925.0   16.59590   16.59590 1598.46560   -0.02960   -0.02960    1.44820   -99925.0    0.30000    0.73790    0.62560  195.11580  195.11580   56.54540   62.41890   63.22170   63.22170    0.62560    2.63850    1.21870    7.02280    1.12560    2.63850   -99925.0    0.30000    0.25600    1.44820  -74.49240    3.86870    1.21870
 9300.00000   17.44480   16.61100   16.61100  895.73630   -0.04480   -0.04480    1.64690   -99925.0    0.30000    0.62170    1.11640  142.41970  142.41970   66.39630   62.59110   64.88420   64.88420    1.11640    7.99250    1.43520   10.99160    2.19750    7.99250   -99925.0    0.30000    0.25600    1.64690  -77.28580    1.10080    1.43520
 9350.00000   -99925.0   16.60370   16.60370   79.91050    0.02270    0.02270    1.73450   -99925.0    0.30000    0.57050   12.51400   96.99420   96.99420   85.06050   80.05780   90.86710   90.86710   12.51400    5.75890    7.46550   11.19630    6.35570    5.75890   -99925.0    0.30000    0.25600    1.73450  -80.32350   -1.91130    7.46550
 9400.00000   17.66930   16.62030   16.62030  100.98770    0.09650    0.09650    2.09950   -99925.0    0.30000    0.35700    9.90220   73.61650   73.61650   78.79250   84.48150   80.63900   80.63900    9.90220   22.02670   10.85690   34.32210   26.57700   22.02670   -99925.0    0.30000    0.25600    2.09950  -85.97120   -7.53340   10.85690
 9450.00000   15.58620   16.58990   16.58990   86.14670    0.01020    0.01020    1.84480   -99925.0    0.30000    0.50600   11.60810   67.63830   67.63830   67.56130   79.66850   75.05090   75.05090   11.60810   34.07550   13.71510   39.44780   27.08420   34.07550   -99925.0    0.30000    0.25600    1.84480  -86.79860   -8.33530   13.71510
 9500.00000   -99925.0   16.58220   16.58220   92.87210    0.04620    0.04620    1.83540   -99925.0    0.30000    0.51150   10.76750   74.15590   74.15590   29.86490   30.69460   29.01390   29.01390   10.76750   77.28690   11.49460   97.57740   25.94560   77.28690   -99925.0    0.24580    0.20190    1.83540  -82.49130   -4.00240   11.49460
 9550.00000   16.63550   16.59090   16.59090   90.94300    0.07990    0.07990    2.11430   -99925.0    0.30000    0.34840   10.99590   63.75260   63.75260   40.35400   41.00510   42.23490   42.23490   10.99590   45.77190   18.73220  134.96120   66.65350   45.77190   -99925.0    0.18060    0.13750    2.11430  -80.98300   -2.46860   18.73220
 9600.00000   12.86200   14.54040   14.54040   71.97710    0.14970    0.14970    2.46060   -99925.0    0.11650    0.14580   13.89330   68.94040   68.94040   73.07790   73.59230   72.89570   72.89570   13.89330   19.75990   17.90870   42.64320   45.59530   19.75990   -99925.0    0.25560    0.21170    2.46060  -84.80190   -6.26190   17.90870
 9650.00000   14.48230   14.34360   14.34360   91.26920    0.12050    0.12050    2.30680   -99925.0    0.21050    0.23580   10.95660   70.45110   70.45110   73.49560   71.29390   72.75770   72.75770   10.95660   37.06820   24.85690   43.77910   39.42650   37.06820   -99925.0    0.21960    0.17590    2.30680  -84.62670   -6.06120   24.85690
 9700.00000   13.35730   15.01950   15.01950   77.24160    0.19330    0.19330    2.39990   -99925.0    0.14970    0.18130   12.94640   64.40480   64.40480   72.36030   68.33730   75.13070   75.13070   12.94640   18.12110   15.61450   67.74060   59.30840   18.12110   -99925.0    0.23230    0.18850    2.39990  -85.42680   -6.83570   15.61450
 9750.00000   16.26340   15.23160   15.23160  132.63660    0.12490    0.12490    2.11530   -99925.0    0.25780    0.34780    7.53940   77.39880   77.39880   83.92310   80.71220   84.77640   84.77640    7.53940  129.17190   17.81930   17.34300   20.33000  129.17190   -99925.0    0.29940    0.25540    2.11530  -83.39960   -4.78290   17.81930
 9800.00000   13.96950   16.15010   16.15010  157.01050    0.11420    0.11420    2.17590   -99925.0    0.30000    0.31230    6.36900  100.33750  100.33750  106.09420   94.66320   98.18690   98.18690    6.36900   14.01490   12.68810   52.18330   42.42210   14.01490   -99925.0    0.28560    0.24160    2.17590  -83.09380   -4.45160   12.68810
 9850.00000   13.67460   14.62830   14.62830   79.84350    0.23130    0.23130    2.48130   -99925.0    0.10140    0.13370   12.52450   70.58580   70.58580   61.69540   56.06940   58.21860   58.21860   12.52450   31.52430   20.72140   64.60100   48.94960   31.52430   -99925.0    0.17910    0.13600    2.48130  -84.92280   -6.25500   20.72140
 9900.00000   12.07710   14.22400   14.22400  100.91220    0.10130    0.10130    2.37840   -99925.0    0.19060    0.19390    9.90960   66.69720   66.69720   80.11440   79.85660   70.31070   70.31070    9.90960   42.57030   26.36130   92.19000   68.39390   42.57030   -99925.0    0.18420    0.14100    2.37840  -87.42670   -8.73340   26.36130
 9950.00000   14.25610   13.94070   13.94070  128.57770    0.16540    0.16540    2.48140   -99925.0    0.30000    0.13370    7.77740   82.38370   82.38370   89.04740   80.21300   78.27540   78.27540    7.77740    9.86700   14.47780   16.38340   14.90620    9.86700   -99925.0    0.30000    0.25600    2.48140  -83.03730   -4.31840   14.47780
 10000.00000   14.92260   12.48250   12.48250  130.94830    0.10590    0.10590    2.21220   -99925.0    0.27170    0.29110    7.63660   73.52210   73.52210   62.38030   65.78190   67.02310   67.02310    7.63660   18.83160   11.64720   21.57060   15.56120   18.83160   -99925.0    0.30080    0.25680    2.21220  -83.03390   -4.28940   11.64720
 10050.00000   13.09730   12.33280   12.33280  120.93950    0.16490    0.16490    2.54290   -99925.0    0.06800    0.09770    8.26860   73.46140   73.46140   69.45840   68.77400   62.24480   62.24480    8.26860   27.91040   21.83480   46.00250   41.87970   27.91040   -99925.0    0.28040    0.23640    2.54290  -83.98520   -5.22410   21.83480
 10100.00000   14.62080   13.28080   13.28080  187.76520    0.19270    0.19270    2.46900   -99925.0    0.10850    0.14090    5.32580   75.98650   75.98650   73.84650   75.96770   72.67010   72.67010    5.32580   12.80800    9.44880    9.79900    8.81300   12.80800   -99925.0    0.30000    0.25600    2.46900  -82.26590   -3.50480    9.44880
 10150.00000   12.19660   13.21000   13.21000  128.10660    0.03130    0.03130    2.68380   -99925.0   -0.02410    0.01530    7.80600   67.49040   67.49040   64.16170   64.79300   68.03620   68.03620    7.80600   14.09870   12.47570   37.63960   29.45690   14.09870   -99925.0    0.23400    0.19020    2.68380  -83.03470   -4.27360   12.47570
 10200.00000   14.42840   16.29750   16.29750  341.60000   -0.03570   -0.03570    1.45770   -99925.0    0.30000    0.73230    2.92740  191.57870  191.57870   35.84150   38.93010   39.76720   39.76720    2.92740    4.06250   13.48840  476.39020   80.94390    4.06250   -99925.0    0.30000    0.25600    1.45770  -85.29890   -6.53780   13.48840
 10250.00000   12.14910   12.64810   12.64810   54.50040    0.01970    0.01970    2.75020   -99925.0   -0.06630   -0.02350   18.34850   60.48930   60.48930   38.60760   45.56750   38.45490   38.45490   18.34850   59.85640   23.85040  157.09870   89.15060   59.85640   -99925.0    0.06390    0.02700    2.75020  -84.19000   -5.42890   23.85040
 10300.00000   12.23760   12.49970   12.49970  106.73950    0.03500    0.03500    2.62440   -99925.0    0.01150    0.05010    9.36860   68.13940   68.13940   73.16230   87.86470   81.34360   81.34360    9.36860   19.41410   16.06550   26.65180   19.57620   19.41410   -99925.0    0.21950    0.17580    2.62440  -84.38130   -5.62020   16.06550
 10350.00000   13.06450   12.40110   12.40110   40.62080    0.21180    0.21180    2.52890   -99925.0    0.09000    0.10590   24.61790   68.08790   68.08790   73.17740   78.65010   77.72150   77.72150   24.61790   23.67180   19.42500   36.04170   29.80100   23.67180   -99925.0    0.22150    0.17780    2.52890  -87.15360   -8.39250   19.42500
