~Version ---------------------------------------------------
VERS.      2.0 : CWLS log ASCII Standard -VERSION 2.0
WRAP.       NO : One line per depth step
CREA. 06/26/13 : LAS Creation Date
~Well ------------------------------------------------------
STRT.FT                       1050.0 : START DEPTH
STOP.FT                      11200.0 : STOP DEPTH
STEP.FT                     50.00000 : STEP LENGTH
NULL.                        -999.25 : NULL VALUE
COMP.         CALIFORNIA STANDARD CO : COMPANY
WELL. CALSTAN B.A. KAYBOB 2-18-62-18 : WELL
FLD .                             WC : FIELD
LOC .                                : LOCATION
CTRY.                         CANADA : COUNTRY
SRVC.                   Schlumberger : SERVICE COMPANY
DATE.                    31-Mar-1959 : LOGDATE
PROV.                        Alberta : PROVINCE
UWI .               100021806218W500 : UNIQUE WELL ID
SLAT.WGS84                  54.35781 : SURFACE LATITUDE
SLON.WGS84                 -116.6847 : SURFACE LONGITUDE
~Curve Information -----------------------------------------
DEPT.FT            : DEPTH FEET
CILD.MMHO          : CONDUCTIVITY FROM RESISTIVITY LOG
DT  .US/F          : SONIC FROM SONIC LOG
DT1 .US/F          : SONIC FROM SONIC LOG
GRS .UG_RA-EQ/TON  : GAMMA RAY FROM SONIC LOG
ILD .OHMM          : INDUCTION DEEP FROM RESISTIVITY LOG
MCAL.IN            : CALIPER FROM MICROLOG
SN  .OHMM          : SHORT NORMAL FROM RESISTIVITY LOG
SPR .MV            : SPONTANEOUS POTENTIAL FROM RESISTIVITY LOG
~Params ----------------------------------------------------
LMF .                     KB : LOG MEASURED FROM
DMF .                     KB : DRILLING MEASURED FROM
EKB .FT                 2888 : KELLY BUSHING
EGL .FT                 2876 : GROUND LEVEL
DATE.               03/31/59 : RUN DATE
RUN .                      2 : RUN NUMBER
DD  .FT                11256 : DEPTH DRILLER
DL  .FT                11246 : DEPTH LOGGER
BLI .FT                11241 : BOTTOM LOG INTERVAL
TLI .FT                 2250 : TOP LOG INTERVAL
BS  .IN                    9 : BIT SIZE
BSD .FT                11256 : BIT SIZE AT DEPTH
DFT .               OIL EMUL : DRILLING FLUID TYPE
DFD .                   10.6 : DRILLING FLUID DENSITY
DFV .                    112 : DRILLING FLUID VISCOSITY
DFPH.                    9.5 : DRILLING FLUID PH
DFL .                    5.4 : DRILLING FLUID LOSS
RMS .OHMM                  3 : RESISTIVITY MUD SAMPLE
MST .DEGF                 64 : MUD SAMPLE TEMPERATURE
RMF .OHMM                  2 : RESISTIVITY MUD FILTRATE SAMPLE
MFST.DEGF                 77 : MUD FILTRATE SAMPLE TEMPERATURE
RMC .OHMM                3.3 : RESISTIVITY MUD CAKE
MCST.DEGF                 77 : MUD CAKE SAMPLE TEMPERATURE
RMB .OHMM               0.96 : RESISTIVITY MUD AT BHT
TCS .HRS                 7.5 : TIME CIRCULATED STOPPED
LUN .                   1573 : LOGGING UNIT NUMBER
LUL .                    W C : LOGGING UNIT LOCATION
ENGI.               SHERRIFF : RECORDING ENGINEER
WITN.                  SMITH : WITNESSED BY
CLNT.                A2DTECH : CLIENT CODE
ORIG.            2" 5" PRINT : ORIGIN OF DATA
UWI .       100021806218W500 : UNIQUE WELL ID
DICO. A2D Technologies, Inc. : DIGITIZING COMPANY
~Other -----------------------------------------------------
~ASCII -----------------------------------------------------
# ...
 9050.00000   11.16080   52.84730   52.90080    7.46000  143.68330    9.22120  105.02250  -35.80750
 9100.00000   34.17230   58.29100   58.34540    8.25540   33.23230    9.29020   41.86780  -19.90880
 9150.00000   91.14830   65.40770   65.60390    9.48960   10.38110   10.10360   14.64550  -23.45100
 9200.00000   24.16900   57.71880   57.71500    8.03500   56.89730    9.19120    -999.25  -29.25130
 9250.00000   55.94120   65.21800   65.42790    8.68900   19.18630    9.24470   30.12120  -26.09480
 9300.00000   50.96910   64.58070   64.47510    9.15390   20.97720   10.44400   26.52460  -24.07150
 9350.00000   80.30930   70.85020   71.10460   10.23090   12.09170    9.18350   20.74500  -36.22800
 9400.00000   79.62470   64.51080   61.59830    9.21210   12.37090    9.97680   16.99690  -29.12730
 9450.00000  185.93080   78.04130   78.58200    9.15890    4.63120   15.80780    6.55770  -41.09600
 9500.00000  121.32180   76.31650   76.06770   12.29650    7.51540   12.66200   11.94310  -40.26270
 9550.00000   71.64950   65.99900   66.41340    9.01720   14.04740    9.39410   20.24880  -37.26600
 9600.00000   70.07650   67.51050   67.88570    9.91010   14.49640    9.31510   19.82450  -83.89380
 9650.00000   68.79370   68.10600   68.41430    8.95370   14.75780    9.53640   21.12160 -147.18280
 9700.00000   97.13310   80.23920   79.87480   10.76660    9.71890   12.58470   13.98690 -144.33190
 9750.00000   97.61650   75.82020   76.19510    9.74610    9.77720   10.44210   13.86230 -135.44090
 9800.00000  101.08900   71.47250   71.60750    9.33610    9.23010   11.58720   14.78920 -128.88290
 9850.00000   70.99270   75.00180   75.25110    9.89610   15.91340   11.26450   29.91410 -115.75190
 9900.00000    9.80480   76.32700   78.71960   11.51130  165.52980    9.11870  173.33440 -109.45810
 9950.00000    9.59880   78.59400   78.99790   13.98180  186.27250    9.05130  196.39580 -115.78300
 10000.00000   10.65990   57.74370   57.71910    6.24990  126.21550    9.20380  105.33860 -104.00530
 10050.00000   10.91760   56.65220   56.44410    4.42830  128.28390    8.26870  103.85230 -170.75610
 10100.00000   10.56840   49.49400   49.68510    4.52190  151.20690   10.91260  206.02350 -248.74860
 10150.00000    9.84260   49.47600   49.26150    4.32480  171.33800   10.31990  200.85720 -234.46080
 10200.00000    6.85900   51.21500   51.19170    3.94280  232.46870    9.28180  223.91780 -206.53900
 10250.00000    5.97560   53.62150   53.58830    3.90180  365.12630    9.10700  258.01990 -248.66280
 10300.00000    5.06100   51.34900   51.34040    4.23070  499.48310   10.05190  284.60960 -274.39510
 10350.00000    5.00110   50.07030   50.38790    3.96900  335.11330   10.13850  248.47750 -291.57000
 10400.00000    4.97450   51.82550   51.76600    3.66930  369.42080    9.73430  239.47430 -254.12120
 10450.00000    7.25300   53.25550   53.28520    3.58230  501.47770    9.22830  205.79700 -229.54320
 10500.00000   45.12830   70.10100   69.93330   12.80480   25.13790   10.50560   86.87820 -134.13420
 10550.00000   27.32740   55.12680   55.29880    8.33210   41.69270    9.00940   52.99340 -145.18370
 10600.00000   29.31230   49.07050   48.90720    3.64950   38.84350    8.75420  101.78050 -235.22880
 10650.00000   34.90760   53.12320   52.94130    5.50670   37.00020    9.05310   67.88990 -117.31250
 10700.00000   22.90360   52.34380   52.15120    6.99080   53.91010    9.06900   72.14420 -183.06070
 10750.00000   13.30400   54.05830   54.06700    9.50320  104.60400    8.97420   96.20140 -153.39400
 10800.00000  132.66530   60.56530   60.72150   11.61230    6.57190    8.06980   35.98810 -233.29500
 10850.00000   56.03940   51.58320   51.81330    4.71160   19.14160    9.11350   58.90790 -230.60340
 10900.00000   22.22880   57.11570   57.33410   10.37410   50.08340    8.97490   60.79200  -74.63780
 10950.00000   74.81560   62.17120   62.43770   10.58820   12.96810   13.74200   16.90110  -73.13100
 11000.00000  100.01560   69.68600   69.71890   10.93290   10.57460   16.13550   17.31660  -95.46780
 11050.00000   23.03730   59.12130   59.80380    5.38540   49.41440   10.29350   38.26260  -97.83500
 11100.00000   59.77260   73.38500   73.09200    9.43620   16.29090   15.76460   19.89310 -113.08400
 11150.00000   23.54620   57.69020   57.51950    2.67270   49.85790    9.00230   56.14460 -211.47770
 11200.00000  966.54640   74.65170   74.86960    3.91560    0.94270    8.86180    8.39540 -252.66490
