~Version ---------------------------------------------------
VERS.      2.0 : CWLS log ASCII Standard -VERSION 2.0
WRAP.       NO : One line per depth step
CREA. 08/04/17 : LAS Creation Date
~Well ------------------------------------------------------
STRT.FT                          1000.0 : START DEPTH
STOP.FT                          9750.0 : STOP DEPTH
STEP.FT                        50.00000 : STEP LENGTH
NULL.                           -999.25 : NULL VALUE
COMP.       BRITISH AMERICAN OIL CO LTD : COMPANY
WELL. B. A. ET AL SAKWATAMAU 2-32-64-14 : WELL
FLD .                                   : FIELD
LOC .                                   : LOCATION
CTRY.                            CANADA : COUNTRY
SRVC.                        Lane Wells : SERVICE COMPANY
DATE.                       03-Apr-1966 : LOGDATE
PROV.                           Alberta : PROVINCE
UWI .                  100023206414W500 : UNIQUE WELL ID
SLAT.WGS84                     54.57622 : SURFACE LATITUDE
SLON.WGS84                    -116.0764 : SURFACE LONGITUDE
~Curve Information -----------------------------------------
DEPT  .FT    : Depth Curve
AC1ED .US/F  : DELTA T 1' SPACING FROM SONIC LOG
ACED  .US/F  : DELTA T 3' SPACING FROM SONIC LOG
CALWS .IN    : CALIPER [MCALED]
CILDED.MMHO  : CONDUCTIVITY FROM RESISTIVITY LOG
CONDWS.MMHO  : CONDUCTIVITY [1000/DRESWS]
DRESWS.OHMM  : DEEP RESISTIVITY [ILDED]
DTWS  .US/F  : COMPRESSIONAL SONIC [ACED SPL. TO AC1ED @4950.772'
GRSED .GAPI  : GAMMA RAY FROM SONIC LOG
GRWS  .GAPI  : GAMMA RAY [GRSED]
ILDED .OHMM  : DEEP INDUCTION FROM RESISTIVITY LOG
MCALED.IN    : MLT  CALIPER FROM ML LOG
SNED  .OHMM  : SHORT NORMAL FROM RESISTIVITY LOG
SPRED .MV    : SPONTANEOUS POTENTIAL FROM RESISTIVITY LOG
SPWS  .MV    : SPONTANEOUS POTENTIAL [BASELINE 0 MV, SPRED]
SRESWS.OHMM  : SHALLOW RESISTIVITY [SNED]
~Params ----------------------------------------------------
PD  .                     GL : PERMANENT DATUM
EPD .FT               3517.7 : ELEVATION PERMANENT DATUM
LMF .                     KB : LOG MEASURED FROM
DAPD.FT                 13.6 : FEET ABOVE PERMANENT DATUM
DMF .                     KB : DRILLING MEASURED FROM
EKB .FT               3531.3 : KELLY BUSHING
EGL .FT               3517.7 : GROUND LEVEL
DATE.               04/03/66 : RUN DATE
RUN .                      1 : RUN NUMBER
DD  .FT                 9767 : DEPTH DRILLER
DL  .FT                 9765 : DEPTH LOGGER
BLI .FT                 9761 : BOTTOM LOG INTERVAL
TLI .FT                  993 : TOP LOG INTERVAL
CS  .IN                9.625 : CASING SIZE
CBD .FT                  991 : CASING BOTTOM DRILLER
CBL .FT                  993 : CASING BOTTOM LOGGER
BS  .IN                 8.75 : BIT SIZE
BSD .FT                 9767 : BIT SIZE AT DEPTH
DFT .           MUD GEL CHEM : DRILLING FLUID TYPE
DFD .                   10.1 : DRILLING FLUID DENSITY
DFV .                    130 : DRILLING FLUID VISCOSITY
DFPH.                    9.5 : DRILLING FLUID PH
DFL .                      9 : DRILLING FLUID LOSS
MSS .                   CIRC : MUD SAMPLE SOURCE
RMS .OHMM                  2 : RESISTIVITY MUD SAMPLE
MST .DEGF                 60 : MUD SAMPLE TEMPERATURE
RMF .OHMM                1.6 : RESISTIVITY MUD FILTRATE SAMPLE
MFST.DEGF                 70 : MUD FILTRATE SAMPLE TEMPERATURE
RMC .OHMM                2.2 : RESISTIVITY MUD CAKE
MCST.DEGF                 70 : MUD CAKE SAMPLE TEMPERATURE
MFSS.                   MEAS : MUD FILTRATE SAMPLE SOURCE
MCSS.                   MEAS : MUD CAKE SAMPLE SOURCE
RMB .OHMM               0.71 : RESISTIVITY MUD AT BHT
TCS .HRS                   4 : TIME CIRCULATED STOPPED
LUN .                   8038 : LOGGING UNIT NUMBER
LUL .                     SL : LOGGING UNIT LOCATION
ENGI.                   COLE : RECORDING ENGINEER
WITN.              DAAE LOCK : WITNESSED BY
CLNT.                A2DTECH : CLIENT CODE
ORIG.            2" 5" PRINT : ORIGIN OF DATA
UWI .       100023206414W500 : UNIQUE WELL ID
DICO. A2D Technologies, Inc. : DIGITIZING COMPANY
~Other -----------------------------------------------------
~ASCII -----------------------------------------------------
# ...
 3300.00000    -999.25  102.71420   12.67570  202.26640  177.33870    5.63890  102.71420   57.83170   57.83170    5.63890   12.67570    6.60150  -59.12740   -2.60800    6.60150
 3350.00000    -999.25  105.45830   14.92390  200.66700  177.08830    5.64690  105.45830   52.39640   52.39640    5.64690   14.92390    6.55380  -62.51520   -5.48820    6.55380
 3400.00000    -999.25  100.44350   13.72370  197.81020  169.43230    5.90210  100.44350   55.31450   55.31450    5.90210   13.72370    6.72160  -61.35530   -3.82400    6.72160
 3450.00000    -999.25  113.77720   14.31820  254.64520  205.05250    4.87680  113.77720   72.48250   72.48250    4.87680   14.31820    5.80920  -61.62300   -3.58420    5.80920
 3500.00000    -999.25   98.04240   14.18040  167.14490  145.87680    6.85510   98.04240   80.02790   80.02790    6.85510   14.18040    9.40580  -63.78780   -5.53000    9.40580
 3550.00000    -999.25  103.58260   14.24730  206.91450  172.43930    5.79920  103.58260   80.75440   80.75440    5.79920   14.24730    6.93750  -65.86460   -7.60680    6.93750
 3600.00000    -999.25   96.51000   14.66390  186.61850  161.37620    6.19670   96.51000   70.59870   70.59870    6.19670   14.66390    7.08960  -66.28170   -8.02390    7.08960
 3650.00000    -999.25   94.43740   14.36990  197.87270  171.42810    5.83330   94.43740   71.81600   71.81600    5.83330   14.36990    6.33460  -66.94610   -8.68830    6.33460
 3700.00000    -999.25   98.03210   14.99610  218.16610  185.07890    5.40310   98.03210   71.00870   71.00870    5.40310   14.99610    5.83970  -66.35840   -8.10060    5.83970
 3750.00000    -999.25   89.25770   14.92120  159.82190  140.16790    7.13430   89.25770   71.60200   71.60200    7.13430   14.92120    8.13240  -66.63150   -8.37370    8.13240
 3800.00000    -999.25   93.45540   14.60980  182.77080  160.89070    6.21540   93.45540   71.18150   71.18150    6.21540   14.60980    6.62120  -67.81860   -9.56080    6.62120
 3850.00000    -999.25   89.41800   14.74970  145.60120  128.10170    7.80630   89.41800   67.45470   67.45470    7.80630   14.74970    8.30480  -69.16130  -10.90350    8.30480
 3900.00000    -999.25   90.95510   14.10520  191.56560  172.40100    5.80050   90.95510   72.45700   72.45700    5.80050   14.10520    6.54500  -65.71080   -7.45300    6.54500
 3950.00000    -999.25   83.66490   15.07010  151.21970  134.57320    7.43090   83.66490   61.20020   61.20020    7.43090   15.07010    6.80390  -67.64400   -9.38620    6.80390
 4000.00000    -999.25  103.95030   14.85400  177.03260  146.19460    6.84020  103.95030   53.67430   53.67430    6.84020   14.85400    6.28050  -66.25170   -7.99390    6.28050
 4050.00000    -999.25  102.66640   13.75650  188.36450  166.66430    6.00010  102.66640   61.39380   61.39380    6.00010   13.75650    5.54590  -66.15040   -7.89260    5.54590
 4100.00000    -999.25   88.42490   13.51030  143.71380  125.34780    7.97780   88.42490   63.62430   63.62430    7.97780   13.51030    6.90020  -65.26570   -7.00790    6.90020
 4150.00000    -999.25  107.73260   13.49830  186.59970  164.38080    6.08350  107.73260   65.32590   65.32590    6.08350   13.49830    6.21550  -62.43100   -4.17320    6.21550
 4200.00000    -999.25  105.97100   12.18780  184.41070  163.72510    6.10780  105.97100   72.73420   72.73420    6.10780   12.18780    6.46710  -60.98250   -2.72470    6.46710
 4250.00000    -999.25   97.07080   10.94320  174.44210  153.40950    6.51850   97.07080   72.38650   72.38650    6.51850   10.94320    7.60410  -60.95660   -2.69880    7.60410
 4300.00000    -999.25  103.63220    9.87700  177.04050  156.59030    6.38610  103.63220   87.77820   87.77820    6.38610    9.87700    7.86260  -60.91730   -2.65950    7.86260
 4350.00000    -999.25  103.44940   10.15040  153.67980  135.86400    7.36030  103.44940   98.59120   98.59120    7.36030   10.15040   10.39490  -61.55410   -3.29630   10.39490
 4400.00000    -999.25   91.90740   10.98390  182.67830  166.25560    6.01540   91.90740   67.77630   67.77630    6.01540   10.98390    6.71940  -62.71590   -4.77600    6.71940
 4450.00000    -999.25   89.48480   11.11150  216.38090  188.03350    5.31820   89.48480   63.13810   63.13810    5.31820   11.11150    5.11510  -62.70950   -5.51780    5.11510
 4500.00000    -999.25   90.57630   11.02840  191.88900  170.61930    5.86100   90.57630   71.77570   71.77570    5.86100   11.02840    6.44180  -65.41650   -8.96810    6.44180
 4550.00000    -999.25   85.75080   11.10810  246.51420  220.78010    4.52950   85.75080   65.38370   65.38370    4.52950   11.10810    5.21390  -63.82340   -8.11830    5.21390
 4600.00000    -999.25   86.96730   11.35070  210.18750  183.27770    5.45620   86.96730   70.47620   70.47620    5.45620   11.35070    5.87610  -64.76860   -9.81170    5.87610
 4650.00000    -999.25   91.72110   11.96440  294.52920  269.50060    3.71060   91.72110   75.11400   75.11400    3.71060   11.96440    4.18840  -61.11880   -6.90530    4.18840
 4700.00000    -999.25   91.07510   12.05250  267.89580  238.91440    4.18560   91.07510   75.90890   75.90890    4.18560   12.05250    4.44500  -59.24480   -5.77950    4.44500
 4750.00000    -999.25   91.37210   12.06010  223.57980  195.13720    5.12460   91.37210   77.57980   77.57980    5.12460   12.06010    5.53030  -57.54830   -4.82630    5.53030
 4800.00000    -999.25  100.06140   11.50120  354.83770  282.59960    3.53930  100.06140  206.21920  206.21920    3.53930   11.50120    3.86050  -56.32810   -4.34940    3.86050
 4850.00000    -999.25  109.50940   12.69730  536.60270  384.18690    2.60290  109.50940   70.80450   70.80450    2.60290   12.69730    2.15430  -54.20200   -2.97150    2.15430
 4900.00000    -999.25   93.74350   12.38880  351.11130  282.12730    3.54450   93.74350   63.94450   63.94450    3.54450   12.38880    3.22700  -53.86030   -3.37310    3.22700
 4950.00000    -999.25    -999.25   12.67660  306.91120  282.43000    3.54070   94.42980   55.83660   55.83660    3.54070   12.67660    4.01030  -51.64450   -1.90550    4.01030
 5000.00000   80.45610    -999.25   11.02630  172.20350  159.86190    6.25540   80.45610   68.94530   68.94530    6.25540   11.02630    6.80320  -61.34370  -12.47530    6.80320
 5050.00000  156.35340    -999.25   13.02210  243.73500  204.52390    4.89140  156.35340   56.02510   56.02510    4.89140   13.02210    5.25100  -56.24860   -8.25500    5.25100
 5100.00000   70.72900    -999.25   10.78630  189.03560  170.26200    5.87330   70.72900   48.58340   48.58340    5.87330   10.78630    7.53960  -63.24930  -16.13630    7.53960
 5150.00000   83.92090    -999.25   11.20160  161.09200  161.19460    6.20390   83.92090   35.74860   35.74860    6.20390   11.20160    6.91170  -60.39380  -14.15560    6.91170
 5200.00000  134.81000    -999.25   10.84580  140.54930  127.26860    7.85740  134.81000   46.08680   46.08680    7.85740   10.84580    9.69240  -57.40080  -12.04320    9.69240
 5250.00000   80.20700    -999.25    8.96430   82.41640   77.96240   12.82670   80.20700   35.98910   35.98910   12.82670    8.96430   20.51450 -114.02800  -69.54530   20.51450
 5300.00000   82.20430    -999.25   10.22520  147.11680  135.69890    7.36930   82.20430   49.21710   49.21710    7.36930   10.22520   10.14330  -75.25230  -31.64440   10.14330
 5350.00000  127.91560    -999.25   11.00520   23.54450   13.19110   75.80880  127.91560   22.70850   22.70850   75.80880   11.00520   25.58980  -71.17820  -28.45090   25.58980
 5400.00000   90.40970    -999.25   11.16790  146.15750  134.61950    7.42840   90.40970   61.69810   61.69810    7.42840   11.16790   10.00970  -58.76240  -16.91000   10.00970
 5450.00000   77.65400    -999.25   11.34470  163.58600  150.47550    6.64560   77.65400   59.06560   59.06560    6.64560   11.34470    7.35080  -54.92200  -13.95020    7.35080
 5500.00000   82.51950    -999.25    9.27000  178.93900  160.71230    6.22230   82.51950   47.01120   47.01120    6.22230    9.27000   17.09750 -129.39660  -89.29960   17.09750
 5550.00000  100.95350    -999.25   11.28580  228.14950  206.08720    4.85240  100.95350   60.57300   60.57300    4.85240   11.28580    5.36270  -50.76830  -11.54610    5.36270
