~Version ---------------------------------------------------
VERS.      2.0 : CWLS log ASCII Standard -VERSION 2.0
WRAP.       NO : One line per depth step
CREA. 10/26/17 : LAS Creation Date
~Well ------------------------------------------------------
STRT.FT                          1100.0 : START DEPTH
STOP.FT                         10150.0 : STOP DEPTH
STEP.FT                        50.00000 : STEP LENGTH
NULL.                           -999.25 : NULL VALUE
COMP.              CHEVRON STANDARD LTD : COMPANY
WELL. CHEVRON GULF FOX CREEK 7-14-62-18 : WELL
FLD .                         FOX CREEK : FIELD
LOC .                                   : LOCATION
CTRY.                            CANADA : COUNTRY
SRVC.                      Schlumberger : SERVICE COMPANY
DATE.                       09-Dec-1976 : LOGDATE
PROV.                           Alberta : PROVINCE
UWI .                  100071406218W500 : UNIQUE WELL ID
SLAT.WGS84                     54.36034 : SURFACE LATITUDE
SLON.WGS84                    -116.5836 : SURFACE LONGITUDE
~Curve Information -----------------------------------------
DEPT    .FT    : Depth Curve
CALDED  .IN    : CALIPER FROM DENSITY LOG [ADJ. TO RESISTIVITY LOG]
CALSED  .IN    : CALIPER FROM SONIC LOG [ADJ. TO RESISTIVITY LOG]
CALWS   .IN    : CALIPER [CALSED]
CONDWS  .MMHO  : CONDUCTIVITY [1000/DRESWS]
DCORWS  .G/C3  : DENSITY CORRECTION [DRHOED]
DENWS   .G/C3  : FORMATION BULK DENSITY [CALC. FROM DPOLSWS M=2.71, F=1.00]
DPHILSED.V/V   : DENSITY POROSITY LIMESTONE [M=2.71, F=1.00] FROM DENSITY LOG [ADJ. TO RESISTIVITY LOG]
DPHISSED.V/V   : DENSITY POROSITY SANDSTONE [M=2.65, F=1.00] FROM DENSITY LOG [ADJ. TO RESISTIVITY LOG]
DPOLSWS .V/V   : DENSITY POROSITY LIMESTONE [DPHISSED CONVERTED TO LIMESTONE MATRIX, M=2.71, F=1.00, SPL. TO DPHILSED @ 9636']
DRESWS  .OHMM  : DEEP RESISTIVITY [ILDED]
DRHOED  .G/C3  : DENSITY CORRECTION FROM DENSITY LOG [ADJ. TO RESISTIVITY LOG/DPHISSED/DPHILSED]
DTED    .US/F  : DELTA TIME FROM SONIC LOG [ADJ. TO RESISTIVITY LOG]
DTWS    .US/F  : COMPRESSIONAL SONIC [DTED]
GRDED   .GAPI  : GAMMA RAY FROM DENSITY LOG [ADJ. TO RESISTIVITY LOG]
GRSED   .GAPI  : GAMMA RAY FROM SONIC LOG [ADJ. TO RESISTIVITY LOG]
GRWS    .GAPI  : GAMMA RAY [GRSED]
ILDED   .OHMM  : DEEP INDUCTION FROM RESISTIVITY LOG
ILMED   .OHMM  : MEDIUM INDUCTION FROM RESISTIVITY LOG
LL8ED   .OHMM  : 8 INCH LATEROLOG FROM RESISTIVITY LOG
MRESWS  .OHMM  : MEDIUM RESISTIVITY [ILMED]
NPHILSED.V/V   : NEUTRON POROSITY LIMESTONE FROM DENSITY LOG [ADJ. TO RESISTIVITY LOG]
NPHISSED.V/V   : NEUTRON POROSITY SANDSTONE FROM DENSITY LOG [ADJ. TO RESISTIVITY LOG]
NPOLSWS .V/V   : NEUTRON POROSITY LIMESTONE [NPHISSED MATRIX CONVERSION FOR LIMESTONE FROM SCHLUMBERGER (CNL), SPL. TO NPHILSED @ 9636']
RHOBED  .G/C3  : BULK DENSITY FROM DENSITY LOG [ADJ. TO RESISTIVITY LOG/DPHISSED/DPHILSED]
SPRED   .MV    : SPONTANEOUS POTENTIAL FROM RESISTIVITY LOG
SPWS    .MV    : SPONTANEOUS POTENTIAL [BASELINE 0 MV, SPRED]
SRESWS  .OHMM  : SHALLOW RESISTIVITY [LL8ED]
TENDED  .LBF   : TENSION FROM DENSITY LOG [ADJ. TO RESISTIVITY LOG]
TENSED  .LBF   : TENSION FROM SONIC LOG [ADJ. TO RESISTIVITY LOG]
~Params ----------------------------------------------------
PD  .                     GL : PERMANENT DATUM
EPD .FT               2939.3 : ELEVATION PERMANENT DATUM
LMF .                     KB : LOG MEASURED FROM
DAPD.FT                 14.7 : FEET ABOVE PERMANENT DATUM
EKB .FT                 2954 : KELLY BUSHING
EDF .FT                 2939 : DRILLING FLOOR
DATE.               12/09/76 : RUN DATE
RUN .                      1 : RUN NUMBER
DD  .FT                10196 : DEPTH DRILLER
DL  .FT                10201 : DEPTH LOGGER
BLI .FT                10195 : BOTTOM LOG INTERVAL
TLI .FT                 1133 : TOP LOG INTERVAL
CBD .FT                 1131 : CASING BOTTOM DRILLER
CBL .FT                 1133 : CASING BOTTOM LOGGER
BS  .IN                 8.75 : BIT SIZE
BSD .FT                10196 : BIT SIZE AT DEPTH
DFT .               GEL CHEM : DRILLING FLUID TYPE
DFD .                    8.9 : DRILLING FLUID DENSITY
DFV .                     84 : DRILLING FLUID VISCOSITY
DFPH.                   10.5 : DRILLING FLUID PH
DFL .                      9 : DRILLING FLUID LOSS
MSS .               FLOWLINE : MUD SAMPLE SOURCE
RMS .OHMM               2.18 : RESISTIVITY MUD SAMPLE
MST .DEGF                 95 : MUD SAMPLE TEMPERATURE
RMF .OHMM               2.63 : RESISTIVITY MUD FILTRATE SAMPLE
MFST.DEGF                 66 : MUD FILTRATE SAMPLE TEMPERATURE
RMC .OHMM               2.34 : RESISTIVITY MUD CAKE
MCST.DEGF                 56 : MUD CAKE SAMPLE TEMPERATURE
TCS .HRS                 6.5 : TIME CIRCULATED STOPPED
LUN .                   7691 : LOGGING UNIT NUMBER
LUL .                    WCT : LOGGING UNIT LOCATION
ENGI.                  LEGEE : RECORDING ENGINEER
WITN.             RICHARDSON : WITNESSED BY
CLNT.                A2DTECH : CLIENT CODE
ORIG.            2" 5" PRINT : ORIGIN OF DATA
UWI .       100071406218W500 : UNIQUE WELL ID
DICO. A2D Technologies, Inc. : DIGITIZING COMPANY
~Other -----------------------------------------------------
~ASCII -----------------------------------------------------
# ...
 7350.00000    -999.25    9.08150    9.08150    8.24260    -999.25    -999.25    -999.25    -999.25    -999.25  121.32140    -999.25   55.91270   55.91270    -999.25   13.67010   13.67010  121.32140  206.79090  978.15940  206.79090    -999.25    -999.25    -999.25    -999.25   77.11000  -50.88250  978.15940    -999.25 1970.28970
 7400.00000    -999.25    9.19470    9.19470   31.20190    -999.25    -999.25    -999.25    -999.25    -999.25   32.04950    -999.25   56.32730   56.32730    -999.25   38.47700   38.47700   32.04950   37.62180   73.42820   37.62180    -999.25    -999.25    -999.25    -999.25   98.31640  -32.67000   73.42820    -999.25 1827.87210
 7450.00000    -999.25    9.25220    9.25220   21.27640    -999.25    -999.25    -999.25    -999.25    -999.25   47.00040    -999.25   53.71410   53.71410    -999.25   40.88200   40.88200   47.00040   56.74420  119.13270   56.74420    -999.25    -999.25    -999.25    -999.25  105.87730  -28.12280  119.13270    -999.25 1793.94790
 7500.00000    -999.25    9.09290    9.09290    7.80610    -999.25    -999.25    -999.25    -999.25    -999.25  128.10530    -999.25   51.54630   51.54630    -999.25   35.74250   35.74250  128.10530  171.12810  364.00420  171.12810    -999.25    -999.25    -999.25    -999.25   98.50140  -38.49270  364.00420    -999.25 1767.46300
 7550.00000    -999.25    9.07530    9.07530    7.99360    -999.25    -999.25    -999.25    -999.25    -999.25  125.10020    -999.25   52.46670   52.46670    -999.25   41.49200   41.49200  125.10020  155.34630  297.72870  155.34630    -999.25    -999.25    -999.25    -999.25   80.58800  -59.40000  297.72870    -999.25 1642.91340
 7600.00000    -999.25    9.02130    9.02130    2.84360    -999.25    -999.25    -999.25    -999.25    -999.25  351.66850    -999.25   50.84240   50.84240    -999.25   31.11470   31.11470  351.66850  547.28110 1470.68230  547.28110    -999.25    -999.25    -999.25    -999.25   61.66090  -81.34080 1470.68230    -999.25 1612.74410
 7650.00000    -999.25    9.14620    9.14620   12.52080    -999.25    -999.25    -999.25    -999.25    -999.25   79.99310    -999.25   56.63480   56.63480    -999.25   88.81450   88.81450   79.99310   99.65280  214.72220   99.65280    -999.25    -999.25    -999.25    -999.25  123.86150  -22.13420  214.72220    -999.25 1718.36430
 7700.00000    -999.25    9.22050    9.22050    6.03710    -999.25    -999.25    -999.25    -999.25    -999.25  165.64290    -999.25   64.37250   64.37250    -999.25  101.31610  101.31610  165.64290  225.51100  335.97840  225.51100    -999.25    -999.25    -999.25    -999.25   97.02330  -51.98600  335.97840    -999.25 1613.88830
 7750.00000    -999.25    9.19160    9.19160   43.89300    -999.25    -999.25    -999.25    -999.25    -999.25   22.78270    -999.25   72.66090   72.66090    -999.25  297.80460  297.80460   22.78270   32.93990   82.23980   32.93990    -999.25    -999.25    -999.25    -999.25  145.34180   -4.45180   82.23980    -999.25 1486.41890
 7800.00000    -999.25    9.18560    9.18560    1.73780    -999.25    -999.25    -999.25    -999.25    -999.25  575.72890    -999.25   48.53200   48.53200    -999.25   22.67890   22.67890  575.72890 1390.81720 1465.03950 1390.81720    -999.25    -999.25    -999.25    -999.25   61.10000  -86.28930 1465.03950    -999.25 1848.44040
 7850.00000    -999.25    9.23570    9.23570    3.37660    -999.25    -999.25    -999.25    -999.25    -999.25  296.15820    -999.25   49.39480   49.39480    -999.25   22.21570   22.21570  296.15820  394.64220  623.75040  394.64220    -999.25    -999.25    -999.25    -999.25   52.37530  -92.59380  623.75040    -999.25 1704.83460
 7900.00000    -999.25    9.53950    9.53950    3.74000    -999.25    -999.25    -999.25    -999.25    -999.25  267.81840    -999.25   49.39800   49.39800    -999.25   18.65100   18.65100  267.81840  286.37890  435.15210  286.37890    -999.25    -999.25    -999.25    -999.25   26.24590 -116.31890  435.15210    -999.25 1726.83690
 7950.00000    -999.25    9.51730    9.51730    6.71750    -999.25    -999.25    -999.25    -999.25    -999.25  148.86430    -999.25   50.59180   50.59180    -999.25   11.45610   11.45610  148.86430  137.08530  173.78510  137.08530    -999.25    -999.25    -999.25    -999.25   11.04560 -129.09900  173.78510    -999.25 1572.69820
 8000.00000    -999.25    9.52130    9.52130    1.94590    -999.25    -999.25    -999.25    -999.25    -999.25  513.89400    -999.25   51.58070   51.58070    -999.25   13.00890   13.00890  513.89400  302.82430  597.25530  302.82430    -999.25    -999.25    -999.25    -999.25    1.02550 -136.71480  597.25530    -999.25 1531.71730
 8050.00000    -999.25    9.45370    9.45370    2.32870    -999.25    -999.25    -999.25    -999.25    -999.25  429.43520    -999.25   49.29140   49.29140    -999.25   13.04660   13.04660  429.43520  189.03980 1109.15230  189.03980    -999.25    -999.25    -999.25    -999.25  -33.92060 -169.25650 1109.15230    -999.25 1473.21360
 8100.00000    -999.25    9.57480    9.57480    6.18410    -999.25    -999.25    -999.25    -999.25    -999.25  161.70610    -999.25   49.62730   49.62730    -999.25   12.29950   12.29950  161.70610  185.99290  299.00320  185.99290    -999.25    -999.25    -999.25    -999.25  -34.19170 -167.10750  299.00320    -999.25 1793.35770
 8150.00000    -999.25    9.62650    9.62650    8.28970    -999.25    -999.25    -999.25    -999.25    -999.25  121.19760    -999.25   49.29680   49.29680    -999.25   16.57250   16.57250  121.19760  122.50860  212.06290  122.50860    -999.25    -999.25    -999.25    -999.25  -33.09110 -163.60260  212.06290    -999.25 1722.83200
 8200.00000    -999.25    9.63430    9.63430    2.59590    -999.25    -999.25    -999.25    -999.25    -999.25  385.22400    -999.25   49.26010   49.26010    -999.25   13.91920   13.91920  385.22400 1290.83110 1480.00780 1290.83110    -999.25    -999.25    -999.25    -999.25  -49.91850 -178.00980 1480.00780    -999.25 1656.87610
 8250.00000    -999.25    9.30950    9.30950    5.44220    -999.25    -999.25    -999.25    -999.25    -999.25  183.74980    -999.25   50.04090   50.04090    -999.25   14.83820   14.83820  183.74980  192.56620  345.54920  192.56620    -999.25    -999.25    -999.25    -999.25  -50.51400 -176.20090  345.54920    -999.25 1594.25330
 8300.00000    -999.25    9.53010    9.53010    3.96640    -999.25    -999.25    -999.25    -999.25    -999.25  252.51300    -999.25   52.50280   52.50280    -999.25   13.33290   13.33290  252.51300  190.19230  288.57980  190.19230    -999.25    -999.25    -999.25    -999.25  -66.72780 -190.01040  288.57980    -999.25 1682.82610
 8350.00000    -999.25    9.57910    9.57910    4.44000    -999.25    -999.25    -999.25    -999.25    -999.25  225.22720    -999.25   50.77160   50.77160    -999.25   18.98850   18.98850  225.22720  197.49820  249.22760  197.49820    -999.25    -999.25    -999.25    -999.25  -67.11590 -187.97830  249.22760    -999.25 1637.73510
 8400.00000    -999.25   10.14400   10.14400    1.85080    -999.25    -999.25    -999.25    -999.25    -999.25  542.11750    -999.25   52.40510   52.40510    -999.25   12.37740   12.37740  542.11750  240.48760  391.41880  240.48760    -999.25    -999.25    -999.25    -999.25  -65.96220 -184.42030  391.41880    -999.25 2302.79000
 8450.00000    -999.25    9.34130    9.34130    2.82450    -999.25    -999.25    -999.25    -999.25    -999.25  354.04910    -999.25   50.64310   50.64310    -999.25   14.73980   14.73980  354.04910  225.48740  207.13110  225.48740    -999.25    -999.25    -999.25    -999.25  -84.26730 -200.30520  207.13110    -999.25 2275.16390
 8500.00000    -999.25    9.20720    9.20720   77.98610    -999.25    -999.25    -999.25    -999.25    -999.25   12.82280    -999.25   57.12600   57.12600    -999.25   84.20660   84.20660   12.82280   13.46420   21.13860   13.46420    -999.25    -999.25    -999.25    -999.25   19.15740  -94.47620   21.13860    -999.25 2219.63290
 8550.00000    -999.25    8.97000    8.97000    2.32200    -999.25    -999.25    -999.25    -999.25    -999.25  431.66130    -999.25   47.45080   47.45080    -999.25   14.55260   14.55260  431.66130 1089.21060 1462.80320 1089.21060    -999.25    -999.25    -999.25    -999.25  -54.36020 -165.58940 1462.80320    -999.25 2204.78220
