~Version ---------------------------------------------------
VERS.      2.0 : CWLS log ASCII Standard -VERSION 2.0
WRAP.       NO : One line per depth step
CREA. 08/31/17 : LAS Creation Date
~Well ------------------------------------------------------
STRT.FT                          1500.0 : START DEPTH
STOP.FT                         11900.0 : STOP DEPTH
STEP.FT                        50.00000 : STEP LENGTH
NULL.                           -999.25 : NULL VALUE
COMP.  AMOCO CANADA PETROLEUM CO., LTD. : COMPANY
WELL. AMOCO HB FINA FIR S-I  7-26-59-20 : WELL
FLD .                                   : FIELD
LOC .                                   : LOCATION
CTRY.                            CANADA : COUNTRY
SRVC.            Schlumberger of Canada : SERVICE COMPANY
DATE.                       07-Jan-1978 : LOGDATE
PROV.                           Alberta : PROVINCE
UWI .                  100072605920W500 : UNIQUE WELL ID
SLAT.WGS84                     54.12779 : SURFACE LATITUDE
SLON.WGS84                    -116.8825 : SURFACE LONGITUDE
~Curve Information -----------------------------------------
DEPT    .FT    : Depth Curve
CALDED  .IN    : CALIPER FROM CNFD LOG
CALSED  .IN    : CALIPER FROM BCS LOG [ADJ. TO GRDED]
CALWS   .IN    : CALIPER [CALSED]
CONDWS  .MMHO  : CONDUCTIVITY [1000/DRESWS]
DCORED  .G/C3  : DENSITY CORRECTION FROM CNFD LOG
DCORWS  .G/C3  : DENSITY CORRECTION [DCORED]
DENWS   .G/C3  : FORMATION BULK DENSITY [RHOBED]
DPHILSED.V/V   : DENSITY POROSITY LIMESTONE [M=2.71, F=1.0] FROM CNFD LOG [ADJ. TO RHOBED]
DPHISSED.V/V   : DENSITY POROSITY SANDSTONE [M=2.65, F=1.0] FROM CNFD LOG [ADJ. TO RHOBED]
DPOLSWS .V/V   : DENSITY POROSITY LIMESTONE [CALCULATED FROM DENWS, M=2.71, F=1.0]
DRESWS  .OHMM  : DEEP RESISTIVITY [ILDED]
DTED    .US/F  : ACOUSTIC TRANSIT TIME SLOWNESS, DELTA T FROM BCS LOG [ADJ. TO GRDED]
DTWS    .US/F  : COMPRESSIONAL SONIC [DTED]
GRDED   .GAPI  : GAMMA RAY FROM CNFD LOG
GRSED   .GAPI  : GAMMA RAY FROM BCS LOG [ADJ. TO GRDED]
GRWS    .GAPI  : GAMMA RAY [GRSED]
ILDED   .OHMM  : DEEP INDUCTION FROM DILL LOG
ILMED   .OHMM  : MEDIUM INDUCTION FROM DILL LOG
LL8ED   .OHMM  : LATEROLOG RESISTIVITY FROM DILL LOG
MRESWS  .OHMM  : MEDIUM RESISTIVITY [ILMED]
NPHILSED.V/V   : NEUTRON POROSITY LIMESTONE FROM CNFD LOG [ADJ. TO RHOBED]
NPHISSED.V/V   : NEUTRON POROSITY SANDSTONE FROM CNFD LOG [ADJ. TO RHOBED]
NPOLSWS .V/V   : NEUTRON POROSITY LIMESTONE [NPHISSED CONVERTED TO LIMESTONE MATRIX, SPL. TO NPHILSED @ 2468.27M]
RHOBED  .G/C3  : HRDD HIGH RESOLUTION FORMATION DENSITY FROM CNFD LOG
SPRED   .MV    : SPONTANEOUS POTENTIAL FROM DILL LOG
SRESWS  .OHMM  : SHALLOW RESISTIVITY [LL8ED]
~Params ----------------------------------------------------
PD  .                     GL : PERMANENT DATUM
EPD .FT              3289.04 : ELEVATION PERMANENT DATUM
LMF .                     KB : LOG MEASURED FROM
DAPD.FT                 21.2 : FEET ABOVE PERMANENT DATUM
EKB .FT              3310.24 : KELLY BUSHING
EGL .FT              3289.04 : GROUND LEVEL
DATE.               01/07/78 : RUN DATE
RUN .                      1 : RUN NUMBER
DD  .FT                11910 : DEPTH DRILLER
DL  .FT                11919 : DEPTH LOGGER
BLI .FT                11913 : BOTTOM LOG INTERVAL
TLI .FT                 1534 : TOP LOG INTERVAL
CBD .FT                 1534 : CASING BOTTOM DRILLER
CBL .FT                 1534 : CASING BOTTOM LOGGER
BS  .IN                 8.75 : BIT SIZE
BSD .FT                11910 : BIT SIZE AT DEPTH
DFT .                    GEL : DRILLING FLUID TYPE
DFD .                    9.5 : DRILLING FLUID DENSITY
DFV .                    105 : DRILLING FLUID VISCOSITY
DFPH.                    9.5 : DRILLING FLUID PH
DFL .                    9.0 : DRILLING FLUID LOSS
MSS .               FLOWLINE : MUD SAMPLE SOURCE
RMS .OHMM               1.78 : RESISTIVITY MUD SAMPLE
MST .DEGF                 85 : MUD SAMPLE TEMPERATURE
RMF .OHMM               1.74 : RESISTIVITY MUD FILTRATE SAMPLE
MFST.DEGF                 54 : MUD FILTRATE SAMPLE TEMPERATURE
TCS .HRS                   5 : TIME CIRCULATED STOPPED
LUN .                   7730 : LOGGING UNIT NUMBER
LUL .                    EDM : LOGGING UNIT LOCATION
ENGI.   ACKERMAN STEENBERGEN : RECORDING ENGINEER
CLNT.                A2DTECH : CLIENT CODE
ORIG.            2" 5" PRINT : ORIGIN OF DATA
UWI .       100072605920W500 : UNIQUE WELL ID
DICO. A2D Technologies, Inc. : DIGITIZING COMPANY
~Other -----------------------------------------------------
~ASCII -----------------------------------------------------
# ...
 2850.00000   11.70340   10.68440   10.68440  135.61340    0.16050    0.16050    1.79640    -999.25    0.47470    0.53430    7.37390  112.82970  112.82970   60.33500   80.40270   80.40270    6.40780    6.40780   10.68070    6.40780    -999.25    0.61470    0.57300    1.79640 -118.66920   10.68070
 2900.00000   10.40650   10.30310   10.30310  227.95140    0.23660    0.23660    2.39170    -999.25    0.16170    0.18610    4.40370   97.22280   97.22280   84.02480  105.62830  105.62830    4.15740    4.15740    4.80620    4.15740    -999.25    0.34570    0.30200    2.39170 -118.87350    4.80620
 2950.00000   10.85220   10.06660   10.06660  424.59240    0.18520    0.18520    2.05660    -999.25    0.35590    0.38210    2.35520   93.25080   93.25080  105.21950  138.37630  138.37630    2.21920    2.21920    2.84440    2.21920    -999.25    0.46480    0.42310    2.05660 -118.36110    2.84440
 3000.00000   10.23280   10.67240   10.67240  221.54280    0.25170    0.25170    2.19560    -999.25    0.28400    0.30080    4.51380   93.91840   93.91840   89.04880  112.83820  112.83820    4.05280    4.05280    4.20840    4.05280    -999.25    0.38630    0.34320    2.19560 -118.23950    4.20840
 3050.00000   10.49950   10.20880   10.20880  140.31790    0.22560    0.22560    2.38580    -999.25    0.17620    0.18960    7.13250  118.98550  118.98550   74.00700   93.84750   93.84750    6.60490    6.60490    7.96580    6.60490    -999.25    0.25260    0.20870    2.38580 -116.83170    7.96580
 3100.00000   11.12000   10.50150   10.50150  109.69720    0.17460    0.17460    2.29060    -999.25    0.23830    0.24530    9.11600   80.57010   80.57010   60.56090   78.49900   78.49900    7.93770    7.93770   10.18740    7.93770    -999.25    0.29720    0.25320    2.29060 -113.36200   10.18740
 3150.00000   10.77480   10.21230   10.21230  212.72390    0.13760    0.13760    1.77460    -999.25    0.51290    0.54700    4.70100  132.67080  132.67080   84.47850  110.08270  110.08270    4.10490    4.10490    9.97020    4.10490    -999.25    0.53780    0.49610    1.77460 -111.43360    9.97020
 3200.00000   11.21080   10.67680   10.67680  177.54740    0.21840    0.21840    2.22440    -999.25    0.25500    0.28400    5.63230   82.89620   82.89620   89.16290  114.72560  114.72560    5.16500    5.16500    4.94170    5.16500    -999.25    0.36150    0.31800    2.22440 -112.64160    4.94170
 3250.00000    9.85490   10.18990   10.18990  151.24250    0.23540    0.23540    2.12750    -999.25    0.31860    0.34060    6.61190   90.26030   90.26030   90.30990  108.79940  108.79940    6.36350    6.36350    5.76030    6.36350    -999.25    0.41280    0.37020    2.12750 -114.49910    5.76030
 3300.00000   11.17610   11.07890   11.07890  137.65410    0.13000    0.13000    2.34970    -999.25    0.18260    0.21070    7.26690   81.97650   81.97650   66.48450   90.54740   90.54740    7.00670    7.00670    7.87710    7.00670    -999.25    0.34720    0.30350    2.34970 -114.39540    7.87710
 3350.00000   11.91530   11.43010   11.43010  263.68530    0.08360    0.08360    2.14290    -999.25    0.30130    0.33160    3.79240  118.35310  118.35310   87.65940  115.93430  115.93430    3.42380    3.42380    3.97980    3.42380    -999.25    0.46070    0.41900    2.14290 -116.94330    3.97980
 3400.00000   10.06130   11.26850   11.26850   80.45830    0.11330    0.11330    2.20880    -999.25    0.26180    0.29310   12.42880   87.42190   87.42190   50.05070   67.75760   67.75760   11.77460   11.77460   10.53210   11.77460    -999.25    0.42860    0.38630    2.20880 -127.29630   10.53210
 3450.00000   10.22890   11.11610   11.11610   95.42530    0.22390    0.22390    2.21180    -999.25    0.25830    0.29130   10.47940   81.02080   81.02080   54.27960   68.91460   68.91460   10.02330   10.02330    9.08780   10.02330    -999.25    0.36360    0.32010    2.21180 -122.92960    9.08780
 3500.00000   10.88870   11.04170   11.04170  214.99370    0.14230    0.14230    2.27240    -999.25    0.25190    0.25590    4.65130   90.15530   90.15530   81.43150  107.26340  107.26340    4.44060    4.44060    3.80580    4.44060    -999.25    0.34110    0.29740    2.27240 -115.03230    3.80580
 3550.00000    9.88920    9.65430    9.65430  185.14950    0.19590    0.19590    2.23880    -999.25    0.24890    0.27550    5.40650   85.86300   85.86300   76.61580  104.65320  104.65320    5.92510    5.92510    5.70300    5.92510    -999.25    0.37050    0.32710    2.23880 -112.86680    5.70300
 3600.00000   10.35190   12.10770   12.10770   52.86330    0.05200    0.05200    2.41180    -999.25    0.16110    0.17440   18.91670   77.61610   77.61610   41.97080   57.48840   57.48840   16.35300   16.35300   17.05910   16.35300    -999.25    0.29350    0.24950    2.41180 -125.31710   17.05910
 3650.00000   11.64380   12.19020   12.19020  108.02770    0.13680    0.13680    2.27720    -999.25    0.23350    0.25310    9.25860   78.53710   78.53710   54.34570   74.17120   74.17120    9.85670    9.85670   10.26660    9.85670    -999.25    0.36690    0.32340    2.27720 -115.46120   10.26660
 3700.00000   10.62210   11.14890   11.14890   60.19960    0.19610    0.19610    2.18860    -999.25    0.26900    0.30490   16.61140   75.09250   75.09250   46.05120   61.79400   61.79400   15.77480   15.77480   13.88970   15.77480    -999.25    0.31450    0.27060    2.18860 -123.18090   13.88970
 3750.00000   11.88870   12.30660   12.30660  137.76950    0.21020    0.21020    2.24760    -999.25    0.25060    0.27040    7.25850   79.69180   79.69180   65.62260   88.71080   88.71080    7.04650    7.04650    7.78890    7.04650    -999.25    0.42190    0.37950    2.24760 -114.54040    7.78890
 3800.00000   11.72020   11.65000   11.65000  199.52220    0.12380    0.12380    2.24600    -999.25    0.24190    0.27140    5.01350   88.19930   88.19930   63.58180   91.07710   91.07710    4.82110    4.82110    5.39810    4.82110    -999.25    0.44190    0.40000    2.24600 -117.44390    5.39810
 3850.00000   10.58030   11.29160   11.29160   88.85100    0.16620    0.16620    2.23900    -999.25    0.22020    0.27540   11.25480   86.13930   86.13930   70.85780   92.82320   92.82320   10.14410   10.14410    9.19200   10.14410    -999.25    0.45690    0.41520    2.23900 -118.84710    9.19200
 3900.00000   10.30830   10.99430   10.99430  160.32440    0.04250    0.04250    2.43390    -999.25    0.12960    0.16150    6.24250   85.40990   85.40990   65.48580   81.72090   81.72090    5.95480    5.95480    5.54620    5.95480    -999.25    0.38680    0.34370    2.43390 -116.26340    5.54620
 3950.00000   10.26460   10.92520   10.92520  184.69610    0.12670    0.12670    2.36470    -999.25    0.14870    0.20190    5.41430   92.10290   92.10290   72.96410  100.25820  100.25820    5.25350    5.25350    5.04650    5.25350    -999.25    0.40620    0.36340    2.36470 -117.51970    5.04650
 4000.00000    9.58120   10.64780   10.64780  113.34010    0.05130    0.05130    2.41540    -999.25    0.13330    0.17230    8.82300   97.07960   97.07960   53.99680   76.08270   76.08270    8.47900    8.47900    7.84440    8.47900    -999.25    0.42350    0.38110    2.41540 -117.16530    7.84440
 4050.00000   10.01170   10.10080   10.10080  178.74720    0.20480    0.20480    2.17910    -999.25    0.31350    0.31050    5.59460   91.78600   91.78600   70.37070   92.72790   92.72790    5.76230    5.76230    6.38580    5.76230    -999.25    0.43050    0.38830    2.17910 -115.67740    6.38580
 4100.00000    9.25430    8.89490    8.89490  179.76560    0.14430    0.14430    2.42420    -999.25    0.14450    0.16710    5.56280   78.64350   78.64350   72.04370   85.96420   85.96420    6.49760    6.49760    7.20490    6.49760    -999.25    0.41350    0.37090    2.42420 -114.29960    7.20490
 4150.00000    9.02090    9.35080    9.35080  186.81130    0.08490    0.08490    2.36970    -999.25    0.20100    0.19900    5.35300   89.17840   89.17840   76.23440   98.89100   98.89100    5.68300    5.68300    5.11120    5.68300    -999.25    0.47810    0.43640    2.36970 -116.30580    5.11120
