~Version ---------------------------------------------------
VERS.      2.0 : CWLS log ASCII Standard -VERSION 2.0
WRAP.       NO : One line per depth step
CREA. 11/22/17 : LAS Creation Date
~Well ------------------------------------------------------
STRT.FT                      1000.0 : START DEPTH
STOP.FT                      9700.0 : STOP DEPTH
STEP.FT                    50.00000 : STEP LENGTH
NULL.                       -999.25 : NULL VALUE
COMP. HUDSON'S BAY OIL & GAS CO LTD : COMPANY
WELL.         HB MEEKWAP 11-8-66-18 : WELL
FLD .                               : FIELD
LOC .                               : LOCATION
CTRY.                        CANADA : COUNTRY
SRVC.                  Schlumberger : SERVICE COMPANY
DATE.                   20-Feb-1976 : LOGDATE
PROV.                       Alberta : PROVINCE
UWI .              100110806618W500 : UNIQUE WELL ID
SLAT.WGS84                 54.70024 : SURFACE LATITUDE
SLON.WGS84                -116.6871 : SURFACE LONGITUDE
~Curve Information -----------------------------------------
DEPT    .FT    : Depth Curve
CALDED  .IN    : CALIPER FROM DENSITY LOG [ADJ. TO RESISTIVITY LOG]
CALSED  .IN    : CALIPER FROM SONIC LOG [ADJ. TO RESISTIVITY LOG]
CALWS   .IN    : CALIPER [CALSED]
CILDED  .MMHO  : CONDUCTIVITY FROM RESISTIVITY LOG
CONDWS  .MMHO  : CONDUCTIVITY [1000/DRESWS]
DCORWS  .G/C3  : DENSITY CORRECTION [DRHOED]
DENWS   .G/C3  : FORMATION BULK DENSITY [RHOBED]
DPHILSED.V/V   : DENSITY POROSITY LIMESTONE [M=2.71, F=1.00] FROM DENSITY LOG [ADJ. TO RESISTIVITY LOG]
DPHISSED.V/V   : DENSITY POROSITY SANDSTONE [M=2.65, F=1.00] FROM DENSITY LOG [ADJ. TO RESISTIVITY LOG]
DPOLSWS .V/V   : DENSITY POROSITY LIMESTONE [CALC. FROM DENWS M=2.71, F=1.00]
DRESWS  .OHMM  : DEEP RESISTIVITY [FROM START TO 4053' IF ILDED<5;1000/CILDED;ELSE ILDED
DRHOED  .G/C3  : BULK DENSITY CORRECTION FROM DENSITY LOG [ADJ. TO RESISTIVITY LOG/DPHISSED/DPHILSED]
DTED    .US/F  : DELTA-T FROM SONIC LOG [ADJ. TO RESISTIVITY LOG]
DTWS    .US/F  : COMPRESSIONAL SONIC [DTED]
GRDED   .GAPI  : GAMMA RAY FROM DENSITY LOG [ADJ. TO RESISTIVITY LOG]
GRSED   .GAPI  : GAMMA RAY FROM SONIC LOG [ADJ. TO RESISTIVITY LOG]
GRWS    .GAPI  : GAMMA RAY [GRSED]
ILDED   .OHMM  : DEEP INDUCTION FROM RESISTIVITY LOG
ILMED   .OHMM  : MEDIUM INDUCTION FROM RESISTIVITY LOG
LL8ED   .OHMM  : LATEROLOG 8 FROM RESISTIVITY LOG
MRESWS  .OHMM  : MEDIUM RESISTIVITY [ILMED]
NPHILSED.V/V   : NEUTRON POROSITY LIMESTONE FROM DENSITY LOG [ADJ. TO RESISTIVITY LOG]
NPHISSED.V/V   : NEUTRON POROSITY SANDSTONE FROM DENSITY LOG [ADJ. TO RESISTIVITY LOG]
NPOLSWS .V/V   : NEUTRON POROSITY LIMESTONE [NPHISSED MATRIX CONVERSION FOR LIMESTONE FROM SCHLUMBERGER (CNL), SPL. TO NPHILSED @ 5502']
RHOBED  .G/C3  : BULK DENSITY FROM DENSITY LOG [ADJ. TO RESISTIVITY LOG/DPHISSED/DPHILSED]
SPRED   .MV    : SPONTANEOUS POTENTIAL FROM RESISTIVITY LOG
SPWS    .MV    : SPONTANEOUS POTENTIAL [BASELINE 0 MV, SPRED]
SRESWS  .OHMM  : SHALLOW RESISTIVITYV [LL8ED]
~Params ----------------------------------------------------
PD  .                     GL : PERMANENT DATUM
EPD .FT                 2674 : ELEVATION PERMANENT DATUM
LMF .                     KB : LOG MEASURED FROM
DAPD.FT                 16.8 : FEET ABOVE PERMANENT DATUM
EKB .FT               2690.8 : KELLY BUSHING
EGL .FT                 2674 : GROUND LEVEL
DATE.               02/20/76 : RUN DATE
RUN .                      1 : RUN NUMBER
DD  .FT                 9730 : DEPTH DRILLER
DL  .FT                 9732 : DEPTH LOGGER
BLI .FT                 9726 : BOTTOM LOG INTERVAL
TLI .FT                  995 : TOP LOG INTERVAL
CBD .FT                  995 : CASING BOTTOM DRILLER
CBL .FT                  995 : CASING BOTTOM LOGGER
BS  .IN                 8.75 : BIT SIZE
BSD .FT                 9730 : BIT SIZE AT DEPTH
DFT .                    GEL : DRILLING FLUID TYPE
DFD .                    9.6 : DRILLING FLUID DENSITY
DFV .                    120 : DRILLING FLUID VISCOSITY
DFPH.                      9 : DRILLING FLUID PH
DFL .                     10 : DRILLING FLUID LOSS
MSS .               FLOWLINE : MUD SAMPLE SOURCE
RMS .OHMM               0.68 : RESISTIVITY MUD SAMPLE
MST .DEGF                199 : MUD SAMPLE TEMPERATURE
RMF .OHMM                1.9 : RESISTIVITY MUD FILTRATE SAMPLE
MFST.DEGF                 60 : MUD FILTRATE SAMPLE TEMPERATURE
RMB .OHMM               0.57 : RESISTIVITY MUD AT BHT
LUN .                   7800 : LOGGING UNIT NUMBER
LUL .                    EDM : LOGGING UNIT LOCATION
ENGI.               BERNLSKY : RECORDING ENGINEER
WITN.                HARDMAN : WITNESSED BY
CLNT.                A2DTECH : CLIENT CODE
ORIG.            2" 5" PRINT : ORIGIN OF DATA
UWI .       100110806618W500 : UNIQUE WELL ID
DICO. A2D Technologies, Inc. : DIGITIZING COMPANY
~Other -----------------------------------------------------
DIL-CNFD-BHC LOG RUN
ALL DATA FROM DIL LOG VERIFY FROM TOP -4048'FROM 2" SCALE LOG
~ASCII -----------------------------------------------------
# ...
 3500.00000    -999.25   11.85000   11.85000  158.64430  184.14170    -999.25    -999.25    -999.25    -999.25    -999.25    5.43060    -999.25    -999.25    -999.25    -999.25    -999.25    -999.25    5.43060    -999.25    6.46060    -999.25    -999.25    -999.25    -999.25    -999.25 -224.21950  -15.85950    6.46060
 3550.00000    -999.25   11.26740   11.26740  164.93400  189.05020    -999.25    -999.25    -999.25    -999.25    -999.25    5.28960    -999.25    -999.25    -999.25    -999.25    -999.25    -999.25    5.28960    -999.25    6.61450    -999.25    -999.25    -999.25    -999.25    -999.25 -217.99520   -9.37820    6.61450
 3600.00000    -999.25    9.80660    9.80660  124.36780  141.71730    -999.25    -999.25    -999.25    -999.25    -999.25    7.05630    -999.25    -999.25    -999.25    -999.25    -999.25    -999.25    7.05630    -999.25    9.74670    -999.25    -999.25    -999.25    -999.25    -999.25 -225.19680  -16.32110    9.74670
 3650.00000    -999.25    9.34890    9.34890  126.97500  139.15560    -999.25    -999.25    -999.25    -999.25    -999.25    7.18620    -999.25    -999.25    -999.25    -999.25    -999.25    -999.25    7.18620    -999.25   10.37560    -999.25    -999.25    -999.25    -999.25    -999.25 -224.66050  -15.52780   10.37560
 3700.00000    -999.25    9.65240    9.65240  134.71270  149.53050    -999.25    -999.25    -999.25    -999.25    -999.25    6.68760    -999.25    -999.25    -999.25    -999.25    -999.25    -999.25    6.68760    -999.25    8.38850    -999.25    -999.25    -999.25    -999.25    -999.25 -232.40330  -20.69150    8.38850
 3750.00000    -999.25   10.41340   10.41340  148.63670  162.79490    -999.25    -999.25    -999.25    -999.25    -999.25    6.14270    -999.25    -999.25    -999.25    -999.25    -999.25    -999.25    6.14270    -999.25    6.52890    -999.25    -999.25    -999.25    -999.25    -999.25 -250.62970  -36.35560    6.52890
 3800.00000    -999.25   10.26610   10.26610  176.01720  176.01720    -999.25    -999.25    -999.25    -999.25    -999.25    5.68130    -999.25    -999.25    -999.25    -999.25    -999.25    -999.25    4.81820    -999.25    5.75800    -999.25    -999.25    -999.25    -999.25    -999.25 -255.08270  -38.24630    5.75800
 3850.00000    -999.25   10.18000   10.18000  169.05890  169.05890    -999.25    -999.25    -999.25    -999.25    -999.25    5.91510    -999.25    -999.25    -999.25    -999.25    -999.25    -999.25    4.96000    -999.25    5.99440    -999.25    -999.25    -999.25    -999.25    -999.25 -250.28530  -30.86980    5.99440
 3900.00000    -999.25   11.08600   11.08600  189.99000  189.99000    -999.25    -999.25    -999.25    -999.25    -999.25    5.26340    -999.25    -999.25    -999.25    -999.25    -999.25    -999.25    4.32830    -999.25    5.49020    -999.25    -999.25    -999.25    -999.25    -999.25 -252.01950  -30.04180    5.49020
 3950.00000    -999.25   10.58630   10.58630  173.31610  173.31610    -999.25    -999.25    -999.25    -999.25    -999.25    5.76980    -999.25    -999.25    -999.25    -999.25    -999.25    -999.25    4.94800    -999.25    5.92410    -999.25    -999.25    -999.25    -999.25    -999.25 -252.62880  -28.07190    5.92410
 4000.00000    -999.25   11.12240   11.12240  218.26030  218.26030    -999.25    -999.25    -999.25    -999.25    -999.25    4.58170    -999.25    -999.25    -999.25    -999.25    -999.25    -999.25    3.56220    -999.25    4.83130    -999.25    -999.25    -999.25    -999.25    -999.25 -253.85820  -26.73910    4.83130
 4050.00000    -999.25   10.73960   10.73960  207.47670  207.47670    -999.25    -999.25    -999.25    -999.25    -999.25    4.81980    -999.25    -999.25    -999.25    -999.25  100.99490  100.99490    4.04140    -999.25    4.96290    -999.25    -999.25    -999.25    -999.25    -999.25 -252.82260  -23.14120    4.96290
 4100.00000    -999.25   11.61560   11.61560    -999.25  221.75410    0.12010    2.51710    -999.25    0.09220    0.11280    4.50950    0.12010   96.02900   96.02900  114.25150  125.77140  125.77140    4.50950    4.29590    5.17820    4.29590    -999.25    0.37000    0.32660    2.51710 -249.32960  -17.06910    5.17820
 4150.00000    -999.25    9.95000    9.95000    -999.25  366.90520    0.14820    2.46540    -999.25    0.11320    0.14300    2.72550    0.14820  107.80900  107.80900  149.54620  156.23020  156.23020    2.72550    2.56660    3.67430    2.56660    -999.25    0.38810    0.34500    2.46540 -249.21850  -14.39570    3.67430
 4200.00000    -999.25   10.15200   10.15200    -999.25  458.23210    0.14690    2.43070    -999.25    0.13650    0.16330    2.18230    0.14690  107.30980  107.30980  102.72370  109.20370  109.20370    2.18230    2.05030    2.71350    2.05030    -999.25    0.43030    0.38810    2.43070 -253.73570  -16.33380    2.71350
 4250.00000    -999.25   11.79440   11.79440    -999.25  284.77050    0.11740    2.47760    -999.25    0.10300    0.13590    3.51160    0.11740   95.74080   95.74080   95.26540  103.99230  103.99230    3.51160    3.32750    3.91670    3.32750    -999.25    0.36020    0.31670    2.47760 -249.13520   -9.17100    3.91670
 4300.00000   13.09500   11.74650   11.74650    -999.25  281.78540    0.17700    2.43680    -999.25    0.13690    0.15980    3.54880    0.17700   97.07950   97.07950   94.25680   92.31470   92.31470    3.54880    3.36590    3.88730    3.36590    -999.25    0.42050    0.37810    2.43680 -251.46880   -8.94230    3.88730
 4350.00000   10.87020   10.59160   10.59160    -999.25  154.74370    0.19650    2.49860    -999.25    0.09400    0.12370    6.46230    0.19650   92.95470   92.95470  127.64220  130.27500  130.27500    6.46230    6.12120    7.35820    6.12120    -999.25    0.31850    0.27460    2.49860 -250.25070   -6.14160    7.35820
 4400.00000    9.00370    8.53900    8.53900    -999.25   69.98050    0.24620    2.51270    -999.25    0.09000    0.11540   14.28970    0.24620   78.73810   78.73810   47.36340   52.13190   52.13190   14.28970   12.45950   15.88560   12.45950    -999.25    0.20520    0.16170    2.51270 -270.96490  -27.51630   15.88560
 4450.00000   12.55140   11.57190   11.57190    -999.25  298.32940    0.15160    2.43360    -999.25    0.13350    0.16170    3.35200    0.15160   92.89940   92.89940   86.12850   96.35390   96.35390    3.35200    3.15610    4.15270    3.15610    -999.25    0.36910    0.32570    2.43360 -249.06940   -6.28570    4.15270
 4500.00000   11.37310   11.25120   11.25120    -999.25  112.61130    0.04900    2.57000    -999.25    0.05070    0.08190    8.88010    0.04900   81.38080   81.38080   73.13100   76.03370   76.03370    8.88010    8.43660    9.14050    8.43660    -999.25    0.32840    0.28460    2.57000 -254.03150  -11.90830    9.14050
 4550.00000   11.66300   10.98860   10.98860    -999.25   78.52010    0.03600    2.51020    -999.25    0.09230    0.11680   12.73560    0.03600   75.47910   75.47910   57.95890   61.66510   61.66510   12.73560   12.15480   17.42930   12.15480    -999.25    0.23160    0.18780    2.51020 -259.39230  -17.92960   17.42930
 4600.00000   11.63850   10.79740   10.79740    -999.25  111.29910    0.05730    2.54910    -999.25    0.06450    0.09410    8.98480    0.05730   80.21320   80.21320   77.98700   76.03560   76.03560    8.98480    8.16870   10.07690    8.16870    -999.25    0.26980    0.22580    2.54910 -250.82970  -10.03190   10.07690
 4650.00000   11.90080   11.04010   11.04010    -999.25  112.46320    0.05780    2.54080    -999.25    0.06340    0.09890    8.89180    0.05780   77.82880   77.82880   57.86190   64.64600   64.64600    8.89180    8.37890   10.95380    8.37890    -999.25    0.26140    0.21750    2.54080 -258.33500  -18.19770   10.95380
 4700.00000   10.82170   10.18520   10.18520    -999.25  135.14240    0.07450    2.67160    -999.25   -0.00590    0.02250    7.39960    0.07450   79.96320   79.96320   87.26260   89.64230   89.64230    7.39960    7.11490    7.95330    7.11490    -999.25    0.29720    0.25320    2.67160 -250.51830  -11.04580    7.95330
