~Version ---------------------------------------------------
VERS.      2.0 : CWLS log ASCII Standard -VERSION 2.0
WRAP.       NO : One line per depth step
CREA. 09/29/17 : LAS Creation Date
~Well ------------------------------------------------------
STRT.FT                         1450.0 : START DEPTH
STOP.FT                        11100.0 : STOP DEPTH
STEP.FT                       50.00000 : STEP LENGTH
NULL.                          -999.25 : NULL VALUE
COMP. AMOCO CANADA PETROLEUM CO., LTD. : COMPANY
WELL.       AMOCO PEX TONY 10-16-64-22 : WELL
FLD .                                  : FIELD
LOC .                                  : LOCATION
CTRY.                           CANADA : COUNTRY
SRVC.           Schlumberger of Canada : SERVICE COMPANY
DATE.                      08-Apr-1978 : LOGDATE
PROV.                          Alberta : PROVINCE
UWI .                 100101606422W500 : UNIQUE WELL ID
SLAT.WGS84                    54.53914 : SURFACE LATITUDE
SLON.WGS84                   -117.2632 : SURFACE LONGITUDE
~Curve Information -----------------------------------------
DEPT    .FT    : Depth Curve
CALDED  .IN    : CALIPER FROM DENSITY LOG [ADJ. TO RESISTIVITY LOG]
CALSED  .IN    : CALIPER FROM SONIC LOG [ADJ. TO RESISTIVITY LOG]
CALWS   .IN    : CALIPER [CALDED]
CONDWS  .MMHO  : CONDUCTIVITY [1000/DRESWS]
DCORWS  .G/C3  : DENSITY CORRECTION [DRHOED]
DENWS   .G/C3  : BULK DENSITY [RHOBED]
DPHILSED.V/V   : DENSITY POROSITY LIMESTONE [M=2710,F=1000] FROM DENSITY LOG [ADJ. TO RESISTIVITY LOG]
DPHISSED.V/V   : DENSITY POROSITY SANDSTONE [M=2650,F=1000] FROM DENSITY LOG [ADJ. TO RESISTIVITY LOG]
DPOLSWS .V/V   : DENSITY POROSITY LIMESTONE [CALC. FROM DENWS,M=2710,F=1000]
DRESWS  .OHMM  : DEEP RESISTIVITY [ILDED]
DRHOED  .G/C3  : BULK DENSITY CORRECTION FROM DENSITY LOG [ADJ. TO RESISTIVITY LOG]
DTED    .US/F  : DELTA -T FROM SONIC LOG [ADJ. TO RESISTIVITY LOG]
DTWS    .US/F  : COMPRESSIONAL SONIC [DTED]
GRDED   .GAPI  : GAMMA RAY FROM DENSITY LOG [ADJ. TO RESISTIVITY LOG]
GRED    .GAPI  : GAMMA RAY FROM CBL LOG [ADJ. TO RESISTIVITY LOG]
GRSED   .GAPI  : GAMMA RAY FROM SONIC LOG [ADJ. TO RESISTIVITY LOG]
GRWS    .GAPI  : GAMMA RAY [GRED SPL. TO GRDED SPL. TO 458M]
ILDED   .OHMM  : DEEP INDUCTION RESISTIVITY FROM RESISTIVITY LOG
ILMED   .OHMM  : MEDIUM INDUCTION RESISTIVITY FROM RESISTIVITY LOG
LL8ED   .OHMM  : LATEROLOG-8 RESISTIVITY FROM RESISTIVITY LOG
MRESWS  .OHMM  : MEDIUM RESISTIVITY [ILMED]
NEUTED  .NAPI  : NEUTRON FROM CBL LOG [ADJ. TO RESISTIVITY LOG
NEUTWS  .NAPI  : NEUTRON [NEUTED]
NPHILSED.V/V   : NEUTRON POROSITY LIMESTONE FROM DENSITY LOG [ADJ. TO RESISTIVITY LOG]
NPHISSED.V/V   : NEUTRON POROSITY SANDSTONE FROM DENSITY LOG [ADJ. TO RESISTIVITY LOG]
NPOLSWS .V/V   : NEUTRON POROSITY LIMESTONE [NPHISSED CONVERTED TO LIMESTONE MATRIX,SPL. TO NPHILSED @2035M ]
RHOBED  .G/C3  : BULK DENSITYFROM DENSITY LOG [ADJ. TO RESISTIVITY LOG]
SPRED   .MV    : SPONTANEOUS POTENTIAL FROM RESISTIVITY LOG
SPWS    .MV    : SPONTANEOUS POTENTIAL [BASELINE 0 MV,SPRED]
SRESWS  .OHMM  : SHALLOW RESISTIVITY [LL8ED]
~Params ----------------------------------------------------
PD  .                     GL : PERMANENT DATUM
EPD .FT               2639.4 : ELEVATION PERMANENT DATUM
LMF .                     KB : LOG MEASURED FROM
DAPD.FT                 21.4 : FEET ABOVE PERMANENT DATUM
EKB .FT               2660.8 : KELLY BUSHING
EGL .FT               2639.4 : GROUND LEVEL
DATE.               04/08/78 : RUN DATE
RUN .                      2 : RUN NUMBER
DD  .FT                11105 : DEPTH DRILLER
DL  .FT                11103 : DEPTH LOGGER
BLI .FT                11099 : BOTTOM LOG INTERVAL
TLI .FT                 6000 : TOP LOG INTERVAL
CBD .FT                 1528 : CASING BOTTOM DRILLER
CBL .FT                 1528 : CASING BOTTOM LOGGER
BS  .IN                 8.75 : BIT SIZE
BSD .FT                11105 : BIT SIZE AT DEPTH
DFT .              GEL GELEX : DRILLING FLUID TYPE
DFD .                      9 : DRILLING FLUID DENSITY
DFV .                     92 : DRILLING FLUID VISCOSITY
DFPH.                      9 : DRILLING FLUID PH
DFL .                    9.8 : DRILLING FLUID LOSS
MSS .               FLOWLINE : MUD SAMPLE SOURCE
RMS .OHMM               1.91 : RESISTIVITY MUD SAMPLE
MST .DEGF                 52 : MUD SAMPLE TEMPERATURE
RMF .OHMM               1.45 : RESISTIVITY MUD FILTRATE SAMPLE
MFST.DEGF                 60 : MUD FILTRATE SAMPLE TEMPERATURE
TCS .HRS                 2.5 : TIME CIRCULATED STOPPED
LUN .              OSU C 244 : LOGGING UNIT NUMBER
LUL .                    EDM : LOGGING UNIT LOCATION
ENGI.                   GUNN : RECORDING ENGINEER
WITN.                   WALL : WITNESSED BY
CLNT.                A2DTECH : CLIENT CODE
ORIG.            2" 5" PRINT : ORIGIN OF DATA
UWI .       100101606422W500 : UNIQUE WELL ID
DICO. A2D Technologies, Inc. : DIGITIZING COMPANY
~Other -----------------------------------------------------
~ASCII -----------------------------------------------------
# ...
 2650.00000   11.57080    9.73660   11.57080  187.49060    0.00050    2.34180    -999.25    0.18680    0.21530    5.33360    0.00050   96.37740   96.37740   57.11380    -999.25   70.01620   57.11380    5.33360    5.73880    6.45970    5.73880    -999.25    -999.25    -999.25    0.37500    0.33170    2.35420 -133.59850   -7.05570    6.45970
 2700.00000   10.91260    9.06490   10.91260   80.77940    0.00320    2.34210    -999.25    0.18660    0.21510   12.37940    0.00320   88.95530   88.95530   53.76220    -999.25   64.83220   53.76220   12.37940   13.10750   15.48410   13.10750    -999.25    -999.25    -999.25    0.29000    0.24600    2.35320 -136.51810  -10.16430   15.48410
 2750.00000    9.66400    8.73550    9.66400  120.28770    0.04270    2.28490    -999.25    0.22130    0.24860    8.31340    0.04270   82.06900   82.06900   55.03970    -999.25   57.73360   55.03970    8.31340    9.45210   10.88940    9.45210    -999.25    -999.25    -999.25    0.34680    0.30310    2.28970 -136.87830  -10.71220   10.88940
 2800.00000   10.17480    8.92760   10.17480   89.45540    0.00040    2.36360    -999.25    0.17490    0.20260   11.23230    0.00040   87.47230   87.47230   55.28670    -999.25   65.10070   55.28670   11.23230   11.42360   12.67180   11.42360    -999.25    -999.25    -999.25    0.33600    0.29230    2.36350 -134.69770   -8.71940   12.67180
 2850.00000    9.79530    8.78430    9.79530   69.24540    0.02450    2.34290    -999.25    0.17880    0.21470   14.44140    0.02450   84.79090   84.79090   50.19830    -999.25   57.35290   50.19830   14.44140   16.20870   19.82980   16.20870    -999.25    -999.25    -999.25    0.28690    0.24290    2.34280 -138.40540  -12.61610   19.82980
 2900.00000   10.85900    8.81140   10.85900  169.66690    0.12690    1.93510    -999.25    0.43330    0.45320    5.89390    0.12690  102.05000  102.05000   63.85790    -999.25   78.85520   63.85790    5.89390    6.43310    7.67030    6.43310    -999.25    -999.25    -999.25    0.45140    0.40980    1.99880 -129.62750   -4.02600    7.67030
 2950.00000   11.13450    9.22210   11.13450  142.94500    0.11120    2.16970    -999.25    0.29110    0.31600    6.99570    0.11120   89.83490   89.83490   64.71410    -999.25   85.98380   64.71410    6.99570    7.38450    8.43610    7.38450    -999.25    -999.25    -999.25    0.37510    0.33180    2.17530 -130.45500   -5.04250    8.43610
 3000.00000   11.89140    9.23200   11.89140  165.41780    0.00360    2.01750    -999.25    0.45210    0.40500    6.04530    0.00360  106.85070  106.85070   47.41050    -999.25   59.71150   47.41050    6.04530    6.89350   12.39310    6.89350    -999.25    -999.25    -999.25    0.44980    0.40820    2.01750 -132.92020   -7.69550   12.39310
 3050.00000   10.87370    9.12930   10.87370  185.74950    0.14870    2.22880    -999.25    0.28000    0.28140    5.38440    0.14870   92.96880   92.96880   68.93580    -999.25   82.17950   68.93580    5.38440    5.61050    6.47550    5.61050    -999.25    -999.25    -999.25    0.34680    0.30320    2.22870 -130.66110   -5.62420    6.47550
 3100.00000   10.21640    8.88500   10.21640  156.32820    0.05980    2.42580    -999.25    0.13590    0.16620    6.39680    0.05980   86.92140   86.92140   66.27760    -999.25   81.00410   66.27760    6.39680    6.71560    8.18950    6.71560    -999.25    -999.25    -999.25    0.34440    0.30070    2.41930 -128.76830   -3.92040    8.18950
 3150.00000   10.02630    9.07200   10.02630  188.26010    0.05990    2.31690    -999.25    0.20190    0.22990    5.31180    0.05990   91.00760   91.00760   68.42910    -999.25   90.54330   68.42910    5.31180    5.52850    6.59910    5.52850    -999.25    -999.25    -999.25    0.36830    0.32490    2.32240 -131.91380   -7.25360    6.59910
 3200.00000   12.95020    9.07260   12.95020  191.56720    0.05250    2.00040    -999.25    0.43700    0.41500    5.22010    0.05250   96.58040   96.58040   76.26470    -999.25   94.19220   76.26470    5.22010    5.44440    7.19690    5.44440    -999.25    -999.25    -999.25    0.42560    0.38330    2.00040 -130.88880   -6.41770    7.19690
 3250.00000   11.46800    9.61860   11.46800  142.60250    0.02120    1.99810    -999.25    0.45150    0.41630    7.01250    0.02120   90.26590   90.26590   89.01440    -999.25  107.86990   89.01440    7.01250    7.33010    8.79700    7.33010    -999.25    -999.25    -999.25    0.40110    0.35820    1.99820 -134.53010  -10.24670    8.79700
 3300.00000   13.05490   10.64420   13.05490  136.40560    0.09650    2.01760    -999.25    0.44990    0.40490    7.33120    0.09650   88.77350   88.77350   90.17140    -999.25  120.02070   90.17140    7.33120    7.71650    8.73170    7.71650    -999.25    -999.25    -999.25    0.42790    0.38560    2.01770 -131.22220   -7.12660    8.73170
 3350.00000   10.50310    9.87060   10.50310  144.75130    0.06340    2.42740    -999.25    0.13490    0.16530    6.90840    0.06340   94.61220   94.61220  118.65010    -999.25  143.42350  118.65010    6.90840    7.18650    9.34540    7.18650    -999.25    -999.25    -999.25    0.40130    0.35840    2.43820 -129.96040   -6.05380    9.34540
 3400.00000   10.17890    9.48100   10.17890  108.00650    0.02890    2.54410    -999.25    0.06420    0.09700    9.25870    0.02890   89.66110   89.66110  112.47880    -999.25  131.24360  112.47880    9.25870    9.86150   13.09590    9.86150    -999.25    -999.25    -999.25    0.33920    0.29550    2.54050 -128.31910   -4.60030   13.09590
 3450.00000   10.32630    9.61170   10.32630  129.16730    0.06480    2.51820    -999.25    0.07990    0.11220    7.74190    0.06480   91.44320   91.44320  110.70300    -999.25  132.37830  110.70300    7.74190    8.39910   10.78720    8.39910    -999.25    -999.25    -999.25    0.34440    0.30070    2.50290 -126.36860   -2.69550   10.78720
 3500.00000   10.82620    9.42500   10.82620  124.92500    0.02470    2.47820    -999.25    0.10410    0.13550    8.00480    0.02470   86.70810   86.70810   99.95740    -999.25  125.39280   99.95740    8.00480    8.44230   10.27110    8.44230    -999.25    -999.25    -999.25    0.34190    0.29820    2.49100 -129.65660   -5.98350   10.27110
 3550.00000   11.98050    9.93240   11.98050  156.58460    0.10030    2.00670    -999.25    0.38990    0.41130    6.38650    0.10030   90.93520   90.93520   95.28720    -999.25  124.05160   95.28720    6.38650    6.63510    8.03120    6.63510    -999.25    -999.25    -999.25    0.38450    0.34130    2.04000 -126.47210   -2.79900    8.03120
 3600.00000   10.91320    9.75400   10.91320  127.89200    0.12270    2.47260    -999.25    0.10750    0.13880    7.81910    0.12270   84.24820   84.24820   94.21440    -999.25  120.90060   94.21440    7.81910    8.11670   10.19610    8.11670    -999.25    -999.25    -999.25    0.33340    0.28960    2.47410 -128.45200   -4.77890   10.19610
 3650.00000   10.06510    8.85900   10.06510   83.76400   -0.00030    2.69030    -999.25   -0.02440    0.01150   11.93830   -0.00030   79.29790   79.29790   72.62430    -999.25  102.23970   72.62430   11.93830   12.39950   15.83630   12.39950    -999.25    -999.25    -999.25    0.21920    0.17550    2.66330 -137.25460  -11.10110   15.83630
 3700.00000   12.19190    9.11550   12.19190  152.20010    0.01960    2.03100    -999.25    0.37260    0.39710    6.57030    0.01960   84.95520   84.95520  107.74910    -999.25  127.65050  107.74910    6.57030    6.97650    8.22310    6.97650    -999.25    -999.25    -999.25    0.37240    0.32910    2.03090 -132.08920   -3.18920    8.22310
 3750.00000   15.18000    9.94850   15.18000  147.79780    0.12790    2.01160    -999.25    0.38690    0.40840    6.76600    0.12790   91.15470   91.15470  102.45580    -999.25  128.85390  102.45580    6.76600    7.06660    9.22760    7.06660    -999.25    -999.25    -999.25    0.39790    0.35500    2.00220 -132.05140   -4.17000    9.22760
 3800.00000   15.15360   10.65860   15.15360  155.36730    0.04450    1.87380    -999.25    0.45040    0.48900    6.43740    0.04450   93.28090   93.28090  100.04900    -999.25  124.18650  100.04900    6.43740    6.71750    7.81010    6.71750    -999.25    -999.25    -999.25    0.42410    0.38170    1.87380 -125.89010   -2.83100    7.81010
