~Version ---------------------------------------------------
VERS.      2.0 : CWLS log ASCII Standard -VERSION 2.0
WRAP.       NO : One line per depth step
CREA. 11/10/17 : LAS Creation Date
~Well ------------------------------------------------------
STRT.FT                          1150.0 : START DEPTH
STOP.FT                         11400.0 : STOP DEPTH
STEP.FT                        50.00000 : STEP LENGTH
NULL.                           -999.25 : NULL VALUE
COMP.              PETROFINA CANADA LTD : COMPANY
WELL. FINA AMOCO HB KAYBOBS 11-33-60-20 : WELL
FLD .                                   : FIELD
LOC .                                   : LOCATION
CTRY.                            CANADA : COUNTRY
SRVC.                      Schlumberger : SERVICE COMPANY
DATE.                       07-Apr-1977 : LOGDATE
PROV.                           Alberta : PROVINCE
UWI .                  100113306020W500 : UNIQUE WELL ID
SLAT.WGS84                     54.23446 : SURFACE LATITUDE
SLON.WGS84                    -116.9427 : SURFACE LONGITUDE
~Curve Information -----------------------------------------
DEPT    .FT    : Depth Curve
CALDED  .IN    : CALIPER CNFD LOG
CALSED  .IN    : CALIPER FROM BCS LOG [ADJ. TO GRDED]
CALWS   .IN    : CALIPER [CALSED]
CONDWS  .MMHO  : CONDUCTIVITY [1000/DRESWS]
DCORWS  .G/C3  : DENSITY CORRECTION [DRHOED]
DENWS   .G/C3  : FORMATION BULK DENSITY [RHOBED]
DPHILSED.V/V   : DENSITY POROSITY LIMESTONE [M=2.71, F=1.00] FROM CNFD LOG [ADJ. TO RHOBED]
DPHISSED.V/V   : DENSITY POROSITY SANDSTONE [M=2.65, F=1.00] FROM CNFD LOG [ADJ. TO RHOBED]
DPOLSWS .V/V   : DENSITY POROSITY LIMESTONE [CALCULATED FROM DENWS, M=2.71, F=1.00]
DRESWS  .OHMM  : DEEP RESISTIVITY [ILDED]
DRHOED  .G/C3  : DENSITY CORRECTION FROM CNFD LOG
DTED    .US/F  : INTERVAL TRANSIT TIME FROM BCS LOG [ADJ. TO GRDED]
DTWS    .US/F  : COMPRESSIONAL SONIC [DTWS]
GRDED   .GAPI  : GAMMA RAY FROM CNFD LOG
GRSED   .GAPI  : GAMMA RAY FROM BCS LOG [ADJ. TO GRDED]
GRWS    .GAPI  : GAMMA RAY [GRSED]
ILDED   .OHMM  : DEEP INDUCTION FROM DILL LOG
ILMED   .OHMM  : MEDIUM INDUCTION FROM DILL LOG
LL8ED   .OHMM  : LATEROLOG FROM DILL LOG
MRESWS  .OHMM  : MEDIUM RESISTIVITY [ILMED]
NPHILSED.V/V   : NEUTRON POROSITY LIMESTONE FROM CNFD LOG [ADJ. TO RHOBED]
NPHISSED.V/V   : NEUTRON POROSITY SANDSTONE FROM CNFD LOG [ADJ. TO RHOBED]
NPOLSWS .V/V   : NEUTRON POROSITY LIMESTONE [NPHISSED MATRIX CONVERSION FOR LIMESTONE, SPL. TO NPHILSED @ 7450']
RHOBED  .G/C3  : BULK DENSITY FROM CNFD LOG
SPRED   .MV    : SPONTANEOUS POTENTIAL FROM DILL LOG
SPWS    .MV    : SPONTANEOUS POTENTIAL [BASELINE 0 MV, SPRED]
SRESWS  .OHMM  : SHALLOW RESISTIVITY [LL8ED]
~Params ----------------------------------------------------
PD  .                     GL : PERMANENT DATUM
EPD .FT                 2961 : ELEVATION PERMANENT DATUM
LMF .                     KB : LOG MEASURED FROM
DAPD.FT                   18 : FEET ABOVE PERMANENT DATUM
EKB .FT                 2979 : KELLY BUSHING
EGL .FT                 2961 : GROUND LEVEL
DATE.               04/07/77 : RUN DATE
RUN .                      1 : RUN NUMBER
DD  .FT                11429 : DEPTH DRILLER
DL  .FT                11423 : DEPTH LOGGER
BLI .FT                11417 : BOTTOM LOG INTERVAL
TLI .FT                 1195 : TOP LOG INTERVAL
CBD .FT                 1195 : CASING BOTTOM DRILLER
CBL .FT                 1195 : CASING BOTTOM LOGGER
BS  .IN                 8.75 : BIT SIZE
BSD .FT                11429 : BIT SIZE AT DEPTH
DFT .               GEL CHEM : DRILLING FLUID TYPE
DFD .                      9 : DRILLING FLUID DENSITY
DFV .                     98 : DRILLING FLUID VISCOSITY
DFPH.                    9.5 : DRILLING FLUID PH
MSS .               FLOWLINE : MUD SAMPLE SOURCE
RMS .OHMM               1.54 : RESISTIVITY MUD SAMPLE
MST .DEGF                 65 : MUD SAMPLE TEMPERATURE
RMB .OHMM               0.51 : RESISTIVITY MUD AT BHT
TCS .HRS                   4 : TIME CIRCULATED STOPPED
LUN .             OSU C 3704 : LOGGING UNIT NUMBER
LUL .                    EDM : LOGGING UNIT LOCATION
ENGI.               MCDONALD : RECORDING ENGINEER
WITN.               BOLEANTU : WITNESSED BY
CLNT.                A2DTECH : CLIENT CODE
ORIG.            2" 5" PRINT : ORIGIN OF DATA
UWI .       100113306020W500 : UNIQUE WELL ID
DICO. A2D Technologies, Inc. : DIGITIZING COMPANY
~Other -----------------------------------------------------
~ASCII -----------------------------------------------------
# ...
 10250.00000    8.68890    8.97550    8.97550   64.60780    0.01720    2.73720    0.12240    -999.25   -0.01590   15.47800    0.01720   74.02790   74.02790   76.20470   61.29850   59.75560   15.47800   16.65110   27.72170   16.65110    0.26830    -999.25    0.26830    2.73720 -171.44070  -45.88390   27.72170
 10300.00000    8.61190    8.98220    8.98220   12.16180    0.05150    2.70180    0.15450    -999.25    0.00480   82.22610    0.05150   81.02650   81.02650  102.46890   85.19340   85.19340   82.22610  121.97830  193.41080  121.97830    0.33300    -999.25    0.33300    2.70180 -167.16870  -44.05250  193.41080
 10350.00000    8.98070   10.59720   10.59720  189.83260    0.23290    2.24360    0.36570    -999.25    0.27270    5.26780    0.23290   96.63130   96.63130  128.90510   96.46890   96.46890    5.26780    5.67160    8.20990    5.67160    0.42860    -999.25    0.42860    2.24360 -193.35160  -72.70040    8.20990
 10400.00000    8.59640    9.00460    9.00460   28.18150    0.04140    2.73990    0.11080    -999.25   -0.01750   35.48430    0.04140   74.14220   74.14220   74.68680   57.86010   61.57150   35.48430   45.76110  110.57160   45.76110    0.27290    -999.25    0.27290    2.73990 -171.04680  -52.84840  110.57160
 10450.00000    8.56580    8.96230    8.96230   56.70700    0.04970    2.77390    0.11050    -999.25   -0.03740   17.63450    0.04970   68.43430   68.43430   70.41530   52.46540   50.84130   17.63450   20.41650   30.37850   20.41650    0.23610    -999.25    0.23610    2.77390 -191.60720  -75.86160   30.37850
 10500.00000    8.46800    8.88940    8.88940   80.88190    0.02030    2.77500    0.09900    -999.25   -0.03800   12.36370    0.02030   79.19320   79.19320  111.38640   87.97600   89.64220   12.36370   13.17560   16.46120   13.17560    0.32110    -999.25    0.32110    2.77500 -184.34910  -71.05630   16.46120
 10550.00000    8.63670    8.92980    8.92980   52.98470    0.04780    2.76600    0.10260    -999.25   -0.03280   18.87450    0.04780   69.08110   69.08110   74.48230   61.42240   58.14430   18.87450   19.60420   23.93650   19.60420    0.27110    -999.25    0.27110    2.76600 -172.02980  -61.17760   23.93650
 10600.00000    8.59770    8.97960    8.97960   93.94350    0.02720    2.79920    0.09560    -999.25   -0.05220   10.64470    0.02720   85.35960   85.35960  133.24490  106.73410  106.73410   10.64470   11.21760   14.49390   11.21760    0.34340    -999.25    0.34340    2.79920 -161.29710  -52.90990   14.49390
 10650.00000    8.58750    9.16760    9.16760  126.81500    0.05510    2.73590    0.12360    -999.25   -0.01510    7.88550    0.05510   93.47040   93.47040  130.29060  108.33700  113.03700    7.88550    8.34670   10.90770    8.34670    0.39340    -999.25    0.39340    2.73590 -166.47090  -60.53650   10.90770
 10700.00000    8.59520    9.01800    9.01800  118.16420    0.13590    2.77390    0.10810    -999.25   -0.03740    8.46280    0.13590   93.21940   93.21940  141.21440  106.61810  104.14790    8.46280    8.76700   12.73950    8.76700    0.38580    -999.25    0.38580    2.77390 -138.07440  -34.59290   12.73950
 10750.00000    8.61830    8.86030    8.86030   33.43550    0.03300    2.67490    0.15080    -999.25    0.02050   29.90830    0.03300   95.50050   95.50050  146.64360  107.67290  105.77650   29.90830   33.75370   59.91230   33.75370    0.33880    -999.25    0.33880    2.67490 -139.22100  -38.19230   59.91230
 10800.00000    8.62180    8.97720    8.97720   29.39380    0.06800    2.62390    0.18960    -999.25    0.05030   34.02590    0.06800  106.15590  106.15590  162.07960  117.85280  124.14470   34.02590   34.59560   55.28530   34.59560    0.35590    -999.25    0.35590    2.62390 -120.39860  -21.81030   55.28530
 10850.00000    8.61810    8.87430    8.87430    3.62270    0.01270    2.53590    0.24510    -999.25    0.10180  276.03970    0.01270   99.17000   99.17000  198.81100  160.72130  157.93030  276.03970  390.04180  492.34770  390.04180    0.33870    -999.25    0.33870    2.53590 -139.38930  -41.08670  492.34770
 10900.00000    8.77550    8.81220    8.81220    2.57890    0.00710    2.53130    0.25560    -999.25    0.10450  387.76100    0.00710   86.56910   86.56910  158.55850  117.52620  117.52620  387.76100  640.85370  790.49290  640.85370    0.28690    -999.25    0.28690    2.53130 -159.25470  -59.21370  790.49290
 10950.00000    9.29860    9.18590    9.18590   96.11230    0.04200    2.67240    0.15840    -999.25    0.02200   10.40450    0.04200   99.65470   99.65470  156.99930  117.65860  113.15550   10.40450   10.67920   14.85720   10.67920    0.38260    -999.25    0.38260    2.67240 -137.48610  -35.70670   14.85720
 11000.00000    9.11230    9.20720    9.20720    1.27850    0.24340    2.61290    0.20560    -999.25    0.05680  782.18770    0.24340   52.50740   52.50740   17.99380   12.65040   13.15450  782.18770 1395.04200 1501.71690 1395.04200    0.16960    -999.25    0.16960    2.61290 -194.09530  -87.09350 1501.71690
 11050.00000    8.87830    9.12040    9.12040    1.23520    0.05020    2.71090    0.14800    -999.25   -0.00050  810.83390    0.05020   52.06360   52.06360   13.83380   10.19330    8.72530  810.83390 1338.50340 1477.92490 1338.50340    0.19440    -999.25    0.19440    2.71090 -235.27570 -118.48230 1477.92490
 11100.00000    9.11010    9.27860    9.27860    3.62430    0.22120    2.13910    0.47830    -999.25    0.33390  275.91310    0.22120   51.63720   51.63720   18.00020   12.91230   14.85970  275.91310  330.66550  884.55360  330.66550    0.25180    -999.25    0.25180    2.13910 -256.95390 -130.27050  884.55360
 11150.00000    8.87970    9.23190    9.23190    2.57950    0.23280    2.51450    0.25750    -999.25    0.11430  387.67930    0.23280   52.55160   52.55160   16.75000   13.04280   12.23350  387.67930  369.14140 1189.80990  369.14140    0.17890    -999.25    0.17890    2.51450 -386.14260 -249.61850 1189.80990
 11200.00000    8.77240    9.09110    9.09110    5.85360    0.25970    2.55470    0.23640    -999.25    0.09080  170.83560    0.25970   52.96610   52.96610   12.00450   12.06030   11.06050  170.83560  160.97610  236.05280  160.97610    0.25290    -999.25    0.25290    2.55470 -339.22910 -192.86420  236.05280
 11250.00000    8.82360    8.93670    8.93670    4.99170    0.26000    2.66900    0.16920    -999.25    0.02400  200.33250    0.26000   52.15880   52.15880   13.93760   10.54350   12.09960  200.33250  114.14420  669.18700  114.14420    0.19180    -999.25    0.19180    2.66900 -339.37250 -183.16680  669.18700
 11300.00000    8.44260    9.27580    9.27580    1.37570    0.09430    2.88860    0.03500    -999.25   -0.10450  729.56530    0.09430   51.77200   51.77200   12.29210   11.97850   11.97850  729.56530 1034.71460  825.52880 1034.71460    0.19650    -999.25    0.19650    2.88860 -286.40490 -120.40760  825.52880
 11350.00000    8.45280    8.79890    8.79890   39.65520    0.00180    2.75370    0.11180    -999.25   -0.02560   25.21740    0.00180   82.69360   82.69360  225.99260  180.89640  183.25230   25.21740   31.79620   40.98260   31.79620    0.39080    -999.25    0.39080    2.75370 -178.22320   -2.33600   40.98260
 11400.00000    8.69120    8.78910    8.78910   55.45910    0.19580    2.61910    0.20650    -999.25    0.05320   18.03130    0.19580   62.65640   62.65640    -999.25    -999.25    -999.25   18.03130   22.68420   29.89990   22.68420    0.26020    -999.25    0.26020    2.61910 -234.39420  -58.21180   29.89990
