~Version ---------------------------------------------------
VERS.      2.0 : CWLS log ASCII Standard -VERSION 2.0
WRAP.       NO : One line per depth step
CREA. 12/13/17 : LAS Creation Date
~Well ------------------------------------------------------
STRT.FT                        950.0 : START DEPTH
STOP.FT                      10700.0 : STOP DEPTH
STEP.FT                     50.00000 : STEP LENGTH
NULL.                        -999.25 : NULL VALUE
COMP.         CALIFORNIA STANDARD CO : COMPANY
WELL. CALSTAN B.A. KAYBOB 4-16-62-19 : WELL
FLD .                                : FIELD
LOC .                                : LOCATION
CTRY.                         CANADA : COUNTRY
SRVC.         Schlumberger of Canada : SERVICE COMPANY
DATE.                    22-Apr-1959 : LOGDATE
PROV.                        Alberta : PROVINCE
UWI .               100041606219W500 : UNIQUE WELL ID
SLAT.WGS84                  54.35778 : SURFACE LATITUDE
SLON.WGS84                  -116.797 : SURFACE LONGITUDE
~Curve Information -----------------------------------------
DEPT  .FT         : Depth Curve
CALWS .IN         : CALIPER [CALSED]
CILDED.MMHO       : CONDUCTIVITY FROM RESISTIVITY LOG
CONDWS.MMHO       : CONDUCTIVITY [1000/DRESWS]
DRESWS.OHMM       : DEEP RESISTIVITY [1000/CILDED IF ILDED <1.5,ILDED]
DTED  .US/F       : DELTA-T FROM SONIC LOG [ADJ. TO RESISTIVITY LOG]
DTWS  .US/F       : COMPRESSIONAL SONIC [DTED]
GRSED .UgRa-Eq/T  : GAMMA RAY FROM SONIC LOG [ADJ. TO RESISTIVITY LOG]
GRWS  .GAPI       : GAMMA RAY [GRSED*16.5]
ILDED .OHMM       : DEEP INDUCTION FROM RESISTIVITY LOG
MCALED.IN         : MLT CALIPER FROM ML LOG
SNED  .OHMM       : SHORT NORMAL FROM RESISTIVITY LOG
SPRED .MV         : SPONTANEOUS POTENTIAL FROM RESISTIVITY LOG
SPWS  .MV         : SPONTANEOUS POTENTIAL [BASELINE 0 MV, SPRED]
SRESWS.OHMM       : SHALLOW RESISTIVITY [SNED]
~Params ----------------------------------------------------
LMF .                     KB : LOG MEASURED FROM
DMF .                     KB : DRILLING MEASURED FROM
EKB .FT               2867.8 : KELLY BUSHING
DATE.               04/22/59 : RUN DATE
RUN .                      2 : RUN NUMBER
DD  .FT                10705 : DEPTH DRILLER
DL  .FT                10705 : DEPTH LOGGER
BLI .FT                10700 : BOTTOM LOG INTERVAL
TLI .FT                 7054 : TOP LOG INTERVAL
BS  .IN                    9 : BIT SIZE
BSD .FT                10705 : BIT SIZE AT DEPTH
DFT .               OIL EMUL : DRILLING FLUID TYPE
DFD .                   10.1 : DRILLING FLUID DENSITY
DFV .                    130 : DRILLING FLUID VISCOSITY
DFPH.                      9 : DRILLING FLUID PH
DFL .                    5.2 : DRILLING FLUID LOSS
RMS .OHMM                3.2 : RESISTIVITY MUD SAMPLE
MST .DEGF                 57 : MUD SAMPLE TEMPERATURE
RMF .OHMM               1.75 : RESISTIVITY MUD FILTRATE SAMPLE
MFST.DEGF                 79 : MUD FILTRATE SAMPLE TEMPERATURE
RMC .OHMM                2.9 : RESISTIVITY MUD CAKE
MCST.DEGF                 79 : MUD CAKE SAMPLE TEMPERATURE
RMB .OHMM                0.8 : RESISTIVITY MUD AT BHT
TCS .HRS                   3 : TIME CIRCULATED STOPPED
LUN .                   1573 : LOGGING UNIT NUMBER
LUL .                     WC : LOGGING UNIT LOCATION
ENGI.               SHERRIFF : RECORDING ENGINEER
WITN.                RITCHIE : WITNESSED BY
CLNT.                A2DTECH : CLIENT CODE
ORIG.            2" 5" PRINT : ORIGIN OF DATA
UWI .       100041606219W500 : UNIQUE WELL ID
DICO. A2D Technologies, Inc. : DIGITIZING COMPANY
~Other -----------------------------------------------------
IEL-BHC LOG RUN
ALL DATA VERIFY FROM IEL LOG FROM TOP - 4100' FROM 2" SCALE & ALL DATA VERIFY FROM BHC LOG FROM TOP - 4048' FROM 2" SCALE
~ASCII -----------------------------------------------------
# ...
 5850.00000   13.19910  100.55660  118.10840    8.46680   91.55530   91.55530    4.30280   70.99620    8.46680   13.19910   19.40610  -52.41130   -5.24280   19.40610
 5900.00000   11.04810   65.77450   75.64070   13.22040   79.22910   79.22910    4.92360   81.23940   13.22040   11.04810   21.06730  -53.41820   -7.28780   21.06730
 5950.00000   10.06660   40.35030   46.77090   21.38080   71.82740   71.82740    3.87850   63.99520   21.38080   10.06660   33.11670  -62.30480  -18.16620   33.11670
 6000.00000   10.87310  128.46280  157.05240    6.36730   74.94770   74.94770    3.42000   56.42920    6.36730   10.87310   11.42590  -70.18120  -28.02470   11.42590
 6050.00000   10.19980   76.68940   90.31110   11.07300   73.22040   73.22040    3.15650   52.08270   11.07300   10.19980   25.73510 -102.85680  -62.67980   25.73510
 6100.00000   10.91790   78.42890   92.39840   10.82270   72.07720   72.07720    4.90680   80.96220   10.82270   10.91790   16.15700  -57.30260  -19.11990   16.15700
 6150.00000   10.43450   86.16320  101.29660    9.87200   77.70080   77.70080    5.47510   90.33920    9.87200   10.43450   16.72930  -40.30620   -3.60080   16.72930
 6200.00000   10.38400   80.79240   95.02720   10.52330   73.35190   73.35190    4.77880   78.85020   10.52330   10.38400   16.03470  -41.34540   -2.95850   16.03470
 6250.00000   10.21580   79.01300   95.76340   10.44240   74.09360   74.09360    5.43390   89.65940   10.44240   10.21580   15.97330  -44.64810   -5.92250   15.97330
 6300.00000   10.41400   88.81270  106.38880    9.39950   75.30240   75.30240    4.64840   76.69860    9.39950   10.41400   14.42030  -43.97860   -5.69180   14.42030
 6350.00000   10.23050   50.51800   57.83760   17.28980   69.29520   69.29520    5.33070   87.95570   17.28980   10.23050   27.03380  -43.16290   -5.32100   27.03380
 6400.00000    9.79070   46.63290   55.02280   18.17430   76.95960   76.95960    4.88880   80.66520   18.17430    9.79070   33.95290  -42.51700   -5.11880   33.95290
 6450.00000   11.58170   76.29700   86.95120   11.50070   77.31610   77.31610    5.82070   96.04160   11.50070   11.58170   20.16560  -40.02440   -3.06640   20.16560
 6500.00000    9.13930   42.15910   48.92870   20.43790   71.34730   71.34730    5.52580   91.17570   20.43790    9.13930   32.56310  -41.05790   -5.78650   32.56310
 6550.00000    8.48160  155.19040  189.56290    5.27800   70.45450   70.45450    1.95130   32.19640    5.27800    8.48160   25.88660 -114.46050  -81.05940   25.88660
 6600.00000   11.62110  213.10040  247.91750    4.03360  101.70520  101.70520    4.57720   75.52380    4.03360   11.62110    6.49240  -42.68280  -11.16760    6.49240
 6650.00000   12.68480  198.21760  228.31050    4.38000   95.81140   95.81140    4.68270   77.26460    4.38000   12.68480    7.26630  -39.88720  -10.24700    7.26630
 6700.00000    9.35480   21.66360   23.03570   43.41090   88.05420   88.05420   11.58690  191.18390   43.41090    9.35480   90.95230  -33.66730   -5.47460   90.95230
 6750.00000    8.93650   14.52800    3.86670  258.62070   63.46080   63.46080   10.43730  172.21550  258.62070    8.93650  356.52350  -38.20030  -10.87850  356.52350
 6800.00000    8.86990   57.23310   64.63840   15.50380   58.80060   58.80060    4.68510   77.30330   15.50380    8.86990   28.92170  -56.18980  -29.69820   28.92170
 6850.00000    8.94660   22.96470   28.55100   35.02510   63.73480   63.73480    4.16760   68.76540   35.02510    8.94660   57.54980  -50.68730  -25.03150   57.54980
 6900.00000    8.96210   34.73990   42.63410   23.45540   66.59210   66.59210    5.93790   97.97540   23.45540    8.96210   39.03930  -43.34210  -18.51660   39.03930
 6950.00000    8.80860   40.62360   47.82420   20.90990   55.66800   55.66800    2.00560   33.09240   20.90990    8.80860   32.66380 -108.91500  -84.92520   32.66380
 7000.00000    8.91140   58.79800   70.79600   14.12510   55.49820   55.49820    2.48370   40.98110   14.12510    8.91140   30.94510 -136.06580 -112.90630   30.94510
 7050.00000    8.78160   12.94720   16.64190   60.12510   51.43640   51.43640    2.26010   37.29080   60.12510    8.78160   98.90570 -100.48560  -78.15650   98.90570
 7100.00000    9.53260   20.28940   17.43400   57.35920   54.50680   54.50680    3.46110   57.10820   57.35920    9.53260   61.16150  -43.72150  -22.22810   61.16150
 7150.00000   10.60860   13.10290    5.81870  171.85880   52.34170   52.34170    1.83290   30.24290  171.85880   10.60860  101.27310  -76.20870  -55.73170  101.27310
 7200.00000    9.14110   69.88270   58.57000   17.07360   59.04260   59.04260    4.16190   68.67140   17.07360    9.14110   35.16770  -67.01170  -46.06580   35.16770
 7250.00000    9.36010   52.62220   49.42100   20.23430   55.64890   55.64890    1.81780   29.99370   20.23430    9.36010   34.55990  -74.05920  -51.87800   34.55990
 7300.00000    9.87950   23.27240   16.27840   61.93880   53.24210   53.24210    1.87890   31.00230   61.93880    9.87950   82.51770  -70.38720  -46.96980   82.51770
 7350.00000    9.20360   15.80630    9.89190  101.09290   50.25670   50.25670    1.30290   21.49790  101.09290    9.20360   94.74400  -94.54890  -69.88780   94.74400
 7400.00000    8.75910   37.36760   32.59490   30.67960   51.57530   51.57530    1.20680   19.91140   30.67960    8.75910   85.13490 -148.21440 -122.31790   85.13490
 7450.00000    8.47180   26.14740   21.61880   46.25610   52.99020   52.99020    1.35690   22.38970   46.25610    8.47180   92.20480 -164.32010 -137.17900   92.20480
 7500.00000    9.00200  225.66470  240.03260    4.16610   68.10230   68.10230    3.60260   59.44290    4.16610    9.00200   10.08980  -75.50860  -47.13220   10.08980
 7550.00000    8.91090   69.03590   67.12960   14.90000   59.43850   59.43850    3.57260   58.94710   14.90000    8.91090   26.36680  -58.23330  -28.62770   26.36680
 7600.00000    9.09410   86.34570   76.61430   13.05240   67.16800   67.16800    4.65090   76.73990   13.05240    9.09410   25.67520  -36.72160   -8.04850   25.67520
 7650.00000    9.15850   37.08960   31.83180   31.41510   58.84600   58.84600    3.28000   54.12000   31.41510    9.15850   39.19550  -43.24990  -15.51050   39.19550
 7700.00000    9.04600   30.44020   27.01130   37.02150   56.94150   56.94150    2.87390   47.41940   37.02150    9.04600   46.63330  -51.70870  -24.90780   46.63330
 7750.00000    9.19120   50.58080   46.45760   21.52500   63.00290   63.00290    3.36260   55.48290   21.52500    9.19120   32.58380  -44.28080  -18.41370   32.58380
 7800.00000    8.93280   26.97050   23.69070   42.24320   59.03770   59.03770    2.34170   38.63720   42.24320    8.93280   49.98900  -54.46460  -29.53020   49.98900
 7850.00000    8.92880   20.38750   15.37070   65.05880   59.15810   59.15810    2.35920   38.92680   65.05880    8.92880   73.53260  -60.43520  -36.44030   73.53260
 7900.00000    8.98470   13.27100    7.88690  126.79260   52.82040   52.82040    1.59590   26.33240  126.79260    8.98470  110.41850  -81.55900  -58.49780  110.41850
 7950.00000    8.92220   13.24300    6.11670  163.48730   57.02490   57.02490    2.47830   40.89200  163.48730    8.92220  114.30930  -46.67810  -24.55550  114.30930
 8000.00000    8.94490   12.04790    7.30860  136.82570   58.84400   58.84400    2.68940   44.37510  136.82570    8.94490  111.42930  -42.93280  -21.74390  111.42930
 8050.00000    9.06830   12.90500    3.49600  286.09950   60.67820   60.67820    4.74880   78.35520  286.09950    9.06830  108.82840  -41.79160  -21.53540  108.82840
 8100.00000    9.03700   13.00570    3.33180  300.13670   61.36940   61.36940   14.86630  245.29400  300.13670    9.03700  107.18530  -66.51760  -46.40500  107.18530
 8150.00000    9.41240   11.98310    3.92420  254.82870   53.06740   53.06740    1.48000   24.42000  254.82870    9.41240  153.64210 -100.52750  -80.53000  153.64210
 8200.00000    9.18940   11.57800    5.14650  194.30670   94.82950   94.82950    1.53350   25.30280  194.30670    9.18940  138.33750 -112.51070  -92.62820  138.33750
 8250.00000   10.00080   11.17280    4.72500  211.64040   56.66810   56.66810    1.46730   24.21050  211.64040   10.00080  154.40290 -124.16320 -104.39580  154.40290
