~Version ---------------------------------------------------
VERS.      2.0 : CWLS log ASCII Standard -VERSION 2.0
WRAP.       NO : One line per depth step
CREA. 11/22/17 : LAS Creation Date
~Well ------------------------------------------------------
STRT.FT                       1500.0 : START DEPTH
STOP.FT                      10400.0 : STOP DEPTH
STEP.FT                     50.00000 : STEP LENGTH
NULL.                        -999.25 : NULL VALUE
COMP.   MERLAND EXPLORATIONS LIMITED : COMPANY
WELL. MERLAND ET AL GIROUXLUX 10-11- : WELL
FLD .                                : FIELD
LOC .                                : LOCATION
CTRY.                         CANADA : COUNTRY
SRVC.                        Unknown : SERVICE COMPANY
DATE.                    26-Feb-1978 : LOGDATE
PROV.                        Alberta : PROVINCE
UWI .               100101106622W500 : UNIQUE WELL ID
SLAT.WGS84                  54.70081 : SURFACE LATITUDE
SLON.WGS84                 -117.2093 : SURFACE LONGITUDE
~Curve Information -----------------------------------------
DEPT    .FT    : Depth Curve
CALDED  .IN    : CALIPER FROM DENSITY LOG [ADJ. TO RESISTIVITY LOG]
CALSED  .IN    : CALIPER FROM SONIC LOG [ADJ. TO RESISTIVITY LOG]
CALWS   .IN    : CALIPER [CALDED SPL. TO CALSED @ 8272']
CONDWS  .MMHO  : CONDUCTIVITY [1000/DRESWS]
DCORED  .G/C3  : DENSITY CORRECTION FROM DENSITY LOG [ADJ. TO RESISTIVITY LOG]SMALL SCALE
DCORWS  .G/C3  : DENSITY CORRECTION [DCORED]
DENWS   .G/C3  : FORMATION BULK DENSITY [CALC FROM DPOLSWS, M=2.71, F=1.0]
DPHILSED.V/V   : DENSITY POROSITY LIMESTONE [M=2.71,F=1.0] FROM DENSITY LOG [ADJ. TO RESISTIVITY LOG]
DPHISSED.V/V   : DENSITY POROSITY SANDSTONE [M=2.65,F=1.0] FROM DENSITY LOG [ADJ. TO RESISTIVITY LOG]
DPOLSWS .V/V   : DENSITY POROSITY LIMESTONE [DPHISSED CONVERTED TO LIMESTONE MATRIX, M=2.71, F=1.00 SPL.TO DPHILSED @ 5906']
DRESWS  .OHMM  : DEEP RESISTIVITY [ILDED]
DTED    .US/F  : DELTA-T FROM SONIC LOG [ADJ. TO RESISTIVITY LOG]
DTWS    .US/F  : COMPRESSIONAL SONIC [DTED]
GRDED   .GAPI  : GAMMA RAY FROM DENSITY LOG [ADJ. TO RESISTIVITY LOG]
GRSED   .GAPI  : GAMMA RAY FROM SONIC LOG [ADJ. TO RESISTIVITY LOG]
GRWS    .GAPI  : GAMMA RAY [GRDED SPL. TO GRSED @ 8262.5']
ILDED   .OHMM  : DEEP INDUCTION RESISTIVITY FROM RESISTIVITY LOG
ILMED   .OHMM  : MEDIUM INDUCTION RESISTIVITY FROM RESISTIVITY LOG
LL8ED   .OHMM  : LATEROLOG 8 FROM RESISTIVITY LOG
MRESWS  .OHMM  : MEDIUM RESISTIVITY [ILMED]
NPHILSED.V/V   : NEUTRON POROSITY LIMESTONE FROM DENSITY LOG [ADJ. TO RESISTIVITY LOG]
NPHISSED.V/V   : NEUTRON POROSITY SANDSTONE FROM DENSITY LOG [ADJ. TO RESISTIVITY LOG]
NPOLSWS .V/V   : NEUTRON POROSITY LIMESTONE [NPHISSED MATRIX (SLB) CONVERSION FOR LIMESTONE, SPL.TO NPHILSED @ 5914']
RHOBED  .G/C3  : BULK DENSITY FROM DENSITY LOG [ADJ. TO RESISTIVITY LOG] SMALL SCALE
SPRED   .MV    : SPONTANEOUS POTENTIAL FROM RESISTIVITY LOG
SPWS    .MV    : SPONTANEOUS POTENTIAL [BASELINE 0 MV, SPRED]
SRESWS  .OHMM  : SHALLOW RESISTIVITY [LL8ED]
~Params ----------------------------------------------------
PD  .                     GL : PERMANENT DATUM
EPD .FT                 2391 : ELEVATION PERMANENT DATUM
LMF .                     KB : LOG MEASURED FROM
DAPD.FT                   16 : FEET ABOVE PERMANENT DATUM
DMF .                     KB : DRILLING MEASURED FROM
EKB .FT                 2407 : KELLY BUSHING
EGL .FT                 2391 : GROUND LEVEL
DATE.               02/26/78 : RUN DATE
RUN .                      2 : RUN NUMBER
DD  .FT                10409 : DEPTH DRILLER
DL  .FT                10410 : DEPTH LOGGER
BLI .FT                10404 : BOTTOM LOG INTERVAL
TLI .FT                 8200 : TOP LOG INTERVAL
CBD .FT                 1515 : CASING BOTTOM DRILLER
CBL .FT                 1514 : CASING BOTTOM LOGGER
BS  .IN                 8.75 : BIT SIZE
BSD .FT                10409 : BIT SIZE AT DEPTH
DFT .               GEL CHEM : DRILLING FLUID TYPE
DFD .                    9.3 : DRILLING FLUID DENSITY
DFV .                     75 : DRILLING FLUID VISCOSITY
DFPH.                    9.5 : DRILLING FLUID PH
DFL .                    9.2 : DRILLING FLUID LOSS
MSS .               FLOWLINE : MUD SAMPLE SOURCE
RMS .OHMM               2.47 : RESISTIVITY MUD SAMPLE
MST .DEGF                 51 : MUD SAMPLE TEMPERATURE
RMF .OHMM               3.21 : RESISTIVITY MUD FILTRATE SAMPLE
MFST.DEGF                 60 : MUD FILTRATE SAMPLE TEMPERATURE
RMB .OHMM               1.02 : RESISTIVITY MUD AT BHT
TCS .HRS                 3.5 : TIME CIRCULATED STOPPED
LUN .                   7730 : LOGGING UNIT NUMBER
LUL .                    EDM : LOGGING UNIT LOCATION
ENGI.               ACKERMAN : RECORDING ENGINEER
WITN.                  GAWNE : WITNESSED BY
CLNT.                A2DTECH : CLIENT CODE
ORIG.            2" 5" PRINT : ORIGIN OF DATA
UWI .       100101106622W500 : UNIQUE WELL ID
DICO. A2D Technologies, Inc. : DIGITIZING COMPANY
~Other -----------------------------------------------------
~ASCII -----------------------------------------------------
 1500.00000    -999.25    -999.25    -999.25    -999.25    -999.25    -999.25    -999.25    -999.25    -999.25    -999.25    -999.25    -999.25    -999.25   43.03190    -999.25   43.03190    -999.25    -999.25    -999.25    -999.25    -999.25    0.57620    0.54060    -999.25    -999.25    -999.25    -999.25
 1550.00000   10.85440    -999.25   10.85440  265.25200    0.07340    0.07340    2.22130    -999.25    0.25980    0.28580    3.77000    -999.25    -999.25   83.01240    -999.25   83.01240    3.77000    3.45530    3.99460    3.45530    -999.25    0.45850    0.41710    2.21270   33.80680   -3.78430    3.99460
 1600.00000    9.75080    -999.25    9.75080  191.06610    0.13790    0.13790    2.33300    -999.25    0.19210    0.22050    5.23400    -999.25    -999.25   81.21160    -999.25   81.21160    5.23400    5.00090    5.68920    5.00090    -999.25    0.41920    0.37670    2.34830   32.88610   -4.86670    5.68920
 1650.00000   10.75550    -999.25   10.75550  206.02840    0.10470    0.10470    2.27230    -999.25    0.22890    0.25600    4.85370    -999.25    -999.25   70.25840    -999.25   70.25840    4.85370    4.54630    5.46360    4.54630    -999.25    0.42930    0.38710    2.30060   32.43370   -5.47910    5.46360
 1700.00000   10.98400    -999.25   10.98400  263.77430    0.09850    0.09850    2.26100    -999.25    0.23580    0.26260    3.79120    -999.25    -999.25   96.73790    -999.25   96.73790    3.79120    3.58710    4.02910    3.58710    -999.25    0.47310    0.43220    2.27470   33.39950   -4.67500    4.02910
 1750.00000   10.02930    -999.25   10.02930   49.77380    0.05520    0.05520    2.18950    -999.25    0.27910    0.30440   20.09090    -999.25    -999.25   37.76740    -999.25   37.76740   20.09090   16.23980   14.50230   16.23980    -999.25    0.34460    0.30090    2.19790   30.21890   -8.01560   14.50230
 1800.00000   10.59960    -999.25   10.59960   72.03050    0.01570    0.01570    2.31010    -999.25    0.20600    0.23390   13.88300    -999.25    -999.25   53.60640    -999.25   53.60640   13.88300   12.05960   13.07520   12.05960    -999.25    0.31940    0.27550    2.31080   32.18300   -6.21230   13.07520
 1850.00000   10.36340    -999.25   10.36340  202.70470    0.07960    0.07960    2.37540    -999.25    0.16640    0.19570    4.93330    -999.25    -999.25   71.34010    -999.25   71.34010    4.93330    4.30180    4.81910    4.30180    -999.25    0.41710    0.37460    2.37290   33.69740   -4.85960    4.81910
 1900.00000    9.81760    -999.25    9.81760  222.46450    0.02110    0.02110    2.36900    -999.25    0.17030    0.19940    4.49510    -999.25    -999.25   85.82400    -999.25   85.82400    4.49510    4.12390    5.16230    4.12390    -999.25    0.42810    0.38580    2.37490   34.87890   -3.83810    5.16230
 1950.00000    9.77000    -999.25    9.77000  212.17120    0.04350    0.04350    2.29230    -999.25    0.21680    0.24430    4.71360    -999.25    -999.25   67.39520    -999.25   67.39520    4.71360    4.21320    4.49890    4.21320    -999.25    0.46960    0.42850    2.28630   35.14850   -3.73010    4.49890
 2000.00000    8.90040    -999.25    8.90040  137.27780    0.00470    0.00470    2.38830    -999.25    0.15860    0.18810    7.28450    -999.25    -999.25   72.81160    -999.25   72.81160    7.28450    6.86280    7.62080    6.86280    -999.25    0.39840    0.35550    2.40430   38.16750   -0.87120    7.62080
 2050.00000    9.30460    -999.25    9.30460  242.67720    0.13390    0.13390    2.17650    -999.25    0.28700    0.31200    4.12070    -999.25    -999.25   69.26200    -999.25   69.26200    4.12070    3.80420    4.00830    3.80420    -999.25    0.46910    0.42800    2.18050   37.75650   -1.44310    4.00830
 2100.00000    9.51640    -999.25    9.51640   56.75200    0.03500    0.03500    2.41760    -999.25    0.14080    0.17100   17.62800    -999.25    -999.25   44.77280    -999.25   44.77280   17.62800   19.27040   22.40980   19.27040    -999.25    0.27930    0.23540    2.43640   35.51690   -3.70150   22.40980
 2150.00000   10.03090    -999.25   10.03090   65.67320    0.06820    0.06820    2.22730    -999.25    0.25620    0.28230   15.22690    -999.25    -999.25   54.82780    -999.25   54.82780   15.22690   14.48310   13.90090   14.48310    -999.25    0.37970    0.33650    2.24590   27.86190  -11.15690   13.90090
 2200.00000   10.58850    -999.25   10.58850   98.38330    0.04020    0.04020    2.35270    -999.25    0.18020    0.20900   10.17270    -999.25    -999.25   59.64510    -999.25   59.64510   10.17270    9.48180   10.83980    9.48180    -999.25    0.34480    0.30110    2.37930   33.16940   -5.64780   10.83980
 2250.00000   10.88700    -999.25   10.88700  207.44740    0.12980    0.12980    2.09000    -999.25    0.33940    0.36260    4.82050    -999.25    -999.25   75.60270    -999.25   75.60270    4.82050    4.46100    5.36980    4.46100    -999.25    0.46120    0.41990    2.07440   37.26510   -1.35240    5.36980
 2300.00000   12.29350    -999.25   12.29350  181.87110    0.14730    0.14730    2.21770    -999.25    0.26200    0.28790    5.49840    -999.25    -999.25   67.88430    -999.25   67.88430    5.49840    4.92660    5.05190    4.92660    -999.25    0.43780    0.39580    2.21360   35.96210   -2.45480    5.05190
 2350.00000   15.00980    -999.25   15.00980  150.19980    0.14110    0.14110    2.08800    -999.25    0.34060    0.36370    6.66620    -999.25    -999.25   60.35560    -999.25   60.35560    6.66620    6.10460    7.48930    6.10460    -999.25    0.45530    0.41390    2.06150   36.20700   -2.00820    7.48930
 2400.00000   15.00000    -999.25   15.00000  194.17100    0.11290    0.11290    2.11420    -999.25    0.32470    0.34840    5.15010    -999.25    -999.25   64.32970    -999.25   64.32970    5.15010    4.42190    4.90400    4.42190    -999.25    0.48840    0.44810    2.12870   37.04740   -0.96820    4.90400
 2450.00000   15.00000    -999.25   15.00000  197.79120    0.17870    0.17870    2.00600    -999.25    0.39030    0.41170    5.05640    -999.25    -999.25   66.66280    -999.25   66.66280    5.05640    4.80880    5.38530    4.80880    -999.25    0.45960    0.41820    2.00300   37.46520   -0.34870    5.38530
 2500.00000   15.00000    -999.25   15.00000  193.92620    0.12150    0.12150    2.10850    -999.25    0.32820    0.35180    5.15660    -999.25    -999.25   67.78860    -999.25   67.78860    5.15660    5.39660    4.79240    5.39660    -999.25    0.46850    0.42740    2.13480   37.11780   -0.49660    4.79240
 2550.00000   10.68400    -999.25   10.68400  138.40450    0.01580    0.01580    1.92750    -999.25    0.43790    0.45760    7.22520    -999.25    -999.25   87.07260    -999.25   87.07260    7.22520    6.60040    7.68800    6.60040    -999.25    0.53390    0.49580    1.96980   30.96790   -6.44580    7.68800
 2600.00000   10.62000    -999.25   10.62000  142.20560    0.01170    0.01170    2.09050    -999.25    0.33910    0.36230    7.03230    -999.25    -999.25  109.94310    -999.25  109.94310    7.03230    6.64950    7.90860    6.64950    -999.25    0.49860    0.45870    2.08200   31.47830   -5.73370    7.90860
 2650.00000   11.69500    -999.25   11.69500  136.43310    0.03460    0.03460    2.33730    -999.25    0.18950    0.21790    7.32960    -999.25    -999.25  140.44260    -999.25  140.44260    7.32960    7.00590    9.27730    7.00590    -999.25    0.42360    0.38120    2.33940   36.24760   -0.76490    9.27730
 2700.00000   13.17720    -999.25   13.17720  122.09170    0.05540    0.05540    2.38860    -999.25    0.15850    0.18800    8.19060    -999.25    -999.25  146.19290    -999.25  146.19290    8.19060    7.83000    9.40640    7.83000    -999.25    0.42560    0.38330    2.38430   35.83960   -0.97120    9.40640
 2750.00000   13.89490   11.51290   13.89490  131.45440    0.06170    0.06170    2.43020    -999.25    0.13320    0.16360    7.60720   96.02590   96.02590  113.16700  104.44800  113.16700    7.60720    7.27260    8.91490    7.27260    -999.25    0.40320    0.36040    2.43140   34.93470   -1.67650    8.91490
