~Version ---------------------------------------------------
VERS. 2.0 : CWLS log ASCII Standard -VERSION 2.0
WRAP.  NO : ONE LINE PER DEPTH STEP
~Well ------------------------------------------------------
STRT.M                          300.0 : START DEPTH
STOP.M                         1750.0 : STOP DEPTH
STEP.M                       50.00000 : STEP LENGTH
NULL.                         -999.25 : NULL VALUE
COMP.                   ENERMARK INC. : COMPANY
WELL. BLUESKY FLAME NIPISI 15-32-80-9 : WELL
FLD .                          NIPISI : FIELD
LOC .                                 : LOCATION
CTRY.                          CANADA : COUNTRY
SRVC.          Schlumberger of Canada : SERVICE COMPANY
DATE.                     13-Feb-1985 : LOGDATE
PROV.                         Alberta : PROVINCE
UWI .                100153208009W500 : UNIQUE WELL ID
SLAT.WGS84              55.9820335402 : SURFACE LATITUDE
SLON.WGS84            -115.3667657043 : SURFACE LONGITUDE
~Curve Information -----------------------------------------
DEPT    .M                                                           : DEPTH METERS
CALSED  .MM                                                          : CALIPER FROM SONIC LOG
CALWS   .MM                                                          : CALIPER [CALSED]
CONDWS  .MMHO                                                        : CONDUCTIVITY [1000/DRESWS]
DCORWS  .KG/M3                                                       : DENSITY CORRECTION [DRHOED]
DENWS   .KG/M3                                                       : BULK DENSITY [CONVERTED TO M=2710 F=1000] [CALCULATED FROM DPOLSWS]
DPHISSED.V/V                                                         : DENSITY POROSITY [M=2650 F=1000] FROM DENSITY LOG
DPOLSWS .V/V                                                         : DENSITY POROSITY LIMESTONE [CONVERTED DPHISSED TO M=2710 F=1000]
DRESWS  .OHMM                                                        : DEEP RESISTIVITY [ILDED]
DRHOED  .KG/M3                                                       : DENSITY CORRECTION FROM DENSITY LOG
DTED    .US/M                                                        : DELTA TIME FROM SONIC LOG
DTWS    .US/M                                                        : DELTA TIME [DTED]
GRSED   .GAPI                                                        : GAMMA RAY FROM SONIC LOG
GRWS    .GAPI                                                        : GAMMA RAY [GRSED] CASING @274M
ILDED   .OHMM                                                        : INDUCTION LOG DEEP RESISTIVITY
ILMED   .OHMM                                                        : INDUCTION LOG MEDIUM RESISTIVITY
MRESWS  .OHMM                                                        : MEDIUM RESISTIVITY [ILMED]
NPHISSED.V/V                                                         : NEUTRON POROSITY SANDSTONE FROM DENSITY LOG
NPOLSWS .V/V :   NEUTRON POROSITY LIMESTONE [CONVERTED FROM NPHISSED : CO. SWS, TOOL=CNL(NPHI). SIGM IN=4.6, SIGM OUT=7.1]
PEFED   .B/E                                                         : PHOTOELECTRIC FACTOR FROM DENSITY LOG
PEFWS   .B/E                                                         : PHOTOELECTRIC FACTOR [PEFED]
RHOBED  .KG/M3                                                       : BULK DENSITY FROM DENSITY LOG
SFLUED  .OHMM                                                        : SPHERICALLY FOCUSED LOG RESISTIVITY
SPRED   .MV                                                          : SPONTANEOUS POTENTIAL FROM RESISTIVITY LOG
SPWS    .MV                                                          : SPONTANEOUS POTENTIAL [BASELINE 0 MV] [SPRED]
SRESWS  .OHMM                                                        : SHALLOW RESISTIVITY [SFLUED]
~Params ----------------------------------------------------
PD  .                         GL : PERMANENT DATUM
EPD .M                    639.64 : ELEVATION PERMANENT DATUM
LMF .                         KB : LOG MEASURED FROM
DAPD.M                      4.42 : FEET ABOVE PERMANENT DATUM
DMF .                         KB : DRILLING MEASURED FROM
EKB .M                    644.06 : KELLY BUSHING
EGL .M                    639.64 : GROUND LEVEL
DATE.                   02/13/85 : RUN DATE
RUN .                          1 : RUN NUMBER
DD  .M                      1755 : DEPTH DRILLER
DL  .M                      1756 : DEPTH LOGGER
BLI .M                      1755 : BOTTOM LOG INTERVAL
TLI .M                       274 : TOP LOG INTERVAL
CS  .MM                      219 : CASING SIZE
CBD .M                       274 : CASING BOTTOM DRILLER
CBL .M                       274 : CASING BOTTOM LOGGER
BS  .MM                      200 : BIT SIZE
BSD .M                      1755 : BIT SIZE AT DEPTH
DFT .                   GEL CHEM : DRILLING FLUID TYPE
DFD .                       1105 : DRILLING FLUID DENSITY
DFV .                        112 : DRILLING FLUID VISCOSITY
DFPH.                         11 : DRILLING FLUID PH
DFL .                          4 : DRILLING FLUID LOSS
MSS .                   FLOWLINE : MUD SAMPLE SOURCE
RMS .OHMM                  0.591 : RESISTIVITY MUD SAMPLE
MST .DEGC                     16 : MUD SAMPLE TEMPERATURE
RMF .OHMM                  0.665 : RESISTIVITY MUD FILTRATE SAMPLE
MFST.DEGC                     15 : MUD FILTRATE SAMPLE TEMPERATURE
RMC .OHMM                  0.393 : RESISTIVITY MUD CAKE
MCST.DEGC                   40.3 : MUD CAKE SAMPLE TEMPERATURE
MFSS.                       MEAS : MUD FILTRATE SAMPLE SOURCE
RMB .OHMM                  0.359 : RESISTIVITY MUD AT BHT
TCS .HRS                    2000 : TIME CIRCULATED STOPPED
TLAB.HRS                     100 : TIME LOGGER AT BOTTOM
LUN .                       8210 : LOGGING UNIT NUMBER
LUL .                        EDM : LOGGING UNIT LOCATION
ENGI.                    WOODING : RECORDING ENGINEER
WITN.                   FUKUMOTO : WITNESSED BY
CLNT.                    A2DTECH : CLIENT CODE
ORIG. 6.5"/100M 16.5"/100M PRINT : ORIGIN OF DATA
UWI .           100153208009W500 : UNIQUE WELL ID
DICO.     A2D Technologies, Inc. : DIGITIZING COMPANY
~Other -----------------------------------------------------
~ASCII -----------------------------------------------------
  300.00000  266.06240  266.06240  238.46430    -999.25    -999.25    -999.25    -999.25    4.19350    -999.25  494.60490  494.60490  116.61140  116.61140    4.19350    4.09240    4.09240    -999.25    -999.25    -999.25    -999.25    -999.25    4.43420  -50.77880   -6.55070    4.43420
  350.00000  231.36000  231.36000  127.35770    -999.25    -999.25    -999.25    -999.25    7.85190    -999.25  382.23650  382.23650   65.45050   65.45050    7.85190    8.79660    8.79660    -999.25    -999.25    -999.25    -999.25    -999.25    8.43750  -69.77970  -26.35160    8.43750
  400.00000  298.93640  298.93640  226.08580    -999.25    -999.25    -999.25    -999.25    4.42310    -999.25  452.20420  452.20420   53.04090   53.04090    4.42310    3.60270    3.60270    -999.25    -999.25    -999.25    -999.25    -999.25    3.67030  -52.74580  -10.57540    3.67030
  450.00000  249.00260  249.00260  154.83710    -999.25    -999.25    -999.25    -999.25    6.45840    -999.25  358.29230  358.29230   57.10790   57.10790    6.45840    7.40290    7.40290    -999.25    -999.25    -999.25    -999.25    -999.25    8.65400  -62.23530  -21.32250    8.65400
  500.00000  301.67680  301.67680  171.80360    -999.25    -999.25    -999.25    -999.25    5.82060    -999.25  377.94200  377.94200   68.07580   68.07580    5.82060    5.40960    5.40960    -999.25    -999.25    -999.25    -999.25    -999.25    5.34150  -51.91200  -12.25690    5.34150
  550.00000  236.46800  236.46800  119.16680    -999.25    -999.25    -999.25    -999.25    8.39160    -999.25  311.95320  311.95320   60.96920   60.96920    8.39160    8.90720    8.90720    -999.25    -999.25    -999.25    -999.25    -999.25   10.16480  -56.62870  -18.23130   10.16480
  600.00000  272.50810  272.50810  166.94210    -999.25    -999.25    -999.25    -999.25    5.99010    -999.25  309.79540  309.79540   54.01040   54.01040    5.99010    5.02050    5.02050    -999.25    -999.25    -999.25    -999.25    -999.25    6.97040  -48.46700  -11.22590    6.97040
  650.00000  252.18120  252.18120  136.48520    -999.25    -999.25    -999.25    -999.25    7.32680    -999.25  187.76710  187.76710   20.03410   20.03410    7.32680    7.88700    7.88700    -999.25    -999.25    -999.25    -999.25    -999.25   10.03100  -51.88980  -15.60090   10.03100
  700.00000  237.89640  237.89640   84.70050    -999.25    -999.25    -999.25    -999.25   11.80630    -999.25  228.56130  228.56130   33.79210   33.79210   11.80630   11.80730   11.80730    -999.25    -999.25    -999.25    -999.25    -999.25   13.81920  -45.50460  -10.16790   13.81920
  750.00000  267.66950  267.66950  173.84350    -999.25    -999.25    -999.25    -999.25    5.75230    -999.25  285.91930  285.91930   32.06680   32.06680    5.75230    5.66520    5.66520    -999.25    -999.25    -999.25    -999.25    -999.25    6.00680  -34.84300   -0.45850    6.00680
  800.00000  232.97610  232.97610   81.87730    -999.25    -999.25    -999.25    -999.25   12.21340    -999.25  224.99810  224.99810   28.95010   28.95010   12.21340   13.24780   13.24780    -999.25    -999.25    -999.25    -999.25    -999.25   15.59870  -40.61280   -7.27300   15.59870
  850.00000  238.36550  238.36550   35.87620    -999.25    -999.25    -999.25    -999.25   27.87360    -999.25  185.11800  185.11800   17.32380   17.32380   27.87360   40.76040   40.76040    -999.25    -999.25    -999.25    -999.25    -999.25   63.93830  -65.80760  -33.61090   63.93830
  900.00000  236.14090  236.14090   48.83000    -999.25    -999.25    -999.25    -999.25   20.47920    -999.25  190.65190  190.65190   16.16690   16.16690   20.47920   24.87300   24.87300    -999.25    -999.25    -999.25    -999.25    -999.25   33.77200  -90.10380  -59.05030   33.77200
  950.00000  244.63890  244.63890   38.33690    -999.25    -999.25    -999.25    -999.25   26.08450    -999.25  188.78680  188.78680   16.21030   16.21030   26.08450   49.04010   49.04010    -999.25    -999.25    -999.25    -999.25    -999.25  111.92120 -107.51360  -77.60320  111.92120
 1000.00000  230.05350  230.05350   20.55310    -999.25    -999.25    -999.25    -999.25   48.65440    -999.25  177.40340  177.40340   17.60450   17.60450   48.65440   52.34920   52.34920    -999.25    -999.25    -999.25    -999.25    -999.25   60.32180  -72.51840  -43.75120   60.32180
 1050.00000  231.06010  231.06010   14.18780    -999.25    -999.25    -999.25    -999.25   70.48320    -999.25  168.78340  168.78340   16.77020   16.77020   70.48320  108.20150  108.20150    -999.25    -999.25    -999.25    -999.25    -999.25  125.07640  -77.30930  -49.68520  125.07640
 1100.00000  229.14180  229.14180   15.84470    -999.25    -999.25    -999.25    -999.25   63.11250    -999.25  168.23320  168.23320   20.30570   20.30570   63.11250  116.75070  116.75070    -999.25    -999.25    -999.25    -999.25    -999.25  112.28370  -72.93340  -46.45250  112.28370
 1150.00000  220.65670  220.65670   21.70940    -999.25    -999.25    -999.25    -999.25   46.06290    -999.25  156.43240  156.43240   21.48320   21.48320   46.06290   72.62830   72.62830    -999.25    -999.25    -999.25    -999.25    -999.25  106.91580  -81.60950  -56.27170  106.91580
 1200.00000  229.22280  229.22280  174.67860    -999.25    -999.25    -999.25    -999.25    5.72480    -999.25  212.03640  212.03640   61.70740   61.70740    5.72480    6.44140    6.44140    -999.25    -999.25    -999.25    -999.25    -999.25    8.73100  -65.73160  -41.53700    8.73100
 1250.00000  247.64520  247.64520  289.50260    -999.25    -999.25    -999.25    -999.25    3.45420    -999.25  260.12850  260.12850   64.41240   64.41240    3.45420    2.93150    2.93150    -999.25    -999.25    -999.25    -999.25    -999.25    2.33940  -41.38550  -18.33400    2.33940
 1300.00000  222.06760  222.06760  172.80410    -999.25    -999.25    -999.25    -999.25    5.78690    -999.25  251.53450  251.53450   76.17640   76.17640    5.78690    6.14200    6.14200    -999.25    -999.25    -999.25    -999.25    -999.25    6.89160  -25.57150   -3.66320    6.89160
 1350.00000  304.47060  304.47060  336.30400    -999.25    -999.25    -999.25    -999.25    2.97350    -999.25  314.09930  314.09930   77.02630   77.02630    2.97350    2.81690    2.81690    -999.25    -999.25    -999.25    -999.25    -999.25    3.16830  -47.09100  -26.32580    3.16830
 1400.00000  285.14170  285.14170  465.98320    -999.25    -999.25    -999.25    -999.25    2.14600    -999.25  400.02730  400.02730   87.53180   87.53180    2.14600    2.00840    2.00840    -999.25    -999.25    -999.25    -999.25    -999.25    2.45280  -33.34770  -13.72570    2.45280
 1450.00000  234.10800  234.10800  155.22890    -999.25    -999.25    -999.25    -999.25    6.44210    -999.25  242.21080  242.21080   72.95910   72.95910    6.44210    6.77790    6.77790    -999.25    -999.25    -999.25    -999.25    -999.25    7.54030  -19.18940   -5.00050    7.54030
 1500.00000  286.76560  286.76560  292.51740    -999.25    -999.25    -999.25    -999.25    3.41860    -999.25  297.50410  297.50410   77.33810   77.33810    3.41860    3.26680    3.26680    -999.25    -999.25    -999.25    -999.25    -999.25    4.59770  -27.39670  -17.21400    4.59770
 1550.00000  235.56210  235.56210  189.38680    -999.25    -999.25    -999.25    -999.25    5.28020    -999.25  278.32500  278.32500   71.83710   71.83710    5.28020    6.79110    6.79110    -999.25    -999.25    -999.25    -999.25    -999.25    4.68500  -25.06070  -18.48960    4.68500
 1600.00000  221.13070  221.13070  153.32720    -999.25    -999.25    -999.25    -999.25    6.52200    -999.25  249.97430  249.97430   90.06050   90.06050    6.52200    6.95610    6.95610    -999.25    -999.25    -999.25    -999.25    -999.25    8.21050   -4.86270   -1.85820    8.21050
 1650.00000  200.86110  200.86110  119.43580    0.64410 2658.08500   -0.00490    0.03040    8.37270    0.64410  230.43000  230.43000   65.99020   65.99020    8.37270    8.97210    8.97210    0.21760    0.17400    4.26930    4.26930 2658.08500   10.59040   -3.85580   -2.73280   10.59040
