~Version ---------------------------------------------------
VERS.      2.0 : CWLS log ASCII Standard -VERSION 2.0
WRAP.       NO : One line per depth step
CREA. 09/25/17 : LAS Creation Date
~Well ------------------------------------------------------
STRT.FT                               300.0 : START DEPTH
STOP.FT                              8350.0 : STOP DEPTH
STEP.FT                            50.00000 : STEP LENGTH
NULL.                               -999.25 : NULL VALUE
COMP. CANADA CITIES SERVICE PETROLEUM CORP. : COMPANY
WELL.          CITIES SERVICE KEYSTONE 8-15 : WELL
FLD .                                       : FIELD
LOC .                                       : LOCATION
CTRY.                                CANADA : COUNTRY
SRVC.                               Unknown : SERVICE COMPANY
DATE.                           07-May-1956 : LOGDATE
PROV.                               Alberta : PROVINCE
UWI .                      100081504804W500 : UNIQUE WELL ID
SLAT.WGS84                         53.13956 : SURFACE LATITUDE
SLON.WGS84                         -114.492 : SURFACE LONGITUDE
~Curve Information -----------------------------------------
DEPT   .FT         : Depth Curve
CALMED .IN         : CALIPER FROM MICROLATEROLOG [ADJ TO SLB EL LOG]
CALWS  .IN         : CALIPER [MCALED SPL. @6414' TO CALMED]
CONDWS .MMHO       : CONDUCTIVITY [1000/DRESWS]
DRESWS .OHMM       : DEEP RESISTIVITY [LNED]
GRN1ED .UgRa-Eq/T  : GAMMA RAY FROM SLB GRN-RADIATION LOG
GRN2ED .GAPI       : GAMMA RAY FROM GRN LOG [ADJ TO SLB EL LOG]
GRNED  .UR/HR      : GAMMA RAY FROM McCULLOUGH GRN RADIATION LOG
GRWS   .GAPI       : GAMMA RAY [GRNED*10.4 SPL @ 5170' TO GRN1ED*16.50]
LAT9ED .OHMM       : LATERAL 9' FROM HLB EL LOG [ADJ TO SLB EL LOG]
LNED   .OHMM       : LONG NORMAL RESISTIVITY FROM SLB EL LOG
LT16ED .OHMM       : 16 INCH LATERAL  FROM HLB EL LOG [ADJ TO SLB EL LOG]
LT18ED .OHMM       : 18 INCH LATERAL  FROM SLB EL LOG
MCALED .IN         : CALIPER CONTACT TOOL FROM HLB EL LOG
MLLED  .OHMM       : MICRO FOCUSED LATEROLOG RESISTIVITY  FROM MICROLATEROLOG [ADJ TO SLB EL LOG]
NEUT1ED.NAPI       : NEUTRON FROM SLB GRN-RADIATION LOG
NEUT2ED.NAPI       : NEUTRON FROM GRN LOG [ADJ TO SLB EL LOG]
NEUTED .NAPI       : NEUTRON FROM McCULLOUGH GRN RADIATION LOG
NEUTWS .NAPI       : NEUTRON [NEUTED SPL @5182' TO NEUT1ED]
SN1ED  .OHMM       : SHORT NORMAL 18 INCH FROM HLB EL LOG [ADJ TO SLB EL LOG]
SNED   .OHMM       : SHORT NORMAL RESISTIVITY FROM SLB EL LOG
SPR1ED .MV         : SPONTANEOUS POTENTIAL FROM HLB EL LOG [ADJ TO SLB EL LOG]
SPRED  .MV         : SPONTANEOUS POTENTIAL FROM SLB EL LOG
SPWS   .MV         : SPONTANEOUS POTENTIAL [BASELINE 0MV, SPRED]
SRESWS .OHMM       : SHALLOW RESISTIVITY [SNED]
~Params ----------------------------------------------------
LMF .                     KB : LOG MEASURED FROM
DMF .                     KB : DRILLING MEASURED FROM
EKB .FT                 2813 : KELLY BUSHING
DATE.               05/07/56 : RUN DATE
RUN .                      1 : RUN NUMBER
DD  .FT                 8499 : DEPTH DRILLER
DL  .FT                 8499 : DEPTH LOGGER
BLI .FT                 8498 : BOTTOM LOG INTERVAL
TLI .FT                  610 : TOP LOG INTERVAL
CBL .FT                  610 : CASING BOTTOM LOGGER
BS  .IN                    9 : BIT SIZE
BSD .FT                 8499 : BIT SIZE AT DEPTH
DFT .              LIME BASE : DRILLING FLUID TYPE
DFD .                   11.1 : DRILLING FLUID DENSITY
DFV .                     98 : DRILLING FLUID VISCOSITY
DFPH.                     13 : DRILLING FLUID PH
DFL .                     48 : DRILLING FLUID LOSS
RMS .OHMM               0.72 : RESISTIVITY MUD SAMPLE
MST .DEGF                 85 : MUD SAMPLE TEMPERATURE
RMB .OHMM               0.39 : RESISTIVITY MUD AT BHT
TCS .HRS                 2.5 : TIME CIRCULATED STOPPED
LUN .                   2786 : LOGGING UNIT NUMBER
LUL .                    EDM : LOGGING UNIT LOCATION
ENGI.                 TAYLOR : RECORDING ENGINEER
WITN.              ARMSTRONG : WITNESSED BY
CLNT.                A2DTECH : CLIENT CODE
ORIG.            2" 5" PRINT : ORIGIN OF DATA
UWI .       100081504804W500 : UNIQUE WELL ID
DICO. A2D Technologies, Inc. : DIGITIZING COMPANY
~Other -----------------------------------------------------
EL-MLL-GR-NEU LOG RAN
~ASCII -----------------------------------------------------
  300.00000    -999.25    -999.25    -999.25    -999.25    -999.25    -999.25    6.77650   70.47560    -999.25    -999.25    -999.25    -999.25    -999.25    -999.25    -999.25    -999.25   92.60490   92.60490    -999.25    -999.25    -999.25    -999.25    -999.25    -999.25
  350.00000    -999.25    -999.25    -999.25    -999.25    -999.25    -999.25    6.14330   63.89030    -999.25    -999.25    -999.25    -999.25    -999.25    -999.25    -999.25    -999.25  115.93790  115.93790    -999.25    -999.25    -999.25    -999.25    -999.25    -999.25
  400.00000    -999.25    -999.25    -999.25    -999.25    -999.25    -999.25    7.38780   76.83310    -999.25    -999.25    -999.25    -999.25    -999.25    -999.25    -999.25    -999.25   95.94480   95.94480    -999.25    -999.25    -999.25    -999.25    -999.25    -999.25
  450.00000    -999.25    -999.25    -999.25    -999.25    -999.25    -999.25    5.81340   60.45940    -999.25    -999.25    -999.25    -999.25    -999.25    -999.25    -999.25    -999.25  200.16330  200.16330    -999.25    -999.25    -999.25    -999.25    -999.25    -999.25
  500.00000    -999.25    -999.25    -999.25    -999.25    -999.25   19.45790    4.88370   50.79050    -999.25    -999.25    -999.25    -999.25    -999.25    -999.25    -999.25  185.91180  124.05370  124.05370    -999.25    -999.25    -999.25    -999.25    -999.25    -999.25
  550.00000    -999.25    -999.25    -999.25    -999.25    -999.25   19.51470    6.52300   67.83970    -999.25    -999.25    -999.25    -999.25    -999.25    -999.25    -999.25  173.12300  163.80320  163.80320    -999.25    -999.25    -999.25    -999.25    -999.25    -999.25
  600.00000    -999.25    -999.25    -999.25    -999.25    -999.25   15.29510    5.09700   53.00880    -999.25    -999.25    -999.25    -999.25    -999.25    -999.25    -999.25  146.02790  130.05290  130.05290    -999.25    -999.25    -999.25    -999.25    -999.25    -999.25
  650.00000    -999.25    -999.25  118.10420    8.46710    -999.25   48.20950    9.83390  102.27260   12.10510    8.46710    6.96160   38.26690    -999.25    -999.25    -999.25  171.33750  282.96480  282.96480    5.79180    6.23210  -38.82640  -61.46980  -13.21680    6.23210
  700.00000    -999.25    -999.25  105.87050    9.44550    -999.25   54.24610   11.19600  116.43840    6.61580    9.44550    6.05130    9.90910    -999.25    -999.25    -999.25  275.84420  351.36040  351.36040    5.21210    5.84720  -38.86980  -60.50850  -13.14180    5.84720
  750.00000    -999.25    -999.25   53.31680   18.75580    -999.25   53.77900    9.13930   95.04870   25.19210   18.75580    1.25950    7.60030    -999.25    -999.25    -999.25  418.33510  388.66960  388.66960    9.26070    9.62370  -33.67670  -58.45640  -11.97610    9.62370
  800.00000    -999.25    -999.25  103.73730    9.68490    -999.25   50.01060    9.38420   97.59570    2.48870    9.68490    0.76420    3.98320    -999.25    -999.25    -999.25  204.22500  299.80860  299.80860    6.20890    7.03320  -27.71940  -54.82530   -9.22690    7.03320
  850.00000    -999.25    -999.25  109.50020    9.13240    -999.25   46.03820   10.11900  105.23760    5.97120    9.13240    7.85370   11.46670    -999.25    -999.25    -999.25  151.49020  323.11430  323.11430    4.25020    5.17320  -28.47630  -51.97720   -7.26960    5.17320
  900.00000    -999.25    -999.25  156.72260    6.38070    -999.25   57.23850    9.57900   99.62160    7.87550    6.38070    7.13890   10.10380    -999.25    -999.25    -999.25  137.62160  213.77970  213.77970    3.22230    4.69670  -29.36440  -49.33180   -5.51060    4.69670
  950.00000    -999.25    -999.25   79.19410   12.62720    -999.25   21.29970    6.05320   62.95330    8.43730   12.62720    5.84250    8.45460    -999.25    -999.25    -999.25  360.49390  466.63210  466.63210    9.92690   10.02590  -38.06470  -52.06010   -9.12530   10.02590
 1000.00000    -999.25    -999.25  125.08600    7.99450    -999.25   58.30390   10.02470  104.25690    5.94810    7.99450    5.68940    8.94920    -999.25    -999.25    -999.25  215.95750  294.81060  294.81060    3.67120    4.56650  -30.00540  -47.72900   -5.68050    4.56650
 1050.00000    -999.25    -999.25  112.06130    8.97300    -999.25   51.84820    9.89760  102.93500    5.28930    8.97300    2.88500    6.54270    -999.25    -999.25    -999.25  315.09180  471.35800  471.35800    5.83750    6.60210  -29.89950  -51.24570  -10.07920    6.60210
 1100.00000    -999.25    -999.25  138.42170    7.22430    -999.25   47.72840   10.00780  104.08110    3.62060    7.22430    2.78960    5.26190    -999.25    -999.25    -999.25  184.41720  290.88300  290.88300    3.46740    4.74010  -34.45420  -49.44640   -9.17070    4.74010
 1150.00000    -999.25    -999.25  115.26180    8.67590    -999.25   36.81430    8.29820   86.30130    7.22550    8.67590    6.82430   10.04390    -999.25    -999.25    -999.25  448.84640  494.65140  494.65140    5.56160    6.42040  -35.41640  -54.73010  -15.34070    6.42040
 1200.00000    -999.25    -999.25  110.62560    9.03950    -999.25   47.37450    8.06390   83.86460    7.63700    9.03950    9.46400   14.22110    -999.25    -999.25    -999.25  320.76400  423.03120  423.03120    5.71150    6.48110  -30.84920  -53.06270  -14.55970    6.48110
 1250.00000    -999.25    -999.25  132.09690    7.57020    -999.25   52.48600   11.16460  116.11180    6.76120    7.57020    6.24520    8.84420    -999.25    -999.25    -999.25  274.36970  393.33740  393.33740    3.90530    5.15100  -31.57600  -52.04870  -14.43210    5.15100
 1300.00000    -999.25    -999.25  124.87640    8.00800    -999.25   41.14820    9.22580   95.94830    6.41630    8.00800    6.84970   10.08990    -999.25    -999.25    -999.25  374.40530  465.53930  465.53930    6.60900    6.99170  -29.82700  -51.56810  -14.11990    6.99170
 1350.00000    -999.25    -999.25  161.65270    6.18610    -999.25   50.40550    9.65530  100.41510    5.40300    6.18610    5.08760    6.64710    -999.25    -999.25    -999.25  269.61130  384.36080  384.36080    3.02620    4.30590  -31.09630  -48.19030  -10.46720    4.30590
 1400.00000    -999.25    -999.25  155.23370    6.44190    -999.25   51.05490    9.91790  103.14620   22.99600    6.44190   27.08700   13.17410    -999.25    -999.25    -999.25  221.61090  348.68240  348.68240    3.79270    5.19560  -32.08360  -48.40850  -10.41170    5.19560
 1450.00000    -999.25    -999.25  133.31020    7.50130    -999.25   64.35990   10.71800  111.46720    4.72370    7.50130    5.22950    8.60330    -999.25    -999.25    -999.25  278.37560  403.95600  403.95600    4.43970    5.80720  -28.76830  -50.31310  -12.04260    5.80720
 1500.00000    -999.25    -999.25  111.49390    8.96910    -999.25   38.53860    8.88590   92.41340    8.75830    8.96910    8.81030   12.03520    -999.25    -999.25    -999.25  335.21770  419.83310  419.83310    5.99000    7.27020  -31.14090  -52.07660  -13.53240    7.27020
 1550.00000    -999.25    -999.25  120.12150    8.32520    -999.25   55.34900   10.04480  104.46540    6.63470    8.32520    3.87370    6.73970    -999.25    -999.25    -999.25  314.76750  442.49400  442.49400    4.20540    5.44510  -29.40560  -51.40110  -12.58460    5.44510
 1600.00000    -999.25    -999.25  128.38290    7.78920    -999.25   53.09100   11.03670  114.78170    4.14980    7.78920    0.68490    3.86120    -999.25    -999.25    -999.25  232.58500  358.40210  358.40210    3.63950    4.96350  -26.12050  -46.97420   -7.88270    4.96350
 1650.00000    -999.25    -999.25  153.20500    6.52720    -999.25   68.47590   11.29190  117.43580    9.46970    6.52720    9.38940   12.13360    -999.25    -999.25    -999.25  181.52550  294.54800  294.54800    2.74030    3.88770  -29.98480  -50.00800  -10.64280    3.88770
 1700.00000    -999.25    -999.25  155.14220    6.44570    -999.25   51.15940   10.12280  105.27710    7.99880    6.44570    5.98640    8.04870    -999.25    -999.25    -999.25  334.91790  291.66610  291.66610    3.69950    4.79600  -27.66770  -46.28690   -6.64800    4.79600
