~Version ---------------------------------------------------
VERS.      2.0 : CWLS log ASCII Standard -VERSION 2.0
WRAP.       NO : ONE LINE PER DEPTH STEP
CREA. 08/19/13 : LAS CREATION DATE
~Well ------------------------------------------------------
STRT.M                           400.0 : START DEPTH
STOP.M                          3350.0 : STOP DEPTH
STEP.M                        50.00000 : STEP LENGTH
NULL.                          -999.25 : NULL VALUE
COMP.                SUNCOR ENERGY INC : COMPANY
WELL. SUNCOR ET AL ROSEVEAR 3-24-54-16 : WELL
FLD .                                  : FIELD
LOC .                                  : LOCATION
CTRY.                           CANADA : COUNTRY
SRVC.                     Schlumberger : SERVICE COMPANY
DATE.                      09-Sep-2000 : LOGDATE
PROV.                          Alberta : PROVINCE
UWI .                 100032405416W500 : UNIQUE WELL ID
SLAT.WGS84                     53.6741 : SURFACE LATITUDE
SLON.WGS84                   -116.2231 : SURFACE LONGITUDE
~Curve Information -----------------------------------------
DEPT    .M      : DEPTH METERS
AHIBDED .MM     : 
AHT10ED .OHMM   : 10 INCH RESISTIVITY TWO FOOT RESOLUTION FROM AIT LOG
AHT20ED .OHMM   : 20 INCH RESISTIVITY TWO FOOT RESOLUTION FROM AIT LOG
AHT30ED .OHMM   : 30 INCH RESISTIVITY TWO FOOT RESOLUTION FROM AIT LOG
AHT60ED .OHMM   : 60 INCH RESISTIVITY TWO FOOT RESOLUTION FROM AIT LOG
AHT90ED .OHMM   : 90 INCH RESISTIVITY TWO FOOT RESOLUTION FROM AIT LOG
CAL2ED  .MM     : CALIPER 2 FROM SONIC LOG
CALWS   .MM     : CALIPER [HCALDED]
CONDWS  .MMHO   : CONDUCTIVITY [1000/DRESWS]
DCORWS  .KG/M3  : DENSITY CORRECTION [HDRAED]
DENWS   .KG/M3  : BULK DENSITY [M=2710 F=1000] [CALULATED FROM DPHZLSED]
DPHZLSED.V/V    : DENSITY POROSITY [M=2710 F=1000] FROM DENSITY LOG
DPOLSED .V/V    : DENSITY POROSITY [M=2710 F=1000] FROM DENSITY LOG
DPOLSWS .V/V    : DENSITY POROSITY [M=2710 F=1000] [CALULATED FROM DENWS]
DRESWS  .OHMM   : DEEP RESISTIVITY [AHT90ED]
DRHED   .KG/M3  : DENSITY CORRECTION FROM DENSITY LOG
DTED    .US/M   : DELTA TIME FROM SONIC LOG
DTWS    .US/M   : DELTA TIME [DTED]
GRDED   .GAPI   : GAMMA RAY FROM DENSITY LOG
GRRED   .GAPI   : GAMMA RAY FROM RESISTIVITY LOG
GRWS    .GAPI   : GAMMA RAY [GRDED, CSG < 449M]
HCALDED .MM     : HILT CALIPER FROM DENSITY LOG
HDRAED  .KG/M3  : DENSITY CORRECTION FROM DENSITY LOG
LCALDED .MM     : LDS CALIPER FROM DENSITY LOG
LCALRED .MM     : LDS CALIPER FROM RESISTIVITY LOG
MRESWS  .OHMM   : MEDIUM RESISTIVITY [AHT30ED]
NPOLSWS .V/V    : NEUTRON POROSITY LIMESTONE [NPORLSED, CSG < 449M]
NPORLSED.V/V    : NEUTRON POROSITY LIMESTONE FROM DENSITY LOG
PEFLED  .B/E    : LDS LONG PHOTOELECTRIC FACTOR
PEFWS   .B/E    : PHOTOELECTRIC FACTOR [PEFZED]
PEFZED  .B/E    : PHOTOELECTRIC FACTOR STANDARD RESOLUTION FROM DENSITY LOG
RHOMED  .KG/M3  : LDS BULK DENSITY FROM DENSITY LOG
RHOZED  .KG/M3  : BULK DENSITY STANDARD RESOLUTION FROM DENSITY LOG
RXOZED  .OHMM   : STANDARD RESOLUTION INVADED ZONE RESISTIVITY
SPRED   .MV     : SPONTANEOUS POTENTIAL FROM RESISTIVITY LOG
SPWS    .MV     : SPONTANEOUS POTENTIAL [BASELINE 0 MV] [SPRED]
SRESWS  .OHMM   : SHALLOW RESISTIVITY [AHT20ED]
TENDED  .N      : TENSION FROM DENSITY LOG
TENRED  .N      : TENSION FROM RESISTIVITY LOG
TENSED  .N      : TENSION FROM SONIC LOG
~Params ----------------------------------------------------
PD  .                         GL : PERMANENT DATUM
EPD .M                     847.2 : ELEVATION PERMANENT DATUM
LMF .                         KB : LOG MEASURED FROM
DAPD.M                       6.9 : FEET ABOVE PERMANENT DATUM
DMF .                         KB : DRILLING MEASURED FROM
EKB .M                     853.5 : KELLY BUSHING
EDF .M                     853.2 : DRILLING FLOOR
EGL .M                     847.2 : GROUND LEVEL
DATE.                   09/09/00 : RUN DATE
RUN .                          1 : RUN NUMBER
DD  .M                      3376 : DEPTH DRILLER
DL  .M                      3377 : DEPTH LOGGER
BLI .M                    3974.6 : BOTTOM LOG INTERVAL
TLI .M                      3199 : TOP LOG INTERVAL
CS  .MM                    177.8 : CASING SIZE
CBD .M                      3198 : CASING BOTTOM DRILLER
CBL .M                      3199 : CASING BOTTOM LOGGER
BS  .M                       156 : BIT SIZE
BSD .M                      3376 : BIT SIZE AT DEPTH
DFT .                   GEL CHEM : DRILLING FLUID TYPE
DFD .                       1100 : DRILLING FLUID DENSITY
DFV .                         60 : DRILLING FLUID VISCOSITY
DFPH.                         11 : DRILLING FLUID PH
DFL .                        9.5 : DRILLING FLUID LOSS
MSS .                   FLOWLINE : MUD SAMPLE SOURCE
RMS .OHMM                    0.9 : RESISTIVITY MUD SAMPLE
MST .DEGC                     17 : MUD SAMPLE TEMPERATURE
RMF .OHMM                   0.76 : RESISTIVITY MUD FILTRATE SAMPLE
MFST.DEGC                     17 : MUD FILTRATE SAMPLE TEMPERATURE
RMB .OHMM                  0.295 : RESISTIVITY MUD AT BHT
TCS .HRS                    1330 : TIME CIRCULATED STOPPED
TLAB.HRS                    2040 : TIME LOGGER AT BOTTOM
LUN .                       3052 : LOGGING UNIT NUMBER
LUL .                      NISKU : LOGGING UNIT LOCATION
ENGI.                     FRENCH : RECORDING ENGINEER
WITN.                       KEIR : WITNESSED BY
CLNT.                    A2DTECH : CLIENT CODE
ORIG. 6.5"/100M 16.5"/100M PRINT : ORIGIN OF DATA
UWI .           100032405416W500 : UNIQUE WELL ID
DICO.     A2D Technologies, Inc. : DIGITIZING COMPANY
~Other -----------------------------------------------------
~ASCII -----------------------------------------------------
  400.00000    -999.25    -999.25    -999.25    -999.25    -999.25    -999.25    -999.25    -999.25    -999.25    -999.25    -999.25    -999.25    -999.25    -999.25    -999.25    -999.25    -999.25    -999.25   50.52610   50.17170   50.52610    -999.25    -999.25    -999.25    -999.25    -999.25    0.34120    0.34120    -999.25    -999.25    -999.25    -999.25    -999.25    -999.25    -999.25    -999.25    -999.25    -999.25    -999.25    -999.25
  450.00000  221.86460   57.01640   16.63860   18.19630   20.01560   23.13030    -999.25  221.71550   43.23330   -4.54630 2271.72700    0.25630    0.22110    0.25630   23.13030    -999.25  302.33630  302.33630   59.58040   59.53420   59.58040  221.71550   -4.54630  232.83810  232.68480   18.19630    0.24250    0.24250    2.58730    2.65260    2.65260 2319.63330 2324.78610    8.29470 -305.57610   -0.10920   16.63860 9888.39160 5028.17040 10632.51370
  500.00000  220.23110    4.80980    5.88740    6.15710    6.67750    7.05270    -999.25  220.18640  141.78970    9.67380 2090.63800    0.36220    0.43540    0.36220    7.05270   16.37010  299.99150  299.99150   82.72050   83.38920   82.72050  220.18640    9.67380  242.68160  242.32280    6.15710    0.38810    0.38810    2.10550    1.84870    1.84870 2044.66940 2326.94170    6.53780 -303.13800    7.28460    5.88740 10413.38180 5130.34180 10525.17190
  550.00000  250.26820    5.72650    6.17400    6.42020    7.02990    7.16590    -999.25  249.33120  139.54980   -2.78490 2406.47500    0.17750    0.25560    0.17750    7.16590   94.90800  283.44450  283.44450   96.57620   96.83840   96.57620  249.33120   -2.78490  253.45410  253.16380    6.42020    0.22380    0.22380    2.74480    3.14570    3.14570 2295.59960 2460.14650    6.91550 -309.69600   12.59970    6.17400 10837.88090 5564.05860 10927.36230
  600.00000  220.01390    3.88640    4.58900    4.99460    5.96030    6.21340    -999.25  220.56940  160.94250   -3.82050 2351.75500    0.20950    0.23990    0.20950    6.21340  140.17960  287.38290  287.38290  103.26750  103.09910  103.26750  220.56940   -3.82050  253.11050  252.96330    4.99460    0.26330    0.26330    2.77400    2.86000    2.86000 2292.41280 2403.83370    4.37690 -332.03610    4.15630    4.58900 10656.41210 5720.49220 11822.42870
  650.00000  241.81450    6.13090    5.93480    6.71980    7.75740    8.56720    -999.25  242.05670  116.72430   -2.21770 2424.25900    0.16710    0.26530    0.16710    8.56720   52.68880  286.54960  286.54960  101.42250  100.29840  101.42250  242.05670   -2.21770  242.12400  246.30680    6.71980    0.27130    0.27130    2.54630    3.21810    3.21810 2254.41280 2487.63280    5.89940 -339.16700    3.24060    5.93480 11783.05370 5844.76460 11686.26460
  700.00000  219.47680    3.05450    4.27470    4.39250    5.46310    5.80580    -999.25  219.38340  172.24160   30.35110 2373.47200    0.19680    0.52310    0.19680    5.80580   45.98590  311.78320  311.78320   90.11520   89.66120   90.11520  219.38340   30.35110  270.62900  270.89970    4.39250    0.29330    0.29330    2.61240    2.87250    2.87250 1841.49580 2413.30270    3.56320 -311.32640   26.60130    4.27470 11775.25880 6133.94970 11832.88770
  750.00000  219.96320    3.90550    4.47540    4.53180    5.14710    5.37090    -999.25  219.98310  186.18850   -2.96350 2394.84700    0.18430    0.28360    0.18430    5.37090   84.96850  292.91920  292.91920   89.81220   90.24220   89.81220  219.98310   -2.96350  284.59260  281.25670    4.53180    0.23530    0.23530    2.70080    2.96480    2.96480 2195.80300 2450.36250    4.68430 -324.79560   25.02430    4.47540 12032.87990 6101.72900 12220.41500
  800.00000  221.27770    5.11310    6.69230    7.64720    8.80670    9.38950    -999.25  221.39560  106.50190   -2.17170 2404.42300    0.17870    0.31760    0.17870    9.38950   -2.34420  274.45890  274.45890   83.92200   82.13520   83.92200  221.39560   -2.17170  239.78580  244.72230    7.64720    0.24550    0.24550    2.73530    2.94110    2.94110 2096.17530 2438.51980    5.51040 -342.73060   31.22820    6.69230 12760.64940 6322.65920 12644.35160
  850.00000  220.11610   13.50520   11.25430   12.13440   13.82530   14.31550    -999.25  219.89290   69.85440   -7.64070 2378.94400    0.19360    0.12940    0.19360   14.31550  150.61660  267.25070  267.25070   88.11240   88.41850   88.11240  219.89290   -7.64070  222.61520  219.93870   12.13440    0.20730    0.20730    2.70460    2.87070    2.87070 2489.62230 2447.59810   11.78110 -395.41130    1.56040   11.25430 12482.79390 6301.13040 12600.38570
  900.00000  222.14170    3.88050    4.26650    4.47190    5.02370    5.12100    -999.25  220.95100  195.27440   16.52380 2398.95100    0.18190    0.62140    0.18190    5.12100   10.09290  299.84830  299.84830  113.65120  113.71590  113.65120  220.95100   16.52380  316.33440  314.84660    4.47190    0.29190    0.29190    2.55580    3.09830    3.09830 1648.14360 2443.02030    3.91300 -336.05330   -5.64600    4.26650 12870.41700 6486.51370 13129.75200
  950.00000  229.72380    3.54660    4.24780    4.69080    5.12820    5.54820    -999.25  229.13650  180.23860    4.08020 2364.92200    0.20180    0.46880    0.20180    5.54820   73.01520  311.13920  311.13920   99.86390   99.80270   99.86390  229.13650    4.08020  333.16930  338.19740    4.69080    0.32480    0.32480    2.53830    2.64550    2.64550 1892.08810 2383.51900    4.95960 -367.08620  -12.96770    4.24780 13329.88380 6489.95410 12491.43260
 1000.00000  231.37110    5.85070    5.99640    6.18110    6.16900    6.29420    -999.25  233.56950  158.87640   15.09560 2496.07900    0.12510    0.48880    0.12510    6.29420   45.27060  286.37240  286.37240   93.28990   92.67720   93.28990  233.56950   15.09560  271.73520  265.82380    6.18110    0.30140    0.30140    2.66030    3.27190    3.27190 1851.31270 2511.39580    5.91920 -388.89460  -38.18120    5.99640 13325.83690 6743.91700 13540.87010
 1050.00000  217.63040    9.55580   12.76320   15.70860   17.29520   19.53110    -999.25  218.23690   51.20040    3.27150 2329.18300    0.22270    0.21320    0.22270   19.53110   34.27330  272.83640  272.83640   46.05370   46.58280   46.05370  218.23690    3.27150  213.05880  213.19070   15.70860    0.21100    0.21100    2.56080    2.50440    2.50440 2354.50220 2349.25950   10.27420 -363.36530  -23.58900   12.76320 13330.49020 6699.00780 13269.61230
 1100.00000  221.79050    3.57340    4.34540    5.32410    6.58110    7.55990    -999.25  219.70530  132.27690   82.31110 2348.84800    0.21120    0.61600    0.21120    7.55990   25.54900  302.44270  302.44270   75.21300   72.48420   75.21300  219.70530   82.31110  359.59790  359.26080    5.32410    0.38410    0.38410    2.46200    3.11300    3.11300 1694.08400 2358.27100    2.57830 -326.08960    0.22360    4.34540 13556.62010 6814.33790 13871.50200
 1150.00000  221.63740    4.49630    5.38940    5.95160    6.98850    7.89200    -999.25  223.41940  126.71060   22.94220 2481.88600    0.13340    0.56970    0.13340    7.89200    7.98560  275.08170  275.08170   75.70760   74.73150   75.70760  223.41940   22.94220  369.80550  371.80620    5.95160    0.31200    0.31200    2.42730    3.28640    3.28640 1699.29390 2510.89650    4.68330 -315.74710   -4.90050    5.38940 14594.34960 7160.81450 14593.09180
 1200.00000  235.17270    9.59480    7.85660    8.15920    8.23930    8.80390    -999.25  236.94940  113.58600   -1.71820 2470.94200    0.13980    0.11450    0.13980    8.80390    8.70960  254.67620  254.67620   70.05770   70.36930   70.05770  236.94940   -1.71820  235.97850  237.28630    8.15920    0.22140    0.22140    2.79910    3.15360    3.15360 2514.86670 2544.49440    7.41550 -294.05700   -2.20800    7.85660 14325.10060 7155.77250 14454.19340
 1250.00000  291.86760   24.53360   11.67480    8.88510    9.60450    9.84450    -999.25  301.17350  101.57960  143.03570 2237.01400    0.27660    0.11430    0.27660    9.84450   -1.40890  268.33260  268.33260   80.36540   80.20360   80.36540  301.17350  143.03570  219.88190  219.49500    8.88510    0.23990    0.23990    3.12010    3.01590    3.01590 2516.39450 2269.59160    2.29160 -253.68690   -3.98920   11.67480 14486.18160 7339.15430 14600.31740
