~Version ---------------------------------------------------
VERS.      2.0 : CWLS log ASCII Standard -VERSION 2.0
WRAP.       NO : One line per depth step
CREA. 11/20/17 : LAS Creation Date
~Well ------------------------------------------------------
STRT.FT                          1000.0 : START DEPTH
STOP.FT                          9600.0 : STOP DEPTH
STEP.FT                        50.00000 : STEP LENGTH
NULL.                           -999.25 : NULL VALUE
COMP.  MIAMI OIL PRODUCERS INCORPORATED : COMPANY
WELL. MIAMI HB STURGEN LAKE 12-33-68-20 : WELL
FLD .                                   : FIELD
LOC .                                   : LOCATION
CTRY.                            CANADA : COUNTRY
SRVC.            Schlumberger of Canada : SERVICE COMPANY
DATE.                       06-Mar-1967 : LOGDATE
PROV.                           Alberta : PROVINCE
UWI .                  100123306820W500 : UNIQUE WELL ID
SLAT.WGS84                     54.93222 : SURFACE LATITUDE
SLON.WGS84                    -116.9965 : SURFACE LONGITUDE
~Curve Information -----------------------------------------
DEPT  .FT    : Depth Curve
CALSED.IN    : CALIPER FROM SONIC LOG
CALWS .IN    : CALIPER [CALSED]
CILDED.MMHO  : DEEP INDUCTION CONDUCTIVITY FROM RESISTIVITY LOG
CONDWS.MMHO  : CONDUCTIVITY [1000/DRESWS]
DRESWS.OHMM  : DEEP RESISTIVITY [1000/CILDED IF ILDED<1,ILDED]
DTED  .US/F  : DELTA-T FROM SONIC LOG
DTWS  .US/F  : DELTA-T [DTED]
GRSED .GAPI  : GAMMA RAY FROM SONIC LOG
GRWS  .GAPI  : GAMMA RAY [GRSED]
ILDED .OHMM  : DEEP INDUCTION RESISTIVITY FROM RESISTIVITY LOG
SNED  .OHMM  : SHORT NORMAL RESISTIVITY FROM RESISTIVITY LOG
SPRED .MV    : SPONTANEOUS POTENTIAL FROM RESISTIVITY LOG
SPWS  .MV    : SPONTANEOUS POTENTIAL [BASELINE 0 MV,SPRED]
SRESWS.OHMM  : SHALLOW RESISTIVITY [SNED]
~Params ----------------------------------------------------
PD  .                     GL : PERMANENT DATUM
EPD .FT                 2429 : ELEVATION PERMANENT DATUM
LMF .                     KB : LOG MEASURED FROM
DAPD.FT                   13 : FEET ABOVE PERMANENT DATUM
EKB .FT                 2442 : KELLY BUSHING
EGL .FT                 2429 : GROUND LEVEL
DATE.               03/06/67 : RUN DATE
RUN .                      1 : RUN NUMBER
DD  .FT                 9641 : DEPTH DRILLER
DL  .FT                 9641 : DEPTH LOGGER
BLI .FT                 9640 : BOTTOM LOG INTERVAL
TLI .FT                 1006 : TOP LOG INTERVAL
CBD .FT                 1003 : CASING BOTTOM DRILLER
CBL .FT                 1006 : CASING BOTTOM LOGGER
BS  .IN                7.875 : BIT SIZE
BSD .FT                 9641 : BIT SIZE AT DEPTH
DFT .                    GEL : DRILLING FLUID TYPE
DFD .                    9.7 : DRILLING FLUID DENSITY
DFV .                    160 : DRILLING FLUID VISCOSITY
DFPH.                     10 : DRILLING FLUID PH
DFL .                      8 : DRILLING FLUID LOSS
RMS .OHMM               2.56 : RESISTIVITY MUD SAMPLE
MST .DEGF                 56 : MUD SAMPLE TEMPERATURE
RMF .OHMM               0.82 : RESISTIVITY MUD FILTRATE SAMPLE
MFST.DEGF                170 : MUD FILTRATE SAMPLE TEMPERATURE
RMC .OHMM               0.78 : RESISTIVITY MUD CAKE
MCST.DEGF                170 : MUD CAKE SAMPLE TEMPERATURE
RMB .OHMM               0.84 : RESISTIVITY MUD AT BHT
TCS .HRS                   3 : TIME CIRCULATED STOPPED
LUN .                   3705 : LOGGING UNIT NUMBER
LUL .                     RL : LOGGING UNIT LOCATION
ENGI.              DEMETRICK : RECORDING ENGINEER
WITN.                  SLOAN : WITNESSED BY
CLNT.                A2DTECH : CLIENT CODE
ORIG.            2" 5" PRINT : ORIGIN OF DATA
UWI .       100123306820W500 : UNIQUE WELL ID
DICO. A2D Technologies, Inc. : DIGITIZING COMPANY
~Other -----------------------------------------------------
IEL-SON LOG RUN
ALL DATA FROM TOP TO 3570' FROM 2" SCALE
~ASCII -----------------------------------------------------
# ...
 5900.00000   10.28200   10.28200  104.79410  102.47270    9.75870   63.73800   63.73800   66.54880   66.54880    9.75870   15.80790  -30.26160  -21.28280   15.80790
 5950.00000    9.37970    9.37970  544.55110  440.35400    2.27090   63.03320   63.03320   36.40210   36.40210    2.27090   14.41550 -101.33920  -86.42720   14.41550
 6000.00000    9.43410    9.43410  111.55790  105.77530    9.45400   57.01200   57.01200   31.61870   31.61870    9.45400   17.66300  -73.61940  -52.81310   17.66300
 6050.00000    9.97900    9.97900   58.32980   55.04910   18.16560   54.84040   54.84040   38.70860   38.70860   18.16560   28.86950  -43.23400  -16.53330   28.86950
 6100.00000    9.43580    9.43580  123.33180  123.56820    8.09270   57.22480   57.22480   12.88060   12.88060    8.09270   55.94180 -144.40460 -117.57900   55.94180
 6150.00000    9.88130    9.88130  119.21880  113.42880    8.81610   56.60530   56.60530   20.32870   20.32870    8.81610   58.72930 -150.95540 -124.67960   58.72930
 6200.00000    9.41310    9.41310   74.93890   72.31020   13.82930   56.00880   56.00880   13.67540   13.67540   13.82930   75.08890 -143.77640 -118.05400   75.08890
 6250.00000    9.73720    9.73720  400.24000  356.53170    2.80480   70.28430   70.28430   53.30850   53.30850    2.80480    8.87250  -76.55940  -51.38680    8.87250
 6300.00000    9.40340    9.40340  257.10100  238.62930    4.19060   66.65390   66.65390   63.59150   63.59150    4.19060    6.51830  -47.59960  -22.97680    6.51830
 6350.00000   10.53890   10.53890  278.23630  258.23780    3.87240   75.97550   75.97550   73.32670   73.32670    3.87240    6.66290  -31.10060   -2.55020    6.66290
 6400.00000   10.31000   10.31000  154.33890  151.93870    6.58160   65.82610   65.82610   59.00780   59.00780    6.58160   11.00180  -43.45880   -7.95620   11.00180
 6450.00000    9.54280    9.54280   36.41200   29.40430   34.00860   54.77230   54.77230   22.34410   22.34410   34.00860   38.07930  -48.70620   -6.18710   38.07930
 6500.00000    8.08650    8.08650   42.76330   40.23350   24.85490   58.60350   58.60350   45.01090   45.01090   24.85490   35.79340  -59.90870  -15.50310   35.79340
 6550.00000    8.06880    8.06880   33.71360   29.82260   33.53160   54.06300   54.06300   17.15900   17.15900   33.53160   50.31790 -121.48610  -75.40300   50.31790
 6600.00000    7.94570    7.94570   35.27950   31.66450   31.58110   54.85020   54.85020   29.70620   29.70620   31.58110   40.54640  -87.19130  -39.41970   40.54640
 6650.00000    8.31410    8.31410   30.22250   25.76790   38.80790   55.63120   55.63120   33.65440   33.65440   38.80790   45.21670  -77.04520  -27.59610   45.21670
 6700.00000    8.83260    8.83260   36.56550   32.22330   31.03340   57.21780   57.21780   36.49170   36.49170   31.03340   37.09480  -73.88520  -22.74760   37.09480
 6750.00000    7.92120    7.92120   19.12730   13.37900   74.74380   54.73890   54.73890   26.37940   26.37940   74.74380   69.98500  -80.88370  -28.06860   69.98500
 6800.00000    7.76420    7.76420   36.98640   33.63110   29.73440   60.00620   60.00620   50.85790   50.85790   29.73440   44.66340  -63.06270   -8.57010   44.66340
 6850.00000    8.02280    8.02280   35.18970   30.96910   32.29020   60.99680   60.99680   46.13240   46.13240   32.29020   48.87240  -61.15630   -7.14970   48.87240
 6900.00000    8.29430    8.29430   19.81490   14.03060   71.27270   51.28360   51.28360   18.48430   18.48430   71.27270   78.41520  -74.60490  -21.26500   78.41520
 6950.00000    8.42040    8.42040   16.18800   10.51890   95.06740   52.77450   52.77450   40.49760   40.49760   95.06740  162.13210  -86.88100  -35.75060  162.13210
 7000.00000    8.60800    8.60800    8.99300    3.46110  288.92960   50.47560   50.47560   15.50500   15.50500  288.92960  142.92520 -147.53410  -98.59870  142.92520
 7050.00000    8.54780    8.54780    6.62150    1.80570  553.80880   49.22210   49.22210   17.77440   17.77440  553.80880  212.63220 -117.13060  -70.39020  212.63220
 7100.00000    8.63090    8.63090    7.12740    1.76900  565.28890   49.44010   49.44010   14.61350   14.61350  565.28890  211.54350 -136.20290  -91.67200  211.54350
 7150.00000    8.68640    8.68640    8.07590    2.54150  393.46220   49.98010   49.98010   12.24090   12.24090  393.46220  167.34960 -131.59640  -89.26060  167.34960
 7200.00000    8.80910    8.80910    5.71020    1.76590  566.29860   48.85350   48.85350   14.47220   14.47220  566.29860  268.59340 -155.43890 -115.31250  268.59340
 7250.00000    8.74450    8.74450   18.20260   13.19420   75.79080   49.28570   49.28570   12.54620   12.54620   75.79080  114.82100 -174.86910 -136.93780  114.82100
 7300.00000    8.13260    8.13260   51.09530   48.50390   20.61690   53.05280   53.05280   11.08940   11.08940   20.61690  111.71680 -198.83420 -163.09790  111.71680
 7350.00000    8.37000    8.37000   11.91180    6.16310  162.25500   49.19160   49.19160   11.59320   11.59320  162.25500  141.01980 -161.67140 -128.14460  141.01980
 7400.00000    8.39020    8.39020    6.75940    1.77350  563.86840   49.05430   49.05430   11.82420   11.82420  563.86840  182.51140 -145.06310 -113.73130  182.51140
 7450.00000    8.69900    8.69900    5.95400    1.76520  566.51050   48.54800   48.54800   11.05900   11.05900  566.51050  255.96500 -134.17430 -105.05200  255.96500
 7500.00000    8.76190    8.76190    6.02790    1.75530  569.69250   49.56340   49.56340   13.98680   13.98680  569.69250  280.28270 -124.86370  -97.93650  280.28270
 7550.00000    8.66340    8.66340    5.74450    1.75890  568.54940   48.03490   48.03490   12.14100   12.14100  568.54940  245.33450 -140.25240 -115.52020  245.33450
 7600.00000    8.72910    8.72910   38.92840   34.77400   28.75710   49.43580   49.43580   12.46630   12.46630   28.75710  143.97050 -167.73540 -145.21270  143.97050
 7650.00000    7.44360    7.44360   99.38690   99.97700   10.00230   51.87760   51.87760   12.81080   12.81080   10.00230   77.16290 -173.53250 -153.20480   77.16290
 7700.00000    8.00270    8.00270   20.13180   14.44490   69.22850   47.94990   47.94990   11.34880   11.34880   69.22850  139.25170 -158.28500 -140.16680  139.25170
 7750.00000    8.22900    8.22900   44.40830   39.81030   25.11910   50.98750   50.98750   28.64300   28.64300   25.11910   54.39180 -100.73230  -84.80910   54.39180
 7800.00000    8.39300    8.39300    7.96520    2.86220  349.38030   47.84280   47.84280   17.24320   17.24320  349.38030  196.25260 -118.16030 -104.43220  196.25260
 7850.00000    8.86960    8.86960   15.20230    9.54830  104.73040   48.56850   48.56850   20.57240   20.57240  104.73040   73.69880  -75.03070  -63.51210   73.69880
 7900.00000    8.31980    8.31980   13.05510    8.21960  121.66080   51.22820   51.22820   23.87460   23.87460  121.66080   90.48850  -35.39090  -26.06730   90.48850
 7950.00000    9.02090    9.02090   39.72060   35.60630   28.08490   55.72120   55.72120   41.69650   41.69650   28.08490   38.20470  -15.52490   -8.41080   38.20470
 8000.00000    8.41520    8.41520   12.25380    6.86630  145.63780   50.69700   50.69700   10.75610   10.75610  145.63780  116.97210  -66.42280  -56.48600  116.97210
 8050.00000    8.58460    8.58460  102.40160  101.20540    9.88090   62.25990   62.25990   54.56120   54.56120    9.88090   17.64540  -24.16550   -9.84890   17.64540
 8100.00000   11.92820   11.92820  157.44830  155.69530    6.42280   71.75610   71.75610   64.51170   64.51170    6.42280   11.05900  -29.57410  -10.96830   11.05900
 8150.00000   12.37720   12.37720  205.16000  193.15460    5.17720   78.82670   78.82670   73.06230   73.06230    5.17720    7.97630  -38.82110   -8.04450    7.97630
 8200.00000   13.94330   13.94330  192.42050  188.76470    5.29760   75.61970   75.61970   74.33210   74.33210    5.29760    6.02980  -76.26050  -24.57560    6.02980
 8250.00000   13.73780   13.73780  172.87350  167.47050    5.97120   75.41490   75.41490   76.37720   76.37720    5.97120    6.53330  -77.14320   -5.14720    6.53330
 8300.00000   14.84850   14.84850  223.05690  223.00520    4.48420   77.98810   77.98810   72.98700   72.98700    4.48420    4.73550  -96.60920  -15.50690    4.73550
