~Version ---------------------------------------------------
VERS.      2.0 : CWLS log ASCII Standard -VERSION 2.0
WRAP.       NO : One line per depth step
CREA. 08/01/17 : LAS Creation Date
~Well ------------------------------------------------------
STRT.FT                                     650.0 : START DEPTH
STOP.FT                                    9250.0 : STOP DEPTH
STEP.FT                                  50.00000 : STEP LENGTH
NULL.                                     -999.25 : NULL VALUE
COMP.                      CALIFORNIA STANDARD CO : COMPANY
WELL. CALIFORNIA STANDARD SOUTH MORNINGSIDE 14-20 : WELL
FLD .                                             : FIELD
LOC .                                             : LOCATION
CTRY.                                      CANADA : COUNTRY
SRVC.            Schlumberger Well Surveying Corp : SERVICE COMPANY
DATE.                                 10-Mar-1955 : LOGDATE
PROV.                                     Alberta : PROVINCE
UWI .                            100142004127W400 : UNIQUE WELL ID
SLAT.WGS84                               52.54859 : SURFACE LATITUDE
SLON.WGS84                              -113.8578 : SURFACE LONGITUDE
~Curve Information -----------------------------------------
DEPT   .FT         : Depth Curve
CALI1ED.IN         : CALIPER 1 FROM CALIPER LOG
CALIED .IN         : CALIPER FROM CALIPER LOG
CALWS  .IN         : CALIPER [CALIED]
CONDWS .MMHO       : CONDUCTIVITY [1000/DRESWS]
DRESWS .OHMM       : DEEP RESISTIVITY [LNED]
GRNED  .UgRa-Eq/T  : GAMMA RAY FROM GRN LOG
GRWS   .GAPI       : GAMMA RAY [GRNED*16.5 TO CONVERTED TO GAPI]
LATED  .OHMM       : LATERAL RESISTIVITY FROM EL LOG
LL7ED  .OHMM       : LATEROLOG-7 RESISTIVITY FROM MLL LOG
LNED   .OHMM       : LONG NORMAL RESISTIVITY FROM MLL LOG
MLLED  .OHMM       : MICRO-LATEROLOG RESISTIVITY
NEUTED .NAPI       : NEUTRON FROM GRN LOG
NEUTWS .NAPI       : NEUTRON [NEUTED]
SNED   .OHMM       : SHORT NORMAL RESISTIVITY FROM EL LOG
SPMED  .MV         : SPONTAEOUS POTENTIAL FROM MICRO LOG
SPR1ED .MV         : SPONTANEOUS POTENTIAL FROM MLL LOG
SPRED  .MV         : SPONTANEOUS POTENTIAL FROM EL LOG
SPWS   .MV         : SPONTANEOUS POTENTIAL [BASELINE 0 MV,SPRED]
SRESWS .OHMM       : SHALLOW RESISTIVIOTY [SNED]
~Params ----------------------------------------------------
PD  .                     KB : PERMANENT DATUM
EKB .FT                 3032 : KELLY BUSHING
DATE.               03/10/55 : RUN DATE
RUN .                      1 : RUN NUMBER
DD  .FT                 9259 : DEPTH DRILLER
DL  .FT                 9258 : DEPTH LOGGER
BLI .FT                 9259 : BOTTOM LOG INTERVAL
TLI .FT                 6326 : TOP LOG INTERVAL
CBD .FT                  623 : CASING BOTTOM DRILLER
CBL .FT                  624 : CASING BOTTOM LOGGER
BSD .FT                 6258 : BIT SIZE AT DEPTH
DFT .              LIME BASE : DRILLING FLUID TYPE
DFD .                   10.2 : DRILLING FLUID DENSITY
DFV .                     12 : DRILLING FLUID VISCOSITY
DFPH.                   12.5 : DRILLING FLUID PH
DFL .                    7.8 : DRILLING FLUID LOSS
RMS .OHMM               0.66 : RESISTIVITY MUD SAMPLE
MST .DEGF                 74 : MUD SAMPLE TEMPERATURE
RMB .OHMM                0.3 : RESISTIVITY MUD AT BHT
TCS .HRS                   4 : TIME CIRCULATED STOPPED
LUN .                   2741 : LOGGING UNIT NUMBER
LUL .                   STST : LOGGING UNIT LOCATION
ENGI.               JOHNKLAM : RECORDING ENGINEER
WITN.                 GEDDES : WITNESSED BY
CLNT.                A2DTECH : CLIENT CODE
ORIG.        2" 5" 25" PRINT : ORIGIN OF DATA
UWI .       100142004127W400 : UNIQUE WELL ID
DICO. A2D Technologies, Inc. : DIGITIZING COMPANY
~Other -----------------------------------------------------
~ASCII -----------------------------------------------------
# ...
 8050.00000    -999.25    -999.25    -999.25    4.34910  229.24020    1.45080   23.93820  491.85000 1501.82420  229.99750   35.61830 1273.13960 1285.93270   40.19920 -139.15660 -144.38840 -254.72510 -201.82610   40.10670
 8100.00000    -999.25    -999.25    -999.25    4.09380  244.27120    1.56110   25.75820  334.95730  641.83750  244.27120    7.84050 1477.21170 1477.21170   64.82390 -164.63850 -166.12140 -335.42170 -282.52270   64.82390
 8150.00000    -999.25    -999.25    -999.25    2.18290  458.03040    1.40430   23.17100  679.87970 9963.32030  458.10810    0.80240 1247.40060 1248.57890   70.35720 -101.50600  -99.76910 -336.66850 -283.76950   70.48780
 8200.00000    -999.25    -999.25    -999.25    4.07340  246.00800    2.03830   33.63200  616.50000  290.46760  245.49550  287.23150 1251.47800 1246.38120   67.68790  -55.12050  -53.04780 -287.42860 -234.52960   67.84680
 8250.00000    -999.25    -999.25    -999.25   20.07580   49.80690    8.59670  141.84560   68.25000   24.73020   49.81120    2.46500  332.00810  332.82360   15.36040  -61.50600  -58.60890 -328.33910 -275.44010   15.40060
 8300.00000    -999.25    -999.25    -999.25    3.99510  251.10840    1.64950   27.21680  420.31500 2619.90280  250.36390   19.26530 1134.59270 1136.49580   80.45910  -69.75910  -68.19500 -319.75150 -266.85250   80.54940
 8350.00000    -999.25    -999.25    -999.25    6.58750  151.80180    4.01520   66.25080  280.96600  213.13210  151.80180  130.77360  753.00710  753.00710   39.17000  -51.86750  -49.81490 -308.98540 -256.08640   39.17000
 8400.00000    -999.25    -999.25    -999.25    3.06870  324.75960    1.83690   30.30890  834.96940 1527.71900  325.87260  409.05020 1195.41280 1194.18960   86.37500 -103.43610 -101.28700 -304.00910 -251.11010   86.35300
 8450.00000    -999.25    -999.25    -999.25   19.53610   50.77260    5.70980   94.21170   59.71200   41.81660   51.18730   40.81540  666.36080  649.64320   20.31530  -65.96390  -64.73370 -261.12100 -208.22200   20.29120
 8500.00000    -999.25    -999.25    -999.25    2.81790  353.79170    2.27390   37.51930  631.53140 1573.74100  354.87520  621.41580 1168.90930 1173.80220   84.17840  -79.33730  -79.41090 -228.09980 -175.20080   84.03430
 8550.00000    -999.25    -999.25    -999.25    5.51560  181.41980    2.74670   45.32140  290.33440  548.82090  181.30660  307.79570  902.99660  904.30650   40.89120  -44.00980  -44.98480 -186.14610 -133.24710   40.95230
 8600.00000    -999.25    -999.25    -999.25    6.35010  157.47750    1.55660   25.68390  270.60120  135.98230  157.47750   92.15950 1133.74060 1133.74060   42.56760 -120.81130 -119.24970 -238.37900 -185.48000   42.56760
 8650.00000    -999.25    -999.25    -999.25    3.59640  278.75280    1.83200   30.22800  634.50000  833.49990  278.05310  569.44450 1037.57750 1038.56350   64.41440  -71.02410  -69.91680 -177.43160 -124.53260   64.51390
 8700.00000    -999.25    -999.25    -999.25   21.23000   47.22770    6.93590  114.44240   73.58130   27.31530   47.10320   23.16310  451.25710  454.52250   20.60530  -58.37350  -54.52900 -169.24020 -116.34120   20.65810
 8750.00000    -999.25    -999.25    -999.25    7.69790  129.07090    2.55910   42.22510  179.55000  400.17990  129.90620   31.88350  780.53010  782.56880   48.79920  -59.72890  -55.70460 -163.29910 -110.40010   48.71300
 8800.00000    -999.25    -999.25    -999.25   25.45060   39.41830    7.77970  128.36590   68.92650   31.33860   39.30060   27.48640  741.10720  737.82750   18.39980  -60.90360  -58.30410 -205.64140 -152.74240   18.44850
 8850.00000    -999.25    -999.25    -999.25   15.52450   64.41440    4.67400   77.12100   92.25000   99.91010   64.41440  494.11110  902.85420  902.85420   33.73870  -81.51040  -81.07100 -181.25140 -128.35240   33.73870
 8900.00000    -999.25    -999.25    -999.25   13.03550   76.79250    4.22110   69.64820  165.35770   43.99000   76.71370   24.50720  772.37510  773.91640   32.33200  -53.80400  -53.45210 -167.65410 -114.75510   32.27100
 8950.00000    -999.25    -999.25    -999.25  159.92070    6.24410    5.07950   83.81180    6.40630    9.08350    6.25310   38.73050  590.36630  601.48770    6.62160  -87.89160  -86.18950 -219.75900 -166.86000    6.60440
 9000.00000    -999.25    -999.25    -999.25   13.33170   74.35650    5.04000   83.16000  100.77950   40.78260   75.00900   74.50720  867.17630  884.91330   34.50990  -66.68680  -65.61470 -212.55910 -159.66010   34.35040
 9050.00000    -999.25    -999.25    -999.25   85.69800   11.75060    2.89050   47.69320    3.97170   19.48730   11.67970    4.46840  875.61330  875.97590   13.70960 -103.19270 -102.56750 -293.90810 -241.00910   13.72220
 9100.00000    -999.25    -999.25    -999.25   51.74830   19.32430   16.30240  268.98960   40.44830   44.06630   19.32430   39.91930  901.83480  901.83480   15.00310  -64.87950  -66.58410 -207.35790 -154.45890   15.00310
 9150.00000    -999.25    -999.25    -999.25   38.01370   25.94400   10.17750  167.92880   53.55000   63.03960   26.30630   56.74450 1112.40410 1111.18270   18.74230   -9.39760   -9.97980 -186.14460 -133.24560   17.30920
 9200.00000    -999.25    -999.25    -999.25  123.85130    8.06670   13.23700  218.41050    9.30070    5.04560    8.07420    1.04170  227.01320  229.76660    5.08180  -37.68060  -38.55890 -186.86750 -133.96850    5.07780
 9250.00000    -999.25    -999.25    -999.25   26.00640   38.50100    9.21730  152.08550   35.65940   26.17890   38.45210   57.65750  984.72660  987.92400   19.59460  -45.52740  -44.56100 -199.51810 -146.61910   19.58110
