~Version ---------------------------------------------------
VERS.      2.0 : CWLS log ASCII Standard -VERSION 2.0
WRAP.       NO : One line per depth step
CREA. 11/14/17 : LAS Creation Date
~Well ------------------------------------------------------
STRT.FT                             950.0 : START DEPTH
STOP.FT                           10850.0 : STOP DEPTH
STEP.FT                          50.00000 : STEP LENGTH
NULL.                             -999.25 : NULL VALUE
COMP.        CANADIAN HOMESTEAD OILS LTD. : COMPANY
WELL. HOMESTEAD ET AL ROSEVEAR 11-5-55-15 : WELL
FLD .                                     : FIELD
LOC .                                     : LOCATION
CTRY.                              CANADA : COUNTRY
SRVC.              Schlumberger of Canada : SERVICE COMPANY
DATE.                         05-Oct-1975 : LOGDATE
PROV.                             Alberta : PROVINCE
UWI .                    100110505515W500 : UNIQUE WELL ID
SLAT.WGS84                       53.72589 : SURFACE LATITUDE
SLON.WGS84                      -116.1973 : SURFACE LONGITUDE
~Curve Information -----------------------------------------
DEPT    .FT    : Depth Curve
CALDED  .IN    : CALIPER FROM DENSITY LOG
CALSED  .IN    : CALIPER FROM SONIC LOG
CALWS   .IN    : CALIPER [CALDED]
CONDWS  .MMHO  : CONDUCTIVITY [1000/DRESWS]
DCORWS  .G/C3  : DENSITY CORRECTION [DRHOED]
DENWS   .G/C3  : FORMATION BULK DENSITY [RHOBED]
DPHILSED.V/V   : DENSITY POROSITY LIME [M=2.71, F=1.00] FROM DENSITY LOG [ADJ. TO RHOBED]
DPHISSED.V/V   : DENSITY POROSITY SAND [M=2.65, F=1.00] FROM DENSITY LOG [ADJ. TO RHOBED]
DPOLSWS .V/V   : DENSITY POROSITY LIME [CALC FROM DENWS, M=2.71, F=1.00]
DRESWS  .OHMM  : DEEP RESISTIVITY [ILDED]
DRHOED  .G/C3  : DENSITY CORRECTION FROM DENSITY LOG
DTED    .US/F  : DELTA-T FROM SONIC LOG [ADJ. TO DENSITY LOG]
DTWS    .US/F  : COMPRESSIONAL SONIC [DTED]
GRDED   .GAPI  : GAMMA RAY FROM DENSITY LOG
GRSED   .GAPI  : GAMMA RAY FROM SONIC LOG
GRWS    .GAPI  : GAMMA RAY [GRSED SPL. TO GRDED @ 1083']
ILDED   .OHMM  : DEEP INDUCTION RESISTIVITY FROM RESISTIVITY LOG
ILMED   .OHMM  : INDUCTION MEDIUM RESISTIVITY FROM RESISTIVITY LOG
LL8ED   .OHMM  : LATEROLOG-8 RESISTIVITY FROM RESISTIVITY LOG
MRESWS  .OHMM  : MEDIUM RESISTIVITY [ILMED]
NPHILSED.V/V   : NEUTRON POROSITY LIME FROM DENSITY LOG
NPHISSED.V/V   : NEUTRON POROSITY SAND FROM DENSITY LOG
NPOLSWS .V/V   : NEUTRON POROSITY LIME [SS MATRIX CONVERT TO LS & SPL. TO LS @ 7306']
RHOBED  .G/C3  : BULK DENSITY FROM DENSITY LOG
SPRED   .MV    : SPONTANEOUS POTENTIAL FROM RESISTIVITY LOG
SPWS    .MV    : SPONTANEOUS POTENTIAL [BASELINE 0 MV, SPRED]
SRESWS  .OHMM  : SHALLOW RESISTIVITY [LL8ED]
~Params ----------------------------------------------------
PD  .                     GL : PERMANENT DATUM
EPD .FT               2836.1 : ELEVATION PERMANENT DATUM
LMF .                     KB : LOG MEASURED FROM
DAPD.FT                15.85 : FEET ABOVE PERMANENT DATUM
EKB .FT              2851.95 : KELLY BUSHING
EGL .FT               2836.1 : GROUND LEVEL
DATE.               10/05/75 : RUN DATE
RUN .                      1 : RUN NUMBER
DD  .FT                10878 : DEPTH DRILLER
DL  .FT                10878 : DEPTH LOGGER
BLI .FT                10872 : BOTTOM LOG INTERVAL
TLI .FT                 1099 : TOP LOG INTERVAL
CBD .FT                 1096 : CASING BOTTOM DRILLER
CBL .FT                 1099 : CASING BOTTOM LOGGER
BS  .IN                 8.75 : BIT SIZE
BSD .FT                10878 : BIT SIZE AT DEPTH
DFT .               GEL CHEM : DRILLING FLUID TYPE
DFD .                    9.7 : DRILLING FLUID DENSITY
DFV .                    487 : DRILLING FLUID VISCOSITY
DFPH.                   10.5 : DRILLING FLUID PH
MSS .             CIRCULATED : MUD SAMPLE SOURCE
RMS .OHMM               1.34 : RESISTIVITY MUD SAMPLE
MST .DEGF                 64 : MUD SAMPLE TEMPERATURE
RMF .OHMM               0.91 : RESISTIVITY MUD FILTRATE SAMPLE
MFST.DEGF                 74 : MUD FILTRATE SAMPLE TEMPERATURE
RMB .OHMM               0.34 : RESISTIVITY MUD AT BHT
TCS .HRS                   4 : TIME CIRCULATED STOPPED
LUN .                   7690 : LOGGING UNIT NUMBER
LUL .                    EDM : LOGGING UNIT LOCATION
ENGI.     WILLIGER WILTSHIRE : RECORDING ENGINEER
WITN.                  SLOAN : WITNESSED BY
CLNT.                A2DTECH : CLIENT CODE
ORIG.            2" 5" PRINT : ORIGIN OF DATA
UWI .       100110505515W500 : UNIQUE WELL ID
DICO. A2D Technologies, Inc. : DIGITIZING COMPANY
~Other -----------------------------------------------------
~ASCII -----------------------------------------------------
# ...
 6150.00000    -999.25   10.50370    -999.25  162.07460    0.07910    2.61470    -999.25    0.02610    0.05570    6.17000    0.07910   87.92220   87.92220  132.42950   34.89670  132.42950    6.17000    5.69260    7.11950    5.69260    -999.25    0.26340    0.21940    2.61470 -123.29750   -5.60460    7.11950
 6200.00000    -999.25    8.22850    -999.25  334.33630    0.19520    2.60310    -999.25    0.02860    0.06250    2.99100    0.19520  101.92500  101.92500  104.15670   24.64220  104.15670    2.99100    2.29710    2.76480    2.29710    -999.25    0.30340    0.25940    2.60310 -122.81400   -5.49470    2.76480
 6250.00000    -999.25    7.18430    -999.25  160.80790    0.10430    2.59700    -999.25    0.04010    0.06610    6.21860    0.10430   85.84440   85.84440   99.23620   26.17050   99.23620    6.21860    4.30520    3.97730    4.30520    -999.25    0.28660    0.24260    2.59700 -123.91180   -6.96360    3.97730
 6300.00000   11.11810   14.01440   11.11810   42.73850    0.10590    2.68850    -999.25   -0.02370    0.01260   23.39920    0.10590   66.56070   66.56070   55.18580   15.56080   55.18580   23.39920   21.80490   25.04260   21.80490    -999.25    0.12090    0.07870    2.68850 -141.10230  -24.52530   25.04260
 6350.00000    -999.25    9.67220    -999.25   85.38910    0.21100    2.04260    -999.25    0.36850    0.39030   11.71110    0.21100  100.20760  100.20760   81.96940   19.94200   81.96940   11.71110    6.97270   10.62640    6.97270    -999.25    0.36280    0.31930    2.04260 -122.04580   -5.84230   10.62640
 6400.00000   14.77790   11.74400   14.77790  223.42870    0.18500    2.32750    -999.25    0.21010    0.22370    4.47570    0.18500   80.22330   80.22330   87.23530   20.60070   87.23530    4.47570    3.87180    8.74170    3.87180    -999.25    0.37080    0.32740    2.32750 -120.07480   -4.24250    8.74170
 6450.00000   12.96370   10.11080   12.96370   71.37050    0.04650    2.59890    -999.25    0.03540    0.06500   14.01140    0.04650   66.75860   66.75860   45.48810   16.06410   45.48810   14.01140   13.52900   14.62640   13.52900    -999.25    0.19130    0.14800    2.59890 -134.17930  -18.72050   14.62640
 6500.00000   11.34210    9.74070   11.34210   53.27650    0.06000    2.72630    -999.25   -0.04560   -0.00950   18.77000    0.06000   68.08190   68.08190   70.21910   16.33170   70.21910   18.77000   17.42020   21.84520   17.42020    -999.25    0.20110    0.15770    2.72630 -126.11830  -11.03070   21.84520
 6550.00000   13.72260   11.20670   13.72260   21.05030    0.11660    1.69540    -999.25    0.44990    0.59330   47.57300    0.11660  117.58670  117.58670   58.06830   16.91350   58.06830   47.57300   24.20720   21.67680   24.20720    -999.25    0.54300    0.50130    1.69540 -118.95040   -4.23390   21.67680
 6600.00000   11.27980   10.08930   11.27980   56.76460    0.04780    2.71670    -999.25   -0.04040   -0.00390   17.61660    0.04780   67.72160   67.72160   89.99310   23.17780   89.99310   17.61660   18.07330   21.43250   18.07330    -999.25    0.19420    0.15090    2.71670 -124.19130   -9.84840   21.43250
 6650.00000   10.88940    9.16300   10.88940   68.39620    0.05310    2.67860    -999.25   -0.01810    0.01840   14.62070    0.05310   70.01910   70.01910   63.68460   17.38330   63.68460   14.62070   15.43990   17.38150   15.43990    -999.25    0.20360    0.16010    2.67860 -141.93400  -27.96220   17.38150
 6700.00000   10.63120    8.40550   10.63120   15.99250    0.04590    2.73310    -999.25   -0.05560   -0.01350   62.52940    0.04590   59.79950   59.79950   48.71090   10.59680   48.71090   62.52940   91.08300  255.26610   91.08300    -999.25    0.08690    0.04670    2.73310 -136.11650  -22.51830  255.26610
 6750.00000   12.78560   12.03880   12.78560   67.61010    0.10350    2.52730    -999.25    0.07150    0.10680   14.79070    0.10350   71.53280   71.53280   81.74230   25.57110   81.74230   14.79070   13.33260   19.19170   13.33260    -999.25    0.34470    0.30100    2.52730 -122.07940   -8.85230   19.19170
 6800.00000   10.69210   10.12360   10.69210   48.71890    0.04150    1.63020    -999.25    0.44990    0.63150   20.53070    0.04150  123.97160  123.97160   43.44730   16.17710   43.44730   20.53070   11.97900   37.24510   11.97900    -999.25    0.56710    0.52540    1.63020 -132.68900  -19.83300   37.24510
 6850.00000   10.38020    9.69030   10.38020   63.56590    0.03700    2.67310    -999.25   -0.01300    0.02160   15.73170    0.03700   62.37290   62.37290   61.92130   15.35570   61.92130   15.73170   17.49260   35.52360   17.49260    -999.25    0.17190    0.12890    2.67310 -129.82030  -17.33790   35.52360
 6900.00000   11.43310   10.06850   11.43310  152.96130    0.07640    2.52350    -999.25    0.07200    0.10910    6.53760    0.07640   76.83240   76.83240   73.17810   21.01300   73.17810    6.53760    5.22920    8.22270    5.22920    -999.25    0.32660    0.28270    2.52350 -120.84640   -8.73510    8.22270
 6950.00000   12.69520   10.71820   12.69520   95.72130    0.08110    2.61440    -999.25    0.02010    0.05590   10.44700    0.08110   79.79650   79.79650   84.01400   24.51290   84.01400   10.44700    8.91020   11.04540    8.91020    -999.25    0.30940    0.26550    2.61440 -118.02760   -6.28990   11.04540
 7000.00000   10.04560   10.45520   10.04560   59.36590    0.06940    2.65320    -999.25   -0.01400    0.03320   16.84470    0.06940   67.37960   67.37960   59.44680   22.07180   59.44680   16.84470   17.72500   22.25820   17.72500    -999.25    0.16910    0.12620    2.65320 -119.13290   -7.76630   22.25820
 7050.00000   10.17320   10.45960   10.17320   45.10400    0.03600    2.63740    -999.25    0.00850    0.04250   22.18610    0.03600   67.19220   67.19220   87.04270   22.09780   87.04270   22.18610   20.73600   34.70380   20.73600    -999.25    0.20510    0.16160    2.63740 -119.35910   -8.36360   34.70380
 7100.00000    8.93720    8.56770    8.93720   25.06000    0.14200    2.48890    -999.25    0.09940    0.12930   39.90430    0.14200   77.47570   77.47570   26.76200    8.74390   26.76200   39.90430   39.32410   41.45020   39.32410    -999.25    0.17240    0.12940    2.48890 -161.67230  -51.05040   41.45020
 7150.00000   13.19650    9.70010   13.19650   37.94140    0.24960    2.38900    -999.25    0.16400    0.18770   26.35640    0.24960   75.10170   75.10170   97.09780   23.68930   97.09780   26.35640   25.02920   46.31540   25.02920    -999.25    0.25960    0.21560    2.38900 -116.89920   -6.64840   46.31540
 7200.00000   10.86990    9.85000   10.86990   76.56320    0.09410    2.45970    -999.25    0.12310    0.14640   13.06110    0.09410   71.32170   71.32170   87.66030   26.07060   87.66030   13.06110   13.41280   15.59550   13.41280    -999.25    0.24700    0.20310    2.45970 -114.38420   -4.50700   15.59550
 7250.00000   12.77780   10.43580   12.77780  100.31200    0.22160    2.12300    -999.25    0.31740    0.34330    9.96890    0.22160   76.11900   76.11900  101.99920   26.06980  101.99920    9.96890    9.44510   11.38880    9.44510    -999.25    0.29680    0.25280    2.12300 -116.27880   -6.77270   11.38880
 7300.00000   12.69600   10.82270   12.69600   41.88610    0.17140    2.38610    0.16960    0.16010    0.18940   23.87430    0.17140   72.08500   72.08500   88.28280   25.02520   88.28280   23.87430   16.69360   23.73310   16.69360    0.26350    0.32240    0.27860    2.38610 -112.90050   -3.93090   23.73310
 7350.00000    9.87040    8.60270    9.87040   16.92380    0.04180    2.66500    0.03380    -999.25    0.02630   59.08840    0.04180   40.28630   40.28630   31.50260    7.67920   31.50260   59.08840   72.97640  111.87330   72.97640    0.02680    -999.25    0.02680    2.66500 -170.12630  -62.73470  111.87330
 7400.00000    9.77300    9.67680    9.77300    0.59690    0.04760    2.63660    0.04150    -999.25    0.04290 1675.19020    0.04760   56.42260   56.42260   19.07210    7.51000   19.07210 1675.19020 2241.18240 1459.02100 2241.18240    0.00460    -999.25    0.00460    2.63660 -156.58620  -50.76240 1459.02100
