~Version ---------------------------------------------------
VERS.      2.0 : CWLS log ASCII Standard -VERSION 2.0
WRAP.       NO : One line per depth step
CREA. 11/16/17 : LAS Creation Date
~Well ------------------------------------------------------
STRT.FT                            300.0 : START DEPTH
STOP.FT                          10650.0 : STOP DEPTH
STEP.FT                         50.00000 : STEP LENGTH
NULL.                            -999.25 : NULL VALUE
COMP.               IMPERIAL OIL LIMITED : COMPANY
WELL. IMPERIAL VIRGINIA HILLS 6-36-63-12 : WELL
FLD .                                 WC : FIELD
LOC .                                    : LOCATION
CTRY.                             CANADA : COUNTRY
SRVC.                       Schlumberger : SERVICE COMPANY
DATE.                        16-Jul-1956 : LOGDATE
PROV.                            Alberta : PROVINCE
UWI .                   100063606312W500 : UNIQUE WELL ID
SLAT.WGS84                  54.492313385 : SURFACE LATITUDE
SLON.WGS84               -115.6804122925 : SURFACE LONGITUDE
~Curve Information -----------------------------------------
DEPT  .FT         : Depth Curve
CALMED.IN         : CALIPER FROM MICRO LOG
CALWS .IN         : CALIPER [CALMED]
CONDWS.MMHO       : CONDUCTIVITY [1000/DRESWS]
DRESWS.OHMM       : DEEP RESISTIVITY [LNED]
GRNED .UgRa-Eq/T  : GAMMA RAY FROM GRN LOG
GRWS  .GAPI       : GAMMA RAY [GRNED*16.5]
LNED  .OHMM       : LONG NORMAL 64" FROM RESISTIVITY LOG
LT18ED.OHMM       : LATERAL 18" FROM RESISTIVITY LOG
MLLED .OHMM       : MICROLATEROLOG RESISTIVITY FROM MICRO LOG
NEUTED.SCPS       : NEUTRON FROM GRN LOG
NEUTWS.SCPS       : NEUTRON [NEUTED]
SNED  .OHMM       : 16 INCH SHORT NORMAL RESISTIVITY FROM RESISTIVITY LOG
SPRED .MV         : SPONTANEOUS POTENTIAL FROM RESISTIVITY LOG
SPWS  .MV         : SPONTANEOUS POTENTIAL [BASELINE 0 MV, SPRED]
SRESWS.OHMM       : SHALLOW RESISTIVITY [SNED]
~Params ----------------------------------------------------
LMF .                     KB : LOG MEASURED FROM
DMF .                     KB : DRILLING MEASURED FROM
EKB .FT                 3708 : KELLY BUSHING
DATE.               07/16/56 : RUN DATE
RUN .                      1 : RUN NUMBER
DD  .FT                10710 : DEPTH DRILLER
DL  .FT                10689 : DEPTH LOGGER
BLI .FT                10688 : BOTTOM LOG INTERVAL
TLI .FT                  714 : TOP LOG INTERVAL
CBD .FT                  713 : CASING BOTTOM DRILLER
CBL .FT                  714 : CASING BOTTOM LOGGER
BS  .IN                    9 : BIT SIZE
BSD .FT                10710 : BIT SIZE AT DEPTH
DFT .                    GEL : DRILLING FLUID TYPE
DFD .                     10 : DRILLING FLUID DENSITY
DFV .                    140 : DRILLING FLUID VISCOSITY
DFPH.                      9 : DRILLING FLUID PH
DFL .                      9 : DRILLING FLUID LOSS
RMS .OHMM                2.2 : RESISTIVITY MUD SAMPLE
MST .DEGF                 72 : MUD SAMPLE TEMPERATURE
RMB .OHMM                0.8 : RESISTIVITY MUD AT BHT
TCS .HRS                   4 : TIME CIRCULATED STOPPED
LUN .                   1890 : LOGGING UNIT NUMBER
LUL .                    SKW : LOGGING UNIT LOCATION
ENGI.                CHARLES : RECORDING ENGINEER
WITN.                PURCELL : WITNESSED BY
CLNT.                A2DTECH : CLIENT CODE
ORIG.            2" 5" PRINT : ORIGIN OF DATA
UWI .       100063606312W500 : UNIQUE WELL ID
DICO. A2D Technologies, Inc. : DIGITIZING COMPANY
~Other -----------------------------------------------------
~ASCII -----------------------------------------------------
  300.00000    -999.25    -999.25    -999.25    -999.25    3.41110   56.28310    -999.25    -999.25    -999.25  253.58710  253.58710    -999.25    -999.25    -999.25    -999.25
  350.00000    -999.25    -999.25    -999.25    -999.25    3.28730   54.24050    -999.25    -999.25    -999.25  231.95360  231.95360    -999.25    -999.25    -999.25    -999.25
  400.00000    -999.25    -999.25    -999.25    -999.25    4.41220   72.80130    -999.25    -999.25    -999.25  229.86650  229.86650    -999.25    -999.25    -999.25    -999.25
  450.00000    -999.25    -999.25    -999.25    -999.25    5.58630   92.17390    -999.25    -999.25    -999.25  224.04990  224.04990    -999.25    -999.25    -999.25    -999.25
  500.00000    -999.25    -999.25    -999.25    -999.25    4.35910   71.92520    -999.25    -999.25    -999.25  211.09050  211.09050    -999.25    -999.25    -999.25    -999.25
  550.00000    -999.25    -999.25    -999.25    -999.25    4.23870   69.93850    -999.25    -999.25    -999.25  206.68740  206.68740    -999.25    -999.25    -999.25    -999.25
  600.00000    -999.25    -999.25    -999.25    -999.25    4.00730   66.12040    -999.25    -999.25    -999.25  211.61750  211.61750    -999.25    -999.25    -999.25    -999.25
  650.00000    -999.25    -999.25    -999.25    -999.25    5.83890   96.34180    -999.25    -999.25    -999.25  208.03670  208.03670    -999.25    -999.25    -999.25    -999.25
  700.00000    -999.25    -999.25    -999.25    -999.25    4.04320   66.71280    -999.25    -999.25    -999.25  243.75870  243.75870    -999.25    -999.25    -999.25    -999.25
  750.00000    -999.25    -999.25   33.52610   29.82750    5.03670   83.10550   29.82750    -999.25    -999.25  272.39120  272.39120   19.82650  -75.28770   -8.28660   19.82650
  800.00000    -999.25    -999.25  152.72790    6.55520   10.78540  177.95910    6.55520    7.46580    -999.25  218.01970  218.01970    7.24680  -70.17150   -3.33490    7.24680
  850.00000    -999.25    -999.25   57.35750   17.43450    5.07680   83.76720   17.43450   14.76770    -999.25  253.32830  253.32830   12.68590  -83.97650  -17.43950   12.68590
  900.00000    -999.25    -999.25  104.39300    9.58140    7.18530  118.55750    9.58140    2.32120    -999.25  234.76530  234.76530    5.65050  -69.41640   -3.17700    5.65050
  950.00000    -999.25    -999.25  214.17400    4.66910    8.36110  137.95820    4.66910    5.55030    -999.25  234.72950  234.72950    3.23380  -68.79350   -2.85370    3.23380
 1000.00000    -999.25    -999.25  240.99290    4.14950    6.64610  109.66060    4.14950    5.44480    -999.25  232.55920  232.55920    3.62080  -67.40390   -1.76170    3.62080
 1050.00000    -999.25    -999.25  136.16260    7.34500    6.81910  112.51510    7.34500    5.71640    -999.25  239.98930  239.98930    5.14540  -67.36210   -2.01760    5.14540
 1100.00000    -999.25    -999.25  442.28220    2.26100    4.93940   81.50010    2.26100   30.60390    -999.25  202.01100  202.01100    7.67970  -66.43570   -1.39080    7.67970
 1150.00000    -999.25    -999.25  137.39780    7.27860    6.07750  100.27870    7.27860    4.02000    -999.25  252.63410  252.63410    5.56440  -67.89170   -3.14440    5.56440
 1200.00000    -999.25    -999.25  189.62380    5.27360    6.55540  108.16410    5.27360    4.63730    -999.25  234.14090  234.14090    4.03390  -66.71640   -2.26870    4.03390
 1250.00000    -999.25    -999.25  154.78440    6.46060    6.30230  103.98800    6.46060    5.07190    -999.25  245.37260  245.37260    4.47070  -65.80000   -1.64990    4.47070
 1300.00000    -999.25    -999.25  146.80660    6.81210    6.10490  100.73080    6.81210    8.67910    -999.25  267.86830  267.86830    6.56260  -70.46420   -6.61180    6.56260
 1350.00000    -999.25    -999.25  197.10650    5.07340    6.05140   99.84810    5.07340    5.00570    -999.25  235.34110  235.34110    4.41650  -67.71040   -4.15760    4.41650
 1400.00000    -999.25    -999.25  179.44190    5.58480    5.71920   94.36680    5.58480   13.77090    -999.25  244.30380  244.30380    4.93480  -66.67860   -3.42340    4.93480
 1450.00000    -999.25    -999.25  173.74690    5.75550    6.43870  106.23860    5.75550    5.19840    -999.25  257.83630  257.83630    4.97590  -66.09430   -3.13870    4.97590
 1500.00000    -999.25    -999.25  263.98460    3.78810    6.83090  112.70980    3.78810    3.64800    -999.25  221.59480  221.59480    3.36870  -66.38700   -3.72900    3.36870
 1550.00000    -999.25    -999.25  321.44240    3.15250    5.61560   92.65740    3.15250    8.46500    -999.25  213.91000  213.91000    5.44050  -65.76180   -3.40150    5.44050
 1600.00000    -999.25    -999.25  218.40260    4.57870    6.21520  102.55080    4.57870    5.19410    -999.25  252.10960  252.10960    3.79130  -64.88800   -2.82730    3.79130
 1650.00000    -999.25    -999.25  208.25570    4.80180    5.83310   96.24620    4.80180    5.64560    -999.25  243.63060  243.63060    4.50730  -65.44110   -3.67800    4.50730
 1700.00000    -999.25    -999.25  138.58670    7.21570    5.24770   86.58710    7.21570    6.74910    -999.25  264.89440  264.89440    6.76830  -77.77360  -16.31010    6.76830
 1750.00000    -999.25    -999.25  233.61760    4.28050    6.31490  104.19580    4.28050    5.01890    -999.25  236.38440  236.38440    3.60490  -64.22710   -3.06120    3.60490
 1800.00000    -999.25    -999.25  207.38930    4.82190    6.90260  113.89290    4.82190    4.61140    -999.25  229.92280  229.92280    3.84300  -64.22150   -3.35330    3.84300
 1850.00000    -999.25    -999.25  157.30940    6.35690    5.30010   87.45160    6.35690    7.24760    -999.25  263.07760  263.07760    6.07810  -59.67270    0.00000    6.07810
 1900.00000    -999.25    -999.25  258.71320    3.86530    6.33980  104.60670    3.86530    3.97040    -999.25  238.48610  238.48610    3.28550  -63.09040   -2.81940    3.28550
 1950.00000    -999.25    -999.25  103.60010    9.65250    4.19430   69.20600    9.65250   16.60200    -999.25  206.30450  206.30450   16.03110  -64.19240   -4.22100   16.03110
 2000.00000    -999.25    -999.25  142.34270    7.02530    5.43320   89.64780    7.02530    8.21200    -999.25  240.48240  240.48240    5.58620  -68.52250   -8.84870    5.58620
 2050.00000    -999.25    -999.25  327.54000    3.06160    7.28700  120.23550    3.06160    5.15070    -999.25  216.73640  216.73640    3.26960  -62.19610   -2.82000    3.26960
 2100.00000    -999.25    -999.25  221.67540    4.51110    8.14460  134.38590    4.51110    3.91430    -999.25  227.62750  227.62750    3.51710  -62.43110   -4.66980    3.51710
 2150.00000    -999.25    -999.25  276.56020    3.61580    6.13050  101.15330    3.61580    4.52190    -999.25  240.61690  240.61690    4.03070  -59.33830   -3.41240    4.03070
 2200.00000    -999.25    -999.25  127.27500    7.85700    4.97950   82.16170    7.85700    6.88460    -999.25  299.12400  299.12400   11.20150  -79.59330  -25.06970   11.20150
 2250.00000    -999.25    -999.25  211.88240    4.71960    6.46740  106.71210    4.71960    4.62740    -999.25  240.41530  240.41530    3.69840  -62.41180   -7.94280    3.69840
 2300.00000    -999.25    -999.25  244.68130    4.08820    6.45840  106.56360    4.08820    5.80410    -999.25  240.25900  240.25900    4.64410  -62.88060   -8.46630    4.64410
 2350.00000    -999.25    -999.25  243.75380    4.10250    6.81400  112.43100    4.10250    4.30910    -999.25  229.31080  229.31080    2.91900  -61.44370   -7.08440    2.91900
 2400.00000   10.87290   10.87290  303.73900    3.29230    6.56790  108.37040    3.29230    3.82370    -999.25  227.65630  227.65630    2.63860  -61.06530   -6.76060    2.63860
 2450.00000   10.94550   10.94550  197.82790    5.05490    6.44990  106.42340    5.05490    4.90870    -999.25  218.84060  218.84060    4.28480  -62.37630   -8.12670    4.28480
 2500.00000    9.50710    9.50710   77.12180   12.96650    4.28380   70.68270   12.96650   10.38370    -999.25  249.44080  249.44080   11.77460  -75.73160  -21.53660   11.77460
 2550.00000   10.52800   10.52800  211.81510    4.72110    5.39260   88.97790    4.72110    4.76010    -999.25  239.63140  239.63140    3.68600  -62.02680   -7.88650    3.68600
