~Version ---------------------------------------------------
VERS.      2.0 : CWLS log ASCII Standard -VERSION 2.0
WRAP.       NO : One line per depth step
CREA. 10/24/17 : LAS Creation Date
~Well ------------------------------------------------------
STRT.FT                        1200.0 : START DEPTH
STOP.FT                       11700.0 : STOP DEPTH
STEP.FT                      50.00000 : STEP LENGTH
NULL.                         -999.25 : NULL VALUE
COMP.            MOBIL OIL CANADA LTD : COMPANY
WELL. MOBIL ICG MARSH HEAD 11-3-60-20 : WELL
FLD .                                 : FIELD
LOC .                                 : LOCATION
CTRY.                          CANADA : COUNTRY
SRVC.                    Schlumberger : SERVICE COMPANY
DATE.                     05-Jan-1976 : LOGDATE
PROV.                         Alberta : PROVINCE
UWI .                100110306020W500 : UNIQUE WELL ID
SLAT.WGS84                   54.15991 : SURFACE LATITUDE
SLON.WGS84                  -116.9171 : SURFACE LONGITUDE
~Curve Information -----------------------------------------
DEPT    .FT    : Depth Curve
CALDED  .IN    : CALIPER FROM DENSITY LOG [ADJ. TO RESISTIVITY LOG]
CALSED  .IN    : CALIPER FROM SONIC LOG [ADJ. TO RESISTIVITY LOG]
CALWS   .IN    : CALIPER [CALDED SPL. TO CALSED FROM 2516'-2535']
CONDWS  .MMHO  : CONDUCTIVITY [1000/DRESWS]
DCORWS  .G/C3  : DENSITY CORRECTION [DRHOED]
DENWS   .G/C3  : FORMATION BULK DENSITY [RHOBED]
DPHILSED.V/V   : DENSITY POROSITY LIMESTONE  FROM DENSITY LOG [ADJ. TO RESISTIVITY LOG]
DPOLSWS .V/V   : DENSITY POROSITY LIMESTONE [CALC FROM DENWS,M=2.71, F=1.00]
DRESWS  .OHMM  : DEEP RESISTIVITY [ILDED]
DRHOED  .G/C3  : DENSITY CORRECTION FROM DENSITY LOG [ADJ. TO RESISTIVITY LOG]
DTED    .US/F  : DELTA TIME FROM SONIC LOG [ADJ. TO RESISTIVITY LOG]
DTWS    .US/F  : COMPRESSIONAL SONIC [DTED]
GRDED   .GAPI  : GAMMA RAY FROM DENSITY LOG [ADJ. TO RESISTIVITY LOG]
GRSED   .GAPI  : GAMMA RAY FROM SONIC LOG [ADJ. TO RESISTIVITY LOG]
GRWS    .GAPI  : GAMMA RAY [GRDED SPL. TO GRSED FROM 2507'-2550']
ILDED   .OHMM  : DEEP INDUCTION RESISTIVITY FROM RESISTIVITY LOG
ILMED   .OHMM  : MEDIUM INDUCTION RESISTIVITY FROM RESISTIVITY LOG
LL8ED   .OHMM  : 8 INCH LATEROLOG RESISTIVITY FROM RESISTIVITY LOG
MRESWS  .OHMM  : MEDIUM RESISTIVITY [ILMED]
NPHILSED.V/V   : NEUTRON POROSITY LIMESTONE FROM DENSITY LOG [ADJ. TO RESISTIVITY LOG]
NPOLSWS .V/V   : NEUTRON POROSITY LIMESTONE [NPHILSED]
RHOBED  .G/C3  : BULK DENSITY FROM DENSITY LOG [ADJ. TO RESISTIVITY LOG]
SPRED   .MV    : SPONTANEOUS POTENTIAL FROM RESISTIVITY LOG
SPWS    .MV    : SPONTANEOUS POTENTIAL [BASELINE 0 MV, SPRED]
SRESWS  .OHMM  : SHALLOW RESISTIVITY [LL8ED]
~Params ----------------------------------------------------
PD  .                     GL : PERMANENT DATUM
EPD .FT               3132.5 : ELEVATION PERMANENT DATUM
LMF .                     KB : LOG MEASURED FROM
DAPD.FT                 14.5 : FEET ABOVE PERMANENT DATUM
EKB .FT                 3147 : KELLY BUSHING
EGL .FT               3132.5 : GROUND LEVEL
DATE.               01/05/76 : RUN DATE
RUN .                      1 : RUN NUMBER
DD  .FT                11725 : DEPTH DRILLER
DL  .FT                11730 : DEPTH LOGGER
BLI .FT                11724 : BOTTOM LOG INTERVAL
TLI .FT                 1203 : TOP LOG INTERVAL
CBD .FT                 1203 : CASING BOTTOM DRILLER
CBL .FT                 1203 : CASING BOTTOM LOGGER
BS  .IN                 8.75 : BIT SIZE
BSD .FT                11725 : BIT SIZE AT DEPTH
DFT .                    GEL : DRILLING FLUID TYPE
DFD .                    9.6 : DRILLING FLUID DENSITY
DFV .                    110 : DRILLING FLUID VISCOSITY
DFPH.                   10.5 : DRILLING FLUID PH
DFL .                    9.8 : DRILLING FLUID LOSS
MSS .               FLOWLINE : MUD SAMPLE SOURCE
RMS .OHMM               2.42 : RESISTIVITY MUD SAMPLE
MST .DEGF                 74 : MUD SAMPLE TEMPERATURE
RMF .OHMM               1.63 : RESISTIVITY MUD FILTRATE SAMPLE
MFST.DEGF                 74 : MUD FILTRATE SAMPLE TEMPERATURE
RMB .OHMM               0.67 : RESISTIVITY MUD AT BHT
TCS .HRS                   3 : TIME CIRCULATED STOPPED
LUN .                   7658 : LOGGING UNIT NUMBER
LUL .                     RD : LOGGING UNIT LOCATION
ENGI.              DODSWORTH : RECORDING ENGINEER
WITN.   OLINYK LINDENSCHMIDT : WITNESSED BY
CLNT.                A2DTECH : CLIENT CODE
ORIG.            2" 5" PRINT : ORIGIN OF DATA
UWI .       100110306020W500 : UNIQUE WELL ID
DICO. A2D Technologies, Inc. : DIGITIZING COMPANY
~Other -----------------------------------------------------
DIL-LL-CNFD-BHC LOG RUN
CNFD DATA MISSING AROUND 25256' (MAY BE DUE TO LOG SPLICING)
~ASCII -----------------------------------------------------
# ...
 11000.00000    9.05060    9.51440    9.05060   17.73400   -0.00190    2.50510    0.12210    0.11980   56.38890   -0.00190   77.66600   77.66600  129.01580  119.43250  129.01580   56.38890   58.22010  217.14220   58.22010    0.15500    0.15500    2.50510   -1.29670   -5.53430  217.14220
 11050.00000    9.05320   10.12210    9.05320   26.17150   -0.00550    2.50330    0.12080    0.12090   38.21190   -0.00550   84.28600   84.28600  145.53490  131.56870  145.53490   38.21190   37.13710  101.56380   37.13710    0.17380    0.17380    2.50330  -11.58460  -13.24810  101.56380
 11100.00000    9.01150    9.48610    9.01150    8.20060    0.00590    2.44240    0.15700    0.15650  121.94290    0.00590   75.96470   75.96470  142.49870  125.72930  142.49870  121.94290  179.16070 1493.84960  179.16070    0.13910    0.13910    2.44240  -34.78060  -33.84420 1493.84960
 11150.00000    8.99200    9.42530    8.99200    8.66410    0.00700    2.44940    0.15250    0.15240  115.41860    0.00700   69.19680   69.19680  118.74340  113.73670  118.74340  115.41860  134.29260 1467.34110  134.29260    0.09750    0.09750    2.44940  -45.00530  -41.48180 1467.34110
 11200.00000    9.18450    9.50340    9.18450   14.37170   -0.02930    2.59350    0.07010    0.06810   69.58100   -0.02930   60.90460   60.90460   71.83630   70.94390   71.83630   69.58100   93.68200  263.70420   93.68200    0.07530    0.07530    2.59350  -25.79100  -18.96960  263.70420
 11250.00000   11.00000   10.05490   11.00000    8.05470    0.17980    2.51790    0.11230    0.11230  124.15160    0.17980   48.69770   48.69770   12.64150   12.88270   12.64150  124.15160  224.82820 1540.87280  224.82820   -0.00620   -0.00620    2.51790 -117.98080 -106.83840 1540.87280
 11300.00000    9.78790    9.59360    9.78790   13.38540    0.14170    2.59770    0.06580    0.06570   75.04950    0.14170   50.22640   50.22640   12.31800   10.97180   12.31800   75.04950   94.93070  189.14330   94.93070    0.01560    0.01560    2.59770 -140.48760 -125.04590  189.14330
 11350.00000   11.13710   10.05840   11.13710    4.31260    0.22410    2.42020    0.17130    0.16950  231.87830    0.22410   48.93930   48.93930   14.16330   16.03220   14.16330  231.87830  206.70520 1536.51160  206.70520    0.00940    0.00940    2.42020 -140.99160 -121.20730 1536.51160
 11400.00000   10.51560    9.87010   10.51560    7.09380    0.15320    2.41990    0.16570    0.16960  140.96860    0.15320   48.30350   48.30350   17.90610   16.62580   17.90610  140.96860  210.02710 1493.80690  210.02710    0.03020    0.03020    2.41990 -124.88140 -100.77610 1493.80690
 11450.00000   10.76260   10.14320   10.76260    6.71280    0.17390    2.57150    0.07940    0.08100  148.96840    0.17390   48.61960   48.61960   20.10730   17.28640   20.10730  148.96840  160.00170 1499.05310  160.00170   -0.00410   -0.00410    2.57150 -152.51540 -124.08910 1499.05310
 11500.00000   11.91660   10.20790   11.91660    5.01700    0.18800    2.34990    0.20490    0.21060  199.32250    0.18800   49.36990   49.36990   15.83660   15.61620   15.83660  199.32250  141.26870 1505.61060  141.26870    0.00410    0.00410    2.34990 -153.01280 -120.26550 1505.61060
 11550.00000   11.28110   10.07820   11.28110    6.30490    0.22030    2.38330    0.19600    0.19110  158.62670    0.22030   50.31320   50.31320   18.61920   15.35050   18.61920  158.62670  208.35210 1514.31620  208.35210   -0.00200   -0.00200    2.38330 -160.22740 -123.18080 1514.31620
 11600.00000    9.08570    9.26200    9.08570    5.35980    0.10500    2.59710    0.05520    0.06600  186.57560    0.10500   48.33680   48.33680   14.42000   15.60190   14.42000  186.57560  117.74250  557.00540  117.74250    0.02940    0.02940    2.59710 -143.51360 -102.12440  557.00540
 11650.00000    9.14770    9.61790    9.14770   22.49550    0.03380    2.66710    0.03030    0.02510   44.45340    0.03380   62.51070   62.51070  147.99320  124.97770  147.99320   44.45340   46.28690   95.02360   46.28690    0.15530    0.15530    2.66710  -47.22900   -1.51880   95.02360
 11700.00000    8.74860    9.47330    8.74860  104.73620    0.02290    2.49910    0.12460    0.12330    9.54780    0.02290   61.61910   61.61910  169.13040    -999.25  169.13040    9.54780   11.03060   19.07650   11.03060    0.06290    0.06290    2.49910 -117.83840  -70.52940   19.07650
