~Version ---------------------------------------------------
VERS.      2.0 : CWLS log ASCII Standard -VERSION 2.0
WRAP.       NO : One line per depth step
CREA. 11/22/17 : LAS Creation Date
~Well ------------------------------------------------------
STRT.FT                              300.0 : START DEPTH
STOP.FT                            16950.0 : STOP DEPTH
STEP.FT                           50.00000 : STEP LENGTH
NULL.                              -999.25 : NULL VALUE
COMP.                        BANFF OIL LTD : COMPANY
WELL. BANFF AQUIT SIEBENS RAMR 14-21-37-11 : WELL
FLD .                                      : FIELD
LOC .                                      : LOCATION
CTRY.                               CANADA : COUNTRY
SRVC.                         Schlumberger : SERVICE COMPANY
DATE.                          21-Oct-1970 : LOGDATE
PROV.                              Alberta : PROVINCE
UWI .                     100142103711W500 : UNIQUE WELL ID
SLAT.WGS84                        52.19912 : SURFACE LATITUDE
SLON.WGS84                       -115.5164 : SURFACE LONGITUDE
~Curve Information -----------------------------------------
DEPT    .FT    : Depth Curve
CALDED  .IN    : CALIPER FROM DENSITY LOG [DEP. ADJ. TO ILMED]
CALNED  .IN    : CALIPER FROM NEUTRON LOG [DEP. ADJ. TO ILMED]
CALSED  .IN    : CALIPER FROM SONIC LOG [DEP. ADJ. TO ILMED]
CALWS   .IN    : CALIPER 148' CALSED 13012' CALNED 13190' CALDED 14980' CALSED 15315' CALDED 16246' CALSED]
CONDWS  .MMHO  : DEEP CONDUCTIVITY [1000/DRESWS]
DCORWS  .G/C3  : DENSITY CORRECTION [DRHOED]
DENWS   .G/C3  : BULK DENSITY [M=2.71, F=1.00] [RHOBED]
DPHILSED.V/V   : DENSITY POROSITY [M=2.71, F=1.00] FROM DENSITY LOG [DEP. ADJ. TO ILMED]
DPOLSWS .V/V   : DENSITY POROSITY [M=2.71, F=1.00] [CAL. FROM DENWS]
DRESWS  .OHMM  : DEEP RESISTIVITY [ILDED]
DRHOED  .G/C3  : DENSITY CORRECTION FROM DENSITY LOG [DEP. ADJ. TO ILMED]
DTED    .US/F  : DELTA TIME FROM SONIC LOG [DEP. ADJ. TO ILMED]
DTWS    .US/F  : DELTA TIME [DTED]
GRDED   .GAPI  : GAMMA RAY FROM DENSITY LOG [DEP. ADJ. TO ILMED]
GRNED   .GAPI  : GAMMA RAY FROM NEUTRON LOG [DEP. ADJ. TO ILMED]
GRSED   .GAPI  : GAMMA RAY FROM SONIC LOG [DEP. ADJ. TO ILMED]
GRWS    .GAPI  : GAMMA RAY [GRSED]
ILDED   .OHMM  : INDUCTION LOG DEEP RESISTIVITY
ILMED   .OHMM  : INDUCTION LOG MEDIUM RESISTIVITY
LL8ED   .OHMM  : 8 INCH LATEROLOG RESISTIVITY
MRESWS  .OHMM  : MEDIUM RESISTIVITY [ILMED]
NPOLSWS .V/V   : NEUTRON POROSITY LIMESTONE [SNPLSED]
RHOBED  .G/C3  : BULK DENSITY FROM DENSITY LOG [DEP. ADJ. TO ILMED]
SNPLSED .V/V   : SIDEWALL NEUTRON POROSITY [LIMESTONE] [DEP. ADJ. TO ILMED]
SPRED   .MV    : SPONTANEOUS POTENTIAL FROM RESIST. LOG [DIVIDED BY 2 BELOW 13778'], SHIFTS REMOVED, PATCHED]
SPWS    .MV    : SPONTANEOUS POTENTIAL [BASELINE 0 MV] [SPRED][PL. USE W/ RESERVATION]
SRESWS  .OHMM  : SHALLOW RESISTIVITY [LL8ED]
~Params ----------------------------------------------------
PD  .                     GL : PERMANENT DATUM
EPD .FT                 4914 : ELEVATION PERMANENT DATUM
LMF .                     KB : LOG MEASURED FROM
DAPD.FT                 18.7 : FEET ABOVE PERMANENT DATUM
EKB .FT               4932.7 : KELLY BUSHING
EGL .FT                 4914 : GROUND LEVEL
DATE.               10/21/70 : RUN DATE
RUN .                      4 : RUN NUMBER
DD  .FT                16960 : DEPTH DRILLER
DL  .FT                16960 : DEPTH LOGGER
BLI .FT                16954 : BOTTOM LOG INTERVAL
TLI .FT                16000 : TOP LOG INTERVAL
BS  .IN                8.375 : BIT SIZE
BSD .FT                16960 : BIT SIZE AT DEPTH
DFT .                    GEL : DRILLING FLUID TYPE
DFD .                   10.1 : DRILLING FLUID DENSITY
DFV .                     61 : DRILLING FLUID VISCOSITY
DFPH.                     10 : DRILLING FLUID PH
DFL .                    8.4 : DRILLING FLUID LOSS
MSS .               FLOWLINE : MUD SAMPLE SOURCE
RMS .OHMM               1.51 : RESISTIVITY MUD SAMPLE
MST .DEGF                 66 : MUD SAMPLE TEMPERATURE
RMF .OHMM               1.11 : RESISTIVITY MUD FILTRATE SAMPLE
MFST.DEGF                 70 : MUD FILTRATE SAMPLE TEMPERATURE
TCS .HRS                   4 : TIME CIRCULATED STOPPED
LUN .                   7002 : LOGGING UNIT NUMBER
LUL .                     RD : LOGGING UNIT LOCATION
ENGI.                 TALBOT : RECORDING ENGINEER
WITN.          LEMEE BRINKER : WITNESSED BY
CLNT.                A2DTECH : CLIENT CODE
ORIG.            2" 5" PRINT : ORIGIN OF DATA
UWI .       100142103711W500 : UNIQUE WELL ID
DICO. A2D Technologies, Inc. : DIGITIZING COMPANY
~Other -----------------------------------------------------
~ASCII -----------------------------------------------------
# ...
 4200.00000    -999.25    -999.25   13.39920   13.39920   14.08070    -999.25    -999.25    -999.25    -999.25   71.01910    -999.25   64.65590   64.65590    -999.25    -999.25   69.69040   69.69040   71.01910   67.14360   79.12230   67.14360    -999.25    -999.25    -999.25   17.54050  -58.33040   79.12230
 4250.00000    -999.25    -999.25   13.24360   13.24360   11.92340    -999.25    -999.25    -999.25    -999.25   83.86870    -999.25   64.82500   64.82500    -999.25    -999.25   68.63340   68.63340   83.86870   80.40850   97.33220   80.40850    -999.25    -999.25    -999.25   24.51250  -51.44380   97.33220
 4300.00000    -999.25    -999.25   13.80230   13.80230   10.42250    -999.25    -999.25    -999.25    -999.25   95.94650    -999.25   68.13400   68.13400    -999.25    -999.25   68.08440   68.08440   95.94650   87.89210  116.60630   87.89210    -999.25    -999.25    -999.25   25.43550  -50.60620  116.60630
 4350.00000    -999.25    -999.25   12.87800   12.87800    0.81640    -999.25    -999.25    -999.25    -999.25 1224.92220    -999.25   59.82080   59.82080    -999.25    -999.25   61.41660   61.41660 1224.92220 1317.83740 1376.22520 1317.83740    -999.25    -999.25    -999.25    9.80600  -66.32110 1376.22520
 4400.00000    -999.25    -999.25   13.02720   13.02720    0.76790    -999.25    -999.25    -999.25    -999.25 1302.18570    -999.25   53.41230   53.41230    -999.25    -999.25   50.26010   50.26010 1302.18570 1353.36710 1395.63020 1353.36710    -999.25    -999.25    -999.25   -2.43630  -78.64880 1395.63020
 4450.00000    -999.25    -999.25   13.35800   13.35800    0.76130    -999.25    -999.25    -999.25    -999.25 1313.56010    -999.25   59.09300   59.09300    -999.25    -999.25  100.97770  100.97770 1313.56010 1372.98250 1426.85030 1372.98250    -999.25    -999.25    -999.25   -4.05500  -80.35290 1426.85030
 4500.00000    -999.25    -999.25   13.39280   13.39280    0.78020    -999.25    -999.25    -999.25    -999.25 1281.66210    -999.25   49.70750   49.70750    -999.25    -999.25   35.49490   35.49490 1281.66210 1312.38290 1386.33250 1312.38290    -999.25    -999.25    -999.25   15.24790  -61.13530 1386.33250
 4550.00000    -999.25    -999.25   13.54580   13.54580    1.16620    -999.25    -999.25    -999.25    -999.25  857.51010    -999.25   54.66910   54.66910    -999.25    -999.25   48.54430   48.54430  857.51010  977.71970  764.23240  977.71970    -999.25    -999.25    -999.25   41.67140  -34.79720  764.23240
 4600.00000    -999.25    -999.25   13.50150   13.50150    0.81930    -999.25    -999.25    -999.25    -999.25 1220.62410    -999.25   54.32700   54.32700    -999.25    -999.25   55.32740   55.32740 1220.62410 1407.43840 1267.58200 1407.43840    -999.25    -999.25    -999.25   51.14830  -25.40570 1267.58200
 4650.00000    -999.25    -999.25   13.57000   13.57000    4.00120    -999.25    -999.25    -999.25    -999.25  249.92740    -999.25   56.34290   56.34290    -999.25    -999.25   56.04490   56.04490  249.92740  270.07620  260.09930  270.07620    -999.25    -999.25    -999.25   61.27910  -15.36030  260.09930
 4700.00000    -999.25    -999.25   13.13750   13.13750    0.82740    -999.25    -999.25    -999.25    -999.25 1208.59590    -999.25   49.95450   49.95450    -999.25    -999.25   34.07480   34.07480 1208.59590 1421.64380 1330.73580 1421.64380    -999.25    -999.25    -999.25   47.35500  -29.36980 1330.73580
 4750.00000    -999.25    -999.25   13.24440   13.24440    1.20810    -999.25    -999.25    -999.25    -999.25  827.72260    -999.25   50.19910   50.19910    -999.25    -999.25   28.07560   28.07560  827.72260  992.15360  981.40490  992.15360    -999.25    -999.25    -999.25   44.70610  -32.10400  981.40490
 4800.00000    -999.25    -999.25   13.45690   13.45690    7.29320    -999.25    -999.25    -999.25    -999.25  137.11310    -999.25   59.30380   59.30380    -999.25    -999.25   54.78800   54.78800  137.11310  121.07210  166.04020  121.07210    -999.25    -999.25    -999.25   62.07860  -14.81690  166.04020
 4850.00000    -999.25    -999.25   13.63050   13.63050    1.88650    -999.25    -999.25    -999.25    -999.25  530.08230    -999.25   52.04350   52.04350    -999.25    -999.25   38.37880   38.37880  530.08230  657.30890  504.60960  657.30890    -999.25    -999.25    -999.25   60.43010  -16.55080  504.60960
 4900.00000    -999.25    -999.25   13.87730   13.87730    9.58490    -999.25    -999.25    -999.25    -999.25  104.33040    -999.25   63.71070   63.71070    -999.25    -999.25   63.77300   63.77300  104.33040   96.96370  116.95360   96.96370    -999.25    -999.25    -999.25   61.72430  -15.34200  116.95360
 4950.00000    -999.25    -999.25   13.71990   13.71990    3.89500    -999.25    -999.25    -999.25    -999.25  256.73770    -999.25   55.69840   55.69840    -999.25    -999.25   45.26060   45.26060  256.73770  280.91490  298.04360  280.91490    -999.25    -999.25    -999.25   55.74030  -21.41140  298.04360
 5000.00000    -999.25    -999.25   13.65190   13.65190    1.03490    -999.25    -999.25    -999.25    -999.25  966.24530    -999.25   49.29290   49.29290    -999.25    -999.25   31.15300   31.15300  966.24530 1244.67050  575.29140 1244.67050    -999.25    -999.25    -999.25   44.13680  -33.10030  575.29140
 5050.00000    -999.25    -999.25   13.76870   13.76870    2.10050    -999.25    -999.25    -999.25    -999.25  476.07980    -999.25   53.57170   53.57170    -999.25    -999.25   35.76020   35.76020  476.07980  568.42170  455.01800  568.42170    -999.25    -999.25    -999.25   40.78610  -36.53630  455.01800
 5100.00000    -999.25    -999.25   13.64510   13.64510    2.85760    -999.25    -999.25    -999.25    -999.25  349.94390    -999.25   55.91700   55.91700    -999.25    -999.25   42.30070   42.30070  349.94390  393.16680  383.91810  393.16680    -999.25    -999.25    -999.25   42.25450  -35.15330  383.91810
 5150.00000    -999.25    -999.25   13.52060   13.52060    1.85310    -999.25    -999.25    -999.25    -999.25  539.62300    -999.25   52.61580   52.61580    -999.25    -999.25   40.69900   40.69900  539.62300  732.31340 1027.71970  732.31340    -999.25    -999.25    -999.25   36.70250  -40.79070 1027.71970
 5200.00000    -999.25    -999.25   13.45370   13.45370    0.78730    -999.25    -999.25    -999.25    -999.25 1270.13430    -999.25   53.77020   53.77020    -999.25    -999.25   36.57750   36.57750 1270.13430 1388.24180 1314.37290 1388.24180    -999.25    -999.25    -999.25   30.74830  -46.83030 1314.37290
 5250.00000    -999.25    -999.25   13.45810   13.45810    1.32230    -999.25    -999.25    -999.25    -999.25  756.24010    -999.25   46.94060   46.94060    -999.25    -999.25   28.73990   28.73990  756.24010  824.96450  943.87200  824.96450    -999.25    -999.25    -999.25   34.02230  -43.64170  943.87200
 5300.00000    -999.25    -999.25   13.41440   13.41440    1.65750    -999.25    -999.25    -999.25    -999.25  603.31560    -999.25   46.46340   46.46340    -999.25    -999.25   31.87230   31.87230  603.31560  659.33310  515.16010  659.33310    -999.25    -999.25    -999.25   39.72460  -38.02470  515.16010
 5350.00000    -999.25    -999.25   13.28870   13.28870    1.21400    -999.25    -999.25    -999.25    -999.25  823.71450    -999.25   44.44780   44.44780    -999.25    -999.25   39.34410   39.34410  823.71450 1403.31540 1259.41170 1403.31540    -999.25    -999.25    -999.25   41.78470  -36.05000 1259.41170
 5400.00000    -999.25    -999.25   13.38580   13.38580    1.46380    -999.25    -999.25    -999.25    -999.25  683.15260    -999.25   44.26630   44.26630    -999.25    -999.25   29.70940   29.70940  683.15260 1094.34270 1118.24570 1094.34270    -999.25    -999.25    -999.25   37.60150  -40.31860 1118.24570
 5450.00000    -999.25    -999.25   13.41360   13.41360    2.19490    -999.25    -999.25    -999.25    -999.25  455.60540    -999.25   44.10140   44.10140    -999.25    -999.25   27.06710   27.06710  455.60540  921.56650  815.51690  921.56650    -999.25    -999.25    -999.25   40.62060  -37.38490  815.51690
