~Version ---------------------------------------------------
VERS.      2.0 : CWLS log ASCII Standard -VERSION 2.0
WRAP.       NO : One line per depth step
CREA. 08/27/13 : LAS Creation Date
~Well ------------------------------------------------------
STRT.m                           300.0 : START DEPTH
STOP.m                          4000.0 : STOP DEPTH
STEP.m                        50.00000 : STEP LENGTH
NULL.                          -999.25 : NULL VALUE
COMP. CHEVRON CANADA RESOURCES LIMITED : COMPANY
WELL.   CHEVRON SHELL SIMONETTE 11-14- : WELL
FLD .                                  : FIELD
LOC .                                  : LOCATION
CTRY.                           CANADA : COUNTRY
SRVC.                     Schlumberger : SERVICE COMPANY
DATE.                      10-Sep-1995 : LOGDATE
PROV.                          Alberta : PROVINCE
UWI .                 100111406427W500 : UNIQUE WELL ID
SLAT.WGS84                    54.53996 : SURFACE LATITUDE
SLON.WGS84                   -117.9743 : SURFACE LONGITUDE
~Curve Information -----------------------------------------
DEPT    .m      : Depth meter
CAL2DED .MM     : CALIPER FROM COMPENSATED DENSITY
CALDED  .MM     : CALIPER FROM FDC LOG
CALWS   .MM     : CALIPER [HDSED,SPLICED CALDED @ 3857-3862.5]
CONDWS  .MMHO   : CONDUCTIVITY [1000/DRESWS]
DCORWS  .KG/M3  : DENSITY CORRECTION [DRHOED]
DENWS   .KG/M3  : BUCK DENSITY  M=2.65 F=1.0] [RHOZED]
DPHILSED.V/V    : DENSITY POROSITY LIMESTONE FROM FDC LOG
DPHISSED.V/V    : DENSITY POROSITY SANDSTONE FROM FDC LOG
DPOLSWS .V/V    : DENSITY POROSITY [M=2.71 F=1.0] [DENWS]
DRESWS  .OHMM   : DEEP RESISTIVITY [IDPHED,SPLICED LLGDED @ 3863-3980 M]
DRHOED  .KG/M3  : DENSITY CORRECTION FROM FDC LOG
DTED    .US/M   : DELTA TIME FROM SONIC LOG
DTWS    .US/M   : DELTA TIME [DTED]
GRDED   .GAPI   : GAMMA RAY FROM FDC LOG
GRSED   .GAPI   : GAMMA RAY FROM SONIC LOG
GRWS    .GAPI   : GAMMA RAY [GRSED+15 @ 300, SPLICED GRDED @ 4001 M]
HDSED   .MM     : HOLE DIAMETER FROM SONIC LOG
IDPHED  .OHMM   : INDUCTION DEEP PHASOR RES
IMPHED  .OHMM   : INDUCTION MEDIUM PHASOR RES.
LLDGED  .OHMM   : GRONINGEN PHASE CORRECTED DEEP RESISTIVITY
LLSED   .OHMM   : LATEROLOG SHALLOW RESISTIVITY
MRESWS  .OHMM   : SHALLOW LATERAL RESISTIVITY [IMPHED,SPLICED LLSED @ 3863-3980 M]
MSFLED  .OHMM   : MICRO SPHERICALLY FOCUSED RESISTIVITY
NPOLSWS .V/V    : NEUTRON POROSITY[CONVERTED FROM [NPORLSED,SPLICED NPORSSED @ 434-2753 M]
NPORLSED.V/V    : ENCHANCED THERMAL NEUTRON POROSITY IN SELECTED LITHOLOGY SANDSTONE
NPORSSED.V/V    : NEUTRON POROSITY SANDSTONE FROM DENSITY LOG
PEFED   .B/E    : PHOTO ELECTROL LOG FROM FDC LOG [DEPTH ADJ. TO GRR]
PEFWS   .B/E    : PHOTO ELECTROL [PEFED]
RHOBED  .KG/M3  : BUCK DENSITY FROM FDC LOG
SFLUED  .OHMM   : SHALLOW FOCUS LOG
SPRED   .MV     : SPONTANEOUS POTENTIAL FROM RESISTIVITY LOG
SPWS    .MV     : SPONTANEOUS POTENTIAL [BASELINE 0 MV] [SPRED]
SRESWS  .OHMM   : SHALLOW RESISTIVITY [SFLUED,SPLICED MSFLED @ 3863-3980 M]
TENDED  .N      : TENSION FROM FDC LOG [DEPTH ADJ. TO GRR]
TENRED  .N      : TENSION FROM RESISTIVITY LOG
TENSED  .N      : TENSTION FROM SONIC LOG
~Params ----------------------------------------------------
PD  .                         GL : PERMANENT DATUM
EPD .M                    961.35 : ELEVATION PERMANENT DATUM
LMF .                         KB : LOG MEASURED FROM
DAPD.M                       5.6 : FEET ABOVE PERMANENT DATUM
DMF .                         KB : DRILLING MEASURED FROM
EKB .M                     966.9 : KELLY BUSHING
EGL .M                    961.35 : GROUND LEVEL
DATE.                   09/10/95 : RUN DATE
RUN .                          1 : RUN NUMBER
DD  .M                      4023 : DEPTH DRILLER
DL  .M                      4021 : DEPTH LOGGER
BLI .M                    4019.2 : BOTTOM LOG INTERVAL
TLI .M                    3862.5 : TOP LOG INTERVAL
CS  .MM                      177 : CASING SIZE
CBD .M                      3867 : CASING BOTTOM DRILLER
CBL .M                    3862.5 : CASING BOTTOM LOGGER
BS  .MM                      153 : BIT SIZE
BSD .M                      4023 : BIT SIZE AT DEPTH
DFT .                GEL POLYMER : DRILLING FLUID TYPE
DFD .                       1165 : DRILLING FLUID DENSITY
DFV .                         76 : DRILLING FLUID VISCOSITY
DFPH.                       11.5 : DRILLING FLUID PH
DFL .                        6.8 : DRILLING FLUID LOSS
MSS .                   FLOWLINE : MUD SAMPLE SOURCE
RMS .OHMM                   1.27 : RESISTIVITY MUD SAMPLE
MST .DEGC                     23 : MUD SAMPLE TEMPERATURE
RMF .OHMM                   1.14 : RESISTIVITY MUD FILTRATE SAMPLE
MFST.DEGC                     23 : MUD FILTRATE SAMPLE TEMPERATURE
RMC .OHMM                   1.39 : RESISTIVITY MUD CAKE
MCST.DEGC                     19 : MUD CAKE SAMPLE TEMPERATURE
MFSS.                   MEASURED : MUD FILTRATE SAMPLE SOURCE
MCSS.                   MEASURED : MUD CAKE SAMPLE SOURCE
RMB .OHMM                  0.469 : RESISTIVITY MUD AT BHT
TCS .HRS                     800 : TIME CIRCULATED STOPPED
TLAB.HRS                    1355 : TIME LOGGER AT BOTTOM
LUN .                       2028 : LOGGING UNIT NUMBER
LUL .             GRANDE PRAIRIE : LOGGING UNIT LOCATION
ENGI.                      CORTI : RECORDING ENGINEER
WITN.                     HENDRY : WITNESSED BY
CLNT.                    A2DTECH : CLIENT CODE
ORIG. 6.5"/100M 16.5"/100M PRINT : ORIGIN OF DATA
UWI .           100111406427W500 : UNIQUE WELL ID
DICO.     A2D Technologies, Inc. : DIGITIZING COMPANY
~Other -----------------------------------------------------
1. ALL CURVES APPEAR ON DEPTH, MUD DENSITY 1265 PPM.
~ASCII -----------------------------------------------------
# ...
 3300.00000  219.70790  307.72430  233.26250    -999.25  215.12760 2390.82760    0.18060    -999.25    0.18670    -999.25  215.12760  158.60190  158.60190    8.57610    8.92850    8.92850  233.26250    -999.25  374.03050    -999.25    -999.25  374.03050    -999.25   -0.00120   -0.00120    -999.25    9.99720    9.99720 2390.82760    -999.25 -296.20820 -378.11720    -999.25 -1542.28320 22316.23830 22349.08200
 3350.00000  221.35670  256.83190  235.68670    0.57050   66.89910 2674.09860    0.01240    -999.25    0.02100 1752.97270   66.89910  162.95840  162.95840    8.22450    6.87930    6.87930  235.68670 1752.97270  257.22990    -999.25    -999.25  257.22990    -999.25    0.00460    0.00460    -999.25    6.18800    6.18800 2674.09860  413.81070 -240.00550 -328.93620  413.81070 -1043.29300 22800.82230 22670.71480
 3400.00000  218.97810  326.42370  242.70830    -999.25  207.85640 2358.49000    0.20370    -999.25    0.20560    -999.25  207.85640  162.85110  162.85110   10.62530    8.69800    8.69800  242.70830    -999.25 1991.08650    -999.25    -999.25 1991.08650    -999.25    0.00100    0.00100    -999.25    -999.25    -999.25 2358.49000 1677.31130 -231.58960 -327.54210 1677.31130 -932.14260 22917.17190 22787.55080
 3450.00000  235.10720  235.08130  226.83910   10.57490   -1.10850 2679.33890    0.01300    -999.25    0.01790   94.56310   -1.10850  159.46980  159.46980    8.71110   10.27630   10.27630  226.83910   94.56310   78.37700    -999.25    -999.25   78.37700    -999.25    0.01530    0.01530    -999.25    6.52280    6.52280 2679.33890  193.85980 -148.28910 -251.26330  193.85980 -334.75780 23373.30080 23289.53520
 3500.00000  235.54480  237.02670  223.37140   34.14890   73.22460 2686.36500    0.01310    -999.25    0.01380   29.28350   73.22460  168.71550  168.71550   12.49120   11.73610   11.73610  223.37140   29.28350   54.05300    -999.25    -999.25   54.05300    -999.25    0.12660    0.12660    -999.25    5.69100    5.69100 2686.36500   83.17870 -119.05330 -229.04930   83.17870 -639.17770 23087.21680 23062.64260
 3550.00000  220.41530  329.66880  240.78380    2.78410  250.45720 2522.66310    0.10830    -999.25    0.10960  359.18830  250.45720  176.03720  176.03720   24.18980   17.75650   17.75650  240.78380  359.18830  107.32790    -999.25    -999.25  107.32790    -999.25    0.07940    0.07940    -999.25    8.65310    8.65310 2522.66310  218.05820 -146.16190 -263.17960  218.05820   72.99600 23303.67770 23208.91600
 3600.00000  338.33320  223.31790  235.09260    0.49780    3.33390 2696.47900    0.00900    -999.25    0.00790 2009.03200    3.33390  167.14580  167.14580   16.52950   16.66510   16.66510  235.09260 2009.03200  271.97380    -999.25    -999.25  271.97380    -999.25    0.03080    0.03080    -999.25    5.78140    5.78140 2696.47900 1759.22740 -154.57240 -278.61190 1759.22740  586.72810 24076.07030 23995.72270
 3650.00000  316.47110  221.99030  233.26950    0.51380    3.02540 2700.61870    0.00550    -999.25    0.00550 1946.34620    3.02540  169.87650  169.87650   23.97970   20.84650   20.84650  233.26950 1946.34620  200.52040    -999.25    -999.25  200.52040    -999.25    0.04220    0.04220    -999.25    6.23260    6.23260 2700.61870  580.80640  -79.21650 -210.27770  580.80640  528.62040 24747.83980 24694.47270
 3700.00000  268.93780  224.03400  240.01460   85.19120   11.09040 2640.86620    0.03990    -999.25    0.04040   11.73830   11.09040  248.15970  248.15970   72.13610   78.83870   78.83870  240.01460   11.73830   16.81490    -999.25    -999.25   16.81490    -999.25    0.15770    0.15770    -999.25    4.89200    4.89200 2640.86620   17.73260  128.00530   -8.72920   17.73260 2846.80130 24267.92770 24127.79100
 3750.00000  350.54920  268.38510  273.34210  295.39480  160.60860 2574.96680    0.07900    -999.25    0.07900    3.38530  160.60860  266.60360  266.60360   83.12770   82.11040   82.11040  273.34210    3.38530    3.45300    -999.25    -999.25    3.45300    -999.25    0.27650    0.27650    -999.25    8.04590    8.04590 2574.96680    4.10780   91.79380  -21.40110    4.10780 1495.77170 24242.14060 24352.29690
 3800.00000  233.14270  230.62180  228.29230  162.62280   14.88570 2711.56930   -0.00120    -999.25   -0.00090    6.14920   14.88570  225.59920  225.59920   61.09270   58.92890   58.92890  228.29230    6.14920    5.62360    -999.25    -999.25    5.62360    -999.25    0.15430    0.15430    -999.25    5.24030    5.24030 2711.56930    6.44700   75.03290   -8.70750    6.44700 2481.88790 24560.68950 24493.53520
 3850.00000  363.99450  223.17290  238.92460  222.27160   17.56320    -999.25    0.00680    -999.25    -999.25    4.49900   17.56320  249.09910  249.09910   70.58960   69.71670   69.71670  238.92460    4.49900    4.76270    -999.25    -999.25    4.76270    -999.25    0.18130    0.18130    -999.25    4.70740    4.70740    -999.25    6.06710   43.48730  -35.95270    6.06710 9945.23050 24799.09960 24587.81640
 3900.00000  223.25700  212.63950  182.06410    0.07650   79.13970 2613.37040    0.05750    -999.25    0.05650 13071.34080   79.13970  160.83320  160.83320   17.23610   13.49350   13.49350  182.06410    -999.25 1914.40650 13071.34080 10257.45800 10257.45800    7.29710    0.01950    0.01950    -999.25    4.84410    4.84410 2613.37040    -999.25  -75.17010 -154.61010    7.29710 22880.31640 22153.28910 22086.15630
 3950.00000  175.11940  159.13270  160.49820    0.82770   83.89690 2487.17160    0.09250    -999.25    0.13030 1208.12820   83.89690  153.66590  153.66590    8.18250    9.10710    9.10710  160.49820 1326.79160  227.78510 1208.12820 1132.59410 1132.59410    6.50140    0.02700    0.02700    -999.25    4.53980    4.53980 2487.17160 1236.84280  -39.20580 -118.64580    6.50140 23696.80080 22550.74220 22406.03910
 4000.00000  171.79700  153.77950  145.02710   30.51840    6.40170 2673.62480    0.02130    -999.25    0.02130   32.76710    6.40170  218.18030  218.18030  259.87120  251.22300  251.22300  145.02710   32.76710   41.28500   49.58160   55.01700   41.28500   62.11380    0.11280    0.11280    -999.25    3.73550    3.73550 2673.62480   63.52850   22.96090  -56.47910   63.52850 24747.87890 22717.69730 22617.71290
