~Version ---------------------------------------------------
VERS.      2.0 : CWLS log ASCII Standard -VERSION 2.0
WRAP.       NO : One line per depth step
CREA. 12/14/17 : LAS Creation Date
~Well ------------------------------------------------------
STRT.FT                        1500.0 : START DEPTH
STOP.FT                        9650.0 : STOP DEPTH
STEP.FT                      50.00000 : STEP LENGTH
NULL.                         -999.25 : NULL VALUE
COMP.           OCELOT INDUSTRIES LTD : COMPANY
WELL. OIL ET AL VIRGHILLS 11-15-63-13 : WELL
FLD .                                 : FIELD
LOC .                                 : LOCATION
CTRY.                          CANADA : COUNTRY
SRVC.                   Dresser Atlas : SERVICE COMPANY
DATE.                     19-Jun-1978 : LOGDATE
PROV.                         Alberta : PROVINCE
UWI .                100111506313W500 : UNIQUE WELL ID
SLAT.WGS84                   54.45302 : SURFACE LATITUDE
SLON.WGS84                  -115.8819 : SURFACE LONGITUDE
~Curve Information -----------------------------------------
DEPT     .FT    : Depth Curve
CALD1ED  .IN    : CALIPER FROM CNFD LOG [AJ. TO RESISTIVITY LOG]
CALDED   .IN    : CALIPER FROM CDL-CNL LOG [AJ. TO RESISTIVITY LOG]
CALWS    .IN    : CALIPER [CALD1ED SPL. TO CALDED @ 1881.3M]
CONDWS   .MMHO  : CONDUCTIVITY [1000/DRESWS]
CORRED   .G/C3  : DENSITY CORRECTION FROM CDL-CNL LOG [ADJ. TO RESISTIVITY LOG/DPHILSED/DPHISSED] [CORRED*1000]
DCORED   .G/C3  : DENSITY CORRECTION FROM CNFD LOG [ADJ. TO RESISTIVITY LOG/DPHISS1ED] [DCOR1ED*1000]
DCORWS   .G/C3  : DENSITY CORRECTION [DCORED SPL.TO CORRED @ 5900']
DENWS    .G/C3  : FORMATION BULK DENSITY [CALC. FROM DPOLSWS M=2.71,F=1.00]
DPHILSED .V/V   : DENSITY POROSITY LIMESTONE [M=2.71,F=1.0] FROM CDL-CNL LOG [AJ. TO RESISTIVITY LOG]
DPHISS1ED.V/V   : DENSITY POROSITY SANDSTONE [M=2.65,F=1.0] FROM CNFD LOG [AJ. TO RESISTIVITY LOG]
DPHISSED .V/V   : DENSITY POROSITY SANDSTONE [M=2.65,F=1.0] FROM CDL-CNL LOG [AJ. TO RESISTIVITY LOG]
DPOLSWS  .V/V   : DENSITY POROSITY LIMESTONE [DPHISS1ED CONVERTED TO LIMESTONE MATRIX, M=2.71,F=1.00, SPL. TO DPHILSED @ 5604']
DRESWS   .OHMM  : DEEP RESISTIVITY [ILDED]
GRD1ED   .GAPI  : GAMMA RAY FROM CNFD LOG [AJ. TO RESISTIVITY LOG]
GRDED    .GAPI  : GAMMA RAY FROM CDL-CNL LOG [AJ. TO RESISTIVITY LOG]
GRWS     .GAPI  : GAMMA RAY [GRD1ED SPL. TO GRDED @ 5873']
ILDED    .OHMM  : DEEP INDUCTION FROM RESISTIVITY LOG
ILMED    .OHMM  : MEDIUM INDUCTION FROM RESISTIVITY LOG
MRESWS   .OHMM  : MEDIUM RESISTIVITY [ILMED]
NPHILSED .V/V   : NEUTRON POROSITY LIMESTONE FROM CDL-CNL LOG [AJ. TO RESISTIVITY LOG]
NPHISS1ED.V/V   : NEUTRON POROSITY SANDSTONE FROM CNFD LOG [AJ. TO RESISTIVITY LOG]
NPHISSED .V/V   : NEUTRON POROSITY SANDSTONE FROM CDL-CNL LOG [AJ. TO RESISTIVITY LOG]
NPOLSWS  .V/V   : NEUTRON POROSITY LIMESTONE [NPHISSED MATRIX CONVERSION FOR LIMESTONE FROM SCHLUMBERGER (CNL), SPL. TO NPHILSED @ 5604']
RHOB1ED  .G/C3  : BULK DENSITY FROM CNFD LOG [ADJ. TO RESISTIVITY LOG/DPHISS1ED]
RHOBED   .G/C3  : BULK DENSITY FROM CDL-CNL LOG [ADJ. TO RESISTIVITY LOG/DPHILSED/DPHISSED]
SFLED    .OHMM  : SPHERICALLY FOCUSED FROM RESISTIVITY LOG
SPRED    .MV    : SPONTANEOUS POTENTIAL FROM RESISTIVITY LOG
SPWS     .MV    : SPONTANEOUS POTENTIAL [BASELINE 0 MV, SPRED]
SRESWS   .OHMM  : SHALLOW RESISTIVITY [SFLED]
~Params ----------------------------------------------------
PD  .                     GL : PERMANENT DATUM
EPD .FT               3435.5 : ELEVATION PERMANENT DATUM
LMF .                     KB : LOG MEASURED FROM
DAPD.FT                 15.5 : FEET ABOVE PERMANENT DATUM
DMF .                     KB : DRILLING MEASURED FROM
EKB .FT                 3451 : KELLY BUSHING
EGL .FT               3435.5 : GROUND LEVEL
DATE.               06/19/78 : RUN DATE
RUN .                      1 : RUN NUMBER
DD  .FT                 9683 : DEPTH DRILLER
DL  .FT                 9684 : DEPTH LOGGER
BLI .FT                 9681 : BOTTOM LOG INTERVAL
TLI .FT                 1517 : TOP LOG INTERVAL
CS  .IN                8.625 : CASING SIZE
CBD .FT                 1517 : CASING BOTTOM DRILLER
CBL .FT                 1517 : CASING BOTTOM LOGGER
BS  .IN                7.875 : BIT SIZE
BSD .FT                 9683 : BIT SIZE AT DEPTH
DFT .               GEL CHEM : DRILLING FLUID TYPE
DFD .                    9.1 : DRILLING FLUID DENSITY
DFV .                     65 : DRILLING FLUID VISCOSITY
DFPH.                      9 : DRILLING FLUID PH
DFL .                     11 : DRILLING FLUID LOSS
MSS .                   CIRC : MUD SAMPLE SOURCE
RMS .OHMM                  3 : RESISTIVITY MUD SAMPLE
MST .DEGF                 76 : MUD SAMPLE TEMPERATURE
RMF .OHMM                2.8 : RESISTIVITY MUD FILTRATE SAMPLE
MFST.DEGF                 72 : MUD FILTRATE SAMPLE TEMPERATURE
RMC .OHMM                2.5 : RESISTIVITY MUD CAKE
MCST.DEGF                 72 : MUD CAKE SAMPLE TEMPERATURE
MFSS.                   MEAS : MUD FILTRATE SAMPLE SOURCE
MCSS.                   MEAS : MUD CAKE SAMPLE SOURCE
RMB .OHMM               1.23 : RESISTIVITY MUD AT BHT
TCS .HRS                   5 : TIME CIRCULATED STOPPED
LUN .                HL 6155 : LOGGING UNIT NUMBER
LUL .                     VV : LOGGING UNIT LOCATION
ENGI.                 GORDON : RECORDING ENGINEER
WITN.                  BROCK : WITNESSED BY
CLNT.                A2DTECH : CLIENT CODE
ORIG.            2" 5" PRINT : ORIGIN OF DATA
UWI .       100111506313W500 : UNIQUE WELL ID
DICO. A2D Technologies, Inc. : DIGITIZING COMPANY
~Other -----------------------------------------------------
DIL-CNFD-CNL-CDL LOG RUN
RHOBED,RHOB1ED,CORRED & DCORED VERIFY FROM 2" SCALE
~ASCII -----------------------------------------------------
# ...
 2750.00000    8.18920    -999.25    8.18920  226.62380    -999.25    0.16650    0.16650    2.28680    -999.25    0.22020    -999.25    0.24750    4.41260   82.39700    -999.25   82.39700    4.41260    4.69600    4.69600    -999.25    0.45760    -999.25    0.41610    2.26360    -999.25    9.52270  -32.81180   -8.18190    9.52270
 2800.00000    9.26220    -999.25    9.26220  283.74830    -999.25    0.17980    0.17980    2.15580    -999.25    0.29950    -999.25    0.32410    3.52470   73.99680    -999.25   73.99680    3.52470    3.67780    3.67780    -999.25    0.49680    -999.25    0.45680    2.19020    -999.25    4.29460  -25.30810   -1.72220    4.29460
 2850.00000   10.10990    -999.25   10.10990  297.06210    -999.25    0.14970    0.14970    2.05960    -999.25    0.35780    -999.25    0.38030    3.36630   75.88200    -999.25   75.88200    3.36630    3.59460    3.59460    -999.25    0.59140    -999.25    0.55680    2.05010    -999.25    4.26340  -24.31270   -1.77770    4.26340
 2900.00000    7.53050    -999.25    7.53050   92.39150    -999.25    0.08810    0.08810    2.26640    -999.25    0.23250    -999.25    0.25940   10.82720   59.52750    -999.25   59.52750   10.82720   13.75640   13.75640    -999.25    0.41670    -999.25    0.37420    2.26110    -999.25    7.82450  -46.09480  -23.04700    7.82450
 2950.00000    8.50070    -999.25    8.50070  310.13520    -999.25    0.11870    0.11870    2.13170    -999.25    0.31410    -999.25    0.33820    3.22440   68.95670    -999.25   68.95670    3.22440    3.37450    3.37450    -999.25    0.56530    -999.25    0.52910    2.12600    -999.25    8.05520  -26.11480   -2.29970    8.05520
 3000.00000    8.15380    -999.25    8.15380  199.09210    -999.25    0.10720    0.10720    2.26220    -999.25    0.23500    -999.25    0.26180    5.02280   63.73810    -999.25   63.73810    5.02280    6.04200    6.04200    -999.25    0.43330    -999.25    0.39120    2.25850    -999.25    6.22210  -39.92490  -15.34750    6.22210
 3050.00000    8.19230    -999.25    8.19230  174.13240    -999.25    0.01570    0.01570    2.38620    -999.25    0.15990    -999.25    0.18940    5.74860   63.15800    -999.25   63.15800    5.74860    6.18960    6.18960    -999.25    0.36230    -999.25    0.31880    2.38080    -999.25    6.31560  -32.92930   -7.58960    6.31560
 3100.00000    7.51650    -999.25    7.51650   98.04590    -999.25    0.06340    0.06340    2.36500    -999.25    0.17270    -999.25    0.20170   10.19930   51.06530    -999.25   51.06530   10.19930   13.61750   13.61750    -999.25    0.34020    -999.25    0.29650    2.36600    -999.25    9.75460  -49.38780  -23.28080    9.75460
 3150.00000    8.03660    -999.25    8.03660  211.08440    -999.25    0.10510    0.10510    2.44860    -999.25    0.12210    -999.25    0.15290    4.73980   71.09990    -999.25   71.09990    4.73980    5.25520    5.25520    -999.25    0.39810    -999.25    0.35520    2.44590    -999.25    5.52490  -31.67050   -4.80120    5.52490
 3200.00000    8.97890    -999.25    8.97890  288.38390    -999.25    0.20200    0.20200    2.25630    -999.25    0.23860    -999.25    0.26530    3.46760   80.23680    -999.25   80.23680    3.46760    3.98690    3.98690    -999.25    0.42210    -999.25    0.37970    2.25750    -999.25    4.57550  -31.32360   -3.74470    4.57550
 3250.00000    8.69790    -999.25    8.69790  299.95800    -999.25    0.23280    0.23280    2.36190    -999.25    0.17460    -999.25    0.20360    3.33380   80.52210    -999.25   80.52210    3.33380    3.73710    3.73710    -999.25    0.48420    -999.25    0.44370    2.35910    -999.25    3.98780  -30.55690   -2.94640    3.98780
 3300.00000    8.44240    -999.25    8.44240  183.57290    -999.25    0.22840    0.22840    2.36910    -999.25    0.17020    -999.25    0.19930    5.44800   99.95000    -999.25   99.95000    5.44800    6.06910    6.06910    -999.25    0.37490    -999.25    0.33150    2.37560    -999.25    6.41460  -32.26160   -4.61950    6.41460
 3350.00000    9.61280    -999.25    9.61280  164.88860    -999.25    0.19560    0.19560    2.08650    -999.25    0.34150    -999.25    0.36460    6.06470   99.87980    -999.25   99.87980    6.06470    6.40490    6.40490    -999.25    0.42680    -999.25    0.38450    2.07620    -999.25    6.71990  -35.59200   -7.91810    6.71990
 3400.00000    9.90690    -999.25    9.90690  161.00080    -999.25    0.22280    0.22280    2.10940    -999.25    0.32760    -999.25    0.35120    6.21120   99.72150    -999.25   99.72150    6.21120    6.59390    6.59390    -999.25    0.42730    -999.25    0.38500    2.12390    -999.25    6.93180  -36.50900   -8.80350    6.93180
 3450.00000    9.44470    -999.25    9.44470  192.31880    -999.25    0.20620    0.20620    2.07830    -999.25    0.34650    -999.25    0.36940    5.19970  119.68140    -999.25  119.68140    5.19970    5.46770    5.46770    -999.25    0.48550    -999.25    0.44510    2.06140    -999.25    5.85270  -35.72790   -7.99060    5.85270
 3500.00000    8.12770    -999.25    8.12770  122.96040    -999.25    0.04550    0.04550    2.50220    -999.25    0.08960    -999.25    0.12150    8.13270  118.17540    -999.25  118.17540    8.13270   10.56740   10.56740    -999.25    0.37760    -999.25    0.33430    2.50840    -999.25   10.99000  -35.55590   -7.78700   10.99000
 3550.00000    8.75320    -999.25    8.75320  166.68080    -999.25    0.16380    0.16380    2.35390    -999.25    0.17950    -999.25    0.20820    5.99960  128.90700    -999.25  128.90700    5.99960    6.80900    6.80900    -999.25    0.42000    -999.25    0.37750    2.35010    -999.25    8.62280  -33.60190   -5.80150    8.62280
 3600.00000    9.73510    -999.25    9.73510  175.76550    -999.25    0.19700    0.19700    2.30770    -999.25    0.20750    -999.25    0.23530    5.68940  112.99070    -999.25  112.99070    5.68940    6.39430    6.39430    -999.25    0.39800    -999.25    0.35510    2.29290    -999.25    6.38550  -36.39790   -8.56570    6.38550
 3650.00000   11.18370    -999.25   11.18370  173.28670    -999.25    0.13990    0.13990    2.23860    -999.25    0.24940    -999.25    0.27570    5.77080  113.48140    -999.25  113.48140    5.77080    6.05310    6.05310    -999.25    0.40180    -999.25    0.35890    2.23610    -999.25    7.14930  -37.67500   -9.81120    7.14930
 3700.00000   10.37600    -999.25   10.37600  184.96250    -999.25    0.14650    0.14650    2.16210    -999.25    0.29570    -999.25    0.32040    5.40650  112.39500    -999.25  112.39500    5.40650    5.94840    5.94840    -999.25    0.45870    -999.25    0.41730    2.16850    -999.25    6.86250  -37.93670  -10.04110    6.86250
 3750.00000   10.16290    -999.25   10.16290  159.96160    -999.25    0.13620    0.13620    2.26360    -999.25    0.23420    -999.25    0.26110    6.25150  115.78560    -999.25  115.78560    6.25150    7.19660    7.19660    -999.25    0.38940    -999.25    0.34630    2.27100    -999.25    8.21990  -36.79020   -8.86300    8.21990
 3800.00000    9.22940    -999.25    9.22940  177.94420    -999.25    0.13660    0.13660    2.34140    -999.25    0.18700    -999.25    0.21560    5.61980  113.48300    -999.25  113.48300    5.61980    6.20630    6.20630    -999.25    0.46870    -999.25    0.42760    2.34410    -999.25    5.99910  -38.84510  -10.88630    5.99910
 3850.00000    8.94800    -999.25    8.94800  163.57780    -999.25    0.14250    0.14250    2.21640    -999.25    0.26280    -999.25    0.28870    6.11330  116.16310    -999.25  116.16310    6.11330    6.79680    6.79680    -999.25    0.45820    -999.25    0.41680    2.21080    -999.25    5.97720  -40.37000  -12.37940    5.97720
 3900.00000    8.50150    -999.25    8.50150  158.41960    -999.25    0.11840    0.11840    2.20530    -999.25    0.26950    -999.25    0.29510    6.31250  118.78410    -999.25  118.78410    6.31250    6.93970    6.93970    -999.25    0.41910    -999.25    0.37670    2.20600    -999.25    7.36590  -38.17020  -10.14800    7.36590
 3950.00000    8.42910    -999.25    8.42910  204.86350    -999.25    0.13010    0.13010    2.15040    -999.25    0.30280    -999.25    0.32730    4.88130  115.55550    -999.25  115.55550    4.88130    5.15790    5.15790    -999.25    0.46900    -999.25    0.42790    2.14700    -999.25    5.44470  -39.09110  -11.03710    5.44470
