~Version ---------------------------------------------------
VERS.      2.0 : CWLS log ASCII Standard -VERSION 2.0
WRAP.       NO : One line per depth step
CREA. 12/07/17 : LAS Creation Date
~Well ------------------------------------------------------
STRT.FT                     1150.0 : START DEPTH
STOP.FT                    11250.0 : STOP DEPTH
STEP.FT                   50.00000 : STEP LENGTH
NULL.                      -999.25 : NULL VALUE
COMP. PAN AMERICAN PETROLEUM CORP. : COMPANY
WELL. PAN AM MOBIL ANTE 10-5-65-23 : WELL
FLD .                              : FIELD
LOC .                              : LOCATION
CTRY.                       CANADA : COUNTRY
SRVC.                        Welex : SERVICE COMPANY
DATE.                  21-Nov-1966 : LOGDATE
PROV.                      Alberta : PROVINCE
UWI .             100100506523W500 : UNIQUE WELL ID
SLAT.WGS84                54.59785 : SURFACE LATITUDE
SLON.WGS84               -117.4379 : SURFACE LONGITUDE
~Curve Information -----------------------------------------
DEPT  .FT    : Depth Curve
CALWS .IN    : CALIPER [MCALED]
CILDED.MMHO  : CONDUCTIVITY FROM RESISTIVITY LOG
CONDWS.MMHO  : CONDUCTIVITY [1000/DRESWS]
DRESWS.OHMM  : DEEP RESISTIVITY [1000/CILDED IF ILDED<1, ILDED]
DT1ED .US/F  : DELTA TIME (1' SPAN) FROM SONIC LOG [ADJ. TO RESISTIVITY LOG]
DTED  .US/F  : DELTA TIME (3' SPAN) FROM SONIC LOG [ADJ. TO RESISTIVITY LOG]
DTWS  .US/F  : COMPRESSIONAL SONIC [DTED]
GRED  .CU    : GAMMA RAY FROM GR LOG [ADJ. TO RESISTIVITY LOG]
GRSED .GAPI  : GAMMA RAY FROM SONIC LOG [ADJ. TO RESISTIVITY LOG]
GRWS  .GAPI  : GAMMA RAY [GRSED SPL. TO GRED @ 11256']
ILDED .OHMM  : DEEP INDUCTION FROM RESISTIVITY LOG
LT16ED.OHMM  : LATERAL 16' FROM RESISTIVITY LOG
MCALED.IN    : CALIPER FROM MICROLOG
SNED  .OHMM  : 18 INCH SHORT NORMAL RESISTIVITY FROM RESISTIVITY LOG
SPRED .MV    : SPONTANEOUS POTENTIAL FROM RESISTIVITY LOG
SPWS  .MV    : SPONTANEOUS POTENTIAL [BASELINE 0 MV, SPRED]
SRESWS.OHMM  : SHALLOW RESISTIVITY [SNED]
~Params ----------------------------------------------------
PD  .                     GL : PERMANENT DATUM
EPD .FT                 2595 : ELEVATION PERMANENT DATUM
LMF .                     KB : LOG MEASURED FROM
DAPD.FT                14.25 : FEET ABOVE PERMANENT DATUM
DMF .                     KB : DRILLING MEASURED FROM
EKB .FT              2609.25 : KELLY BUSHING
EGL .FT                 2595 : GROUND LEVEL
DATE.               10/21/66 : RUN DATE
RUN .                      1 : RUN NUMBER
DD  .FT                11278 : DEPTH DRILLER
DL  .FT                11279 : DEPTH LOGGER
BLI .FT                11274 : BOTTOM LOG INTERVAL
TLI .FT                 1125 : TOP LOG INTERVAL
CS  .IN                9.625 : CASING SIZE
CBD .FT                 1138 : CASING BOTTOM DRILLER
CBL .FT                 1125 : CASING BOTTOM LOGGER
BS  .IN                7.875 : BIT SIZE
BSD .FT                11278 : BIT SIZE AT DEPTH
DFT .             WATER BASE : DRILLING FLUID TYPE
DFD .                     10 : DRILLING FLUID DENSITY
DFV .                     94 : DRILLING FLUID VISCOSITY
DFPH.                     12 : DRILLING FLUID PH
DFL .                    9.6 : DRILLING FLUID LOSS
MSS .                   CIRC : MUD SAMPLE SOURCE
RMS .OHMM               1.48 : RESISTIVITY MUD SAMPLE
MST .DEGF                 84 : MUD SAMPLE TEMPERATURE
RMF .OHMM               1.35 : RESISTIVITY MUD FILTRATE SAMPLE
MFST.DEGF                 71 : MUD FILTRATE SAMPLE TEMPERATURE
RMC .OHMM                1.3 : RESISTIVITY MUD CAKE
MCST.DEGF                 61 : MUD CAKE SAMPLE TEMPERATURE
MFSS.                   MEAS : MUD FILTRATE SAMPLE SOURCE
MCSS.                   MEAS : MUD CAKE SAMPLE SOURCE
RMB .OHMM               0.72 : RESISTIVITY MUD AT BHT
TCS .HRS                   5 : TIME CIRCULATED STOPPED
ENGI.                 RLSTON : RECORDING ENGINEER
WITN.                WOOTTON : WITNESSED BY
CLNT.                A2DTECH : CLIENT CODE
ORIG.            2" 5" PRINT : ORIGIN OF DATA
UWI .       100100506523W500 : UNIQUE WELL ID
DICO. A2D Technologies, Inc. : DIGITIZING COMPANY
~Other -----------------------------------------------------
~ASCII -----------------------------------------------------
 1150.00000    -999.25   53.47720   56.92360   17.56740    -999.25    -999.25    -999.25    -999.25    -999.25    -999.25   17.56740   17.75280    -999.25   22.39380  -73.86840   -9.21760   22.39380
 1200.00000    -999.25  297.97880  415.85230    2.40470    -999.25    -999.25    -999.25    -999.25    -999.25    -999.25    2.40470    6.76910    -999.25    4.48800  -66.88560   -2.23480    4.48800
 1250.00000    -999.25  215.09720  272.51670    3.66950    -999.25    -999.25    -999.25    -999.25    -999.25    -999.25    3.66950    5.84810    -999.25    5.26960  -65.68190   -1.03110    5.26960
 1300.00000    -999.25  261.31480  349.33280    2.86260    -999.25    -999.25    -999.25    -999.25    -999.25    -999.25    2.86260    5.46660    -999.25    4.09270  -67.99610   -3.34530    4.09270
 1350.00000    -999.25  180.73330  226.56210    4.41380    -999.25    -999.25    -999.25    -999.25    -999.25    -999.25    4.41380    4.55830    -999.25    5.43360  -69.86910   -5.21830    5.43360
 1400.00000    -999.25  251.82830  316.07560    3.16380    -999.25    -999.25    -999.25    -999.25    -999.25    -999.25    3.16380    4.85750    -999.25    5.15970  -67.47880   -2.82800    5.15970
 1450.00000    -999.25  266.75110  351.66690    2.84360    -999.25    -999.25    -999.25    -999.25    -999.25    -999.25    2.84360    5.90760    -999.25    4.32890  -68.62250   -3.97170    4.32890
 1500.00000    -999.25  242.08150  320.09220    3.12410    -999.25    -999.25    -999.25    -999.25    -999.25    -999.25    3.12410    5.01430    -999.25    4.19630  -69.60640   -4.95560    4.19630
 1550.00000    -999.25  193.14700  245.90570    4.06660    -999.25    -999.25    -999.25    -999.25    -999.25    -999.25    4.06660    5.87640    -999.25    5.68580  -66.94060   -2.28980    5.68580
 1600.00000    -999.25  121.44330  149.40090    6.69340    -999.25    -999.25    -999.25    -999.25    -999.25    -999.25    6.69340    9.71870    -999.25    8.08020  -70.63790   -6.04670    8.08020
 1650.00000    -999.25  224.92170  279.43890    3.57860    -999.25    -999.25    -999.25    -999.25    -999.25    -999.25    3.57860    4.82700    -999.25    4.49630  -67.99930   -3.62110    4.49630
 1700.00000    -999.25  205.28280  259.74030    3.85000    -999.25    -999.25    -999.25    -999.25    -999.25    -999.25    3.85000    5.29620    -999.25    5.43830  -68.61610   -4.45080    5.43830
 1750.00000    -999.25   63.10510   66.66710   14.99990    -999.25    -999.25    -999.25    -999.25    -999.25    -999.25   14.99990    8.11060    -999.25   18.03160  -79.66310  -15.71080   18.03160
 1800.00000    -999.25  239.98980  314.47530    3.17990    -999.25    -999.25    -999.25    -999.25    -999.25    -999.25    3.17990    5.76970    -999.25    4.21670  -67.89060   -4.15130    4.21670
 1850.00000    -999.25  233.80770  301.45000    3.31730    -999.25    -999.25    -999.25    -999.25    -999.25    -999.25    3.31730    4.50250    -999.25    4.35310  -66.77940   -3.25300    4.35310
 1900.00000    -999.25  165.22370  192.56320    5.19310    -999.25    -999.25    -999.25    -999.25    -999.25    -999.25    5.19310    6.08720    -999.25    6.22020  -66.70870   -3.39530    6.22020
 1950.00000    -999.25  267.11700  360.16570    2.77650    -999.25    -999.25    -999.25    -999.25    -999.25    -999.25    2.77650    4.71450    -999.25    4.16250  -66.36730   -3.79840    4.16250
 2000.00000    -999.25  247.99370  324.00210    3.08640    -999.25    -999.25    -999.25    -999.25    -999.25    -999.25    3.08640    2.94440    -999.25    3.86730  -64.33440   -2.55620    3.86730
 2050.00000    -999.25  156.23920  190.03820    5.26210    -999.25    -999.25    -999.25    -999.25    -999.25    -999.25    5.26210    5.53190    -999.25    5.86950  -66.40900   -5.42160    5.86950
 2100.00000    -999.25  179.75170  219.04850    4.56520    -999.25    -999.25    -999.25    -999.25    -999.25    -999.25    4.56520    6.83840    -999.25    5.79360  -64.16180   -3.96510    5.79360
 2150.00000    -999.25   38.23110   39.49710   25.31830    -999.25    -999.25    -999.25    -999.25    -999.25    -999.25   25.31830   10.71540    -999.25   26.91180  -70.56170  -11.15580   26.91180
 2200.00000    -999.25  187.56890  231.28870    4.32360    -999.25    -999.25    -999.25    -999.25    -999.25    -999.25    4.32360    8.52470    -999.25    5.85460  -60.45790   -1.84270    5.85460
 2250.00000    -999.25  162.47090  196.61820    5.08600    -999.25    -999.25    -999.25    -999.25    -999.25    -999.25    5.08600    9.93450    -999.25    7.29720  -60.93230   -3.53990    7.29720
 2300.00000    -999.25  211.78080  262.06140    3.81590    -999.25    -999.25    -999.25    -999.25    -999.25    -999.25    3.81590    4.95570    -999.25    5.10630  -60.54290   -4.46460    5.10630
 2350.00000    -999.25  162.90620  201.32470    4.96710    -999.25    -999.25    -999.25    -999.25    -999.25    -999.25    4.96710    4.69470    -999.25    5.78560  -61.42630   -5.29820    5.78560
 2400.00000    -999.25  202.02010  255.16710    3.91900    -999.25    -999.25    -999.25    -999.25    -999.25    -999.25    3.91900    4.86620    -999.25    5.37060  -60.11670   -3.93870    5.37060
 2450.00000    -999.25   53.42320   56.35450   17.74480    -999.25    -999.25    -999.25    -999.25    -999.25    -999.25   17.74480   15.42770    -999.25   19.48410  -68.40810  -12.18030   19.48410
 2500.00000    -999.25  199.66500  257.44660    3.88430    -999.25    -999.25    -999.25    -999.25    -999.25    -999.25    3.88430    6.19060    -999.25    5.27490  -58.14700   -1.86930    5.27490
 2550.00000    -999.25  203.29390  257.73860    3.87990    -999.25    -999.25    -999.25    -999.25    -999.25    -999.25    3.87990    4.36630    -999.25    5.24010  -63.26090   -6.93330    5.24010
 2600.00000    -999.25  212.76760  270.26300    3.70010    -999.25    -999.25    -999.25    -999.25    -999.25    -999.25    3.70010    5.12370    -999.25    5.08980  -62.41250   -6.03510    5.08980
 2650.00000    -999.25   86.09600   97.26400   10.28130    -999.25    -999.25    -999.25    -999.25    -999.25    -999.25   10.28130    7.71370    -999.25   11.92320  -69.16720  -12.73990   11.92320
 2700.00000    -999.25   95.04020  109.64550    9.12030    -999.25    -999.25    -999.25    -999.25    -999.25    -999.25    9.12030   18.05380    -999.25   10.91480  -74.96630  -18.48920   10.91480
 2750.00000    -999.25  136.88200  160.50080    6.23050    -999.25    -999.25    -999.25    -999.25    -999.25    -999.25    6.23050    9.83700    -999.25    8.23660  -66.28760   -9.76060    8.23660
 2800.00000    -999.25  207.32840  258.84610    3.86330    -999.25    -999.25    -999.25    -999.25    -999.25    -999.25    3.86330    4.41760    -999.25    5.09210  -59.90530   -3.32850    5.09210
 2850.00000    -999.25   45.83030   47.65350   20.98480    -999.25    -999.25    -999.25    -999.25    -999.25    -999.25   20.98480   12.49140    -999.25   24.42190  -74.40510  -17.77840   24.42190
 2900.00000    -999.25  103.61240  110.20500    9.07400    -999.25    -999.25    -999.25    -999.25    -999.25    -999.25    9.07400    4.90690    -999.25    9.11470  -63.89030   -7.21380    9.11470
 2950.00000    -999.25  131.07980  139.68040    7.15920    -999.25    -999.25    -999.25    -999.25    -999.25    -999.25    7.15920    8.69280    -999.25    8.07630  -63.70770   -6.98130    8.07630
 3000.00000    -999.25  166.31600  197.28150    5.06890    -999.25    -999.25    -999.25    -999.25    -999.25    -999.25    5.06890    6.80890    -999.25    6.28090  -61.64420   -4.86800    6.28090
 3050.00000    -999.25  165.66580  199.94400    5.00140    -999.25    -999.25    -999.25    -999.25    -999.25    -999.25    5.00140    5.15770    -999.25    6.41600  -60.94530   -4.11920    6.41600
 3100.00000    -999.25  150.40570  184.99330    5.40560    -999.25    -999.25    -999.25    -999.25    -999.25    -999.25    5.40560    6.97190    -999.25    6.73560  -60.50730   -3.63140    6.73560
 3150.00000    -999.25  109.33850  129.42640    7.72640    -999.25    -999.25    -999.25    -999.25    -999.25    -999.25    7.72640   10.37260    -999.25    8.14500  -59.15630   -2.23050    8.14500
