~Version ---------------------------------------------------
VERS. 2.0 : CWLS log ASCII Standard -VERSION 2.0
WRAP.  NO : ONE LINE PER DEPTH STEP
~Well ------------------------------------------------------
STRT.F                         1200.0 : START DEPTH
STOP.F                        12200.0 : STOP DEPTH
STEP.F                       50.00000 : STEP LENGTH
NULL.                         -999.25 : NULL VALUE
COMP.                SULPETRO LIMITED : COMPANY
WELL. CAN DELHI ET AL WOLF 6-10-52-16 : WELL
FLD .                                 : FIELD
LOC .                                 : LOCATION
CTRY.                          CANADA : COUNTRY
SRVC.                    Schlumberger : SERVICE COMPANY
DATE.                     19-Apr-1969 : LOGDATE
PROV.                         Alberta : PROVINCE
UWI .                100061005216W500 : UNIQUE WELL ID
SLAT.WGS84              53.4730048794 : SURFACE LATITUDE
SLON.WGS84            -116.2792429971 : SURFACE LONGITUDE
~Curve Information -----------------------------------------
DEPT.F    0   1   0  0 : 1 MEASURED DEPTH
LL8 .OHMM 07 220 08 00 : LATEROLOG 8
SPR .MV   07 010 01 00 : SPONTANEOUS POTENTIAL FROM RESISTIVITY LOG
ILD .OHMM 07 120 46 00 : INDUCTION DEEP RESISTIVITY
ILM .OHMM 07 120 44 00 : INDUCTION MEDIUM RESISTIVITY
GRS .GAPI 60 310 01 00 : GAMMA RAY FROM SONIC LOG
DT  .US/F 60 500 00 00 : DELTA-T (INTERVAL TRANSIT TIME)
CALS.IN   60 280 50 00 : CALIPER FROM SONIC LOG
~Params ----------------------------------------------------
PD  .                     GL : PERMANENT DATUM
EPD .FT                 3113 : ELEVATION PERMANENT DATUM
LMF .                     KB : LOG MEASURED FROM
DAPD.FT                   14 : FEET ABOVE PERMANENT DATUM
EKB .FT                 3127 : KELLY BUSHING
EGL .FT                 3113 : GROUND LEVEL
DATE.               04/19/69 : RUN DATE
RUN .                      1 : RUN NUMBER
DD  .FT                12226 : DEPTH DRILLER
DL  .FT                12210 : DEPTH LOGGER
BLI .FT                12206 : BOTTOM LOG INTERVAL
TLI .FT                 1240 : TOP LOG INTERVAL
CBD .FT                 1240 : CASING BOTTOM DRILLER
CBL .FT                 1240 : CASING BOTTOM LOGGER
BS  .IN                 8.75 : BIT SIZE
BSD .FT                12226 : BIT SIZE AT DEPTH
DFT .                    GEL : DRILLING FLUID TYPE
DFD .                    9.3 : DRILLING FLUID DENSITY
DFV .                    118 : DRILLING FLUID VISCOSITY
DFPH.                     11 : DRILLING FLUID PH
DFL .                    6.2 : DRILLING FLUID LOSS
MSS .    CIRCULATED FLOWLINE : MUD SAMPLE SOURCE
RMS .OHMM               1.35 : RESISTIVITY MUD SAMPLE
MST .DEGF                 59 : MUD SAMPLE TEMPERATURE
RMF .OHMM               0.95 : RESISTIVITY MUD FILTRATE SAMPLE
MFST.DEGF                 61 : MUD FILTRATE SAMPLE TEMPERATURE
RMC .OHMM               1.16 : RESISTIVITY MUD CAKE
MCST.DEGF                 61 : MUD CAKE SAMPLE TEMPERATURE
TCS .HRS                 330 : TIME CIRCULATED STOPPED
LUN .                   7501 : LOGGING UNIT NUMBER
LUL .                    EDM : LOGGING UNIT LOCATION
ENGI.               CHADDOCK : RECORDING ENGINEER
WITN.                   HALL : WITNESSED BY
CLNT.                A2DTECH : CLIENT CODE
ORIG.            2" 5" PRINT : ORIGIN OF DATA
UWI .       100061005216W500 : UNIQUE WELL ID
DICO. A2D Technologies, Inc. : DIGITIZING COMPANY
~Other -----------------------------------------------------
~ASCII -----------------------------------------------------
 1200.00000    -999.25    -999.25    -999.25    -999.25   42.63720    -999.25    -999.25
 1250.00000    7.43250  -50.75260    7.97030    9.26710   71.73850   94.22430   12.05660
 1300.00000   16.27600  -72.61180   20.50130   19.53070   57.56160   77.64760   12.84400
 1350.00000    9.13290  -69.62820    7.28270    8.04540   95.43520  140.52190   10.66220
 1400.00000   10.14870  -67.11460   11.43940   10.57940   57.52270   93.09510   11.97590
 1450.00000   12.79410  -63.73290    9.09060    9.79510   79.48800   97.31420   11.41680
 1500.00000   11.37970  -57.84350    5.75790    4.94820   47.70480  133.89110   11.68760
 1550.00000    9.71410  -66.88260   11.89150   11.27610   79.41550   88.33990   11.70680
 1600.00000   12.02580  -68.74920   13.09230   13.81660   56.50480   91.03420   12.56500
 1650.00000   11.23310  -60.22160    8.95070    7.00150   68.69680   99.24070   10.92840
 1700.00000   10.16420  -61.79450    9.63750   10.10320   85.32740   85.20810   10.24190
 1750.00000   27.10550  -61.43780   12.81780   17.58610   60.02340   83.28760   11.22650
 1800.00000    9.06770  -61.07380   10.08760   10.49440   67.35030   84.70120   11.23970
 1850.00000    8.47270  -59.69810    9.69660    9.07880   53.82440   83.32420   11.78630
 1900.00000   12.13830  -60.87270   11.26600   12.56160   79.97670   88.50440   11.33450
 1950.00000    7.73670  -62.10540    8.44760    8.82510   61.12140   88.16050   10.98160
 2000.00000    4.13020  -62.95500    4.62160    4.93580   60.36440   98.26430   11.15100
 2050.00000    9.31450  -61.23420    8.19970    8.92010   79.97410   88.83710   10.98780
 2100.00000    7.94060  -60.07980   10.95490   10.13550   68.56030   81.81010   10.94730
 2150.00000    4.20950  -59.73830    5.20520    4.34370   46.68100  124.67930   14.98860
 2200.00000   13.26550  -60.38340   13.90180   14.90380   50.73080   81.87290   11.21680
 2250.00000    5.92560  -60.49340    6.66440    6.29040   69.41760   90.92460   11.89340
 2300.00000   12.72950  -59.00130   10.51240   12.23200   67.43510   86.07170   11.86940
 2350.00000   12.19950  -59.90100   11.97000   11.64020   71.79730   83.04430   12.03830
 2400.00000    8.16730  -59.30270    8.43290    7.97740   67.65670   87.51720   11.33610
 2450.00000    6.94590  -60.81130    7.79980    6.36840   55.72520  102.63240   11.64710
 2500.00000   10.98750  -62.81200   12.24750   12.94300   57.40450   79.77190   10.96980
 2550.00000   13.47190  -67.24090   13.55830   14.79690   51.07230   83.68700   10.48910
 2600.00000    9.58560  -63.95510   10.01540   10.63580   71.50040   84.48020   11.11640
 2650.00000   15.59830  -66.96620   16.48940   17.57190   47.54640   78.58620   11.40200
 2700.00000   13.48560  -65.32390   11.98840   12.90290   69.27370   80.91970   11.40110
 2750.00000   11.94530  -59.47460   10.09700   11.87030   69.44820   81.18670   10.20130
 2800.00000    9.69070  -58.69710   11.00970   10.63480   82.68710   87.18300   10.17460
 2850.00000    7.63100  -59.93180    7.35350    8.30010   71.94800   87.71710    8.79030
 2900.00000    2.34310  -56.24470    1.85680    1.94160  103.03400  139.39810   10.65720
 2950.00000   22.10200  -66.32650   19.15960   21.75640   61.80180   74.10520   10.44350
 3000.00000    7.65950  -58.11910    9.78850    9.48350   78.16430   84.99840   10.45910
 3050.00000    9.83340  -57.62780    8.98990    8.82670   61.50660   78.53650   11.10650
 3100.00000    5.89050  -55.86010    3.76200    3.42270  104.83440   95.18490   10.83900
 3150.00000    5.40830  -55.97130    5.77570    6.35130   70.24730   88.67230   11.21310
 3200.00000   16.29050  -55.14490   10.51620   11.12880   59.15260   73.73140   11.35130
 3250.00000    5.45220  -55.76420    5.61310    5.82260   71.81600   88.09910    9.82430
 3300.00000    7.14080  -55.39510    8.98980    9.81580   67.77920   78.42070    9.94400
 3350.00000    7.07410  -54.81160    7.62300    7.06240   64.86890  101.43070   10.36950
 3400.00000    8.84680  -56.16010    7.04840    8.27770   71.85370   88.82240   11.46130
 3450.00000    7.65390  -54.69650    6.62380    6.97890   70.54520   84.17010   11.76900
 3500.00000    5.62280  -55.28840    7.57610    7.95630   80.34300   84.49050   11.72910
 3550.00000   21.64630  -71.09710   26.74860   26.90890   32.03370   77.93610   11.44520
 3600.00000   11.55990  -56.48030   11.36530   11.74270   63.74560   76.36940   12.06920
 3650.00000   12.25250  -57.20280   11.10580   11.54210   79.43110   77.87570   11.77080
 3700.00000   15.36110  -58.86490   15.61070   16.91500   48.48900   78.18910   11.86460
 3750.00000   16.97380  -55.09750    9.20830   11.85560   76.28850   84.26420   10.95710
 3800.00000    7.75130  -55.15340    7.00070    7.40180   76.59250   81.26260   10.56580
 3850.00000    9.70880  -54.54590    7.33920    8.29030   78.93830   79.79250   10.95390
 3900.00000  117.26300  -62.27630   44.06660   77.78410   50.98360   64.96240   10.11970
 3950.00000    7.12000  -54.18760    9.71660   10.93150   60.88180   82.04170   10.63710
 4000.00000    6.60650  -53.10120    7.07990    7.25860   77.00880   89.69300   10.32430
 4050.00000    5.34990  -53.15590    5.66950    6.11450   90.70700   83.11260   10.32330
 4100.00000    6.01900  -54.27030    7.49110    8.09000   85.48050   84.28810   10.78090
 4150.00000   17.68730  -54.99810   16.25850   18.89650   54.55200   72.98850   10.94070
 4200.00000   17.73180  -58.31680   16.95720   20.51300   45.98010   74.81600   10.34730
 4250.00000   15.30450  -54.74620   16.74340   17.06480   64.21430   73.65540   10.36780
 4300.00000    4.81530  -50.12220    6.55080    5.44280   72.16000  109.47430    9.97840
 4350.00000    8.99670  -53.64530   12.24910   11.29600   72.05100   80.47260    9.86150
 4400.00000    5.64710  -53.53010    6.76610    6.50740   71.80190   96.80970   10.06330
 4450.00000   11.55510  -52.42480   11.70600   12.37730   51.45320   77.29420   10.24510
 4500.00000   14.17350  -52.12330   15.11580   15.54990   67.47940   79.34800   10.25700
 4550.00000    6.10120  -52.44630   10.84800    9.02340   63.98590   89.25000   10.02590
 4600.00000   47.62140  -61.64610   40.74590   42.41230   33.46470   70.25250   10.00730
 4650.00000   13.39020  -52.33130   12.93000   10.30990   65.14430   77.97880   10.43570
 4700.00000    8.43470  -52.38890    9.97460    9.51960   69.29620   81.29140   11.23040
 4750.00000    9.81270  -51.73390   14.17870   13.66130   53.70050   88.13900    9.87870
 4800.00000   12.62940  -50.85460   17.37420   14.49650   60.38370  117.71450   10.29310
 4850.00000    9.49180  -52.04890    9.04880    9.76440   60.38310   83.80730    9.35750
 4900.00000    8.97870  -55.87540   15.05630    9.60060   56.00720   86.15700    9.61300
 4950.00000   19.21440  -53.65550   20.01120   20.53730   49.50920   73.28950    9.93660
 5000.00000   13.24880  -55.07180   16.92070   15.80310   55.58320   74.48770    9.78550
 5050.00000    6.43910  -50.00770    8.78950    6.79980   48.14640   91.25900   11.45680
 5100.00000    6.20160  -50.31940    9.50320    8.63310   59.22040  126.49690    9.81250
 5150.00000    6.65250  -52.16170    8.85420    5.68120   58.12770  107.92230   10.44330
 5200.00000   15.70260  -53.48570   13.85170   17.67400   59.05280   77.85560    9.75430
 5250.00000   42.21780  -54.36550   19.63200   22.80410   59.51660   66.60210   10.32290
 5300.00000   15.32240  -53.97430   13.46650   13.96010   68.94420   73.58500   10.54870
 5350.00000   12.03030  -54.65930   10.75260   11.11630  102.33250   83.01660   11.77940
 5400.00000   12.56890  -55.26010   11.70040   12.03660   87.90380   76.97960   11.35450
 5450.00000   15.38000  -54.58930   14.78630   15.17600   86.11990   74.53290   11.13960
 5500.00000   17.91840  -55.31670   16.57090   17.15360   89.25150   93.07320   10.86260
 5550.00000   15.29350  -53.92180   13.43370   13.77890   99.67970   78.33480   10.67540
 5600.00000   16.23150  -53.21780   14.48940   14.88540  103.40770   86.09090   10.39470
 5650.00000   15.27610  -53.47040   13.43030   14.19130  100.52410   82.42140    9.92220
