~Version ---------------------------------------------------
VERS.      2.0 : CWLS log ASCII Standard -VERSION 2.0
WRAP.       NO : One line per depth step
CREA. 11/17/17 : LAS Creation Date
~Well ------------------------------------------------------
STRT.FT                            800.0 : START DEPTH
STOP.FT                           7700.0 : STOP DEPTH
STEP.FT                         50.00000 : STEP LENGTH
NULL.                            -999.25 : NULL VALUE
COMP.       CANADIAN HOMESTEAD OILS LTD. : COMPANY
WELL. HOMESTEAD SHELL ENILDA 11-14-71-14 : WELL
FLD .                                    : FIELD
LOC .                                    : LOCATION
CTRY.                             CANADA : COUNTRY
SRVC.             Schlumberger of Canada : SERVICE COMPANY
DATE.                        20-Mar-1970 : LOGDATE
PROV.                            Alberta : PROVINCE
UWI .                   100111407114W500 : UNIQUE WELL ID
SLAT.WGS84                      55.15191 : SURFACE LATITUDE
SLON.WGS84                     -116.0425 : SURFACE LONGITUDE
~Curve Information -----------------------------------------
DEPT    .FT    : Depth Curve
CALSED  .IN    : CALIPER FROM SONIC LOG [ADJ. TO RESISTIVITY LOG]
CALWS   .IN    : CALIPER [CALSED]
CONDWS  .MMHO  : CONDUCTIVITY [1000/DRESWS]
DRESWS  .OHMM  : DEEP RESISTIVITY [ILDED]
DTED    .US/F  : DELTA-T FROM SONIC LOG [ADJ. TO RESISTIVITY LOG]
DTWS    .US/F  : SPONTANEOUS POTENTIAL [BASELINE 0MV, SPRED]
GRSED   .GAPI  : GAMMA RAY FROM SONIC LOG [ADJ. TO RESISTIVITY LOG]
GRWS    .GAPI  : GAMMA RAY [GRSED]
ILDED   .OHMM  : DEEP INDUCTION RESISTIVITY FROM RESISTIVITY LOG
ILMED   .OHMM  : MEDIUM INDUCTION RESISTIVITY FROM RESISTIVITY LOG
LL8ED   .OHMM  : LATEROLOG 8 FROM RESISTIVITY LOG
MRESWS  .OHMM  : MEDIUM RESISTIVITY [ILMED]
SPHILSED.V/V   : SONIC POROSITY LIMESTONE [DTM=47.6,DTF=189(ASSUMED)] FROM SONIC LOG [ADJ. TO RESISTIVITY LOG]
SPHISSED.V/V   : SONIC POROSITY SANDSTONE [DTM=55.6,DTF=189(ASSUMED)] FROM SONIC LOG [ADJ. TO RESISTIVITY LOG]
SPOWS   .V/V   : SONIC POROSITY [SPHISSED SPL. TO SPHILSED @ 3620']
SPRED   .MV    : SPONTANEOUS POTENTIAL FROM RESISTIVITY LOG
SPWS    .MV    : SPONTANEOUS POTENTIAL [BASELINE 0MV, SPRED]
SRESWS  .OHMM  : SHALLOW RESISTIVITY [LL8ED]
~Params ----------------------------------------------------
PD  .                     GL : PERMANENT DATUM
EPD .FT                 2409 : ELEVATION PERMANENT DATUM
LMF .                     KB : LOG MEASURED FROM
DAPD.FT                   13 : FEET ABOVE PERMANENT DATUM
EKB .FT                 2422 : KELLY BUSHING
EGL .FT                 2409 : GROUND LEVEL
DATE.               03/20/70 : RUN DATE
RUN .                      1 : RUN NUMBER
DD  .FT                 7744 : DEPTH DRILLER
DL  .FT                 7741 : DEPTH LOGGER
BLI .FT                 7739 : BOTTOM LOG INTERVAL
TLI .FT                  792 : TOP LOG INTERVAL
CBD .FT                  791 : CASING BOTTOM DRILLER
CBL .FT                  792 : CASING BOTTOM LOGGER
BS  .IN                 8.75 : BIT SIZE
BSD .FT                 7744 : BIT SIZE AT DEPTH
DFT .               GEL CHEM : DRILLING FLUID TYPE
DFD .                    9.8 : DRILLING FLUID DENSITY
DFV .                    120 : DRILLING FLUID VISCOSITY
DFPH.                     10 : DRILLING FLUID PH
DFL .                     10 : DRILLING FLUID LOSS
MSS .               FLOWLINE : MUD SAMPLE SOURCE
RMS .OHMM               1.55 : RESISTIVITY MUD SAMPLE
MST .DEGF                 67 : MUD SAMPLE TEMPERATURE
RMB .OHMM               2.79 : RESISTIVITY MUD AT BHT
TCS .HRS                   4 : TIME CIRCULATED STOPPED
LUN .                   7014 : LOGGING UNIT NUMBER
LUL .                     RD : LOGGING UNIT LOCATION
ENGI.                 HEGSON : RECORDING ENGINEER
WITN.                  FOOTE : WITNESSED BY
CLNT.                A2DTECH : CLIENT CODE
ORIG.            2" 5" PRINT : ORIGIN OF DATA
UWI .       100111407114W500 : UNIQUE WELL ID
DICO. A2D Technologies, Inc. : DIGITIZING COMPANY
~Other -----------------------------------------------------
DI-LL-BHC LOG RUN
~ASCII -----------------------------------------------------
  800.00000    8.67620    8.67620  106.84330    9.35950    -999.25    -999.25   54.90060   54.90060    9.35950    6.03170    8.04470    6.03170    -999.25    -999.25    -999.25  -95.39790   -9.22180    8.04470
  850.00000   11.89010   11.89010  262.34320    3.81180    -999.25    -999.25   57.40020   57.40020    3.81180    3.70870    3.99010    3.70870    -999.25    -999.25    -999.25  -87.03870   -0.86260    3.99010
  900.00000   12.12750   12.12750  282.94150    3.53430    -999.25    -999.25   52.01320   52.01320    3.53430    3.39650    3.34440    3.39650    -999.25    -999.25    -999.25  -87.27130   -1.37680    3.34440
  950.00000   12.11430   12.11430  254.06500    3.93600    -999.25    -999.25   59.92370   59.92370    3.93600    3.74340    3.56870    3.74340    -999.25    -999.25    -999.25  -89.53520   -4.06730    3.56870
 1000.00000   15.05320   15.05320  301.49540    3.31680    -999.25    -999.25   51.08210   51.08210    3.31680    3.56870    3.50180    3.56870    -999.25    -999.25    -999.25  -89.02430   -3.98020    3.50180
 1050.00000   15.08980   15.08980  208.04730    4.80660    -999.25    -999.25   64.53480   64.53480    4.80660    4.27050    4.55630    4.27050    -999.25    -999.25    -999.25  -89.87060   -5.25030    4.55630
 1100.00000   15.09200   15.09200  217.54260    4.59680    -999.25    -999.25   58.77770   58.77770    4.59680    5.44680    4.30120    5.44680    -999.25    -999.25    -999.25  -90.34530   -6.15160    4.30120
 1150.00000   15.09020   15.09020  217.60420    4.59550    -999.25    -999.25   58.11040   58.11040    4.59550    5.71570    4.87430    5.71570    -999.25    -999.25    -999.25  -93.37770   -9.60780    4.87430
 1200.00000   15.33280   15.33280  263.42130    3.79620    -999.25    -999.25   57.53390   57.53390    3.79620    4.42780    4.01810    4.42780    -999.25    -999.25    -999.25  -94.01890  -10.67550    4.01810
 1250.00000   10.12600   10.12600  239.43490    4.17650    -999.25    -999.25   90.17830   90.17830    4.17650    4.42050    4.59640    4.42050    -999.25    -999.25    -999.25  -91.15840   -8.23880    4.59640
 1300.00000   11.66950   11.66950  237.59180    4.20890    -999.25    -999.25   95.36100   95.36100    4.20890    4.48240    4.81580    4.48240    -999.25    -999.25    -999.25  -91.48940   -8.99360    4.81580
 1350.00000   15.00960   15.00960  168.56580    5.93240    -999.25    -999.25   58.01060   58.01060    5.93240    5.88160    5.45540    5.88160    -999.25    -999.25    -999.25 -104.37360  -22.30440    5.45540
 1400.00000   14.58410   14.58410  342.46580    2.92000    -999.25    -999.25   67.31830   67.31830    2.92000    4.24580    3.97940    4.24580    -999.25    -999.25    -999.25  -97.08460  -15.43920    3.97940
 1450.00000   15.29240   15.29240  379.06070    2.63810    -999.25    -999.25   47.39240   47.39240    2.63810    3.91160    3.10160    3.91160    -999.25    -999.25    -999.25  -99.04490  -17.82610    3.10160
 1500.00000   15.26880   15.26880  327.71840    3.05140    -999.25    -999.25   66.87810   66.87810    3.05140    4.14630    3.49420    4.14630    -999.25    -999.25    -999.25  -98.97710  -18.18210    3.49420
 1550.00000   15.23010   15.23010  219.66920    4.55230    -999.25    -999.25   55.34600   55.34600    4.55230    6.88140    3.83720    6.88140    -999.25    -999.25    -999.25 -100.01290  -19.64170    3.83720
 1600.00000   15.21490   15.21490  244.20020    4.09500    -999.25    -999.25   53.89500   53.89500    4.09500    5.16440    3.43420    5.16440    -999.25    -999.25    -999.25  -97.55050  -17.60590    3.43420
 1650.00000   15.21140   15.21140  281.44440    3.55310    -999.25    -999.25   64.48600   64.48600    3.55310    4.07410    3.41940    4.07410    -999.25    -999.25    -999.25  -95.00140  -15.48060    3.41940
 1700.00000   12.28970   12.28970  253.04280    3.95190    -999.25    -999.25   77.53130   77.53130    3.95190    4.30550    3.80520    4.30550    -999.25    -999.25    -999.25  -93.83700  -14.74280    3.80520
 1750.00000   10.21170   10.21170  233.33960    4.28560    -999.25    -999.25   95.05700   95.05700    4.28560    4.53680    4.65520    4.53680    -999.25    -999.25    -999.25  -93.23430  -14.56390    4.65520
 1800.00000   13.02220   13.02220  245.14610    4.07920    -999.25    -999.25   81.21340   81.21340    4.07920    4.33440    4.43520    4.33440    -999.25    -999.25    -999.25  -90.00030  -11.75370    4.43520
 1850.00000   10.08000   10.08000  130.35090    7.67160    -999.25    -999.25  149.20740  149.20740    7.67160    7.85210    9.76700    7.85210    -999.25    -999.25    -999.25  -88.79140  -10.97140    9.76700
 1900.00000   11.01200   11.01200  258.71880    3.86520    -999.25    -999.25   77.35470   77.35470    3.86520    4.14570    4.09220    4.14570    -999.25    -999.25    -999.25  -86.64690   -9.25070    4.09220
 1950.00000   10.81250   10.81250  257.30750    3.88640    -999.25    -999.25   84.85950   84.85950    3.88640    4.20570    4.70460    4.20570    -999.25    -999.25    -999.25  -89.25370  -12.28410    4.70460
 2000.00000    9.47980    9.47980  221.16550    4.52150    -999.25    -999.25   83.76390   83.76390    4.52150    4.33430    4.67450    4.33430    -999.25    -999.25    -999.25  -91.74760  -15.20180    4.67450
 2050.00000   15.22900   15.22900  313.47960    3.19000    -999.25    -999.25   83.36760   83.36760    3.19000    3.34120    3.55430    3.34120    -999.25    -999.25    -999.25  -85.01520   -8.89320    3.55430
 2100.00000   13.35640   13.35640  358.75730    2.78740    -999.25    -999.25   76.64230   76.64230    2.78740    2.96510    3.23120    2.96510    -999.25    -999.25    -999.25  -83.58380   -7.88830    3.23120
 2150.00000   13.00830   13.00830  292.67150    3.41680    -999.25    -999.25   93.26310   93.26310    3.41680    3.56400    3.78160    3.56400    -999.25    -999.25    -999.25  -84.22880   -8.95710    3.78160
 2200.00000   12.23530   12.23530  307.77750    3.24910    -999.25    -999.25   85.69220   85.69220    3.24910    3.52430    3.38370    3.52430    -999.25    -999.25    -999.25  -86.38800  -11.54290    3.38370
 2250.00000   14.69760   14.69760  281.38890    3.55380    -999.25    -999.25   70.14030   70.14030    3.55380    3.75110    4.03000    3.75110    -999.25    -999.25    -999.25  -83.63000   -9.20870    4.03000
 2300.00000   10.11950   10.11950  387.02690    2.58380  182.11670  182.11670  220.35660  220.35660    2.58380    2.76310    3.56680    2.76310    -999.25    -999.25    -999.25  -80.07100   -6.07350    3.56680
 2350.00000   15.08500   15.08500  667.06690    1.49910  156.42680  156.42680   72.68240   72.68240    1.49910    1.53600    2.03600    1.53600    -999.25    -999.25    -999.25  -76.97350   -3.40260    2.03600
 2400.00000   14.82580   14.82580  429.79330    2.32670  115.46640  115.46640   75.81750   75.81750    2.32670    2.42260    2.67350    2.42260    -999.25    0.41690    0.41690  -80.26500   -7.11790    2.67350
 2450.00000   11.55240   11.55240  430.68180    2.32190  122.03020  122.03020   78.83980   78.83980    2.32190    2.43260    2.63230    2.43260    -999.25    0.45000    0.45000  -83.37990  -10.65940    2.63230
 2500.00000   11.52720   11.52720  510.07400    1.96050  129.91740  129.91740   83.79290   83.79290    1.96050    2.12000    2.54620    2.12000    -999.25    0.45000    0.45000  -81.61260   -9.31590    2.54620
 2550.00000   15.06130   15.06130  860.14110    1.16260  139.89280  139.89280   44.62320   44.62320    1.16260    1.23560    1.65400    1.23560    -999.25    0.45080    0.45080  -73.57680   -1.70390    1.65400
 2600.00000    8.59180    8.59180  377.13080    2.65160  115.73500  115.73500   75.29690   75.29690    2.65160    2.14200    2.88540    2.14200    -999.25    0.33430    0.33430  -97.06350  -23.78220    2.88540
 2650.00000    9.25990    9.25990  171.17720    5.84190  108.21860  108.21860   55.90890   55.90890    5.84190    4.32940    5.96410    4.32940    -999.25    0.39450    0.39450 -121.47980  -46.39100    5.96410
 2700.00000   12.66690   12.66690  586.68230    1.70450  161.98210  161.98210   73.15290   73.15290    1.70450    1.58690    2.22440    1.58690    -999.25    0.45000    0.45000  -80.84110   -3.93290    2.22440
