~Version ---------------------------------------------------
VERS. 2.0 : CWLS log ASCII Standard -VERSION 2.0
WRAP.  NO : ONE LINE PER DEPTH STEP
~Well ------------------------------------------------------
STRT.M                       350.0 : START DEPTH
STOP.M                      3600.0 : STOP DEPTH
STEP.M                    50.00000 : STEP LENGTH
NULL.                      -999.25 : NULL VALUE
COMP. HUDSONS BAY OIL & GAS CO LTD : COMPANY
WELL.   HB ET AL KAYBOBS 7-5-58-18 : WELL
FLD .                           WC : FIELD
LOC .                              : LOCATION
CTRY.                       CANADA : COUNTRY
SRVC.                 Schlumberger : SERVICE COMPANY
DATE.                  15-May-1980 : LOGDATE
PROV.                      Alberta : PROVINCE
UWI .             100070505818W500 : UNIQUE WELL ID
SLAT.WGS84                 53.9828 : SURFACE LATITUDE
SLON.WGS84               -116.6361 : SURFACE LONGITUDE
~Curve Information -----------------------------------------
DEPT   .M                  : 
NPHI_SS.DEC   42 890 03 00 : NEUTRON POROSITY SANDSTONE
DPHI_SS.DEC   45 890 12 00 : DENSITY POROSITY SANDSTONE
GRD    .GAPI  45 310 01 00 : GAMMA RAY FROM DENSITY LOG
CALD   .MM    45 280 60 00 : CALIPER FROM DENSITY LOG
NPHI_LS.DEC   42 890 01 00 : NEUTRON POROSITY LIMESTONE
DPHI_LS.DEC   45 890 10 00 : DENSITY POROSITY LIMESTONE
DCOR   .KG/M3 45 356 01 00 : DENSITY CORRECTION
RHOB   .KG/M3 45 350 01 00 : BULK DENSITY
ILD    .OHMM  07 120 46 00 : INDUCTION DEEP RESISTIVITY
SFL    .OHMM  07 220 01 00 : SPHERICALLY FOCUSED LOG
ILM    .OHMM  07 120 44 00 : INDUCTION MEDIUM RESISTIVITY
SPR    .MV    07 010 01 00 : SPONTANEOUS POTENTIAL FROM RESISTIVITY LOG
CILD   .MMHO  07 110 46 00 : INDUCTION DEEP CONDUCTIVITY
GRS    .GAPI  60 310 01 00 : GAMMA RAY FROM SONIC LOG
DT     .US/M  60 500 00 00 : DELTA-T (INTERVAL TRANSIT TIME)
CALS   .MM    60 280 50 00 : CALIPER FROM SONIC LOG
~Params ----------------------------------------------------
PD  .                         GL : PERMANENT DATUM
EPD .M                      1036 : ELEVATION PERMANENT DATUM
LMF .                         KB : LOG MEASURED FROM
DAPD.M                         5 : FEET ABOVE PERMANENT DATUM
DMF .                         KB : DRILLING MEASURED FROM
EKB .M                      1041 : KELLY BUSHING
EGL .M                      1036 : GROUND LEVEL
DATE.                   05/15/80 : RUN DATE
RUN .                          1 : RUN NUMBER
DD  .M                      3627 : DEPTH DRILLER
DL  .M                    3626.9 : DEPTH LOGGER
BLI .M                      3626 : BOTTOM LOG INTERVAL
TLI .M                       377 : TOP LOG INTERVAL
CS  .MM                      244 : CASING SIZE
CBD .M                       378 : CASING BOTTOM DRILLER
CBL .M                       377 : CASING BOTTOM LOGGER
BS  .MM                      222 : BIT SIZE
BSD .M                      3627 : BIT SIZE AT DEPTH
DFT .                   GEL CHEM : DRILLING FLUID TYPE
DFD .                       1120 : DRILLING FLUID DENSITY
DFV .                        112 : DRILLING FLUID VISCOSITY
DFPH.                       10.5 : DRILLING FLUID PH
DFL .                         11 : DRILLING FLUID LOSS
MSS .                   MUD TANK : MUD SAMPLE SOURCE
RMS .OHMM                   2.35 : RESISTIVITY MUD SAMPLE
MST .DEGC                   23.3 : MUD SAMPLE TEMPERATURE
RMF .OHMM                   1.87 : RESISTIVITY MUD FILTRATE SAMPLE
MFST.DEGC                   21.7 : MUD FILTRATE SAMPLE TEMPERATURE
MFSS.                   MT PRESS : MUD FILTRATE SAMPLE SOURCE
RMB .OHMM                   0.86 : RESISTIVITY MUD AT BHT
TCS .HRS                    2300 : TIME CIRCULATED STOPPED
TLAB.HRS                     730 : TIME LOGGER AT BOTTOM
LUN .                       8156 : LOGGING UNIT NUMBER
LUL .                      EDSON : LOGGING UNIT LOCATION
ENGI.            DOWNEY MISSIUNA : RECORDING ENGINEER
WITN.                      GOUGH : WITNESSED BY
CLNT.                    A2DTECH : CLIENT CODE
ORIG. 6.5"/100M 16.5"/100M PRINT : ORIGIN OF DATA
UWI .           100070505818W500 : UNIQUE WELL ID
DICO.     A2D Technologies, Inc. : DIGITIZING COMPANY
~Other -----------------------------------------------------
~ASCII -----------------------------------------------------
  350.00000    -999.25    -999.25    -999.25    -999.25    -999.25    -999.25    -999.25    -999.25    -999.25    -999.25    -999.25    -999.25    -999.25   55.91710    -999.25    -999.25
  400.00000    -999.25    -999.25    -999.25    -999.25    -999.25    -999.25    -999.25    -999.25    2.93940    2.72000    -999.25  -27.12810  339.35330  102.00490  360.93770  301.02720
  450.00000    -999.25    -999.25    -999.25    -999.25    -999.25    -999.25    -999.25    -999.25   10.68340    8.70670    -999.25  -27.15070   88.23010  110.36570  394.98180  279.90850
  500.00000    -999.25    -999.25    -999.25    -999.25    -999.25    -999.25    -999.25    -999.25   15.20370   19.46840    -999.25  -32.27040   60.33620   89.01950  410.31840  292.79540
  550.00000    -999.25    -999.25    -999.25    -999.25    -999.25    -999.25    -999.25    -999.25    7.83550    6.35370    -999.25  -28.28340  127.63220   64.15750  268.89390  330.15590
  600.00000    -999.25    -999.25    -999.25    -999.25    -999.25    -999.25    -999.25    -999.25   10.57640    8.60220    -999.25  -28.21230   92.62220   50.75110  291.00070  290.50360
  650.00000    -999.25    -999.25    -999.25    -999.25    -999.25    -999.25    -999.25    -999.25   11.30500   10.36010    -999.25  -30.40210  107.96650   72.29250  367.31980  275.08190
  700.00000    -999.25    -999.25    -999.25    -999.25    -999.25    -999.25    -999.25    -999.25   10.75070    8.94750    -999.25  -32.73460   95.42270   65.89130  284.73010  306.70320
  750.00000    -999.25    -999.25    -999.25    -999.25    -999.25    -999.25    -999.25    -999.25    4.80400    3.93340    -999.25  -27.86430  230.01840   76.89390  296.25320  272.95150
  800.00000    -999.25    -999.25    -999.25    -999.25    -999.25    -999.25    -999.25    -999.25    4.84440    4.66210    -999.25  -24.03810  206.29740   94.79580  293.76140  269.48040
  850.00000    -999.25    -999.25    -999.25    -999.25    -999.25    -999.25    -999.25    -999.25    5.68140    4.95650    -999.25  -27.77670  176.27140   80.46740  296.94470  244.24830
  900.00000    -999.25    -999.25    -999.25    -999.25    -999.25    -999.25    -999.25    -999.25    3.43300    3.08020    -999.25  -27.76100  290.73250  104.75970  308.08290  251.10850
  950.00000    -999.25    -999.25    -999.25    -999.25    -999.25    -999.25    -999.25    -999.25    4.42360    3.86510    -999.25  -25.63170  226.44560   83.64950  300.77390  265.70510
 1000.00000    -999.25    -999.25    -999.25    -999.25    -999.25    -999.25    -999.25    -999.25    6.00380    5.60310    -999.25  -30.34770  170.91030   93.47990  287.51620  286.24370
 1050.00000    -999.25    -999.25    -999.25    -999.25    -999.25    -999.25    -999.25    -999.25    6.47650    6.89260    -999.25  -25.56000  154.64740  108.80140  328.49040  273.52070
 1100.00000    -999.25    -999.25    -999.25    -999.25    -999.25    -999.25    -999.25    -999.25    3.80040    3.13910    -999.25  -29.19950  263.27060  123.51520  328.27500  243.59670
 1150.00000    -999.25    -999.25    -999.25    -999.25    -999.25    -999.25    -999.25    -999.25    6.35470    6.66200    -999.25  -25.90420  157.40450   90.00130  280.63280  240.35710
 1200.00000    -999.25    -999.25    -999.25    -999.25    -999.25    -999.25    -999.25    -999.25    7.08920    5.43410    -999.25  -22.75090  141.16750   73.13160  286.12780  250.83340
 1250.00000    -999.25    -999.25    -999.25    -999.25    -999.25    -999.25    -999.25    -999.25    5.84060    5.33820    -999.25  -26.97300  171.33640   90.39740  285.82820  237.86990
 1300.00000    -999.25    -999.25    -999.25    -999.25    -999.25    -999.25    -999.25    -999.25    7.11500    6.66720    -999.25  -21.85300  140.36440   80.77830  317.60120  262.57730
 1350.00000    -999.25    -999.25    -999.25    -999.25    -999.25    -999.25    -999.25    -999.25    8.34330    8.45500    -999.25  -24.83520  119.86300   67.47750  258.20680  287.13050
 1400.00000    -999.25    -999.25    -999.25    -999.25    -999.25    -999.25    -999.25    -999.25    6.01250    5.64610    -999.25  -22.55020  166.37490   73.67050  303.98950  241.43860
 1450.00000    -999.25    -999.25    -999.25    -999.25    -999.25    -999.25    -999.25    -999.25   14.58570   13.65540    -999.25  -26.99250   69.84110   69.23260  251.75740  275.00180
 1500.00000    -999.25    -999.25    -999.25    -999.25    -999.25    -999.25    -999.25    -999.25    9.47830    9.22270    -999.25  -26.66710  107.50200  107.12280  257.90980  253.23340
 1550.00000    0.22820    0.02970  111.06620  304.81030    -999.25    -999.25    9.84200 2599.29690   13.92110   15.00000   13.68850  -22.29000    -999.25  120.07800  262.94220  288.58440
 1600.00000    0.28100    0.09180  106.08190  258.30200    -999.25    -999.25  101.87450 2499.07620    7.90540    8.31890    8.12070  -23.52290    -999.25  107.36940  268.62770  251.60010
 1650.00000    0.29130    0.24650  109.51740  286.90250    -999.25    -999.25  123.21290 2239.34940    6.97410    7.43580    7.21270  -16.85270    -999.25  108.66540  267.60220  253.41030
 1700.00000    0.23580    0.25310  102.96400  277.80690    -999.25    -999.25  216.59460 2227.25980    9.07070    9.53770    9.28140  -21.65450    -999.25  108.59050  254.35080  245.43210
 1750.00000    0.21910    0.26220  105.73150  264.21120    -999.25    -999.25  190.81180 2215.87960   10.33450   11.57910   10.59490  -21.33330    -999.25  111.76700  251.27810  261.93250
 1800.00000    0.27180    0.25420   98.35340  278.33560    -999.25    -999.25  162.94200 2239.39670    8.69600    9.64210    8.91810  -19.72430    -999.25  117.46150  252.17090  249.57520
 1850.00000    0.27330    0.14280  120.24450  288.32610    -999.25    -999.25  243.66280 2415.11840   11.63420   14.27720   12.12390  -17.89040    -999.25  129.90430  281.03010  239.46660
 1900.00000    0.26120    0.13940  129.03660  278.57110    -999.25    -999.25  247.42140 2408.51710   12.96610   16.67890   13.38500  -17.21580    -999.25  129.53920  287.95880  238.68480
 1950.00000    0.19980    0.08210   98.81520  345.21820    -999.25    -999.25   23.62130 2520.63450    7.96770    8.31100    8.16470  -18.93110    -999.25  102.69170  253.81950  256.94920
 2000.00000    0.23460    0.10530   92.45650  283.96580    -999.25    -999.25  239.59060 2454.56670    9.41200   10.94700   10.03170  -16.67740    -999.25  100.05490  245.62120  248.49290
 2050.00000    0.30890    0.69200  121.38490  367.90660    -999.25    -999.25   22.60530 1510.95120    5.92120    6.67820    5.78970  -15.05430    -999.25  133.77030  298.11450  250.54530
 2100.00000    0.11310    0.07950   30.23010  240.82950    -999.25    -999.25  155.03680 2518.05980   16.71530   19.20140   17.84260  -25.45930    -999.25   81.39980  228.81740  245.38820
 2150.00000    0.13680    0.03290   60.10920  275.34950    -999.25    -999.25   14.48520 2595.07130   22.19260   24.69970   24.04750  -20.92600    -999.25   57.97590  223.42580  249.85730
 2200.00000    0.27810    0.43330   82.49950  304.18520    -999.25    -999.25   84.22200 2269.69090   15.78050   21.31680   16.49050  -23.41960    -999.25   86.12160  228.38790  254.78000
 2250.00000    0.21710    0.01110   87.53440  257.24860    -999.25    -999.25    7.08920 2629.56010   14.91350   18.61700   15.66550  -14.72950    -999.25   86.63710  227.07880  256.90090
 2300.00000    0.11730    0.06280   39.32970  265.09460    -999.25    -999.25    9.54070 2539.83280   28.55060  101.86880   37.13270  -29.15750    -999.25   38.35070  196.85330  251.75780
 2350.00000    0.06440   -0.03500   36.14140  239.20610    -999.25    -999.25   13.71420 2706.86940   34.17140   79.15240   42.60630  -21.17530    -999.25   53.21530  194.23880  242.87080
 2400.00000    0.08020    0.26100   36.33140  305.17560    -999.25    -999.25  232.76100 2217.36650   38.40830   54.71770   36.69750  -40.78480    -999.25   46.38700  221.27340  231.69110
 2450.00000    0.01370    0.03180   17.86350  228.56910    -999.25    -999.25    8.66800 2600.57890  405.80450  551.93270  279.14760  -30.60230    -999.25   24.42350  184.11750  219.94780
