~Version ---------------------------------------------------
VERS.      2.0 : CWLS log ASCII Standard -VERSION 2.0
WRAP.       NO : One line per depth step
CREA. 09/02/13 : LAS Creation Date
~Well ------------------------------------------------------
STRT.M                           400.0 : START DEPTH
STOP.M                          2850.0 : STOP DEPTH
STEP.M                        50.00000 : STEP LENGTH
NULL.                          -999.25 : NULL VALUE
COMP. CHEVRON CANADA RESOURCES LIMITED : COMPANY
WELL.   CHEVRON VALLEYVIEW 13-20-71-21 : WELL
FLD .                                  : FIELD
LOC .                                  : LOCATION
CTRY.                           CANADA : COUNTRY
SRVC.                    Dresser Atlas : SERVICE COMPANY
DATE.                      01-May-1983 : LOGDATE
PROV.                          Alberta : PROVINCE
UWI .                 100132007121W500 : UNIQUE WELL ID
SLAT.WGS84                    55.17042 : SURFACE LATITUDE
SLON.WGS84                   -117.2038 : SURFACE LONGITUDE
~Curve Information -----------------------------------------
DEPT    .M      : DEPTH METER
ACED    .US/M   : ACOUSTIC FROM SONIC LOG [ADJ . TO RESISTIVITY LOG]
C13ED   .MM     : CALIPER 13 FROM DENSITY LOG [ADJ . TO RESISTIVITY LOG]
C24ED   .MM     : CALIPER 24 FROM DENSITY LOG [ADJ . TO RESISTIVITY LOG]
CALSED  .MM     : CALIPER FROM SONIC LOG [ADJ . TO RESISTIVITY LOG]
CALWS   .MM     : CALIPER [C13ED]
CNLSED  .V/V    : COMPENSATED NEUTRON POROSITY LIMESTONE FROM DENSITY LOG [ADJ . TO RESISTIVITY LOG]
CNSSED  .V/V    : COMPENSATED NEUTRON POROSITY SANDSTONE FROM DENSITY LOG [ADJ . TO RESISTIVITY LOG]
CONDWS  .MMHO   : CONDUCTIVITY [1000/DRESWS]
CORRED  .KG/M3  : DENSITY CORRECTION FROM DENSITY LOG [ADJ . TO RESISTIVITY LOG]
DCORWS  .KG/M3  : DENSITY CORRECTION [CORRED]
DENED   .KG/M3  : BULK DENSITY FROM DENSITY LOG [ADJ . TO RESISTIVITY LOG]
DENWS   .KG/M3  : FORMATION BULK DENSITY [DENED]
DPOLSWS .V/V    : DENSITY POROSITY LIMESTONE [CALC FROM DENWS, M=2710,F=1000]
DRESWS  .OHMM   : DEEP RESISTIVITY [RILDED]
DTWS    .US/M   : COMPRESSIONAL SONIC [ACED]
GRDED   .GAPI   : GAMMA RAY FROM DENSITY LOG [ADJ . TO RESISTIVITY LOG]
GRRED   .GAPI   : GAMMA RAY FROM RESISTIVITY LOG
GRSED   .GAPI   : GAMMA RAY FROM SONIC LOG [ADJ . TO RESISTIVITY LOG]
GRWS    .GAPI   : GAMMA RAY [GRSED SPL. TO GRDED @ 406M]
MRESWS  .OHMM   : MEDIUM RESISTIVITY [RILMED]
NPOLSWS .V/V    : NEUTRON POROSITY LIMESTONE [CNSSED MATRIX CONVERSION FOR LIMESTONE, SPL. TO CNLSED @ 1450M]
PORDLSED.V/V    : DENSITY POROSITY LIMESTONE [M=2710,F=1000] FROM DENSITY LOG [ADJ . TO RESISTIVITY LOG]
PORDSSED.V/V    : DENSITY POROSITY SANDSTONE [M=2650,F=1000] FROM DENSITY LOG [ADJ . TO RESISTIVITY LOG]
RFOCED  .OHMM   : SHALLOW FOCUSED LOG RESISTIVITY FROM RESISTIVITY LOG
RILDED  .OHMM   : DEEP INDUCTION RESISTIVITY FROM RESISTIVITY LOG
RILMED  .OHMM   : MEDIUM INDUCTION RESISTIVITY FROM RESISTIVITY LOG
SPRED   .MV     : SPONTANEOUS POTENTIAL FROM RESISTIVITY LOG
SPWS    .MV     : SPONTANEOUS POTENTIAL [BASELINE 0 MV, SPRED]
SRESWS  .OHMM   : SHALLOW RESISTIVITY [RFOCED]
TENDED  .N      : TENSION FROM DENSITY LOG [ADJ . TO RESISTIVITY LOG]
TENRED  .N      : TENSION FROM RESISTIVITY LOG
TENSED  .N      : TENSION FROM SONIC LOG [ADJ . TO RESISTIVITY LOG]
~Params ----------------------------------------------------
PD  .                         GL : PERMANENT DATUM
EPD .M                    669.45 : ELEVATION PERMANENT DATUM
LMF .                         KB : LOG MEASURED FROM
DAPD.M                      5.79 : FEET ABOVE PERMANENT DATUM
DMF .                         KB : DRILLING MEASURED FROM
EKB .M                    675.24 : KELLY BUSHING
EGL .M                    669.45 : GROUND LEVEL
DATE.                   05/01/83 : RUN DATE
RUN .                          1 : RUN NUMBER
DD  .M                      2885 : DEPTH DRILLER
DL  .M                      2886 : DEPTH LOGGER
BLI .M                    2885.6 : BOTTOM LOG INTERVAL
TLI .M                     419.6 : TOP LOG INTERVAL
CS  .MM                    244.5 : CASING SIZE
CBD .M                     419.6 : CASING BOTTOM DRILLER
CBL .M                     419.6 : CASING BOTTOM LOGGER
BS  .MM                      222 : BIT SIZE
BSD .M                      2885 : BIT SIZE AT DEPTH
DFT .                   GEL CHEM : DRILLING FLUID TYPE
DFD .                       1110 : DRILLING FLUID DENSITY
DFV .                         80 : DRILLING FLUID VISCOSITY
DFPH.                          9 : DRILLING FLUID PH
DFL .                         11 : DRILLING FLUID LOSS
MSS .                   FLOWLINE : MUD SAMPLE SOURCE
RMS .OHMM                    1.8 : RESISTIVITY MUD SAMPLE
MST .DEGC                     17 : MUD SAMPLE TEMPERATURE
RMF .OHMM                    1.9 : RESISTIVITY MUD FILTRATE SAMPLE
MFST.DEGC                     17 : MUD FILTRATE SAMPLE TEMPERATURE
RMC .OHMM                      2 : RESISTIVITY MUD CAKE
MCST.DEGC                     17 : MUD CAKE SAMPLE TEMPERATURE
MFSS.                       MEAS : MUD FILTRATE SAMPLE SOURCE
MCSS.                       MEAS : MUD CAKE SAMPLE SOURCE
RMB .OHMM                   0.68 : RESISTIVITY MUD AT BHT
TCS .HRS                       5 : TIME CIRCULATED STOPPED
LUN .                       6219 : LOGGING UNIT NUMBER
LUL .                        G P : LOGGING UNIT LOCATION
ENGI.                    LAMBERT : RECORDING ENGINEER
WITN.                   MCLENNAN : WITNESSED BY
CLNT.                    A2DTECH : CLIENT CODE
ORIG. 6.5"/100M 16.5"/100M PRINT : ORIGIN OF DATA
UWI .           100132007121W500 : UNIQUE WELL ID
DICO.     A2D Technologies, Inc. : DIGITIZING COMPANY
~Other -----------------------------------------------------
DIL-SFL-CDL-CNT-BHC ACOUSTILOG TOOL RUN
TENR FROM SMALL SECTION
SP EXHIBITS TULLERIC DRIFT IN CARBONATES
NEUTRON MATRIX CONVERSION: BAKER HUGHES (CNL:2420)
~ASCII -----------------------------------------------------
  400.00000    -999.25    -999.25    -999.25    -999.25    -999.25    -999.25    -999.25    -999.25    -999.25    -999.25    -999.25    -999.25    -999.25    -999.25    -999.25    -999.25    -999.25   63.09030   63.09030    -999.25    -999.25    -999.25    -999.25    -999.25    -999.25    -999.25    -999.25    -999.25    -999.25    -999.25    -999.25    -999.25
  450.00000  302.32410  246.20830  255.42660  243.18500  246.20830    -999.25    0.24220   72.57470  139.70000  139.70000 2430.70000 2430.70000    0.16330   13.77890  302.32410   69.58810   61.47180   54.17430   69.58810   12.14180    0.20220    -999.25    0.11650   13.32360   13.77890   12.14180 -117.14510  -13.50400   13.32360 -1323.39080 -1666.29950 -1909.84620
  500.00000  385.28070  231.12470  241.23850  232.85130  231.12470    -999.25    0.29260  143.57910   73.80000   73.80000 1856.10000 1856.10000    0.49940    6.96480  385.28070  113.13450  109.80110  109.22440  113.13450    6.76490    0.25260    -999.25    0.47930    6.54970    6.96480    6.76490 -105.78860   -3.42370    6.54970 -1085.24150 -2217.89200 -1989.63040
  550.00000  385.45930  234.15370  314.91850  250.27000  234.15370    -999.25    0.28410  133.99800   52.20000   52.20000 2037.60000 2037.60000    0.39320    7.46280  385.45930  114.04350  112.43600   99.16980  114.04350    7.25320    0.24410    -999.25    0.37170    6.88790    7.46280    7.25320 -107.01830   -5.92960    6.88790 -1389.10230 -1296.53860 -1709.20020
  600.00000  392.45230  222.96190  346.44160  248.93350  222.96190    -999.25    0.28740  153.67360  123.20000  123.20000 2215.70000 2215.70000    0.28910    6.50730  392.45230  124.26430  116.95850  115.96340  124.26430    6.67030    0.24740    -999.25    0.26460    7.00110    6.50730    6.67030 -105.72280   -5.91040    7.00110 -1327.91700 -1690.78080 -2004.53830
  650.00000  215.22080  217.85850  295.94740  240.74290  217.85850    -999.25    0.31140  150.77730   51.00000   51.00000 2102.50000 2102.50000    0.35530    6.63230  215.22080  106.87860  108.74130   97.22190  106.87860    6.80120    0.27140    -999.25    0.33370    6.98480    6.63230    6.80120 -105.64000   -7.10380    6.98480 -112.14160 -2085.02300 -1270.97070
  700.00000  355.17000  225.54830  302.09890  247.46460  225.54830    -999.25    0.28880  206.06660   65.50000   65.50000 2257.60000 2257.60000    0.26460    4.85280  355.17000  113.43490  107.28350  105.41410  113.43490    4.97430    0.24880    -999.25    0.24830    5.28790    4.85280    4.97430 -101.54970   -4.28970    5.28790 -1735.19920 -1474.56230 -1262.63660
  750.00000  325.37530  283.79760  288.84710  282.19610  283.79760    -999.25    0.24950  183.37860   86.50000   86.50000 2056.20000 2056.20000    0.38230    5.45320  325.37530  102.22450  102.64130   94.79000  102.22450    5.23270    0.20950    -999.25    0.35840    4.89750    5.45320    5.23270 -103.81420   -7.74450    4.89750 -3058.32060 -8309.67460 -1553.01740
  800.00000  333.19020  328.98880  284.20070  288.47890  328.98880    -999.25    0.27100  196.40580  182.70000  182.70000 2211.40000 2211.40000    0.29160    5.09150  333.19020  111.28150  100.89610   95.76230  111.28150    5.17990    0.23100    -999.25    0.27220    4.89790    5.09150    5.17990 -102.46910   -7.57120    4.89790 -1140.13130 -8761.81520 -1811.07680
  850.00000  314.16740  216.85040  420.63080  231.18110  216.85040    -999.25    0.28150  379.96810    9.40000    9.40000 1868.80000 1868.80000    0.49190    2.63180  314.16740   95.83330  101.33560   91.54170   95.83330    2.73960    0.24150    -999.25    0.47570    2.99880    2.63180    2.73960 -100.69930   -6.80570    2.99880 -1274.23060 -8538.49300 -1703.08430
  900.00000  302.47000  208.44470  218.03970  210.09720  208.44470    -999.25    0.21440  182.30210  152.30000  152.30000 2256.50000 2256.50000    0.26520    5.48540  302.47000   33.56260   26.83370   27.32960   33.56260    9.61470    0.17440    -999.25    0.24250   12.83160    5.48540    9.61470 -153.77450  -60.65390   12.83160 -1902.86820 -8315.17080 -2045.23870
  950.00000  319.95830  216.95840  220.15250  220.76520  216.95840    -999.25    0.27120  258.57830   70.70000   70.70000 2202.90000 2202.90000    0.29650    3.86730  319.95830   86.13280   77.45830   75.89920   86.13280    4.50250    0.23120    -999.25    0.26520    5.54470    3.86730    4.50250 -117.56150  -21.67430    5.54470 -1299.35850 -8577.49600 -1949.20840
 1000.00000  285.21310  199.51910  202.26110  204.30000  199.51910    -999.25    0.26970  191.74720  183.40000  183.40000 2282.70000 2282.70000    0.24990    5.21520  285.21310   57.26790   55.31940   50.91920   57.26790    9.47960    0.22970    -999.25    0.22410   13.22790    5.21520    9.47960 -157.05730  -56.03550   13.22790 -1538.93570 -8566.03670 -2476.33750
 1050.00000  268.42640  227.71510  208.07380  221.19220  227.71510    -999.25    0.20450  209.77550  133.60000  133.60000 2448.80000 2448.80000    0.15270    4.76700  268.42640   70.13460   63.25570   62.42850   70.13460    6.97090    0.16450    -999.25    0.12840    8.24510    4.76700    6.97090 -119.50960  -18.44600    8.24510 -2457.15480 -8940.62020 -2607.23070
 1100.00000  299.17020  230.92970  236.61340  237.02760  230.92970    -999.25    0.25630  219.60650  217.20000  217.20000 2425.50000 2425.50000    0.16640    4.55360  299.17020  104.87360   93.04180   90.95260  104.87360    4.92690    0.21630    -999.25    0.13910    5.30280    4.55360    4.92690 -108.73120   -8.94880    5.30280 -1737.04920 -1300.50810 -2597.82800
 1150.00000  302.82300  229.71880  236.79330  229.23660  229.71880    -999.25    0.26240  212.50820  173.40000  173.40000 2373.20000 2373.20000    0.19700    4.70570  302.82300  100.48550   93.29120   84.81910  100.48550    5.02620    0.22240    -999.25    0.17320    5.16710    4.70570    5.02620 -106.13400   -7.63280    5.16710 -2587.96720 -1355.38890 -1649.03870
 1200.00000  284.99620  216.97080  221.99230  222.67570  216.97080    -999.25    0.26860  194.72680  248.50000  248.50000 2567.70000 2567.70000    0.08320    5.13540  284.99620   91.44930   80.16890   81.31280   91.44930    5.98420    0.22860    -999.25    0.05250    7.52030    5.13540    5.98420 -115.08830  -17.23390    7.52030 -1491.81420 -1874.03130 -2898.18630
 1250.00000  245.25120  224.52620  250.35970  232.20780  224.52620    -999.25    0.22300  103.92850   12.10000   12.10000 2438.10000 2438.10000    0.15900    9.62200  245.25120   70.57080   64.70390   64.14020   70.57080   12.34900    0.18300    -999.25    0.13180   16.38520    9.62200   12.34900 -111.81460  -14.40560   16.38520 -764.53300 -2373.58080 -1229.68650
 1300.00000  325.92630  336.67680  357.13330  333.18910  336.67680    -999.25    0.28000  307.56930  100.30000  100.30000 1773.20000 1773.20000    0.54780    3.25130  325.92630  101.29660   98.81140   86.92470  101.29660    3.45450    0.24000    -999.25    0.53330    4.24220    3.25130    3.45450 -101.05160   -4.58910    4.24220 -577.92380 -2174.26390 -1524.91690
 1350.00000  243.26700  211.22940  223.34630  218.63320  211.22940    -999.25    0.19930    7.10430   89.00000   89.00000 2423.10000 2423.10000    0.16780  140.75940  243.26700  229.27720  273.77080  238.46500  229.27720   82.52530    0.15930    -999.25    0.14080 1983.97030  140.75940   82.52530 -113.46640  -13.68660 1983.97030 -664.71290 -8437.37070 -1551.41890
 1400.00000  250.77790  277.86000  323.81350  293.63420  277.86000    -999.25    0.20190  210.44210  229.10000  229.10000 2585.60000 2585.60000    0.07270    4.75190  250.77790  100.56270   91.69560   85.26180  100.56270    5.04590    0.16190    -999.25    0.04190    5.36350    4.75190    5.04590 -175.09250  -70.93360    5.36350 -951.69900 -8188.35480 -3219.64920
 1450.00000  248.52070  213.14940  207.42300  207.13070  213.14940    0.17320    0.21680  721.86530  171.20000  171.20000 2404.50000 2404.50000    0.17870    1.38530  248.52070   38.47050   28.81020   29.52890   38.47050    2.69080    0.17320    0.20730    0.15160   14.47600    1.38530    2.69080 -223.96400 -115.42600   14.47600 -380.82510 -8662.75840  118.53580
