~Version ---------------------------------------------------
VERS.      2.0 : CWLS log ASCII Standard -VERSION 2.0
WRAP.       NO : One line per depth step
CREA. 09/03/13 : LAS Creation Date
~Well ------------------------------------------------------
STRT.M                       300.0 : START DEPTH
STOP.M                      3650.0 : STOP DEPTH
STEP.M                    50.00000 : STEP LENGTH
NULL.                      -999.25 : NULL VALUE
COMP.       FOREST OIL CORPORATION : COMPANY
WELL. FOREST ET AL ANTE 3-30-67-26 : WELL
FLD .                           WC : FIELD
LOC .                              : LOCATION
CTRY.                       CANADA : COUNTRY
SRVC.                 Schlumberger : SERVICE COMPANY
DATE.                  18-Feb-1981 : LOGDATE
PROV.                      Alberta : PROVINCE
UWI .             100033006726W500 : UNIQUE WELL ID
SLAT.WGS84                54.82301 : SURFACE LATITUDE
SLON.WGS84               -117.9545 : SURFACE LONGITUDE
~Curve Information -----------------------------------------
DEPT    .M      : DEPTH METER
CALDED  .MM     : CALIPER FROM DENSITY LOG [ADJ.  TO RESISTIVITY LOG]
CALSED  .MM     : CALIPER FROM SONIC LOG
CALWS   .MM     : CALIPER [CALDED]
CONDWS  .MMHO   : CONDUCTIVITY [1000/DRESWS]
CORRED  .KG/M3  : DENSITY CORRECTION FROM DENSITY LOG [ADJ.  TO RESISTIVITY LOG]
DCORWS  .KG/M3  : DENSITY CORRECTION [CORRED]
DENWS   .KG/M3  : FORMATION BULK DENSITY [CAL. FROM DPOLSWS, M=2710, M=1000]
DPHILSED.V/V    : DENSITY POROSITY LIMESTONE
DPHISSED.V/V    : DENSITY POROSITY SANDSTONE [M=2650, F=1000] FROM DENSITY LOG
DPOLSWS .V/V    : DENSITY POROSITY LIMESTONE [DPHISSED CONVERTED TO LIMESTONE MATRIX, M=2710, F=1000, SPL. TO DPHILSED @ 2027.29M]
DRESWS  .OHMM   : DEEP RESISTIVITY [ILDED SPL.TO LLD @ 2077.13 M]
DTED    .US/M   : INTERVAL TRANSIT TIME FROM SONIC LOG
DTWS    .US/M   : COMPRESSIONAL SONIC [DTED]
GRDED   .GAPI   : GAMMA RAY FROM DENSITY LOG [ADJ. TO RESISTIVITY LOG]
GRRED   .GAPI   : GAMMA RAY FROM RESISTIVITY  LOG
GRSED   .GAPI   : GAMMA RAY FROM SONIC LOG [ADJ.  TO RESISTIVITY LOG]
GRWS    .GAPI   : GAMMA RAY [GRSED]
ILDED   .OHMM   : DEEP INDUCTION LOG RESISTIVITY FROM RESISTIVITY LOG
ILMED   .OHMM   : MEDIUM INDUCTION LOG RESISTIVITY FROM RESISTIVITY LOG
LLDED   .OHMM   : DEEP LATEROLOG LOG RESISTIVITY FROM RESISTIVITY LOG
LLSED   .OHMM   : SHALLOW LATEROLOG LOG RESISTIVITY FROM RESISTIVITY LOG
MRESWS  .OHMM   : MEDIUM RESISTIVITY [ILMED]
MSFLED  .OHMM   : MICROSPHERICALLY FOCUSED RESISTIVITY FROM RESISTIVITY LOG
NPHILSED.V/V    : NEUTRON POROSITY LIMESTONE FROM DENSITY LOG [ADJ. TO RESISTIVITY LOG]
NPHISSED.V/V    : NEUTRON POROSITY SANDSTONE FROM DENSITY LOG [ADJ. TO RESISTIVITY LOG]
NPOLSWS .V/V    : NEUTRON POROSITY LIMESTONE [NPHISSED MATRIX CONVERSION FOR LIMESTONE , SPL. TO NPHILSED @1994 M ]
RHOBED  .KG/M3  : BULK DENSITY  FROM DENSITY LOG [ADJ.  TO RESISTIVITY LOG]
SFLED   .OHMM   : SPHERICALLY FOCUSED RESISTIVITY FROM RESISTIVITY LOG
SPR1ED  .MV     : SPONTANEOUS POTENTIAL   FROM RESISTIVITY LOG
SPRED   .MV     : SPONTANEOUS POTENTIAL FROM RESISTIVITY LOG
SPWS    .MV     : SPONTANEOUS POTENTIAL [BASELINE 0 MV, SPRED, SPRED SPL. TO SPRIED@207 6M]
SRESWS  .OHMM   : SHALLOW RESISTIVITY [SFLED SPL. TO LLSED @2075M]
TENDED  .N      : TENSION FROM DENSITY LOG  [ADJ.  TO RESISTIVITY LOG]
TENSED  .N      : TENSION FROM SONIC LOG
~Params ----------------------------------------------------
PD  .                       GL : PERMANENT DATUM
EPD .M                   756.8 : ELEVATION PERMANENT DATUM
LMF .                       KB : LOG MEASURED FROM
DAPD.M                     5.4 : FEET ABOVE PERMANENT DATUM
DMF .                       KB : DRILLING MEASURED FROM
EKB .M                   762.2 : KELLY BUSHING
EGL .M                   756.8 : GROUND LEVEL
DATE.                 02/18/81 : RUN DATE
RUN .                        2 : RUN NUMBER
DD  .M                    3673 : DEPTH DRILLER
DL  .M                  3672.5 : DEPTH LOGGER
BLI .M                  3588.5 : BOTTOM LOG INTERVAL
TLI .M                    2076 : TOP LOG INTERVAL
CS  .MM                    244 : CASING SIZE
CBD .M                    2076 : CASING BOTTOM DRILLER
CBL .M                    2076 : CASING BOTTOM LOGGER
BS  .MM                    216 : BIT SIZE
BSD .M                    3673 : BIT SIZE AT DEPTH
DFT .                GEL BENEX : DRILLING FLUID TYPE
DFD .                     1100 : DRILLING FLUID DENSITY
DFV .                       85 : DRILLING FLUID VISCOSITY
DFPH.                       10 : DRILLING FLUID PH
DFL .                     12.5 : DRILLING FLUID LOSS
MSS .                 FLOWLINE : MUD SAMPLE SOURCE
RMS .OHMM                 3.38 : RESISTIVITY MUD SAMPLE
MST .DEGC                   23 : MUD SAMPLE TEMPERATURE
RMF .OHMM                0.714 : RESISTIVITY MUD FILTRATE SAMPLE
MFST.DEGC                 16.7 : MUD FILTRATE SAMPLE TEMPERATURE
RMB .OHMM                 0.22 : RESISTIVITY MUD AT BHT
TCS .HRS                   900 : TIME CIRCULATED STOPPED
TLAB.HRS                   330 : TIME LOGGER AT BOTTOM
LUN .                     8157 : LOGGING UNIT NUMBER
LUL .                       GP : LOGGING UNIT LOCATION
ENGI.                    JONES : RECORDING ENGINEER
WITN.        NORQUAY MCCAFFREY : WITNESSED BY
CLNT.                  A2DTECH : CLIENT CODE
ORIG. 6"/100M 16.5"/100M PRINT : ORIGIN OF DATA
UWI .         100033006726W500 : UNIQUE WELL ID
DICO.   A2D Technologies, Inc. : DIGITIZING COMPANY
~Other -----------------------------------------------------
DLL-MSFL-DISFL-FDC-CNL-BHC LOG RAN
BHC RAN IN COMBINATION WITH DLL-MSFL
RHOB ARE FROM SMALL SCALE SECTION
~ASCII -----------------------------------------------------
  300.00000  495.79020  345.48030  495.79020  253.57540   60.26720   60.26720 2247.23500    -999.25    0.24410    0.27060    3.94360  386.20450  386.20450   59.88180    -999.25   63.78980   63.78980    3.94360    3.52160    -999.25    -999.25    3.52160    -999.25    -999.25    0.58310    0.54800 2236.26030    3.39650    -999.25  -62.34320   -3.49860    3.39650 3656.50020 4281.60340
  350.00000  494.57520  342.04440  494.57520  251.79400   67.10170   67.10170 2218.19500    -999.25    0.26170    0.28760    3.97150  356.49120  356.49120   63.25110    -999.25   59.27670   59.27670    3.97150    3.58040    -999.25    -999.25    3.58040    -999.25    -999.25    0.50100    0.46120 2190.95650    3.71910    -999.25  -60.25160   -1.97280    3.71910 4090.82960 4864.95060
  400.00000  378.45240  339.33320  378.45240  238.42450  118.67790  118.67790 2031.25000    -999.25    0.37500    0.39690    4.19420  412.61040  412.61040   65.53340    -999.25   58.21680   58.21680    4.19420    3.87030    -999.25    -999.25    3.87030    -999.25    -999.25    0.54100    0.50330 2011.54870    3.66000    -999.25  -60.31430   -2.60120    3.66000 4237.73060 4912.75190
  450.00000  362.32070  338.68100  362.32070  300.24620   94.68970   94.68970 2116.39000    -999.25    0.32340    0.34710    3.33060  375.13560  375.13560   76.76380    -999.25   65.32250   65.32250    3.33060    3.10250    -999.25    -999.25    3.10250    -999.25    -999.25    0.48110    0.44050 2094.95650    3.10310    -999.25  -58.62230   -1.47490    3.10310 4701.22550 5127.07930
  500.00000  348.87010  328.45570  348.87010  102.56830   61.31040   61.31040 2263.73500    -999.25    0.23410    0.26100    9.74960  351.98030  351.98030   51.71900    -999.25   46.62610   46.62610    9.74960    6.86210    -999.25    -999.25    6.86210    -999.25    -999.25    0.36040    0.31690 2264.65410    7.97300    -999.25  -64.19260   -7.61090    7.97300 4816.52120 5428.06740
  550.00000  400.01180  336.86240  400.01180   60.36350   38.16150   38.16150 2238.16000    -999.25    0.24960    0.27590   16.56630  349.80540  349.80540   45.11910    -999.25   35.95410   35.95410   16.56630   15.80100    -999.25    -999.25   15.80100    -999.25    -999.25    0.34590    0.30220 2235.19070   13.85930    -999.25  -76.10660  -20.09070   13.85930 5159.53990 5717.17320
  600.00000  423.45280  335.88980  423.45280   44.24020   18.90990   18.90990 2389.13500    -999.25    0.15810    0.18760   22.60390  258.88060  258.88060   41.43250    -999.25   39.00910   39.00910   22.60390   25.61990    -999.25    -999.25   25.61990    -999.25    -999.25    0.22290    0.17920 2349.02030   17.28510    -999.25  -72.33060  -17.45790   17.28510 5222.19930 5734.30200
  650.00000  483.08120  369.24200  483.08120  185.65280  155.54870  155.54870 2426.26000    -999.25    0.13560    0.16590    5.38640  349.97030  349.97030   63.20830    -999.25   57.54560   57.54560    5.38640    4.98430    -999.25    -999.25    4.98430    -999.25    -999.25    0.44970    0.40800 2439.93700    4.64550    -999.25  -56.55310   -3.01000    4.64550 5471.94380 6205.30380
  700.00000  442.38570  360.78160  442.38570  109.27170   60.89930   60.89930 2220.01000    -999.25    0.26060    0.28650    9.15150  341.66830  341.66830   50.60070    -999.25   48.64750   48.64750    9.15150    7.90820    -999.25    -999.25    7.90820    -999.25    -999.25    0.36540    0.32190 2269.97190   10.42870    -999.25  -56.85420   -4.36720   10.42870 5800.95750 6280.07430
  750.00000  411.85280  351.32730  411.85280  144.38970   54.40720   54.40720 2400.02500    -999.25    0.15150    0.18130    6.92570  332.59500  332.59500   65.07750    -999.25   53.09850   53.09850    6.92570    7.32180    -999.25    -999.25    7.32180    -999.25    -999.25    0.41260    0.37000 2399.46510    6.54960    -999.25  -57.72440   -5.56180    6.54960 6099.43830 6538.10810
  800.00000  487.95210  348.09480  487.95210  132.05680   70.61600   70.61600 2349.37000    -999.25    0.18220    0.21090    7.57250  330.95290  330.95290   89.16590    -999.25   76.04250   76.04250    7.57250    7.17830    -999.25    -999.25    7.17830    -999.25    -999.25    0.39680    0.35390 2351.48240    6.07160    -999.25  -59.13620   -7.29790    6.07160 6273.75630 6747.66180
  850.00000  469.70300  349.80100  469.70300  104.98360   63.41680   63.41680 2493.08500    -999.25    0.09510    0.12690    9.52530  328.89350  328.89350  116.57880    -999.25   94.61620   94.61620    9.52530    9.11400    -999.25    -999.25    9.11400    -999.25    -999.25    0.42060    0.37820 2490.62940   10.43160    -999.25  -56.93580   -5.42190   10.43160 6397.44500 6932.79110
  900.00000  468.85940  340.92300  468.85940  115.85470   71.54150   71.54150 2476.91500    -999.25    0.10490    0.13630    8.63150  302.93170  302.93170  102.16090    -999.25   78.88550   78.88550    8.63150    8.21250    -999.25    -999.25    8.21250    -999.25    -999.25    0.38550    0.34240 2457.47440    7.95160    -999.25  -60.21950   -9.03000    7.95160 6695.83190 7100.82460
  950.00000  423.31530  333.73700  423.31530  111.64330   51.37370   51.37370 2408.44000    -999.25    0.14640    0.17640    8.95710  309.19360  309.19360   99.20600    -999.25   79.54930   79.54930    8.95710    8.31700    -999.25    -999.25    8.31700    -999.25    -999.25    0.38810    0.34500 2407.22900    7.96420    -999.25  -58.16370   -7.29850    7.96420 6817.20230 7206.00060
 1000.00000  375.95860  344.54020  375.95860   66.25590   57.53850   57.53850 2414.21500    -999.25    0.14290    0.17300   15.09300  278.71760  278.71760   79.45300    -999.25   71.88390   71.88390   15.09300   14.35880    -999.25    -999.25   14.35880    -999.25    -999.25    0.38050    0.33730 2395.73100   13.46300    -999.25  -55.86460   -5.32380   13.46300 7109.13650 7483.72530
 1050.00000  416.52150  345.22530  416.52150  102.30490   55.02010   55.02010 2404.48000    -999.25    0.14880    0.17870    9.77470  298.56840  298.56840  104.03330    -999.25   84.06260   84.06260    9.77470    9.33300    -999.25    -999.25    9.33300    -999.25    -999.25    0.36640    0.32300 2407.88620    9.05770    -999.25  -54.49340   -4.27690    9.05770 7231.15590 7668.05670
 1100.00000  439.21040  345.81100  439.21040  108.41400   76.53090   76.53090 2478.07000    -999.25    0.10420    0.13560    9.22390  314.78050  314.78050  106.29860    -999.25   85.97930   85.97930    9.22390    8.82500    -999.25    -999.25    8.82500    -999.25    -999.25    0.37600    0.33270 2471.27860    9.74350    -999.25  -52.03490   -2.14280    9.74350 7443.64970 7874.14490
 1150.00000  426.81480  348.79970  426.81480  110.42160   55.03080   55.03080 2449.19500    -999.25    0.12170    0.15250    9.05620  307.62150  307.62150  101.09710    -999.25   85.60000   85.60000    9.05620    8.66130    -999.25    -999.25    8.66130    -999.25    -999.25    0.39780    0.35490 2454.22170    9.55320    -999.25  -51.95140   -2.38360    9.55320 7700.67700 8103.82720
 1200.00000  401.56640  344.49870  401.56640  101.97530  150.06340  150.06340 2193.94000    -999.25    0.27640    0.30180    9.80630  310.94200  310.94200  103.66000    -999.25   86.53690   86.53690    9.80630   10.16470    -999.25    -999.25   10.16470    -999.25    -999.25    0.44910    0.40740 2183.62430   11.25700    -999.25  -52.38400   -3.23790   11.25700 7736.84050 8300.54400
 1250.00000  370.18890  343.90440  370.18890  117.10420   72.37530   72.37530 2392.93000    -999.25    0.15580    0.18540    8.53940  277.18540  277.18540   86.25710    -999.25   73.55820   73.55820    8.53940    9.14610    -999.25    -999.25    9.14610    -999.25    -999.25    0.33200    0.28820 2390.97190    8.02760    -999.25  -53.14150   -5.40080    8.02760 8086.57080 8474.61030
 1300.00000  324.21830  326.83690  324.21830   45.90800   -1.97750   -1.97750 2546.21500    -999.25    0.06290    0.09580   21.78270  213.82800  213.82800   60.91670    -999.25   49.53630   49.53630   21.78270   29.76090    -999.25    -999.25   29.76090    -999.25    -999.25    0.16700    0.12410 2537.88230   56.51150    -999.25  -66.46820  -20.13290   56.51150 8089.70880 8773.64220
