~Version ---------------------------------------------------
VERS.      2.0 : CWLS log ASCII Standard -VERSION 2.0
WRAP.       NO : One line per depth step
CREA. 09/25/17 : LAS Creation Date
~Well ------------------------------------------------------
STRT.FT                             850.0 : START DEPTH
STOP.FT                            9900.0 : STOP DEPTH
STEP.FT                          50.00000 : STEP LENGTH
NULL.                             -999.25 : NULL VALUE
COMP.         BLUEMOUNT RESOURCES LIMITED : COMPANY
WELL. BLUEMOUNT ET AL GOODWIN 11-31-58-13 : WELL
FLD .                                     : FIELD
LOC .                                     : LOCATION
CTRY.                              CANADA : COUNTRY
SRVC.              Schlumberger of Canada : SERVICE COMPANY
DATE.                         07-Apr-1973 : LOGDATE
PROV.                             Alberta : PROVINCE
UWI .                    100113105813W500 : UNIQUE WELL ID
SLAT.WGS84                       54.06009 : SURFACE LATITUDE
SLON.WGS84                      -115.9256 : SURFACE LONGITUDE
~Curve Information -----------------------------------------
DEPT    .FT    : Depth Curve
CALDED  .IN    : CALIPER FROM DENSITY LOG [ADJ.TO RESISTIVITY LOG]
CALSED  .IN    : CALIPER FROM SONIC LOG [ADJ.TO RESISTIVITY LOG]
CALWS   .IN    : CALIPER [CALSED SPL.TO CALDED @ 2963.5'-9832']
CILDED  .MMHO  : CONDUCTIVITY FROM RESISTIVITY LOG
CONDWS  .MMHO  : CONDUCTIVITY [1000/DRESWS]
DCORWS  .G/C3  : DENSITY CORRECTION [DRHOED]
DENWS   .G/C3  : FORMATION BULK DENSITY [CALC. FROM DPHILSED, M=2.71, F=1.00, SPL.TO RHOBED @ 7938']
DPHILSED.V/V   : DENSITY POROSITY LIMESTONE [M=2.71, F=1.00] FROM DENSITY LOG [ADJ.TO RESISTIVITY LOG]
DPOLSWS .V/V   : DENSITY POROSITY LIMESTONE [CALC. FROM DENWS, M=2.71, F=1.00]
DRESWS  .OHMM  : DEEP RESISTIVITY [1000/CILDED IF ILDED <=2, ILDED, SPL.TO ILDED @ 3000']
DRHOED  .G/C3  : DENSITY CORRECTION FROM DENSITY LOG [ADJ.TO RESISTIVITY LOG]
DTED    .US/F  : DELTA TIME FROM SONIC LOG [ADJ.TO RESISTIVITY LOG]
DTWS    .US/F  : COMPRESSIONAL SONIC [DTED]
GRDED   .GAPI  : GAMMA RAY FROM DENSITY LOG [ADJ.TO RESISTIVITY LOG]
GRSED   .GAPI  : GAMMA RAY FROM SONIC LOG [ADJ.TO RESISTIVITY LOG]
GRWS    .GAPI  : GAMMA RAY [GRSED SPL.TO GRDED @ 2966.5']
ILDED   .OHMM  : DEEP INDUCTION FROM RESISTIVITY LOG
ILMED   .OHMM  : MEDIUM INDUCTION FROM RESISTIVITY LOG
LL8ED   .OHMM  : LATEROLOG 8 FROM RESISTIVITY LOG
MRESWS  .OHMM  : MEDIUM RESISTIVITY [ILMED]
NPHILSED.V/V   : NEUTRON POROSITY LIMESTONE FROM DENSITY LOG [ADJ.TO RESISTIVITY LOG]
NPOLSWS .V/V   : NEUTRON POROSITY LIMESTONE [NPHILSED]
RHOBED  .G/C3  : BULK DENSITY FROM DENSITY LOG [ADJ.TO RESISTIVITY LOG]
SPRED   .MV    : SPONTANEOUS POTENTIAL FROM RESISTIVITY LOG
SPWS    .MV    : SPONTANEOUS POTENTIAL [BASELINE 0 MV, SPRED]
SRESWS  .OHMM  : SHALLOW RESISTIVITY [LL8ED]
~Params ----------------------------------------------------
PD  .                     GL : PERMANENT DATUM
EPD .FT                 3069 : ELEVATION PERMANENT DATUM
LMF .                     KB : LOG MEASURED FROM
DAPD.FT                   17 : FEET ABOVE PERMANENT DATUM
EKB .FT                 3087 : KELLY BUSHING
EGL .FT                 3069 : GROUND LEVEL
DATE.               04/07/73 : RUN DATE
RUN .                      1 : RUN NUMBER
DD  .FT                 9938 : DEPTH DRILLER
DL  .FT                 9940 : DEPTH LOGGER
BLI .FT                 9935 : BOTTOM LOG INTERVAL
TLI .FT                 1025 : TOP LOG INTERVAL
CBD .FT                 1025 : CASING BOTTOM DRILLER
CBL .FT                 1030 : CASING BOTTOM LOGGER
BS  .IN                 8.75 : BIT SIZE
BSD .FT                 9938 : BIT SIZE AT DEPTH
DFT .               GEL CHEM : DRILLING FLUID TYPE
DFD .                    9.5 : DRILLING FLUID DENSITY
DFV .                     92 : DRILLING FLUID VISCOSITY
DFPH.                      9 : DRILLING FLUID PH
DFL .                     10 : DRILLING FLUID LOSS
MSS .             CALCULATED : MUD SAMPLE SOURCE
TCS .HRS                   5 : TIME CIRCULATED STOPPED
LUN .                   7667 : LOGGING UNIT NUMBER
LUL .                    EDM : LOGGING UNIT LOCATION
ENGI.                  LEWIS : RECORDING ENGINEER
WITN.              TUDDENHAM : WITNESSED BY
CLNT.                A2DTECH : CLIENT CODE
ORIG.            2" 5" PRINT : ORIGIN OF DATA
UWI .       100113105813W500 : UNIQUE WELL ID
DICO. A2D Technologies, Inc. : DIGITIZING COMPANY
~Other -----------------------------------------------------
DI-LL-FDC-CNL-SONIC LOG RUN.
SPRED CILDED,ILDED,LL8ED DIG IN 2" SCALE @ TOP TO 3000'
~ASCII -----------------------------------------------------
# ...
 8950.00000    7.24700    6.95570    7.24700    -999.25   97.80620    0.12160    2.85350   -0.08390   -0.08390   10.22430    0.12160   61.14590   61.14590   72.13600   71.02080   72.13600   10.22430   13.00690   15.23410   13.00690    0.15660    0.15660    2.85270 -154.50350  -60.11070   15.23410
 9000.00000    7.32570    6.94750    7.32570    -999.25  108.72990    0.09530    2.81020   -0.05860   -0.05860    9.19710    0.09530   63.59320   63.59320   88.09340   93.37290   88.09340    9.19710   10.49800   14.75810   10.49800    0.18270    0.18270    2.80530 -159.22520  -70.13360   14.75810
 9050.00000    7.66770    7.01730    7.66770    -999.25  135.44310    0.31360    2.78590   -0.04440   -0.04440    7.38340    0.31360   65.72900   65.72900  103.14210  103.51890  103.14210    7.38340    7.81020   11.74500    7.81020    0.20880    0.20880    2.78410 -116.01850  -32.20160   11.74500
 9100.00000    7.59320    7.13420    7.59320    -999.25  149.60650    0.22670    2.85360   -0.08400   -0.08400    6.68420    0.22670   65.55170   65.55170   90.48500  102.72900   90.48500    6.68420    7.81330   11.85000    7.81330    0.21940    0.21940    2.84070  -88.71900   -9.57910   11.85000
 9150.00000    7.33430    6.97310    7.33430    -999.25  137.43940    0.09850    2.78760   -0.04540   -0.04540    7.27630    0.09850   61.15610   61.15610   91.35140   92.94230   91.35140    7.27630    8.14860   10.87880    8.14860    0.20150    0.20150    2.78900 -155.29630  -70.63760   10.87880
 9200.00000    7.36930    6.94780    7.36930    -999.25  106.25640    0.06350    2.76520   -0.03230   -0.03230    9.41120    0.06350   62.88080   62.88080   92.87530   83.54830   92.87530    9.41120   10.40410   14.55800   10.40410    0.17710    0.17710    2.76150 -261.86230 -171.62940   14.55800
 9250.00000    7.32600    6.95740    7.32600    -999.25  111.50880    0.08540    2.74350   -0.01960   -0.01960    8.96790    0.08540   62.80130   62.80130   76.90730   87.07490   76.90730    8.96790   11.09310   19.31390   11.09310    0.12050    0.12050    2.73800 -232.58350 -139.81050   19.31390
 9300.00000    7.24200    6.95430    7.24200    -999.25   18.54360    0.05240    2.66710    0.02510    0.02510   54.01300    0.05240   58.61890   58.61890  131.04160  125.66620  131.04160   54.01300  954.65200 1175.77580  954.65200    0.12290    0.12290    2.66720 -250.78010 -157.16220 1175.77580
 9350.00000    7.24250    6.94340    7.24250    -999.25   24.06650    0.04740    2.74830   -0.02240   -0.02240   41.55160    0.04740   58.25340   58.25340   48.05890   49.03470   48.05890   41.55160   99.93560   65.29180   99.93560    0.06720    0.06720    2.74570 -253.84240 -159.37120   65.29180
 9400.00000    7.17710    6.93330    7.17710    -999.25   24.07430    0.06900    2.72390   -0.00810   -0.00810   41.53990    0.06900   64.46530   64.46530   88.32590   99.11560   88.32590   41.53990  107.45630   94.54070  107.45630    0.16430    0.16430    2.72760 -173.48060  -78.16460   94.54070
 9450.00000    7.24200    6.97790    7.24200    -999.25   10.71930    0.05800    2.77670   -0.03900   -0.03900   93.28950    0.05800   51.02840   51.02840   36.59620   41.01980   36.59620   93.28950 1629.76260 1661.67920 1629.76260    0.05900    0.05900    2.76130 -250.80630 -154.63690 1661.67920
 9500.00000    7.19230    6.95100    7.19230    -999.25    0.62280    0.07220    2.78060   -0.04130   -0.04130 1605.78020    0.07220   56.76260   56.76260   12.54680   11.74320   12.54680 1605.78020 2132.89750 1606.89480 2132.89750    0.00590    0.00590    2.78190 -241.12770 -144.10930 1606.89480
 9550.00000    7.22900    7.02170    7.22900    -999.25    0.62480    0.05180    2.78250   -0.04240   -0.04240 1600.61730    0.05180   55.90690   55.90690   10.49980   14.99310   10.49980 1600.61730 2257.97430 1848.55090 2257.97430    0.00370    0.00370    2.76720 -245.50100 -147.63780 1848.55090
 9600.00000    7.10360    6.92000    7.10360    -999.25    0.58600    0.06070    2.77670   -0.03900   -0.03900 1706.45290    0.06070   52.57430   52.57430   13.20680   15.79550   13.20680 1706.45290 2119.65820 1898.12830 2119.65820    0.00190    0.00190    2.77720 -188.93000  -90.21340 1898.12830
 9650.00000    7.10840    6.91400    7.10840    -999.25    0.57550    0.07890    2.79870   -0.05190   -0.05190 1737.75010    0.07890   49.33040   49.33040   17.01850   18.99640   17.01850 1737.75010 2207.61400 1951.78710 2207.61400    0.00690    0.00690    2.79300 -120.72180  -21.16030 1951.78710
 9700.00000    7.25380    6.91160    7.25380    -999.25    0.58560    0.05640    2.78880   -0.04610   -0.04610 1707.50990    0.05640   51.42530   51.42530    8.22620   10.50330    8.22620 1707.50990 2161.61790 1911.68430 2161.61790    0.00030    0.00030    2.78080 -217.38530 -116.97050 1911.68430
 9750.00000    7.54670    6.92760    7.54670    -999.25    0.55350    0.20900    2.79500   -0.04970   -0.04970 1806.66420    0.20900   51.10450   51.10450   15.65940   12.93090   15.65940 1806.66420 2265.38790 2011.36830 2265.38790    0.00590    0.00590    2.79330 -150.68370  -49.41980 2011.36830
 9800.00000    7.28600    7.22190    7.28600    -999.25    0.57670    0.14650    2.79190   -0.04790   -0.04790 1734.00180    0.14650   52.73200   52.73200   15.14090   14.88180   15.14090 1734.00180 2217.17470 1637.94760 2217.17470    0.00520    0.00520    2.78520 -145.03690  -42.92810 1637.94760
 9850.00000    7.07340    6.88150    6.88150    -999.25   20.43130    0.03090    2.80490   -0.05550   -0.05550   48.94460    0.03090   51.39680   51.39680   77.91280   74.86370   77.91280   48.94460   85.18870  136.10880   85.18870    0.08590    0.08590    2.81590 -178.34920  -75.38710  136.10880
 9900.00000    6.35170    6.78480    6.78480    -999.25   20.24780    0.04600    2.72980   -0.01160   -0.01160   49.41080    0.04600   54.39510   54.39510  125.38500    -999.25  125.38500   49.41080  118.24020  107.35790  118.24020    0.12920    0.12920    2.77490 -128.77610  -25.04140  107.35790
