~Version ---------------------------------------------------
VERS.      2.0 : CWLS log ASCII Standard -VERSION 2.0
WRAP.       NO : One line per depth step
CREA. 11/12/18 : LAS Creation Date
~Well ------------------------------------------------------
STRT.FT                      1000.0 : START DEPTH
STOP.FT                     11050.0 : STOP DEPTH
STEP.FT                    50.00000 : STEP LENGTH
NULL.                       -999.25 : NULL VALUE
COMP. HUDSON'S BAY OIL & GAS CO LTD : COMPANY
WELL.   H B UNION KAYBOB 2-19-61-19 : WELL
FLD .                               : FIELD
LOC .                               : LOCATION
CTRY.                        CANADA : COUNTRY
SRVC.        Schlumberger of Canada : SERVICE COMPANY
DATE.                   14-Mar-1958 : LOGDATE
PROV.                       Alberta : PROVINCE
UWI .              100021906119W500 : UNIQUE WELL ID
SLAT.WGS84                 54.28469 : SURFACE LATITUDE
SLON.WGS84                 -116.835 : SURFACE LONGITUDE
~Curve Information -----------------------------------------
DEPT.FT    : Depth Curve
CIL .MMHO  : CONDUCTIVITY INDUCTION LOG
GRN .CPS   : GAMMA RAY
IL  .OHMM  : INDUCTION LOG RESISTIVITY
LL7 .OHMM  : LATEROLOG-7 RES.
NEUT.CPS   : NEUTRON
SN  .OHMM  : SHORT NORMAL 10"
SPR .MV    : SPONTANEOUS POTENTIAL FROM RESISTIVITY
~Params ----------------------------------------------------
LMF .                     KB : LOG MEASURED FROM
DMF .                     KB : DRILLING MEASURED FROM
EKB .FT                 2944 : KELLY BUSHING
EGL .FT               2930.6 : GROUND LEVEL
DATE.               03/14/58 : RUN DATE
RUN .                      1 : RUN NUMBER
DD  .FT                11092 : DEPTH DRILLER
DL  .FT                11092 : DEPTH LOGGER
BLI .FT                11086 : BOTTOM LOG INTERVAL
TLI .FT                 1000 : TOP LOG INTERVAL
CBD .FT                 1000 : CASING BOTTOM DRILLER
CBL .FT                 1000 : CASING BOTTOM LOGGER
BS  .IN                8.625 : BIT SIZE
BSD .FT                11092 : BIT SIZE AT DEPTH
DFT .                    GEL : DRILLING FLUID TYPE
DFD .                  10.21 : DRILLING FLUID DENSITY
DFV .                    195 : DRILLING FLUID VISCOSITY
DFPH.                      9 : DRILLING FLUID PH
DFL .                    6.1 : DRILLING FLUID LOSS
MSS .            CIRCULATION : MUD SAMPLE SOURCE
RMS .OHMM                2.5 : RESISTIVITY MUD SAMPLE
MST .DEGF                 53 : MUD SAMPLE TEMPERATURE
RMF .OHMM                1.5 : RESISTIVITY MUD FILTRATE SAMPLE
MFST.DEGF                 74 : MUD FILTRATE SAMPLE TEMPERATURE
RMC .OHMM                2.2 : RESISTIVITY MUD CAKE
MCST.DEGF                 72 : MUD CAKE SAMPLE TEMPERATURE
MFSS.                   MEAS : MUD FILTRATE SAMPLE SOURCE
MCSS.                   MEAS : MUD CAKE SAMPLE SOURCE
RMB .OHMM               0.52 : RESISTIVITY MUD AT BHT
TCS .HRS                   6 : TIME CIRCULATED STOPPED
LUN .                   1573 : LOGGING UNIT NUMBER
LUL .                     WC : LOGGING UNIT LOCATION
ENGI.                LAVERTY : RECORDING ENGINEER
WITN.                  SMITH : WITNESSED BY
CLNT.                A2DTECH : CLIENT CODE
ORIG.            2" 5" PRINT : ORIGIN OF DATA
UWI .       100021906119W500 : UNIQUE WELL ID
DICO. A2D Technologies, Inc. : DIGITIZING COMPANY
~Other -----------------------------------------------------
~ASCII -----------------------------------------------------
 1000.00000  360.35460    -999.25    0.45370    -999.25    -999.25    3.64050  -97.55560
 1050.00000  123.42180    -999.25    8.13550    -999.25    -999.25    8.54450 -101.92000
 1100.00000  171.41090    -999.25    6.00790    -999.25    -999.25    6.92030  -99.93770
 1150.00000  112.85220    -999.25    9.35060    -999.25    -999.25    9.53850 -104.11920
 1200.00000  309.35030    -999.25    3.96960    -999.25    -999.25    5.05000 -103.45870
 1250.00000  261.01930    -999.25    4.65520    -999.25    -999.25    5.54130 -103.58140
 1300.00000  327.33590    -999.25    4.17950    -999.25    -999.25    5.69540 -103.78010
 1350.00000  266.79640    -999.25    4.77940    -999.25    -999.25    5.66490 -103.15500
 1400.00000  143.09660    -999.25    7.10040    -999.25    -999.25    7.62870 -102.28430
 1450.00000  110.97260    -999.25   11.07440    -999.25    -999.25   12.74470 -103.09360
 1500.00000  270.64400    -999.25    4.51850    -999.25    -999.25    5.92620 -102.28400
 1550.00000  263.02420    -999.25    3.91150    -999.25    -999.25    5.29390 -101.39540
 1600.00000  143.04450    -999.25    6.74030    -999.25    -999.25    7.20840  -98.22960
 1650.00000  285.18250    -999.25    3.91130    -999.25    -999.25    4.84990  -96.46540
 1700.00000  298.88670    -999.25    3.13380    -999.25    -999.25    4.54870  -96.66510
 1750.00000  155.42940    -999.25    6.09470    -999.25    -999.25    6.79280  -98.74910
 1800.00000  356.72780    -999.25    4.10930    -999.25    -999.25    5.26870 -102.19890
 1850.00000  232.35440    -999.25    4.69480    -999.25    -999.25    5.79300 -101.28570
 1900.00000  302.14150    -999.25    3.98520    -999.25    -999.25    4.65190 -100.17420
 1950.00000  236.48560    -999.25    4.68000    -999.25    -999.25    5.39820 -100.06440
 2000.00000   73.72620    -999.25   12.76230    -999.25    -999.25   12.90240 -103.59520
 2050.00000  218.29540    -999.25    5.04180    -999.25    -999.25    6.07350 -101.54120
 2100.00000  280.34560    -999.25    3.84360    -999.25    -999.25    4.81840 -100.91190
 2150.00000  183.29490    -999.25    6.93330    -999.25    -999.25    7.67210 -101.56810
 2200.00000  397.74730    -999.25    2.80930    -999.25    -999.25    4.31650 -100.65050
 2250.00000  342.05970    -999.25    3.26500    -999.25    -999.25    4.84540 -101.76070
 2300.00000   60.27470    -999.25   16.01420    -999.25    -999.25   16.22580 -111.37690
 2350.00000  101.33460    -999.25    7.81700    -999.25    -999.25    8.87230  -98.23490
 2400.00000  270.28770    -999.25    3.64780    -999.25    -999.25    4.64100  -99.35640
 2450.00000  478.79530    -999.25    2.22620    -999.25    -999.25    3.41550  -98.71880
 2500.00000  204.12270    -999.25    5.39970    -999.25    -999.25    6.08350  -99.11740
 2550.00000   98.62720    -999.25   10.40410    -999.25    -999.25   11.81170 -107.04970
 2600.00000  315.98830    -999.25    3.66360    -999.25    -999.25    4.59270 -100.49130
 2650.00000  353.45820    -999.25    3.34520    -999.25    -999.25    4.49060 -101.69820
 2700.00000  304.18380    -999.25    3.60250    -999.25    -999.25    4.55710 -100.36240
 2750.00000  107.60790    -999.25    9.03250    -999.25    -999.25   11.32660  -98.93460
 2800.00000   83.09840    -999.25   11.03730    -999.25    -999.25   12.19690 -104.97440
 2850.00000   62.78370    -999.25   14.11020    -999.25    -999.25   16.35310 -107.82720
 2900.00000   97.33660    -999.25   10.77400    -999.25    -999.25   11.31860 -103.02740
 2950.00000  109.22980    -999.25    9.78010    -999.25    -999.25   10.45720 -100.55640
 3000.00000  211.11620    -999.25    5.86710    -999.25    -999.25    6.68050  -96.83150
 3050.00000   64.58970    -999.25   15.07650    -999.25    -999.25   16.20900  -98.11200
 3100.00000  213.09530    -999.25    5.01960    -999.25    -999.25    6.02270  -95.75430
 3150.00000  104.20750    -999.25   12.10420    -999.25    -999.25   13.88080  -97.23580
 3200.00000  228.04590    -999.25    4.77520    -999.25    -999.25    5.44130  -99.65700
 3250.00000  195.34050    -999.25    6.27240    -999.25    -999.25    7.22290 -101.74650
 3300.00000  185.24870    -999.25    6.00590    -999.25    -999.25    6.58220  -99.46050
 3350.00000  211.56070    -999.25    5.66280    -999.25    -999.25    6.69320  -95.93350
 3400.00000  258.82010    -999.25    4.45220    -999.25    -999.25    5.29030  -94.68150
 3450.00000   41.74500    -999.25   21.94830    -999.25    -999.25   25.88430 -108.34870
 3500.00000  174.06830    -999.25    5.82060    -999.25    -999.25    6.70100  -98.84530
 3550.00000  216.93490    -999.25    5.34280    -999.25    -999.25    6.12460 -101.76290
 3600.00000  193.64950    -999.25    5.09960    -999.25    -999.25    5.78680 -102.96640
 3650.00000  107.31450    -999.25    7.69280    -999.25    -999.25   10.67810 -107.78610
 3700.00000   79.73170    -999.25   13.79890    -999.25    -999.25   17.16470 -101.81030
 3750.00000  123.00950    -999.25    8.77740    -999.25    -999.25   10.63090  -95.08080
 3800.00000   97.00550    -999.25   10.10180    -999.25    -999.25   11.98000  -94.38810
 3850.00000  131.50390    -999.25    8.21300    -999.25    -999.25    9.03910  -98.98850
 3900.00000  119.55690    -999.25    9.17050    -999.25    -999.25   10.11600  -99.61900
 3950.00000  132.78530    -999.25    8.42220    -999.25    -999.25    9.15210 -102.42990
 4000.00000  141.84890    -999.25    7.85350    -999.25    -999.25    9.20190 -100.58910
 4050.00000   77.79270    -999.25   12.77650    -999.25    -999.25   16.70300  -98.52860
 4100.00000  109.96380    -999.25    9.75450    -999.25    -999.25   11.57610  -95.95450
 4150.00000  125.13440    -999.25    8.63480    -999.25    -999.25    9.66670  -92.66040
 4200.00000  162.34920    -999.25    7.04790    -999.25    -999.25    7.67900  -96.41260
 4250.00000  139.73340    -999.25    7.96300    -999.25    -999.25    8.43640  -96.68860
 4300.00000  127.37790    -999.25    8.29170    -999.25    -999.25    9.48220  -98.87260
 4350.00000  108.37900    -999.25    9.62470    -999.25    -999.25   10.89400 -101.71920
 4400.00000  130.17000    -999.25    7.76500    -999.25    -999.25    9.31200  -97.89250
 4450.00000  146.53720    -999.25    7.07330    -999.25    -999.25    8.23980  -94.75040
 4500.00000  162.97140    -999.25    6.30270    -999.25    -999.25    7.18350  -93.09020
 4550.00000  125.67240    -999.25    7.72480    -999.25    -999.25    9.07790  -92.72520
 4600.00000   62.23240    -999.25   15.44870    -999.25    -999.25   18.72150 -104.12460
 4650.00000  102.60150    -999.25    9.89180    -999.25    -999.25   10.70870  -92.82290
 4700.00000   97.19710    -999.25   10.54210    -999.25    -999.25   12.46530  -92.02260
 4750.00000  122.13820    -999.25    8.51920    -999.25    -999.25    9.49710  -92.75830
 4800.00000  111.45460    -999.25    9.36830    -999.25    -999.25   10.41520  -95.51960
 4850.00000  141.81760    -999.25    7.82930    -999.25    -999.25    8.84930  -93.15810
 4900.00000  126.25570    -999.25    8.36700    -999.25    -999.25   10.02110  -93.68970
 4950.00000  136.90380    -999.25    7.83290    -999.25    -999.25    9.50150  -98.51830
 5000.00000  104.09910    -999.25   10.03940    -999.25    -999.25   12.59370  -99.33510
 5050.00000  114.68620    -999.25    9.23210    -999.25    -999.25   11.53770  -97.47680
 5100.00000   68.49400    -999.25   14.16940    -999.25    -999.25   20.20250  -90.86470
 5150.00000   95.26750    -999.25   10.29510    -999.25    -999.25   14.34070  -89.04890
 5200.00000   70.23230    -999.25   13.67510    -999.25    -999.25   22.34610  -91.87280
 5250.00000   56.17230    -999.25   17.70120    -999.25    -999.25   28.81160  -95.11300
 5300.00000  217.17880    -999.25    4.65170    -999.25    -999.25    6.00140  -93.05680
 5350.00000  177.16600    -999.25    6.22910    -999.25    -999.25    7.29100  -91.71980
 5400.00000  200.60070    -999.25    5.56870    -999.25    -999.25    6.52200  -90.36100
 5450.00000  181.57470    -999.25    5.92370    -999.25    -999.25    6.74050  -88.97000
