~Version ---------------------------------------------------
VERS.      2.0 : CWLS log ASCII Standard -VERSION 2.0
WRAP.       NO : One line per depth step
CREA. 11/22/17 : LAS Creation Date
~Well ------------------------------------------------------
STRT.FT                      1000.0 : START DEPTH
STOP.FT                      9700.0 : STOP DEPTH
STEP.FT                    50.00000 : STEP LENGTH
NULL.                       -999.25 : NULL VALUE
COMP. HUDSON'S BAY OIL & GAS CO LTD : COMPANY
WELL.         HB MEEKWAP 11-8-66-18 : WELL
FLD .                               : FIELD
LOC .                               : LOCATION
CTRY.                        CANADA : COUNTRY
SRVC.                  Schlumberger : SERVICE COMPANY
DATE.                   20-Feb-1976 : LOGDATE
PROV.                       Alberta : PROVINCE
UWI .              100110806618W500 : UNIQUE WELL ID
SLAT.WGS84                 54.70024 : SURFACE LATITUDE
SLON.WGS84                -116.6871 : SURFACE LONGITUDE
~Curve Information -----------------------------------------
DEPT    .FT    : Depth Curve
CALDED  .IN    : CALIPER FROM DENSITY LOG [ADJ. TO RESISTIVITY LOG]
CALSED  .IN    : CALIPER FROM SONIC LOG [ADJ. TO RESISTIVITY LOG]
CALWS   .IN    : CALIPER [CALSED]
CILDED  .MMHO  : CONDUCTIVITY FROM RESISTIVITY LOG
CONDWS  .MMHO  : CONDUCTIVITY [1000/DRESWS]
DCORWS  .G/C3  : DENSITY CORRECTION [DRHOED]
DENWS   .G/C3  : FORMATION BULK DENSITY [RHOBED]
DPHILSED.V/V   : DENSITY POROSITY LIMESTONE [M=2.71, F=1.00] FROM DENSITY LOG [ADJ. TO RESISTIVITY LOG]
DPHISSED.V/V   : DENSITY POROSITY SANDSTONE [M=2.65, F=1.00] FROM DENSITY LOG [ADJ. TO RESISTIVITY LOG]
DPOLSWS .V/V   : DENSITY POROSITY LIMESTONE [CALC. FROM DENWS M=2.71, F=1.00]
DRESWS  .OHMM  : DEEP RESISTIVITY [FROM START TO 4053' IF ILDED<5;1000/CILDED;ELSE ILDED
DRHOED  .G/C3  : BULK DENSITY CORRECTION FROM DENSITY LOG [ADJ. TO RESISTIVITY LOG/DPHISSED/DPHILSED]
DTED    .US/F  : DELTA-T FROM SONIC LOG [ADJ. TO RESISTIVITY LOG]
DTWS    .US/F  : COMPRESSIONAL SONIC [DTED]
GRDED   .GAPI  : GAMMA RAY FROM DENSITY LOG [ADJ. TO RESISTIVITY LOG]
GRSED   .GAPI  : GAMMA RAY FROM SONIC LOG [ADJ. TO RESISTIVITY LOG]
GRWS    .GAPI  : GAMMA RAY [GRSED]
ILDED   .OHMM  : DEEP INDUCTION FROM RESISTIVITY LOG
ILMED   .OHMM  : MEDIUM INDUCTION FROM RESISTIVITY LOG
LL8ED   .OHMM  : LATEROLOG 8 FROM RESISTIVITY LOG
MRESWS  .OHMM  : MEDIUM RESISTIVITY [ILMED]
NPHILSED.V/V   : NEUTRON POROSITY LIMESTONE FROM DENSITY LOG [ADJ. TO RESISTIVITY LOG]
NPHISSED.V/V   : NEUTRON POROSITY SANDSTONE FROM DENSITY LOG [ADJ. TO RESISTIVITY LOG]
NPOLSWS .V/V   : NEUTRON POROSITY LIMESTONE [NPHISSED MATRIX CONVERSION FOR LIMESTONE FROM SCHLUMBERGER (CNL), SPL. TO NPHILSED @ 5502']
RHOBED  .G/C3  : BULK DENSITY FROM DENSITY LOG [ADJ. TO RESISTIVITY LOG/DPHISSED/DPHILSED]
SPRED   .MV    : SPONTANEOUS POTENTIAL FROM RESISTIVITY LOG
SPWS    .MV    : SPONTANEOUS POTENTIAL [BASELINE 0 MV, SPRED]
SRESWS  .OHMM  : SHALLOW RESISTIVITYV [LL8ED]
~Params ----------------------------------------------------
PD  .                     GL : PERMANENT DATUM
EPD .FT                 2674 : ELEVATION PERMANENT DATUM
LMF .                     KB : LOG MEASURED FROM
DAPD.FT                 16.8 : FEET ABOVE PERMANENT DATUM
EKB .FT               2690.8 : KELLY BUSHING
EGL .FT                 2674 : GROUND LEVEL
DATE.               02/20/76 : RUN DATE
RUN .                      1 : RUN NUMBER
DD  .FT                 9730 : DEPTH DRILLER
DL  .FT                 9732 : DEPTH LOGGER
BLI .FT                 9726 : BOTTOM LOG INTERVAL
TLI .FT                  995 : TOP LOG INTERVAL
CBD .FT                  995 : CASING BOTTOM DRILLER
CBL .FT                  995 : CASING BOTTOM LOGGER
BS  .IN                 8.75 : BIT SIZE
BSD .FT                 9730 : BIT SIZE AT DEPTH
DFT .                    GEL : DRILLING FLUID TYPE
DFD .                    9.6 : DRILLING FLUID DENSITY
DFV .                    120 : DRILLING FLUID VISCOSITY
DFPH.                      9 : DRILLING FLUID PH
DFL .                     10 : DRILLING FLUID LOSS
MSS .               FLOWLINE : MUD SAMPLE SOURCE
RMS .OHMM               0.68 : RESISTIVITY MUD SAMPLE
MST .DEGF                199 : MUD SAMPLE TEMPERATURE
RMF .OHMM                1.9 : RESISTIVITY MUD FILTRATE SAMPLE
MFST.DEGF                 60 : MUD FILTRATE SAMPLE TEMPERATURE
RMB .OHMM               0.57 : RESISTIVITY MUD AT BHT
LUN .                   7800 : LOGGING UNIT NUMBER
LUL .                    EDM : LOGGING UNIT LOCATION
ENGI.               BERNLSKY : RECORDING ENGINEER
WITN.                HARDMAN : WITNESSED BY
CLNT.                A2DTECH : CLIENT CODE
ORIG.            2" 5" PRINT : ORIGIN OF DATA
UWI .       100110806618W500 : UNIQUE WELL ID
DICO. A2D Technologies, Inc. : DIGITIZING COMPANY
~Other -----------------------------------------------------
DIL-CNFD-BHC LOG RUN
ALL DATA FROM DIL LOG VERIFY FROM TOP -4048'FROM 2" SCALE LOG
~ASCII -----------------------------------------------------
# ...
 7250.00000   10.26200    9.36960    9.36960    -999.25   12.14010    0.02450    2.71510   -0.00630    -999.25   -0.00300   82.37170    0.02450   51.38680   51.38680   12.39000   10.93130   10.93130   82.37170   66.38040  156.99890   66.38040    0.00470    -999.25    0.00470    2.71510 -387.87260 -173.04630  156.99890
 7300.00000   10.17990    9.33530    9.33530    -999.25    4.56260    0.07610    2.63180    0.04990    -999.25    0.04570  219.17320    0.07610   50.03540   50.03540   11.39020    9.87260    9.87260  219.17320  164.79160  544.18300  164.79160    0.00260    -999.25    0.00260    2.63180 -338.15130 -122.72010  544.18300
 7350.00000    9.95560    9.37540    9.37540    -999.25   15.58030    0.12080    2.71930   -0.00160    -999.25   -0.00540   64.18350    0.12080   50.95590   50.95590   12.87920   10.36360   10.36360   64.18350   56.75280  153.22240   56.75280    0.01010    -999.25    0.01010    2.71930 -385.12230 -169.08210  153.22240
 7400.00000    9.56630    8.51760    8.51760    -999.25   18.57920    0.25770    2.62240    0.07070    -999.25    0.05120   53.82350    0.25770   52.07150   52.07150   12.14480   11.52890   11.52890   53.82350   39.71130  348.13870   39.71130    0.01620    -999.25    0.01620    2.62240 -399.86360 -183.21850  348.13870
 7450.00000    9.50900    8.80580    8.80580    -999.25   18.13420    0.13210    2.71840   -0.01050    -999.25   -0.00490   55.14440    0.13210   51.11980   51.11980   10.76730   10.73210   10.73210   55.14440   50.69640  263.48470   50.69640    0.01100    -999.25    0.01100    2.71840 -376.70950 -159.45550  263.48470
 7500.00000   11.87990    9.64850    9.64850    -999.25    2.74740    0.25210    2.73320   -0.01320    -999.25   -0.01360  363.97920    0.25210   50.10170   50.10170   15.88500   15.71160   15.71160  363.97920  171.22530  828.96180  171.22530    0.00460    -999.25    0.00460    2.73320 -387.87170 -170.01270  828.96180
 7550.00000    9.64210    9.20210    9.20210    -999.25   11.99760    0.06220    2.75430   -0.03060    -999.25   -0.02590   83.34980    0.06220   50.56770   50.56770   16.04190   14.05630   14.05630   83.34980   77.47740  187.38520   77.47740    0.00460    -999.25    0.00460    2.75430 -410.85420 -192.39030  187.38520
 7600.00000   11.15120    9.60080    9.60080    -999.25    2.78490    0.25820    2.66100    0.01440    -999.25    0.02870  359.07450    0.25820   49.53580   49.53580   14.22810   15.03100   15.03100  359.07450  185.96520 1399.80680  185.96520    0.00430    -999.25    0.00430    2.66100 -434.13740 -215.06460 1399.80680
 7650.00000   10.95010    9.51180    9.51180    -999.25    5.98980    0.25000    2.58400    0.06670    -999.25    0.07370  166.94920    0.25000   50.17780   50.17780   13.80660   13.24840   13.24840  166.94920  153.65660  787.00930  153.65660    0.00570    -999.25    0.00570    2.58400 -433.98530 -214.30750  787.00930
 7700.00000    8.15190    8.12880    8.12880    -999.25   27.95660    0.25000    2.56860    0.08040    -999.25    0.08270   35.76970    0.25000   55.04970   55.04970   16.51330   15.80130   15.80130   35.76970   20.00240  129.07180   20.00240    0.07870    -999.25    0.07870    2.56860 -429.99700 -209.71030  129.07180
 7750.00000   11.25510    9.50810    9.50810    -999.25    3.38150    0.22920    2.59390    0.07360    -999.25    0.06790  295.73090    0.22920   49.78100   49.78100   15.48840   14.20460   14.20460  295.73090  232.15880 1472.42640  232.15880    0.00490    -999.25    0.00490    2.59390 -399.27630 -178.38470 1472.42640
 7800.00000    9.33690    9.36080    9.36080    -999.25   15.07120    0.06280    2.78540   -0.03770    -999.25   -0.04410   66.35170    0.06280   48.62950   48.62950   16.85610   19.19280   19.19280   66.35170   53.96550  158.03480   53.96550    0.05970    -999.25    0.05970    2.78540 -383.39340 -161.89680  158.03480
 7850.00000    9.70710    9.06220    9.06220    -999.25   32.58760    0.04730    2.86610   -0.09000    -999.25   -0.09130   30.68650    0.04730   51.30260   51.30260   28.11360   29.56010   29.56010   30.68650   23.02090  491.36890   23.02090    0.01490    -999.25    0.01490    2.86610 -387.61030 -165.50480  491.36890
 7900.00000   12.50780    9.47230    9.47230    -999.25    7.84860    0.25000    2.33480    0.21900    -999.25    0.21940  127.41160    0.25000   53.02320   53.02320   18.91530   20.72910   20.72910  127.41160   79.27140  259.55330   79.27140    0.06100    -999.25    0.06100    2.33480 -439.09790 -216.38740  259.55330
 7950.00000   10.65290    9.31950    9.31950    -999.25  100.70800    0.19640    2.70350   -0.00520    -999.25    0.00380    9.92970    0.19640   56.36970   56.36970   27.77940   26.33320   26.33320    9.92970   11.60200   21.11900   11.60200    0.12450    -999.25    0.12450    2.70350 -403.53240 -180.21300   21.11900
 8000.00000    9.84410    9.12620    9.12620    -999.25    6.77670    0.03420    2.72060   -0.00790    -999.25   -0.00620  147.56540    0.03420   51.35270   51.35270   26.29470   29.82530   29.82530  147.56540  116.98050  284.78530  116.98050    0.00810    -999.25    0.00810    2.72060 -317.81130  -93.88700  284.78530
 8050.00000   10.26350    9.50790    9.50790    -999.25   27.42280    0.03170    2.70460   -0.00010    -999.25    0.00320   36.46600    0.03170   57.37590   57.37590   45.64540   42.99030   42.99030   36.46600   34.82680   53.43500   34.82680    0.03280    -999.25    0.03280    2.70460 -272.01950  -47.49020   53.43500
 8100.00000   10.02310    9.30440    9.30440    -999.25   12.21650    0.02490    2.67880    0.02500    -999.25    0.01820   81.85660    0.02490   56.62840   56.62840   24.17920   24.20840   24.20840   81.85660   61.29960  127.58760   61.29960    0.04010    -999.25    0.04010    2.67880 -334.30580 -109.16760  127.58760
 8150.00000    9.78310    9.14400    9.14400    -999.25    4.87830    0.07260    2.77560   -0.03720    -999.25   -0.03830  204.98850    0.07260   51.23850   51.23850   15.10050   12.77580   12.77580  204.98850  160.80680  623.08260  160.80680    0.00580    -999.25    0.00580    2.77560 -364.77910 -139.03600  623.08260
 8200.00000   10.59140    9.77390    9.77390    -999.25   77.94900    0.21530    2.69810   -0.00970    -999.25    0.00700   12.82890    0.21530   64.19970   64.19970   51.54080   65.43880   65.43880   12.82890   11.57940   13.99120   11.57940    0.12880    -999.25    0.12880    2.69810 -344.67190 -118.31980   13.99120
 8250.00000   11.80380   10.19240   10.19240    -999.25  145.53710    0.25720    2.27130    0.26650    -999.25    0.25650    6.87110    0.25720   70.63690   70.63690   66.55370   75.17840   75.17840    6.87110    6.08780   11.27790    6.08780    0.28050    -999.25    0.28050    2.27130 -331.61840 -104.66140   11.27790
 8300.00000   12.68970   10.87980   10.87980    -999.25  164.57930    0.19130    2.49400    0.12550    -999.25    0.12630    6.07610    0.19130   73.18520   73.18520   71.51580   76.36510   76.36510    6.07610    5.50790    6.57960    5.50790    0.22140    -999.25    0.22140    2.49400 -297.31490  -69.75300    6.57960
 8350.00000   15.00000   12.67690   12.67690    -999.25  284.81910    0.25630    2.14760    0.32990    -999.25    0.32890    3.51100    0.25630   82.27210   82.27210   96.31260   84.18680   84.18680    3.51100    3.32470    4.43950    3.32470    0.34330    -999.25    0.34330    2.14760 -263.51250  -35.34160    4.43950
 8400.00000   15.00000   12.64630   12.64630    -999.25  256.57470    0.25830    2.34730    0.20500    -999.25    0.21210    3.89750    0.25830   81.78410   81.78410  100.97480   86.10290   86.10290    3.89750    3.62560    4.79340    3.62560    0.32200    -999.25    0.32200    2.34730 -221.62060    7.15520    4.79340
 8450.00000   15.00000   12.70640   12.70640    -999.25  250.88440    0.24530    2.31020    0.23600    -999.25    0.23380    3.98590    0.24530   80.92880   80.92880   80.56820   83.14610   83.14610    3.98590    3.82020    4.89260    3.82020    0.32950    -999.25    0.32950    2.31020 -270.50810  -41.12340    4.89260
