~Version ---------------------------------------------------
VERS.      2.0 : CWLS log ASCII Standard -VERSION 2.0
WRAP.       NO : One line per depth step
CREA. 11/10/17 : LAS Creation Date
~Well ------------------------------------------------------
STRT.FT                          1150.0 : START DEPTH
STOP.FT                         11400.0 : STOP DEPTH
STEP.FT                        50.00000 : STEP LENGTH
NULL.                           -999.25 : NULL VALUE
COMP.              PETROFINA CANADA LTD : COMPANY
WELL. FINA AMOCO HB KAYBOBS 11-33-60-20 : WELL
FLD .                                   : FIELD
LOC .                                   : LOCATION
CTRY.                            CANADA : COUNTRY
SRVC.                      Schlumberger : SERVICE COMPANY
DATE.                       07-Apr-1977 : LOGDATE
PROV.                           Alberta : PROVINCE
UWI .                  100113306020W500 : UNIQUE WELL ID
SLAT.WGS84                     54.23446 : SURFACE LATITUDE
SLON.WGS84                    -116.9427 : SURFACE LONGITUDE
~Curve Information -----------------------------------------
DEPT    .FT    : Depth Curve
CALDED  .IN    : CALIPER CNFD LOG
CALSED  .IN    : CALIPER FROM BCS LOG [ADJ. TO GRDED]
CALWS   .IN    : CALIPER [CALSED]
CONDWS  .MMHO  : CONDUCTIVITY [1000/DRESWS]
DCORWS  .G/C3  : DENSITY CORRECTION [DRHOED]
DENWS   .G/C3  : FORMATION BULK DENSITY [RHOBED]
DPHILSED.V/V   : DENSITY POROSITY LIMESTONE [M=2.71, F=1.00] FROM CNFD LOG [ADJ. TO RHOBED]
DPHISSED.V/V   : DENSITY POROSITY SANDSTONE [M=2.65, F=1.00] FROM CNFD LOG [ADJ. TO RHOBED]
DPOLSWS .V/V   : DENSITY POROSITY LIMESTONE [CALCULATED FROM DENWS, M=2.71, F=1.00]
DRESWS  .OHMM  : DEEP RESISTIVITY [ILDED]
DRHOED  .G/C3  : DENSITY CORRECTION FROM CNFD LOG
DTED    .US/F  : INTERVAL TRANSIT TIME FROM BCS LOG [ADJ. TO GRDED]
DTWS    .US/F  : COMPRESSIONAL SONIC [DTWS]
GRDED   .GAPI  : GAMMA RAY FROM CNFD LOG
GRSED   .GAPI  : GAMMA RAY FROM BCS LOG [ADJ. TO GRDED]
GRWS    .GAPI  : GAMMA RAY [GRSED]
ILDED   .OHMM  : DEEP INDUCTION FROM DILL LOG
ILMED   .OHMM  : MEDIUM INDUCTION FROM DILL LOG
LL8ED   .OHMM  : LATEROLOG FROM DILL LOG
MRESWS  .OHMM  : MEDIUM RESISTIVITY [ILMED]
NPHILSED.V/V   : NEUTRON POROSITY LIMESTONE FROM CNFD LOG [ADJ. TO RHOBED]
NPHISSED.V/V   : NEUTRON POROSITY SANDSTONE FROM CNFD LOG [ADJ. TO RHOBED]
NPOLSWS .V/V   : NEUTRON POROSITY LIMESTONE [NPHISSED MATRIX CONVERSION FOR LIMESTONE, SPL. TO NPHILSED @ 7450']
RHOBED  .G/C3  : BULK DENSITY FROM CNFD LOG
SPRED   .MV    : SPONTANEOUS POTENTIAL FROM DILL LOG
SPWS    .MV    : SPONTANEOUS POTENTIAL [BASELINE 0 MV, SPRED]
SRESWS  .OHMM  : SHALLOW RESISTIVITY [LL8ED]
~Params ----------------------------------------------------
PD  .                     GL : PERMANENT DATUM
EPD .FT                 2961 : ELEVATION PERMANENT DATUM
LMF .                     KB : LOG MEASURED FROM
DAPD.FT                   18 : FEET ABOVE PERMANENT DATUM
EKB .FT                 2979 : KELLY BUSHING
EGL .FT                 2961 : GROUND LEVEL
DATE.               04/07/77 : RUN DATE
RUN .                      1 : RUN NUMBER
DD  .FT                11429 : DEPTH DRILLER
DL  .FT                11423 : DEPTH LOGGER
BLI .FT                11417 : BOTTOM LOG INTERVAL
TLI .FT                 1195 : TOP LOG INTERVAL
CBD .FT                 1195 : CASING BOTTOM DRILLER
CBL .FT                 1195 : CASING BOTTOM LOGGER
BS  .IN                 8.75 : BIT SIZE
BSD .FT                11429 : BIT SIZE AT DEPTH
DFT .               GEL CHEM : DRILLING FLUID TYPE
DFD .                      9 : DRILLING FLUID DENSITY
DFV .                     98 : DRILLING FLUID VISCOSITY
DFPH.                    9.5 : DRILLING FLUID PH
MSS .               FLOWLINE : MUD SAMPLE SOURCE
RMS .OHMM               1.54 : RESISTIVITY MUD SAMPLE
MST .DEGF                 65 : MUD SAMPLE TEMPERATURE
RMB .OHMM               0.51 : RESISTIVITY MUD AT BHT
TCS .HRS                   4 : TIME CIRCULATED STOPPED
LUN .             OSU C 3704 : LOGGING UNIT NUMBER
LUL .                    EDM : LOGGING UNIT LOCATION
ENGI.               MCDONALD : RECORDING ENGINEER
WITN.               BOLEANTU : WITNESSED BY
CLNT.                A2DTECH : CLIENT CODE
ORIG.            2" 5" PRINT : ORIGIN OF DATA
UWI .       100113306020W500 : UNIQUE WELL ID
DICO. A2D Technologies, Inc. : DIGITIZING COMPANY
~Other -----------------------------------------------------
~ASCII -----------------------------------------------------
# ...
 6350.00000    9.65990   10.39250   10.39250   76.43270    0.08620    2.32170    -999.25   -0.00190    0.22710   13.08340    0.08620   79.95590   79.95590  122.15950   82.23620   97.86950   13.08340   12.35420   11.50690   12.35420    -999.25    0.33510    0.29130    2.32170 -265.48270  -12.30700   11.50690
 6400.00000    9.53400    9.99050    9.99050   67.67230    0.01430    2.65540    -999.25   -0.14510    0.03190   14.77710    0.01430   70.76710   70.76710   71.77660   73.64290   63.00590   14.77710   16.02150   24.50910   16.02150    -999.25    0.08840    0.04800    2.65540 -268.82890  -18.96900   24.50910
 6450.00000    9.63300   10.27020   10.27020   65.53040    0.04090    2.69770    -999.25   -0.14200    0.00720   15.26010    0.04090   66.33410   66.33410   73.04110   63.95020   63.67600   15.26010   16.11840   19.64890   16.11840    -999.25    0.08130    0.04170    2.69770 -275.53620  -28.99210   19.64890
 6500.00000    9.46180    9.87850    9.87850   72.62270    0.01940    2.72540    -999.25    0.06280   -0.00900   13.76980    0.01940   68.49820   68.49820  101.58950   89.94080   92.46920   13.76980   13.14330   14.63250   13.14330    -999.25    0.12390    0.08160    2.72540 -263.54660  -20.31830   14.63250
 6550.00000    9.65160   10.92720   10.92720   37.49160   -0.00670    1.77030    -999.25    0.34660    0.54950   26.80520   -0.00670   95.84660   95.84660   80.02650   89.71660   56.93360   26.80520   22.42850   35.67940   22.42850    -999.25    0.42620    0.38390    1.77030 -265.13550  -25.20640   35.67940
 6600.00000    9.37500    9.84100    9.84100   48.00080    0.01330    2.72370    -999.25   -0.15000   -0.00800   20.83300    0.01330   69.44550   69.44550   73.30830   66.60310   57.45060   20.83300   21.96350   26.94960   21.96350    -999.25    0.07980    0.04040    2.72370 -286.70440  -48.50800   26.94960
 6650.00000    9.48000    9.98900    9.98900   94.14250    0.00060    2.39520    -999.25   -0.04230    0.18410   10.62220    0.00060   74.61390   74.61390   70.77030   63.87970   65.20020   10.62220   10.06460   14.42170   10.06460    -999.25    0.16920    0.12630    2.39520 -275.64040  -38.40720   14.42170
 6700.00000    9.54150   10.23810   10.23810  111.61710    0.14520    2.51050    -999.25   -0.08250    0.11670    8.95920    0.14520   72.23540   72.23540   99.75350   80.56780   80.56780    8.95920    8.71120    9.92160    8.71120    -999.25    0.13090    0.08850    2.51050 -268.43370  -32.16380    9.92160
 6750.00000    9.72540   10.38570   10.38570   75.82130    0.26170    2.57430    -999.25   -0.11590    0.07940   13.18890    0.26170   82.48030   82.48030  119.49740   99.54650   96.76080   13.18890   13.96500   21.31920   13.96500    -999.25    0.22680    0.18310    2.57430 -255.63960  -20.33290   21.31920
 6800.00000   10.15580    9.92280    9.92280   83.37690    0.01280    2.65960    -999.25   -0.15140    0.02950   11.99730    0.01280   70.23660   70.23660   77.65040   68.32210   68.32210   11.99730   12.45880   12.79020   12.45880    -999.25    0.06710    0.02960    2.65960 -272.31640  -37.96810   12.79020
 6850.00000    9.94760    9.81230    9.81230   68.83690    0.01730    2.71110    -999.25   -0.15140   -0.00060   14.52710    0.01730   66.55240   66.55240   89.06320   72.83700   74.99170   14.52710   15.44320   18.24100   15.44320    -999.25    0.06210    0.02550    2.71110 -270.89260  -37.51240   18.24100
 6900.00000    9.54860    9.51060    9.51060  114.61840    0.00870    2.70900    -999.25   -0.15090    0.00060    8.72460    0.00870   65.56110   65.56110   88.70390   84.77830   75.12870    8.72460   10.24890   13.78010   10.24890    -999.25    0.08330    0.04350    2.70900 -268.04580  -35.62880   13.78010
 6950.00000    9.60450    9.67480    9.67480   67.39950    0.10890    2.60000    -999.25   -0.12900    0.06430   14.83690    0.10890   70.28150   70.28150  108.64320   96.64130   89.55940   14.83690   16.20870   16.89350   16.20870    -999.25    0.12010    0.07790    2.60000 -264.67430  -33.22050   16.89350
 7000.00000    9.32390    9.35940    9.35940   22.02630    0.01770    2.63740    -999.25   -0.15660    0.04250   45.40020    0.01770   64.33410   64.33410   73.18070   60.93560   59.61920   45.40020   58.20240   72.63870   58.20240    -999.25    0.02350   -0.00340    2.63740 -265.43930  -34.94880   72.63870
 7050.00000    8.96010    9.51770    9.51770   41.22930    0.04640    2.75330    -999.25   -0.14900   -0.02530   24.25460    0.04640   64.48530   64.48530  109.50700   91.38830   93.38940   24.25460   26.06190   30.87900   26.06190    -999.25    0.06430    0.02730    2.75330 -269.06080  -39.52870   30.87900
 7100.00000    9.21530    9.10560    9.10560   69.59860    0.13030    2.53140    -999.25   -0.10160    0.10440   14.36810    0.13030   60.19220   60.19220  119.17820   93.26570  100.86330   14.36810   14.71480   17.89150   14.71480    -999.25    0.10270    0.06120    2.53140 -260.89620  -32.33210   17.89150
 7150.00000    8.76910    9.09040    9.09040   32.50150    0.00580    2.72060    -999.25   -0.15000   -0.00620   30.76780    0.00580   64.74000   64.74000  122.10010   91.50460  109.30600   30.76780   34.11340   40.42710   34.11340    -999.25    0.06840    0.03070    2.72060 -258.32290  -30.72210   40.42710
 7200.00000    8.76300    8.22860    8.22860   91.31420    0.09880    2.51080    -999.25   -0.07880    0.11650   10.95120    0.09880   71.10840   71.10840   45.87620   38.67900   43.16750   10.95120   12.08470   21.44380   12.08470    -999.25    0.05680    0.02130    2.51080 -294.20780  -67.57020   21.44380
 7250.00000    8.88330   11.46090   11.46090  105.17570    0.23900    2.30090    -999.25    0.05920    0.23920    9.50790    0.23900   88.30400   88.30400  114.62710  109.80100   88.09000    9.50790   10.28490   10.70050   10.28490    -999.25    0.24410    0.20020    2.30090 -255.28340  -29.60900   10.70050
 7300.00000    9.17860   10.43150   10.43150  141.94320    0.22960    2.24530    -999.25    0.08700    0.27180    7.04510    0.22960   82.91710   82.91710  109.85030   97.57650   99.52720    7.04510    7.45470    8.81260    7.45470    -999.25    0.25600    0.21200    2.24530 -259.42970  -34.71380    8.81260
 7350.00000    9.54670   12.47620   12.47620  212.10260    0.20690    2.10700    -999.25    0.15800    0.35260    4.71470    0.20690   85.88970   85.88970  102.72410   99.72700   91.05110    4.71470    4.36390    5.90450    4.36390    -999.25    0.35670    0.31310    2.10700 -262.30260  -38.55470    5.90450
 7400.00000    8.84910    9.48170    9.48170    8.80010    0.00310    2.47020    -999.25   -0.06100    0.14020  113.63510    0.00310   85.04250   85.04250  280.92640  292.86150  285.24430  113.63510  201.28230  199.13600  201.28230    -999.25    0.17700    0.13390    2.47020 -216.94980    5.83490  199.13600
 7450.00000    8.97930    9.14740    9.14740    3.69920    0.01180    2.52090    -999.25   -0.08140    0.11060  270.32680    0.01180   90.30360   90.30360  300.55170  299.67360  299.67360  270.32680 1395.37820 1716.38090 1395.37820    -999.25    0.11510    0.21240    2.52090 -252.17800  -30.75940 1716.38090
 7500.00000    8.89700    9.25000    9.25000   51.55540    0.01650    2.79540    0.10430    -999.25   -0.04990   19.39660    0.01650   79.69010   79.69010  145.80170  123.06600  123.06600   19.39660   21.59810   26.17800   21.59810    0.29280    -999.25    0.29280    2.79540 -248.84370  -28.81240   26.17800
 7550.00000    8.76000    9.31660    9.31660   23.43980    0.03480    2.74980    0.11380    -999.25   -0.02330   42.66330    0.03480   75.45850   75.45850  119.57920   94.61960   93.10750   42.66330   48.39450   56.43330   48.39450    0.25580    -999.25    0.25580    2.74980 -246.51020  -27.85930   56.43330
 7600.00000    8.60300    9.25830    9.25830   25.91300    0.04760    2.80070    0.08620    -999.25   -0.05300   38.59060    0.04760   69.44700   69.44700  116.67180   98.04350   98.04350   38.59060   44.43840   48.68970   44.43840    0.25950    -999.25    0.25950    2.80070 -245.65520  -28.39850   48.68970
