~Version ---------------------------------------------------
VERS.      2.0 : CWLS log ASCII Standard -VERSION 2.0
WRAP.       NO : One line per depth step
CREA. 12/19/14 : LAS Creation Date
~Well ------------------------------------------------------
STRT.FT                            1100.0 : START DEPTH
STOP.FT                           10850.0 : STOP DEPTH
STEP.FT                          50.00000 : STEP LENGTH
NULL.                             -999.25 : NULL VALUE
COMP.        PAN AMERICAN PETROLEUM CORP. : COMPANY
WELL. PAN AM ET AL E-3 KAYBOBS 6-26-59-18 : WELL
FLD .                        KAYBOB SOUTH : FIELD
LOC .                                     : LOCATION
CTRY.                              CANADA : COUNTRY
SRVC.                        Schlumberger : SERVICE COMPANY
DATE.                         16-Jul-1969 : LOGDATE
PROV.                             Alberta : PROVINCE
UWI .                    100062605918W500 : UNIQUE WELL ID
SLAT.WGS84                       54.12901 : SURFACE LATITUDE
SLON.WGS84                       -116.593 : SURFACE LONGITUDE
~Curve Information -----------------------------------------
DEPT .FT    : DEPTH FEET
CALS .IN    : CALIPER FROM SONIC LOG
DT   .US/F  : DELTA-T FROM SONIC LOG
GRS  .GAPI  : GAMMA RAY FROM SONIC LOG
GRT  .GAPI  : THEORETICAL GAMMA RAY VALUE TDT FROM TDT LOG
ILD  .OHMM  : DEEP INDUCTION RESISTIVITY FROM RESISTIVITY LOG
ILM  .OHMM  : MEDIUM INDUCTION RESISTIVITY FROM RESISTIVITY LOG
LL8  .OHMM  : LATEROLOG 8 FROM RESISTIVITY LOG
RATIO.N/A   : RATIO FROM TDT LOG
SIGM .CU    : FORMATION SIGMA (NEUTRON CAPTURE CROSS SECTION) FROM TDT LOG
SIGMA.OHMM  : CORRECTED SHALLOW SHORT GUARD LOG RESISTIVITY FROM TDT LOG
SPR  .MV    : SPONTANEOUS POTENTIAL FROM RESISTIVITY LOG
TAU  .HR    : NEUTRON DECAY TIME FROM TDT LOG
TRAT .N/A   : NEAR/FAR CAPTURE RATIO FROM TDT LOG
~Params ----------------------------------------------------
PD  .              2" OUTLET : PERMANENT DATUM
EPD .FT               2964.7 : ELEVATION PERMANENT DATUM
LMF .                     KB : LOG MEASURED FROM
DAPD.FT                 14.3 : FEET ABOVE PERMANENT DATUM
EKB .FT               2979.0 : KELLY BUSHING
EGL .FT               2964.7 : GROUND LEVEL
DATE.               07/16/69 : RUN DATE
RUN .                      1 : RUN NUMBER
DD  .FT                10855 : DEPTH DRILLER
DL  .FT                10862 : DEPTH LOGGER
BLI .FT                10858 : BOTTOM LOG INTERVAL
TLI .FT                 1104 : TOP LOG INTERVAL
CBD .FT                 1104 : CASING BOTTOM DRILLER
CBL .FT                 1104 : CASING BOTTOM LOGGER
BS  .IN                 8.75 : BIT SIZE
BSD .FT                10855 : BIT SIZE AT DEPTH
DFT .               GEL CHEM : DRILLING FLUID TYPE
DFD .                    9.3 : DRILLING FLUID DENSITY
DFV .                     90 : DRILLING FLUID VISCOSITY
DFPH.                    9.0 : DRILLING FLUID PH
DFL .                    9.2 : DRILLING FLUID LOSS
MSS .                   CIRC : MUD SAMPLE SOURCE
RMS .OHMM                1.6 : RESISTIVITY MUD SAMPLE
MST .DEGF                 62 : MUD SAMPLE TEMPERATURE
RMF .OHMM               1.29 : RESISTIVITY MUD FILTRATE SAMPLE
MFST.DEGF                 67 : MUD FILTRATE SAMPLE TEMPERATURE
RMC .OHMM               1.35 : RESISTIVITY MUD CAKE
MCST.DEGF                 62 : MUD CAKE SAMPLE TEMPERATURE
TCS .HRS                   2 : TIME CIRCULATED STOPPED
LUN .                   7502 : LOGGING UNIT NUMBER
LUL .                    EDM : LOGGING UNIT LOCATION
ENGI.                 EDGSON : RECORDING ENGINEER
WITN.                  REMUS : WITNESSED BY
CLNT.                A2DTECH : CLIENT CODE
ORIG.            2" 5" PRINT : ORIGIN OF DATA
UWI .       100062605918W500 : UNIQUE WELL ID
DICO. A2D Technologies, Inc. : DIGITIZING COMPANY
~Other -----------------------------------------------------
~ASCII -----------------------------------------------------
# ...
 3700.00000   10.20470  103.74820   58.71150    -999.25    7.26980    5.87610    6.07960    -999.25    -999.25    -999.25  -91.74680    -999.25    -999.25
 3750.00000    9.65450  100.71140   55.61850    -999.25    6.64530    6.01580    6.45350    -999.25    -999.25    -999.25  -91.28460    -999.25    -999.25
 3800.00000    8.40050   73.17430   34.52510    -999.25   31.25710   27.94330   32.25060    -999.25    -999.25    -999.25 -129.46610    -999.25    -999.25
 3850.00000    9.38610   86.72920   56.73390    -999.25   10.32420    9.51860    8.63460    -999.25    -999.25    -999.25  -98.61800    -999.25    -999.25
 3900.00000    9.86620   88.04270   63.85810    -999.25    4.71130    4.44740    5.56800    -999.25    -999.25    -999.25  -89.74500    -999.25    -999.25
 3950.00000   10.47630   89.81990   62.09840    -999.25    6.45750    6.16800    7.16330    -999.25    -999.25    -999.25  -91.30370    -999.25    -999.25
 4000.00000   10.87610   86.48220   82.63070    -999.25    8.63710    7.69250    8.27210    -999.25    -999.25    -999.25  -91.20660    -999.25    -999.25
 4050.00000   10.70010   87.83390   87.52720    -999.25    7.70470    7.40360    8.62940    -999.25    -999.25    -999.25  -92.01440    -999.25    -999.25
 4100.00000   11.23340   85.64150   94.30750    -999.25    8.07690    7.67210    8.45490    -999.25    -999.25    -999.25  -92.25230    -999.25    -999.25
 4150.00000   10.90930   88.24350   92.26580    -999.25    8.82580    8.17850    9.74590    -999.25    -999.25    -999.25  -92.45450    -999.25    -999.25
 4200.00000   10.59110  101.45650  145.01980    -999.25    8.14720    7.66800   11.86640    -999.25    -999.25    -999.25  -90.86360    -999.25    -999.25
 4250.00000   10.45880   85.34660  103.13060    -999.25   11.98680   11.48780   16.57700    -999.25    -999.25    -999.25  -91.15690    -999.25    -999.25
 4300.00000   10.51080   83.85420   93.39010    -999.25    9.87130    9.62200   12.24690    -999.25    -999.25    -999.25  -91.31410    -999.25    -999.25
 4350.00000   10.71200   87.89630   93.53240    -999.25    6.86370    6.36740    7.08160    -999.25    -999.25    -999.25  -91.82820    -999.25    -999.25
 4400.00000   10.13750   85.65380   86.39590    -999.25    7.39770    7.01050    8.10420    -999.25    -999.25    -999.25  -92.26090    -999.25    -999.25
 4450.00000   10.21950   82.86530   84.19610    -999.25    9.51600    9.19620   10.33810    -999.25    -999.25    -999.25  -92.01760    -999.25    -999.25
 4500.00000   10.14060   78.97720   85.19500    -999.25   10.63200   11.24470   10.89220    -999.25    -999.25    -999.25  -91.68290    -999.25    -999.25
 4550.00000   10.13640   86.33320   97.33680    -999.25    8.21350    8.51790    9.62720    -999.25    -999.25    -999.25  -90.63080    -999.25    -999.25
 4600.00000   10.37260   86.28740  102.03410    -999.25    7.70060    8.21750    9.20740    -999.25    -999.25    -999.25  -89.64550    -999.25    -999.25
 4650.00000   10.45380   84.52120   95.09560    -999.25    7.46840    7.84680    8.28570    -999.25    -999.25    -999.25  -89.90210    -999.25    -999.25
 4700.00000   10.51380   87.69170   93.02390    -999.25    9.05260    9.46540   10.68150    -999.25    -999.25    -999.25  -88.83230    -999.25    -999.25
 4750.00000    9.51400   63.98790   41.71540    -999.25   30.66010   25.93270   33.24610    -999.25    -999.25    -999.25  -90.95590    -999.25    -999.25
 4800.00000    9.98390   78.54940   84.81140    -999.25   11.41780   11.98220   12.58810    -999.25    -999.25    -999.25  -90.41130    -999.25    -999.25
 4850.00000   10.13070   81.13460   98.88490    -999.25   10.53460   11.06120   10.23060    -999.25    -999.25    -999.25  -88.67800    -999.25    -999.25
 4900.00000   10.49190   83.28790   93.15520    -999.25    9.27050    9.72800   12.27950    -999.25    -999.25    -999.25  -88.81550    -999.25    -999.25
 4950.00000   10.15050   82.77950   93.58120    -999.25    9.55890   10.03350   10.56960    -999.25    -999.25    -999.25  -88.64630    -999.25    -999.25
 5000.00000   10.44420   85.78310  101.05790    -999.25    7.96090    8.35400    9.57660    -999.25    -999.25    -999.25  -88.40900    -999.25    -999.25
 5050.00000   10.44390   86.63290   94.42970    -999.25    8.75550    9.19660   11.29470    -999.25    -999.25    -999.25  -87.80020    -999.25    -999.25
 5100.00000   10.68930   90.62840  101.66880    -999.25    8.24250    8.66610   10.22090    -999.25    -999.25    -999.25  -87.17290    -999.25    -999.25
 5150.00000    9.79900   91.66150  110.91030    -999.25   10.56320   11.09340   13.89660    -999.25    -999.25    -999.25  -87.73180    -999.25    -999.25
 5200.00000    9.77710   89.09300  106.33710    -999.25   11.42330   12.31380   16.21510    -999.25    -999.25    -999.25  -87.69990    -999.25    -999.25
 5250.00000    9.38580   90.62420  118.06620    -999.25   12.87350   13.51950   18.52480    -999.25    -999.25    -999.25  -87.86250    -999.25    -999.25
 5300.00000    9.55440   90.75550  108.09540    -999.25   11.85120   12.80040   17.12720    -999.25    -999.25    -999.25  -87.93240    -999.25    -999.25
 5350.00000    9.84200   92.88910  100.37300    -999.25    9.44920   10.00950   12.16640    -999.25    -999.25    -999.25  -86.43070    -999.25    -999.25
 5400.00000    9.22540  101.76050  113.37920    -999.25   13.86190   14.94930   23.45460    -999.25    -999.25    -999.25  -86.94800    -999.25    -999.25
 5450.00000   10.34140   79.63210   81.29260    -999.25    8.02720    8.31110    9.48540    -999.25    -999.25    -999.25  -87.75010    -999.25    -999.25
 5500.00000   10.55060   85.77920   88.17960    -999.25    7.30610    7.55890    8.80770    -999.25    -999.25    -999.25  -86.88580    -999.25    -999.25
 5550.00000    9.85660   84.13110   97.06330    -999.25    6.34050    6.66350    7.97490    -999.25    -999.25    -999.25  -86.61190    -999.25    -999.25
 5600.00000    9.77090   85.24280   90.84630    -999.25    6.55100    6.85830    7.96130    -999.25    -999.25    -999.25  -86.63300    -999.25    -999.25
 5650.00000    9.59870   77.50580   87.35320    -999.25    9.79890   10.22700   11.02700    -999.25    -999.25    -999.25  -87.51820    -999.25    -999.25
 5700.00000   11.30880   84.64460   99.39710    -999.25    6.74880    6.99690    8.03170    -999.25    -999.25    -999.25  -85.45950    -999.25    -999.25
 5750.00000   12.22520   85.69560   95.08370    -999.25    5.75360    6.08240    7.57370    -999.25    -999.25    -999.25  -83.72270    -999.25    -999.25
 5800.00000   11.40330   95.79490  113.62320    -999.25    4.64720    4.98960    6.57280    -999.25    -999.25    -999.25  -83.56370    -999.25    -999.25
 5850.00000   11.03300  111.40690   87.76090    -999.25    3.56590    3.32030    4.34480    -999.25    -999.25    -999.25  -82.81760    -999.25    -999.25
 5900.00000   11.18680   89.54680   89.87420    -999.25    5.90040    5.51220    7.41840    -999.25    -999.25    -999.25  -82.86860    -999.25    -999.25
 5950.00000   10.23160   88.20670   82.62610    -999.25    7.18490    6.70860    9.02710    -999.25    -999.25    -999.25  -82.08130    -999.25    -999.25
 6000.00000    9.46950   71.51910   71.31150    -999.25   21.31660   23.96740   27.26210    -999.25    -999.25    -999.25  -90.52860    -999.25    -999.25
 6050.00000   10.19730   85.58980   83.38600    -999.25    9.96030   10.77480   11.67050    -999.25    -999.25    -999.25  -87.84730    -999.25    -999.25
 6100.00000   10.18510   72.24460   66.24160    -999.25   11.42580   12.73840   15.25960    -999.25    -999.25    -999.25  -93.25660    -999.25    -999.25
 6150.00000    9.79140   69.58280   62.15130    -999.25   15.68160   17.63660   21.42240    -999.25    -999.25    -999.25  -94.73210    -999.25    -999.25
 6200.00000    9.75950   71.01200   50.54770    -999.25   19.29710   19.85860   21.39600    -999.25    -999.25    -999.25  -98.94940    -999.25    -999.25
 6250.00000   10.14320   65.82790   43.89300    -999.25   11.76120   12.39540   13.38230    -999.25    -999.25    -999.25  -99.97680    -999.25    -999.25
