~Version ---------------------------------------------------
VERS.      2.0 : CWLS log ASCII Standard -VERSION 2.0
WRAP.       NO : One line per depth step
CREA. 06/14/13 : LAS Creation Date
~Well ------------------------------------------------------
STRT.M                     300.0 : START DEPTH
STOP.M                    3350.0 : STOP DEPTH
STEP.M                  50.00000 : STEP LENGTH
NULL.                    -999.25 : NULL VALUE
COMP.  GULF CANADA RESOURCES INC : COMPANY
WELL. GULF AEC STURLS 6-11-69-26 : WELL
FLD .                            : FIELD
LOC .                            : LOCATION
CTRY.                     CANADA : COUNTRY
SRVC.               Schlumberger : SERVICE COMPANY
DATE.                18-Aug-1983 : LOGDATE
PROV.                    Alberta : PROVINCE
UWI .           100061106926W500 : UNIQUE WELL ID
SLAT.WGS84              54.95913 : SURFACE LATITUDE
SLON.WGS84              -117.858 : SURFACE LONGITUDE
~Curve Information -----------------------------------------
DEPT    .M      : DEPTH METER
C1ED    .MM     : CALIPER 1 FROM DENSITY LOG [ADJ. TO RESISTIVITY LOG]
C2ED    .MM     : CALIPER 2 FROM DENSITY LOG [ADJ. TO RESISTIVITY LOG]
CALSED  .MM     : CALIPER FROM SONIC LOG
CALWS   .MM     : CALIPER [C1ED]
CONDWS  .MMHO   : CONDUCTIVITY [1000/DRESWS]
DCORWS  .KG/M3  : DENSITY CORRECTION [DRHOED]
DENWS   .KG/M3  : FORMATION BULK DENSITY [RHOBED]
DPHILSED.V/V    : DENSITY POROSITY LIMESTONE [M=2710, F=1000] FROM DENSITY LOG [ADJ. TO RESISTIVITY LOG]
DPHISSED.V/V    : DENSITY POROSITY SANDSTONE [M=2650, F=1000] FROM DENSITY LOG [ADJ. TO RESISTIVITY LOG]
DPOLSWS .V/V    : DENSITY POROSITY LIMESTONE [CALC. FROM DENWS, M=2710, F=1000]
DRESWS  .OHMM   : DEEP RESISTIVITY [ILDED]
DRHOED  .KG/M3  : BULK DENSITY CORRECTION FROM DENSITY LOG [ADJ. TO RESISTIVITY LOG]
DTED    .US/M   : DELTA-T FROM SONIC LOG
DTWS    .US/M   : COMPRESSIONAL SONIC [DTED]
GRDED   .GAPI   : GAMMA RAY FROM DENSITY LOG [ADJ. TO RESISTIVITY LOG]
GRSED   .GAPI   : GAMMA RAY FROM SONIC LOG
GRWS    .GAPI   : GAMMA RAY [GRSED]
ILDED   .OHMM   : DEEP INDUCTION RESISTIVITY FROM RESISTIVITY LOG
ILMED   .OHMM   : MEDIUM INDUCTION RESISTIVITY FROM RESISTIVITY LOG
MRESWS  .OHMM   : MEDIUM RESISTIVITY [ILMED]
NPHILSED.V/V    : NEUTRON POROSITY LIMESTONE FROM DENSITY LOG [ADJ. TO RESISTIVITY LOG]
NPHISSED.V/V    : NEUTRON POROSITY SANDSTONE FROM DENSITY LOG [ADJ. TO RESISTIVITY LOG]
NPOLSWS .V/V    : NEUTRON POROSITY LIMESTONE [NPHISSED MATRIX CONVERSION FOR LIMESTONE, SPL. TO NPHILSED @ 1771']
RHOBED  .KG/M3  : BULK DENSITY FROM DENSITY LOG [ADJ. TO RESISTIVITY LOG]
SFLUED  .OHMM   : SHALLOW FOCUSED RESISTIVITY FROM SONIC LOG
SPRED   .MV     : SPONTANEOUS POTENTIAL FROM RESISTIVITY LOG
SPWS    .MV     : SPONTANEOUS POTENTIAL [BASLEINE 0 MV, SPRED]
SRESWS  .OHMM   : SHALLOW RESISTIVITY [SFLUED]
TENDED  .N      : TENSION FROM DENSITY LOG [ADJ. TO RESISTIVITY LOG]
TENRED  .N      : TENSION FROM RESISTIVITY LOG
TENSED  .N      : TENSION FROM SONIC LOG
~Params ----------------------------------------------------
PD  .                         GL : PERMANENT DATUM
EPD .M                    696.75 : ELEVATION PERMANENT DATUM
LMF .                         KB : LOG MEASURED FROM
DAPD.M                      5.25 : FEET ABOVE PERMANENT DATUM
DMF .                         KB : DRILLING MEASURED FROM
EKB .M                       702 : KELLY BUSHING
EGL .M                    696.75 : GROUND LEVEL
DATE.                   08/18/83 : RUN DATE
RUN .                          1 : RUN NUMBER
DD  .M                      3345 : DEPTH DRILLER
DL  .M                      3346 : DEPTH LOGGER
BLI .M                      3344 : BOTTOM LOG INTERVAL
TLI .M                       449 : TOP LOG INTERVAL
CS  .MM                    244.5 : CASING SIZE
CBD .M                       449 : CASING BOTTOM DRILLER
CBL .M                       449 : CASING BOTTOM LOGGER
BS  .MM                      222 : BIT SIZE
BSD .M                      3345 : BIT SIZE AT DEPTH
DFT .                   GEL CHEM : DRILLING FLUID TYPE
DFD .                       1100 : DRILLING FLUID DENSITY
DFV .                         60 : DRILLING FLUID VISCOSITY
DFPH.                        8.5 : DRILLING FLUID PH
DFL .                        8.5 : DRILLING FLUID LOSS
MSS .                   FLOWLINE : MUD SAMPLE SOURCE
RMS .OHMM                   1.49 : RESISTIVITY MUD SAMPLE
MST .DEGC                   22.7 : MUD SAMPLE TEMPERATURE
RMF .OHMM                   1.24 : RESISTIVITY MUD FILTRATE SAMPLE
MFST.DEGC                   22.2 : MUD FILTRATE SAMPLE TEMPERATURE
RMC .OHMM                  0.562 : RESISTIVITY MUD CAKE
MCST.DEGC                     75 : MUD CAKE SAMPLE TEMPERATURE
MFSS.                      PRESS : MUD FILTRATE SAMPLE SOURCE
RMB .OHMM                  0.685 : RESISTIVITY MUD AT BHT
TCS .HRS                     700 : TIME CIRCULATED STOPPED
TLAB.HRS                    1715 : TIME LOGGER AT BOTTOM
LUN .                       8157 : LOGGING UNIT NUMBER
LUL .                         GP : LOGGING UNIT LOCATION
ENGI.                      KUPER : RECORDING ENGINEER
WITN.                      ZAHED : WITNESSED BY
CLNT.                    A2DTECH : CLIENT CODE
ORIG. 6.5"/100M 16.5"/100M PRINT : ORIGIN OF DATA
UWI .           100061106926W500 : UNIQUE WELL ID
DICO.     A2D Technologies, Inc. : DIGITIZING COMPANY
~Other -----------------------------------------------------
CNFD-DIL-SFL-BCS LOG RAN.
FDC DETECTER FAILED @ 1400M, LDT USED TO RECORD BULK DENSITY FROM 1400M. TO CASING.
RHOB FROM SMALL SECTION.
~ASCII -----------------------------------------------------
# ...
 1450.00000  273.80730  234.78450  252.18370  273.80730  106.22030   -3.56580 2464.56590    -999.25    0.10930    0.14350    9.41440   -3.56580  227.06960  227.06960   48.95380   52.06570   52.06570    9.41440   13.26680   13.26680    -999.25    0.23200    0.18820 2464.56590   37.97340  -42.62350  -38.88130   37.97340 12668.47560 9258.54100 10866.40430
 1500.00000  302.50920  238.55110  283.56770  302.50920   61.06120    0.60250 2610.46290    -999.25    0.02610    0.05820   16.37700    0.60250  204.39490  204.39490   53.20730   53.24610   53.24610   16.37700   19.46320   19.46320    -999.25    0.26590    0.22190 2610.46290   27.67800  -21.72590  -20.30630   27.67800 12856.73930 9380.81350 11649.06050
 1550.00000  300.42620  253.64600  284.86340  300.42620   80.84860   23.02070 2549.60670    -999.25    0.05970    0.09380   12.36880   23.02070  240.40110  240.40110   75.33380   69.25610   69.25610   12.36880   12.71110   12.71110    -999.25    0.34490    0.30120 2549.60670   15.47130   -9.76700   -4.50900   15.47130 13350.01560 9668.02050 11683.42970
 1600.00000  285.16080  267.70450  269.08710  285.16080   68.29430   84.96440 2438.03880    -999.25    0.12460    0.15900   14.64250   84.96440  231.44880  231.44880   42.75840   48.11800   48.11800   14.64250   18.47430   18.47430    -999.25    0.27690    0.23290 2438.03880   22.15950  -46.70850  -42.58480   22.15950 13268.28520 9887.22850 11813.80860
 1650.00000  277.14590  260.89590  268.17260  277.14590   54.81950   24.37860 2510.56690    -999.25    0.08470    0.11660   18.24170   24.37860  227.27200  227.27200   46.71960   50.87080   50.87080   18.24170   24.05540   24.05540    -999.25    0.24960    0.20570 2510.56690   42.54770  -25.33980  -25.25530   42.54770 13568.82130 10104.55470 12081.51860
 1700.00000  279.17160  268.00390  278.76430  279.17160   47.21680    1.48990 2564.33230    -999.25    0.04910    0.08520   21.17890    1.48990  224.29190  224.29190   66.20540   63.93720   63.93720   21.17890   21.44630   21.44630    -999.25    0.28170    0.23770 2564.33230   24.29610   -7.24730   -8.44880   24.29610 14038.07320 10365.04590 12540.75780
 1750.00000  548.30100  329.45940  377.79410  548.30100  244.05720    2.99000 1427.69240    -999.25    0.76510    0.74990    4.09740    2.99000  356.92940  356.92940   61.62990   57.58840   57.58840    4.09740    2.72610    2.72610    -999.25    0.64270    0.61170 1427.69240    3.34820    0.44030   -2.51340    3.34820 13558.74510 10684.46780 12463.66210
 1800.00000  315.91290  257.51220  267.64550  315.91290  166.35060   13.70250 2501.27610    0.12280    -999.25    0.12210    6.01140   13.70250  227.73760  227.73760   76.62540   77.73730   77.73730    6.01140    6.73970    6.73970    0.23160    -999.25    0.23160 2501.27610    9.61310  -37.37820  -36.35110    9.61310 14523.28220 10996.48730 13255.11040
 1850.00000  306.42760  281.90480  304.37500  306.42760  161.81490    4.83940 2583.01070    0.07170    -999.25    0.07430    6.17990    4.83940  225.49570  225.49570   89.34740   82.48010   82.48010    6.17990    6.94410    6.94410    0.25230    -999.25    0.25230 2583.01070   12.63890  -25.26930  -17.09630   12.63890 14948.32030 11389.74800 13359.13480
 1900.00000  309.84700  275.13540  309.91600  309.84700  124.62770    9.52190 2588.15040    0.06920    -999.25    0.07130    8.02390    9.52190  245.40060  245.40060   96.01080   86.64810   86.64810    8.02390    8.21270    8.21270    0.22530    -999.25    0.22530 2588.15040    9.35520   -9.13590   -8.67070    9.35520 15231.55470 11682.02640 13721.67770
 1950.00000  318.15030  274.69030  306.36300  318.15030   38.92790    0.81110 2638.85010    0.04050    -999.25    0.04160   25.68850    0.81110  212.64750  212.64750   85.99640   75.34630   75.34630   25.68850   24.79100   24.79100    0.13760    -999.25    0.13760 2638.85010   43.71940    7.05830   -2.67860   43.71940 15239.28910 11915.59860 13983.86620
 2000.00000  248.27980  236.96320  249.94650  248.27980  153.68300   61.95520 2639.51120    0.04450    -999.25    0.04120    6.50690   61.95520  189.75480  189.75480   45.82880   44.66510   44.66510    6.50690   10.02350   10.02350    0.13310    -999.25    0.13310 2639.51120   41.17080  -83.14100  -82.63270   41.17080 15457.76070 12370.71580 14089.81740
 2050.00000  296.09230  257.06960  295.16020  296.09230   14.57800   45.03840 2919.49070   -0.12730    -999.25   -0.12250   68.59670   45.03840  170.19980  170.19980   22.76960   20.50120   20.50120   68.59670   77.49320   77.49320    0.07960    -999.25    0.07960 2919.49070  881.37380  -37.59400  -42.88840  881.37380 16026.28220 12651.25390 14648.21190
 2100.00000  284.04200  233.05260  263.10280  284.04200   46.73330   28.36790 2795.74290   -0.05140    -999.25   -0.05010   21.39800   28.36790  180.67990  180.67990   51.86650   45.46560   45.46560   21.39800   28.03490   28.03490    0.05880    -999.25    0.05880 2795.74290  239.38740  -54.41360  -61.57030  239.38740 16706.84180 13075.43260 15097.83300
 2150.00000  268.55440  264.08210  369.15980  268.55440  289.96430   48.71520 2756.73390   -0.01750    -999.25   -0.02730    3.44870   48.71520  180.93030  180.93030   14.65310   15.06470   15.06470    3.44870    5.64270    5.64270    0.05890    -999.25    0.05890 2756.73390   69.66100  -78.29120  -87.31020   69.66100 16469.21290 13184.88180 14661.30270
 2200.00000  235.56650  297.55940  267.55690  235.56650   10.65850    3.79790 2661.20310    0.02860    -999.25    0.02850   93.82180    3.79790  172.90870  172.90870   23.09920   22.51260   22.51260   93.82180  111.71540  111.71540    0.04890    -999.25    0.04890 2661.20310 1481.89890  -63.17210  -77.58490 1481.89890 16381.29690 13557.07620 15681.91410
 2250.00000  331.04950  241.56530  273.91820  331.04950   22.82530  221.28660 2510.40040    0.13650    -999.25    0.11670   43.81100  221.28660  179.24980  179.24980   48.78530   43.82230   43.82230   43.81100   50.61600   50.61600    0.12110    -999.25    0.12110 2510.40040   79.67520    5.55940  -18.73650   79.67520 17419.09180 13840.34280 15877.55370
 2300.00000  277.72900  272.64510  276.80920  277.72900   19.72040   -0.40460 2728.38990   -0.01370    -999.25   -0.01080   50.70900   -0.40460  168.84210  168.84210   37.98630   34.13970   34.13970   50.70900   50.94680   50.94680    0.06870    -999.25    0.06870 2728.38990  154.88810   -2.60740  -13.15310  154.88810 17630.82230 14187.35940 16116.42480
 2350.00000  234.59830  285.27140  258.04880  234.59830    6.66610    0.54600 2676.66210    0.01800    -999.25    0.01950  150.01360    0.54600  169.75900  169.75900   14.70460   14.57450   14.57450  150.01360  136.43000  136.43000    0.02210    -999.25    0.02210 2676.66210  393.11030  -81.81490  -88.15970  393.11030 17855.65430 14570.54200 16541.29690
 2400.00000  247.90930  269.42720  256.83240  247.90930   33.86990   12.72250 2723.09770   -0.01100    -999.25   -0.00770   29.52470   12.72250  173.79930  173.79930   46.64490   42.42890   42.42890   29.52470   30.12010   30.12010    0.05920    -999.25    0.05920 2723.09770   63.81430    0.36200   -6.10850   63.81430 18199.18360 14909.38670 16774.33010
 2450.00000  282.15520  295.70320  260.70590  282.15520   22.93170   36.76550 2644.75100    0.04180    -999.25    0.03820   43.60770   36.76550  196.05240  196.05240   30.84310   28.55280   28.55280   43.60770   42.29910   42.29910    0.01640    -999.25    0.01640 2644.75100  111.47150   -7.66090  -15.83370  111.47150 18721.09770 15086.44430 16999.68750
 2500.00000  221.53630  226.42850  233.18080  221.53630   12.77770    0.72930 2691.81690    0.01040    -999.25    0.01060   78.26120    0.72930  179.87880  179.87880   36.05250   31.05920   31.05920   78.26120   92.70370   92.70370    0.04790    -999.25    0.04790 2691.81690  190.46090  -26.61440  -31.86740  190.46090 18513.42770 15392.78120 17065.62110
 2550.00000  242.66340  223.76930  237.22540  242.66340   11.50070    3.94690 2690.21070    0.01060    -999.25    0.01160   86.95100    3.94690  179.76000  179.76000   32.71860   29.96720   29.96720   86.95100  102.47160  102.47160    0.04340    -999.25    0.04340 2690.21070  225.11520  -17.62660  -17.00480  225.11520 19161.89650 15792.58980 17857.33010
