~Version ---------------------------------------------------
VERS.      2.0 : CWLS log ASCII Standard -VERSION 2.0
WRAP.       NO : One line per depth step
CREA. 08/12/13 : LAS Creation Date
~Well ------------------------------------------------------
STRT.M                           450.0 : START DEPTH
STOP.M                          3450.0 : STOP DEPTH
STEP.M                        50.00000 : STEP LENGTH
NULL.                          -999.25 : NULL VALUE
COMP. AMOCO CANADA PETROLEUM CO., LTD. : COMPANY
WELL.    ULSTER ANTE CREEKK 5-22-66-25 : WELL
FLD .                       ANTE CREEK : FIELD
LOC .                                  : LOCATION
CTRY.                           CANADA : COUNTRY
SRVC.                          Unknown : SERVICE COMPANY
DATE.                      24-Sep-1983 : LOGDATE
PROV.                          Alberta : PROVINCE
UWI .                 100052206625W500 : UNIQUE WELL ID
SLAT.WGS84                    54.72352 : SURFACE LATITUDE
SLON.WGS84                   -117.7013 : SURFACE LONGITUDE
~Curve Information -----------------------------------------
DEPT    .M      : DEPTH METER
ACED    .US/M   : ACOUSTIC FROM SONIC LOG [ADJ. TO RESISTIVITY LOG]
C13ED   .MM     : CALIPER 13 PAD ELECTRODE FROM DENSITY LOG [ADJ. TO RESISTIVITY LOG]
C24ED   .MM     : CALIPER 24 FROM DENSITY LOG [ADJ. TO RESISTIVITY LOG]
CALSED  .MM     : CALIPER FROM SONIC LOG [ADJ. TO RESISTIVITY LOG]
CALWS   .MM     : CALIPER [C13ED]
CNCLSED .V/V    : COMPENSATED NEUTRON POROSITY LIMESTONE FROM DENSITY LOG [ADJ. TO RESISTIVITY LOG]
CNCSSED .V/V    : COMPENSATED NEUTRON POROSITY SANDSTONE FROM DENSITY LOG [ADJ. TO RESISTIVITY LOG]
CONDWS  .MMHO   : CONDUCTIVITY [1000/DRESWS]
CORRED  .KG/M3  : DENSITY CORRECTION FROM DENSITY LOG [ADJ. TO RHOBED/RESISTIVITY LOG]
DCORWS  .KG/M3  : DENSITY CORRECTION [CORRED]
DENED   .KG/M3  : COMPENSATED BULK DENSITY FROM DENSITY LOG [ADJ. TO RHOBED/RESISTIVITY LOG]
DENWS   .KG/M3  : FORMATION BULK DENSITY [CALC. FROM DENWS, M=2710 ,F=1000]
DPOLSWS .V/V    : DENSITY POROSITY LIMESTONE [PORDSSED CONVERTED TO LIMESTONE MATRIX, M=2710, F=1000, SPL. TO PORDLSED @ 1947.2 M]
DRESWS  .OHMM   : DEEP RESISTIVITY [RILDED]
DTWS    .US/M   : COMPRESSIONAL SONIC [ACED]
GRDED   .GAPI   : GAMMA RAY FROM DENSITY LOG [ADJ. TO RESISTIVITY LOG]
GRRED   .GAPI   : GAMMA RAY FROM RESISTIVITY LOG
GRWS    .GAPI   : GAMMA RAY [GRRED SPL. TO GRDED @ 3446 M]
MRESWS  .OHMM   : MEDIUM RESISTIVITY [RILMED]
NPOLSWS .V/V    : NEUTRON POROSITY LIMESTONE [CNCSSED CONVERTED TO LIMESTONE MATRIX, SPL. TO CNCLSED @ 1974.2 M]
PORDLSED.V/V    : DENSITY POROSITY LIMESTONE [M=2710, F=1000] FROM DENSITY LOG [ADJ. TO RESISTIVITY LOG]
PORDSSED.V/V    : DENSITY POROSITY SANDSTONE [M=2650, F=1000] FROM DENSITY LOG [ADJ. TO RESISTIVITY LOG]
RFOCED  .OHMM   : SHALLOW FOCUSED RESISTIVITY FROM RESISTIVITY LOG
RILDED  .OHMM   : DEEP INDUCTION  RESISTIVITY FROM RESISTIVITY LOG
RILMED  .OHMM   : MEDIUM INDUCTION RESISTIVITY FROM RESISTIVITY LOG
SPRED   .MV     : SPONTANEOUS POTENTIAL FROM RESISTIVITY LOG
SPWS    .MV     : SPONTANEOUS POTENTIAL [BASELINE 0 MV, SPRED]
SRESWS  .OHMM   : SHALLOW RESISTIVITY [RFOCED]
TENDED  .N      : TENSION FROM DENSITY LOG [ADJ. TO RESISTIVITY LOG]
TENRED  .N      : TENSION FROM RESISTIVITY LOG
~Params ----------------------------------------------------
PD  .                         GL : PERMANENT DATUM
EPD .M                    762.45 : ELEVATION PERMANENT DATUM
LMF .                         KB : LOG MEASURED FROM
DAPD.M                      7.45 : FEET ABOVE PERMANENT DATUM
DMF .                         KB : DRILLING MEASURED FROM
EKB .M                     769.9 : KELLY BUSHING
EGL .M                    762.45 : GROUND LEVEL
DATE.                   09/24/83 : RUN DATE
RUN .                          1 : RUN NUMBER
DD  .M                      3460 : DEPTH DRILLER
DL  .M                    3457.8 : DEPTH LOGGER
BLI .M                    3457.3 : BOTTOM LOG INTERVAL
TLI .M                     448.7 : TOP LOG INTERVAL
CS  .MM                      244 : CASING SIZE
CBD .M                       448 : CASING BOTTOM DRILLER
CBL .M                     448.7 : CASING BOTTOM LOGGER
BS  .MM                      219 : BIT SIZE
BSD .M                      3460 : BIT SIZE AT DEPTH
DFT .                   GEL CHEM : DRILLING FLUID TYPE
DFD .                       1100 : DRILLING FLUID DENSITY
DFV .                         55 : DRILLING FLUID VISCOSITY
DFPH.                       10.5 : DRILLING FLUID PH
DFL .                         10 : DRILLING FLUID LOSS
MSS .                       CIRC : MUD SAMPLE SOURCE
RMS .OHMM                    2.7 : RESISTIVITY MUD SAMPLE
MST .DEGC                     19 : MUD SAMPLE TEMPERATURE
RMF .OHMM                    1.8 : RESISTIVITY MUD FILTRATE SAMPLE
MFST.DEGC                     19 : MUD FILTRATE SAMPLE TEMPERATURE
RMC .OHMM                    1.7 : RESISTIVITY MUD CAKE
MCST.DEGC                     19 : MUD CAKE SAMPLE TEMPERATURE
MFSS.                       MEAS : MUD FILTRATE SAMPLE SOURCE
MCSS.                       MEAS : MUD CAKE SAMPLE SOURCE
RMB .OHMM                   0.83 : RESISTIVITY MUD AT BHT
TCS .HRS                      29 : TIME CIRCULATED STOPPED
LUN .                       6217 : LOGGING UNIT NUMBER
LUL .                         GP : LOGGING UNIT LOCATION
ENGI.             HODSON BROTHEN : RECORDING ENGINEER
WITN.                    TUSTIAN : WITNESSED BY
CLNT.                    A2DTECH : CLIENT CODE
ORIG. 6.5"/100M 16.5"/100M PRINT : ORIGIN OF DATA
UWI .           100052206625W500 : UNIQUE WELL ID
DICO.     A2D Technologies, Inc. : DIGITIZING COMPANY
~Other -----------------------------------------------------
CNFD-DIFL-BCS LOG RAN
DIFL RUN SEPERATELY AFTER AC DUE TO TOOL MALFUNCTION
~ASCII -----------------------------------------------------
# ...
 2850.00000  163.53720  243.82850  332.48500  245.76140  243.82850    0.02310    -999.25    -999.25   23.60000   23.60000 2665.50000 2655.28000    0.03200    -999.25  163.53720   12.17860   14.70110   14.70110 1995.14530    0.02310    0.03200    -999.25 1992.65800    -999.25 1995.14530 -140.01710 -120.10810 1992.65800 -924.37090 -2262.57980
 2900.00000  159.96640  243.65400  349.69050  242.46350  243.65400    0.00970    -999.25    -999.25   37.00000   37.00000 2699.70000 2695.12300    0.00870    -999.25  159.96640   14.76130   16.25160   16.25160 1982.10340    0.00970    0.00870    -999.25 1997.71960    -999.25 1982.10340 -145.60410 -122.14510 1997.71960 -1013.60280 -1468.81470
 2950.00000  162.72730  256.26790  221.64340  231.14030  256.26790    0.03640    -999.25    0.69130  322.50000  322.50000 2518.70000 2647.07200    0.03680 1446.58400  162.72730   15.57720   17.80640   17.80640  333.84370    0.03640    0.03680    -999.25 1979.00020 1446.58400  333.84370 -125.88690  -98.87790 1979.00020 -103.65480 -2512.99660
 3000.00000  154.32460  248.58700  227.11500  224.13550  248.58700    0.08510    -999.25    9.35350   38.40000   38.40000 2760.40000 2757.02500   -0.02750  106.91220  154.32460   20.20650   21.61580   21.61580  167.35180    0.08510   -0.02750    -999.25  531.79030  106.91220  167.35180 -154.07310 -123.51420  531.79030 -706.41910 -1865.05060
 3050.00000  176.88730  252.70660  238.81540  234.61470  252.70660    0.06650    -999.25   28.71800   24.60000   24.60000 2716.50000 2715.47200   -0.00320   34.82140  176.88730   39.54380   38.34710   38.34710   36.08670    0.06650   -0.00320    -999.25   53.81200   34.82140   36.08670  -48.35700  -14.24810   53.81200 -1132.06670 -2507.71600
 3100.00000  175.92740  264.31860  252.27890  243.23910  264.31860    0.05050    -999.25   15.39390    7.40000    7.40000 2684.50000 2693.07100    0.00990   64.96070  175.92740   42.30750   38.92740   38.92740   54.81030    0.05050    0.00990    -999.25   88.44900   64.96070   54.81030  -51.09040  -23.17250   88.44900 -1303.97460 -1441.41470
 3150.00000  232.02570  273.00980  283.43360  251.35300  273.00980    0.21380    -999.25   55.52470   32.70000   32.70000 2642.40000 2648.78200    0.03580   18.01000  232.02570  102.57920   92.89060   92.89060   22.06730    0.21380    0.03580    -999.25   34.16520   18.01000   22.06730  -28.90700   -8.23780   34.16520 -806.62540 -1099.73630
 3200.00000  226.51420  276.75600  351.81310  258.45060  276.75600    0.17090    -999.25   70.10610   43.40000   43.40000 2673.10000 2671.01200    0.02280   14.26410  226.51420  107.17680   99.22150   99.22150   14.78900    0.17090    0.02280    -999.25   15.80680   14.26410   14.78900  -14.29250   -1.60790   15.80680 -3439.92700 -2023.64020
 3250.00000  230.80710  268.43800  355.19860  262.08910  268.43800    0.19880    -999.25  146.76740   43.90000   43.90000 2684.40000 2675.11600    0.02040    6.81350  230.80710   99.96020   93.69460   93.69460    7.25980    0.19880    0.02040    -999.25    8.53270    6.81350    7.25980  -19.02630  -17.02900    8.53270 -2057.04830 -2432.67360
 3300.00000  227.34200  255.37910  342.13770  251.90590  255.37910    0.19910    -999.25  178.51090  198.40000  198.40000 2705.30000 2708.46100    0.00090    5.60190  227.34200   90.08400   84.02550   84.02550    5.92570    0.19910    0.00090    -999.25    7.76130    5.60190    5.92570  -25.40350  -19.46330    7.76130 -1743.88350   97.13490
 3350.00000  279.22050  267.78670  426.31820  265.53510  267.78670    0.24670    -999.25   32.95700  132.50000  132.50000 2586.00000 2583.80200    0.07380   30.34260  279.22050  159.06490  146.52020  146.52020   17.37490    0.24670    0.07380    -999.25   41.95440   30.34260   17.37490  -28.41090  -18.20850   41.95440  610.71220  -91.07290
 3400.00000  156.21730  242.31090  320.84500  230.72170  242.31090    0.00890    -999.25    -999.25   -8.80000   -8.80000 2702.10000 2696.14900    0.00810    -999.25  156.21730   15.97750   14.57680   14.57680  175.79270    0.00890    0.00810    -999.25 1694.51590    -999.25  175.79270 -172.66670 -159.20960 1694.51590 -1441.47760 -3751.69970
 3450.00000    -999.25  239.73160  316.81880    -999.25  239.73160    0.17400    -999.25   24.94430    -999.25    -999.25    -999.25 2561.05900    0.08710   40.08930    -999.25  173.47770    -999.25  173.47770   33.29090    0.17400    0.08710    -999.25  106.84640   40.08930   33.29090  -47.63060  -20.29050  106.84640 -1499.05260  368.56650
