~Version ---------------------------------------------------
VERS. 2.0 : CWLS log ASCII Standard -VERSION 2.0
WRAP.  NO : ONE LINE PER DEPTH STEP
~Well ------------------------------------------------------
STRT.F                             1150.0 : START DEPTH
STOP.F                            11550.0 : STOP DEPTH
STEP.F                           50.00000 : STEP LENGTH
NULL.                             -999.25 : NULL VALUE
COMP.    AMOCO CANADA PETROLEUM CO., LTD. : COMPANY
WELL. AMOCO HB FINA SOUTH FORK 10-8-59-19 : WELL
FLD .                                     : FIELD
LOC .                                     : LOCATION
CTRY.                              CANADA : COUNTRY
SRVC.                        Schlumberger : SERVICE COMPANY
DATE.                         10-Oct-1977 : LOGDATE
PROV.                             Alberta : PROVINCE
UWI .                    100100805919W500 : UNIQUE WELL ID
SLAT.WGS84                       54.08913 : SURFACE LATITUDE
SLON.WGS84                      -116.8085 : SURFACE LONGITUDE
~Curve Information -----------------------------------------
DEPT   .F                 : 
GRD    .GAPI 45 310 01 00 : GAMMA RAY FROM DENSITY LOG
CALD   .IN   45 280 60 00 : CALIPER FROM DENSITY LOG
DCOR   .G/C3 45 356 01 00 : DENSITY CORRECTION
NPHI_SS.DEC  42 890 03 00 : NEUTRON POROSITY SANDSTONE
DPHI_SS.DEC  45 890 12 00 : DENSITY POROSITY SANDSTONE
ILD    .OHMM 07 120 46 00 : INDUCTION DEEP RESISTIVITY
ILM    .OHMM 07 120 44 00 : INDUCTION MEDIUM RESISTIVITY
LL8    .OHMM 07 220 08 00 : LATEROLOG 8
SPR    .MV   07 010 01 00 : SPONTANEOUS POTENTIAL FROM RESISTIVITY LOG
GRS    .GAPI 60 310 01 00 : GAMMA RAY FROM SONIC LOG
DT     .US/F 60 500 00 00 : DELTA-T (INTERVAL TRANSIT TIME)
CALS   .IN   60 280 50 00 : CALIPER FROM SONIC LOG
RHOB   .G/C3 45 350 01 00 : BULK DENSITY
NPHI_LS.DEC  42 890 01 00 : NEUTRON POROSITY LIMESTONE
DPHI_LS.DEC  45 890 10 00 : DENSITY POROSITY LIMESTONE
~Params ----------------------------------------------------
PD  .                     GL : PERMANENT DATUM
EPD .FT                 2976 : ELEVATION PERMANENT DATUM
LMF .                     KB : LOG MEASURED FROM
DAPD.FT                 20.7 : FEET ABOVE PERMANENT DATUM
EKB .FT               2996.7 : KELLY BUSHING
EGL .FT                 2976 : GROUND LEVEL
DATE.               10/10/77 : RUN DATE
RUN .                      1 : RUN NUMBER
DD  .FT                11577 : DEPTH DRILLER
DL  .FT                11569 : DEPTH LOGGER
BLI .FT                11563 : BOTTOM LOG INTERVAL
TLI .FT                 1534 : TOP LOG INTERVAL
CBD .FT                 1535 : CASING BOTTOM DRILLER
CBL .FT                 1534 : CASING BOTTOM LOGGER
BS  .IN                 8.75 : BIT SIZE
BSD .FT                11577 : BIT SIZE AT DEPTH
DFT .                    GEL : DRILLING FLUID TYPE
DFD .                      9 : DRILLING FLUID DENSITY
DFV .                     80 : DRILLING FLUID VISCOSITY
DFPH.                    8.5 : DRILLING FLUID PH
DFL .                    8.8 : DRILLING FLUID LOSS
MSS .               FLOWLINE : MUD SAMPLE SOURCE
RMS .OHMM               2.24 : RESISTIVITY MUD SAMPLE
MST .DEGF                 54 : MUD SAMPLE TEMPERATURE
RMF .OHMM               1.98 : RESISTIVITY MUD FILTRATE SAMPLE
MFST.DEGF                 64 : MUD FILTRATE SAMPLE TEMPERATURE
TCS .HRS                   3 : TIME CIRCULATED STOPPED
LUN .                   7772 : LOGGING UNIT NUMBER
LUL .                    EDM : LOGGING UNIT LOCATION
ENGI.         BERNISKY TRACY : RECORDING ENGINEER
WITN.                 NEWELL : WITNESSED BY
CLNT.                A2DTECH : CLIENT CODE
ORIG.            2" 5" PRINT : ORIGIN OF DATA
UWI .       100100805919W500 : UNIQUE WELL ID
DICO. A2D Technologies, Inc. : DIGITIZING COMPANY
~Other -----------------------------------------------------
~ASCII -----------------------------------------------------
 1150.00000    -999.25    -999.25    -999.25    -999.25    -999.25    -999.25    -999.25    -999.25    -999.25   40.17850    -999.25    -999.25    -999.25    -999.25    -999.25
 1200.00000    -999.25    -999.25    -999.25    -999.25    -999.25    -999.25    -999.25    -999.25    -999.25   55.01090    -999.25    -999.25    -999.25    -999.25    -999.25
 1250.00000    -999.25    -999.25    -999.25    -999.25    -999.25    -999.25    -999.25    -999.25    -999.25   53.71890    -999.25    -999.25    -999.25    -999.25    -999.25
 1300.00000    -999.25    -999.25    -999.25    -999.25    -999.25    -999.25    -999.25    -999.25    -999.25   44.14040    -999.25    -999.25    -999.25    -999.25    -999.25
 1350.00000    -999.25    -999.25    -999.25    -999.25    -999.25    -999.25    -999.25    -999.25    -999.25   47.43030    -999.25    -999.25    -999.25    -999.25    -999.25
 1400.00000    -999.25    -999.25    -999.25    -999.25    -999.25    -999.25    -999.25    -999.25    -999.25   46.49610    -999.25    -999.25    -999.25    -999.25    -999.25
 1450.00000    -999.25    -999.25    -999.25    -999.25    -999.25    -999.25    -999.25    -999.25    -999.25   53.96000    -999.25    -999.25    -999.25    -999.25    -999.25
 1500.00000   37.27250    -999.25    -999.25    0.54310    -999.25    -999.25    -999.25    -999.25    -999.25   37.43650    -999.25    -999.25    -999.25    -999.25    -999.25
 1550.00000   94.93870   14.88390    0.14570    0.60940    0.60010    4.09630    5.41870    6.86390 -110.54410   92.88340  132.69470   10.99500    1.56170    -999.25    -999.25
 1600.00000  102.23660   11.05450    0.12700    0.38850    0.08900    6.16270    7.08620    6.31760 -102.15060   98.81140   98.96450   10.35160    2.47050    -999.25    -999.25
 1650.00000   55.77680   10.99400    0.07950    0.20480    0.06880   14.20560   15.46150   21.72910 -111.68660   56.83040   69.52860   10.32960    2.59960    -999.25    -999.25
 1700.00000   93.10410   12.48090    0.04740    0.30240    0.07830    5.68590    6.51250    5.44490 -103.12350   87.78990   88.73460   10.24980    2.45470    -999.25    -999.25
 1750.00000  108.46900   12.07040    0.08030    0.35740    0.15300    4.93770    5.58910    4.67620 -100.98320  107.52630   93.92130   10.05050    2.41170    -999.25    -999.25
 1800.00000   73.93190   11.56370    0.06560    0.29760    0.18350    9.30920   10.43250    9.35110 -105.63520   70.10080   88.14430    9.82570    2.35200    -999.25    -999.25
 1850.00000   68.89010   10.41050    0.08980    0.25520    0.11430   10.32640   12.59000   11.28400 -106.73000   67.32730   79.51060    9.60850    2.51300    -999.25    -999.25
 1900.00000   88.47640   11.30760    0.15910    0.32720    0.07760    7.17270    6.43100    6.01720 -107.69290   91.43830   87.48590    9.32200    2.54500    -999.25    -999.25
 1950.00000   86.13170    9.65350    0.06710    0.32170    0.15110    9.99820   10.56630    9.52660 -105.16070   85.57210   85.19680    9.21820    2.42450    -999.25    -999.25
 2000.00000  101.67510    9.97280    0.04920    0.34860    0.10200    5.11030    5.78510    4.85170 -102.87580  111.77510   91.42030    9.71170    2.46760    -999.25    -999.25
 2050.00000   88.19010   10.54790    0.09270    0.26380    0.04800    7.17940    7.84830   10.95320  -99.87090   76.13410   76.86720    9.60820    2.60520    -999.25    -999.25
 2100.00000  112.81050   11.59690    0.09630    0.47130    0.22370    5.25470    6.61530    8.45250  -99.40130   75.87430  109.78670   11.02010    2.29940    -999.25    -999.25
 2150.00000  101.43420   11.66110    0.04230    0.37120    0.14440    5.48750    6.36870    5.80120 -102.18430   90.90770   92.94740   10.67550    2.43270    -999.25    -999.25
 2200.00000  107.04620   11.24410    0.09580    0.37980    0.19720    3.86750    4.33780    4.17720 -102.63830  107.34220   95.41400    9.75780    2.31230    -999.25    -999.25
 2250.00000  111.54680   13.45490    0.19690    0.55640    0.55020    2.13150    2.41490    2.90160 -100.60420  116.66680  139.03790   10.19370    1.71500    -999.25    -999.25
 2300.00000   86.03450   11.35010    0.20550    0.39260    0.27100    3.66740    4.48170    3.96790  -98.95450  106.07910   98.37020    9.47060    2.32330    -999.25    -999.25
 2350.00000   78.82870   12.77940    0.23290    0.45680    0.46170    4.06240    4.62140    3.93750 -100.52250   96.75700   94.98570    9.44330    1.81520    -999.25    -999.25
 2400.00000   46.38830   10.29840    0.04240    0.24210    0.07680   19.80940   21.05330   18.75450 -101.53680   53.09540   73.98650    9.41590    2.54660    -999.25    -999.25
 2450.00000   95.88000   10.77010    0.24900    0.37460    0.27620    7.20630    7.91640   10.48780  -97.90940  100.33440   87.10060    9.44210    2.03410    -999.25    -999.25
 2500.00000   48.83540   10.41450    0.06250    0.31350    0.13600   16.23950   17.76770   17.21690  -99.54070   51.65620   80.77780    9.41160    2.47670    -999.25    -999.25
 2550.00000   79.20980   10.21240    0.05560    0.37860    0.11600    6.15680    7.36480    6.53880 -101.30700   78.84420   94.90080   10.30090    2.50240    -999.25    -999.25
 2600.00000   80.76670   10.17140    0.13370    0.39530    0.19010    9.53230    9.86980   10.87890  -98.10610   63.77790   82.45860    9.68440    2.24850    -999.25    -999.25
 2650.00000   89.10500   10.64940    0.22830    0.34820    0.21200    4.76070    5.33770    5.00850 -103.27080   98.26260   90.01610   10.01360    2.34510    -999.25    -999.25
 2700.00000   82.35890    9.98640    0.24980    0.30240    0.20660    6.84150    7.30470    6.94570  -98.83960   89.82080   86.87520    9.91950    2.35560    -999.25    -999.25
 2750.00000   51.02730    9.64520    0.07080    0.25940    0.10930   29.76410   28.53760   27.29960 -118.46500   52.49620   78.85920    9.06060    2.47760    -999.25    -999.25
 2800.00000   94.61110   11.41480    0.24790    0.32040    0.20990    4.80040    5.11190    6.06410 -102.15820  112.93600   90.25660    9.35760    2.32870    -999.25    -999.25
 2850.00000   60.87080    9.16980    0.07840    0.29870    0.18260   17.20200   18.01230   17.20090 -120.33620   44.85080   91.47660    8.41070    2.40840    -999.25    -999.25
 2900.00000  104.00620   10.92470    0.24930    0.33560    0.24270    4.71210    5.00580    5.45410  -99.99560  100.83120   94.21550    9.22650    2.29290    -999.25    -999.25
 2950.00000  111.75850   10.85640    0.25780    0.36010    0.34360    6.02250    6.71240    5.55820 -100.92560  114.48380   94.01680    9.02070    2.16100    -999.25    -999.25
 3000.00000  117.53920    9.83610    0.24280    0.29380    0.11520    8.67380    9.64360   10.09980 -104.65620  102.64720   81.64750    8.95530    2.48800    -999.25    -999.25
 3050.00000   99.02090   12.12980    0.25190    0.40800    0.32020    4.71640    5.38350    5.00360 -106.58020  104.02980   95.97530    9.93310    2.17820    -999.25    -999.25
 3100.00000  103.70350   11.95510    0.22910    0.40230    0.39510    4.43890    5.12270    5.11220 -101.43880   89.45770   89.85980    9.26460    1.93630    -999.25    -999.25
 3150.00000   52.94650    9.01880    0.07450    0.28670    0.13110   18.43020   17.43020   16.21550 -101.84330   45.40720   78.55640    8.34660    2.42780    -999.25    -999.25
 3200.00000  102.98550    9.26090    0.15000    0.43860    0.12460    4.47380    5.25630    4.72470  -95.91640   90.57600   95.61750    9.18190    2.42640    -999.25    -999.25
 3250.00000   57.97350    9.10340    0.06560    0.28860    0.13560    7.58230    8.22710    8.84490 -105.54480   66.37360   83.15490    8.89640    2.41570    -999.25    -999.25
 3300.00000  102.60680   10.21790    0.19750    0.44510    0.45860    2.26740    2.67190    2.91770 -105.95710  135.63080  116.22480    9.04050    1.99100    -999.25    -999.25
 3350.00000   89.53570   10.35020    0.18260    0.33640    0.19890    6.15000    6.79870    6.41600 -104.45840   96.56340   88.46860    8.97380    2.47990    -999.25    -999.25
 3400.00000  130.99280   11.01460    0.26600    0.41420    0.42400    2.82790    2.93270    3.92040 -101.27340  146.82680   93.71370    9.07710    2.10460    -999.25    -999.25
