~Version ---------------------------------------------------
VERS.      2.0 : CWLS log ASCII Standard -VERSION 2.0
WRAP.       NO : One line per depth step
CREA. 11/21/17 : LAS Creation Date
~Well ------------------------------------------------------
STRT.FT                       1200.0 : START DEPTH
STOP.FT                      11400.0 : STOP DEPTH
STEP.FT                     50.00000 : STEP LENGTH
NULL.                        -999.25 : NULL VALUE
COMP.  THE ATLANTIC REFINING COMPANY : COMPANY
WELL. ATLANTIC ANTE CREEK 4-18-65-23 : WELL
FLD .                                : FIELD
LOC .                                : LOCATION
CTRY.                         CANADA : COUNTRY
SRVC.                   Schlumberger : SERVICE COMPANY
DATE.                    22-Mar-1963 : LOGDATE
PROV.                        Alberta : PROVINCE
UWI .               100041806523W500 : UNIQUE WELL ID
SLAT.WGS84                  54.61968 : SURFACE LATITUDE
SLON.WGS84                 -117.4756 : SURFACE LONGITUDE
~Curve Information -----------------------------------------
DEPT  .FT    : Depth Curve
CALMED.IN    : CALIPER FROM MICROLOG
CALWS .IN    : CALIPER [CALMED]
CILDED.MMHO  : CONDUCTIVITY FROM RESISTIVITY LOG
CONDWS.MMHO  : CONDUCTIVITY [1000/DRESWS]
DRESWS.OHMM  : DEEP RESISTIVITY [ILDED]
DTED  .US/F  : DELTA-T FROM SONIC LOG
DTWS  .US/F  : COMPRESSIONAL SONIC [DTED]
GRSED .GAPI  : GAMMA RAY FROM SONIC LOG
GRWS  .GAPI  : GAMMA RAY [GRSED]
ILDED .OHMM  : DEEP INDUCTION RESISTIVITY FROM RESISTIVITY LOG
NEUTED.NAPI  : NEUTRON FROM NEUTRON LOG
NEUTWS.NAPI  : NEUTRON [NEUTED]
SIGMED.CU    : NEUTRON CAPTURE CROSS SECTION FROM TDT LOG
SNED  .OHMM  : 16 INCH SHORT NORMAL RESISTIVITY FROM RESISTIVITY LOG
SPRED .MV    : SPONTANEOUS POTENTIAL FROM RESISTIVITY LOG
SPWS  .MV    : SPONTANEOUS POTENTIAL [BASELINE 0 MV,SPRED]
SRESWS.OHMM  : SHALLOW RESISTIVITY [SNED]
~Params ----------------------------------------------------
PD  .                     GL : PERMANENT DATUM
EPD .FT                 2813 : ELEVATION PERMANENT DATUM
LMF .                     KB : LOG MEASURED FROM
DAPD.FT                   14 : FEET ABOVE PERMANENT DATUM
EKB .FT                 2827 : KELLY BUSHING
EGL .FT                 2813 : GROUND LEVEL
DATE.               03/22/63 : RUN DATE
RUN .                      1 : RUN NUMBER
DD  .FT                11400 : DEPTH DRILLER
DL  .FT                11412 : DEPTH LOGGER
BLI .FT                11411 : BOTTOM LOG INTERVAL
TLI .FT                 1185 : TOP LOG INTERVAL
CBD .FT                 1185 : CASING BOTTOM DRILLER
CBL .FT                 1185 : CASING BOTTOM LOGGER
BS  .IN                8.625 : BIT SIZE
BSD .FT                11400 : BIT SIZE AT DEPTH
DFT .               GEL CHEM : DRILLING FLUID TYPE
DFD .                    9.9 : DRILLING FLUID DENSITY
DFV .                     90 : DRILLING FLUID VISCOSITY
DFPH.                      9 : DRILLING FLUID PH
DFL .                    7.4 : DRILLING FLUID LOSS
RMF .OHMM               2.02 : RESISTIVITY MUD FILTRATE SAMPLE
MFST.DEGF                 78 : MUD FILTRATE SAMPLE TEMPERATURE
RMC .OHMM               2.45 : RESISTIVITY MUD CAKE
MCST.DEGF                 78 : MUD CAKE SAMPLE TEMPERATURE
TCS .HRS                   4 : TIME CIRCULATED STOPPED
LUN .                   1534 : LOGGING UNIT NUMBER
LUL .                     VV : LOGGING UNIT LOCATION
ENGI.                  MILLS : RECORDING ENGINEER
WITN.            SCOTT COWRN : WITNESSED BY
CLNT.                A2DTECH : CLIENT CODE
ORIG.            2" 5" PRINT : ORIGIN OF DATA
UWI .       100041806523W500 : UNIQUE WELL ID
DICO. A2D Technologies, Inc. : DIGITIZING COMPANY
~Other -----------------------------------------------------
IEL-BHC-NEUTRON-TDT-MICRO LOG RUN.
IEL: ALL DATA VERYFIED FROM SMALL SCALE @ TOP TO 3418'
BHC-MICROLOG: ALL DATA VERYFIED FROM SMALL SCALE @ TOP TO 3829'
~ASCII -----------------------------------------------------
# ...
 5300.00000   12.50990   12.50990  177.32060  171.28280    5.83830   92.05600   92.05600  119.19880  119.19880    5.83830    -999.25    -999.25    -999.25    7.15380  -61.88860   -2.65000    7.15380
 5350.00000   12.82880   12.82880  102.70770  101.97110    9.80670   86.83850   86.83850  127.08920  127.08920    9.80670    -999.25    -999.25    -999.25   11.36430  -62.71970   -3.65280   11.36430
 5400.00000    8.17310    8.17310   62.40530   67.40220   14.83630   75.91360   75.91360  114.05420  114.05420   14.83630    -999.25    -999.25    -999.25   18.12660 -104.80100  -45.70230   18.12660
 5450.00000   12.03840   12.03840  211.24970  192.40390    5.19740   84.45330   84.45330  108.64290  108.64290    5.19740    -999.25    -999.25    -999.25    6.37320  -62.00320   -2.71170    6.37320
 5500.00000    8.92700    8.92700   43.83090   47.50980   21.04830   77.11070   77.11070   90.91870   90.91870   21.04830    -999.25    -999.25    -999.25   21.19790  -98.40450  -39.08270   21.19790
 5550.00000   12.33960   12.33960   45.33710   49.33670   20.26970   75.93660   75.93660   81.63090   81.63090   20.26970    -999.25    -999.25    -999.25   17.91830  -92.57590  -33.69050   17.91830
 5600.00000    9.99430    9.99430   34.06160   38.40190   26.04040   72.61610   72.61610   86.41210   86.41210   26.04040    -999.25    -999.25    -999.25   22.42630  -87.78210  -29.33610   22.42630
 5650.00000   13.89760   13.89760  122.40230  120.76570    8.28050   78.88350   78.88350  115.73480  115.73480    8.28050    -999.25    -999.25    -999.25   10.05490  -63.01970   -5.33190   10.05490
 5700.00000   11.56020   11.56020   45.43610   48.98260   20.41540   71.98000   71.98000   92.59640   92.59640   20.41540    -999.25    -999.25    -999.25   28.97370  -69.63170  -15.11860   28.97370
 5750.00000   11.20630   11.20630   33.76240   36.41700   27.45970   75.85350   75.85350  100.14320  100.14320   27.45970    -999.25    -999.25    -999.25   34.53350  -66.25450  -12.65620   34.53350
 5800.00000    7.58550    7.58550   48.54280   52.16600   19.16960   76.08930   76.08930   68.89270   68.89270   19.16960    -999.25    -999.25    -999.25   28.78490 -125.98870  -72.83710   28.78490
 5850.00000   14.25120   14.25120   75.61160   76.66890   13.04310  139.66760  139.66760   74.55280   74.55280   13.04310    -999.25    -999.25    -999.25   17.11890  -56.56310   -3.86100   17.11890
 5900.00000   12.14160   12.14160  136.15280  130.19820    7.68060   74.66280   74.66280  119.69170  119.69170    7.68060    -999.25    -999.25    -999.25    9.73730  -56.43430   -4.24270    9.73730
 5950.00000   11.25400   11.25400   92.07420   92.70930   10.78640   79.10100   79.10100   90.57120   90.57120   10.78640    -999.25    -999.25    -999.25   17.14210  -96.52260  -44.27760   17.14210
 6000.00000    9.11570    9.11570   56.54260   60.39300   16.55820   70.62940   70.62940   84.86400   84.86400   16.55820    -999.25    -999.25    -999.25   24.31920 -117.10430  -63.67860   24.31920
 6050.00000   11.08250   11.08250   57.27800   60.60450   16.50920   68.11550   68.11550   96.80270   96.80270   16.50920    -999.25    -999.25    -999.25   18.06260  -80.00080  -24.17660   18.06260
 6100.00000   11.92870   11.92870   50.79910   51.69450   19.34440   67.58560   67.58560   86.78100   86.78100   19.34440    -999.25    -999.25    -999.25   19.13060  -88.22700  -29.98840   19.13060
 6150.00000    9.70020    9.70020   85.41540   87.80630   11.38870   75.38940   75.38940   91.11780   91.11780   11.38870    -999.25    -999.25    -999.25   18.16560 -110.31000  -49.67290   18.16560
 6200.00000   11.73590   11.73590   71.22590   74.14160   13.48770   71.20920   71.20920   98.98300   98.98300   13.48770    -999.25    -999.25    -999.25   14.13240  -69.12510   -6.37370   14.13240
 6250.00000   12.65080   12.65080   61.13230   66.14190   15.11900   71.10330   71.10330  109.93550  109.93550   15.11900    -999.25    -999.25    -999.25   15.92470  -68.06430   -6.24500   15.92470
 6300.00000   13.14120   13.14120   95.12580   92.47120   10.81720   74.85960   74.85960  111.58140  111.58140   10.81720    -999.25    -999.25    -999.25   11.87300  -65.35640   -4.46910   11.87300
 6350.00000   12.58170   12.58170  129.68170  122.97100    8.13200   77.15670   77.15670   98.27610   98.27610    8.13200    -999.25    -999.25    -999.25   10.64320  -73.20140  -13.07550   10.64320
 6400.00000   10.77330   10.77330   19.01330   24.33130   41.09930   69.35160   69.35160   82.61860   82.61860   41.09930    -999.25    -999.25    -999.25   29.90050  -65.55570   -4.68220   29.90050
 6450.00000   10.75490   10.75490   32.51820   35.61110   28.08110   67.25790   67.25790  106.69500  106.69500   28.08110    -999.25    -999.25    -999.25   27.55900  -66.08550   -6.42370   27.55900
 6500.00000   10.99410   10.99410   29.82110   32.58830   30.68590   70.60650   70.60650  125.54980  125.54980   30.68590    -999.25    -999.25    -999.25   27.35240  -65.38540   -7.61810   27.35240
 6550.00000   12.90800   12.90800   66.95470   69.29130   14.43220   88.82980   88.82980  124.41730  124.41730   14.43220    -999.25    -999.25    -999.25   16.88510  -60.36200   -4.48910   16.88510
 6600.00000   11.38200   11.38200   51.45890   52.60780   19.00860   68.60270   68.60270  108.47430  108.47430   19.00860    -999.25    -999.25    -999.25   18.91170  -59.66930   -5.70350   18.91170
 6650.00000   10.37890   10.37890   68.28880   69.73700   14.33960   78.32880   78.32880  105.28520  105.28520   14.33960    -999.25    -999.25    -999.25   18.18280  -57.63830   -5.56690   18.18280
 6700.00000   10.74490   10.74490   99.29510   96.39020   10.37450   75.01020   75.01020   93.26940   93.26940   10.37450    -999.25    -999.25    -999.25   18.48040 -100.00900  -48.73130   18.48040
 6750.00000    8.64910    8.64910   77.74720   78.65780   12.71330   70.79480   70.79480   91.11950   91.11950   12.71330    -999.25    -999.25    -999.25   20.97020  -98.09370  -46.29300   20.97020
 6800.00000    7.77730    7.77730  135.59870  129.79680    7.70440   74.88470   74.88470   67.31690   67.31690    7.70430    -999.25    -999.25    -999.25   22.34390 -148.81660  -96.49290   22.34390
 6850.00000   15.95290   15.95290  158.42120  149.42320    6.69240  110.30260  110.30260  123.27420  123.27420    6.69240    -999.25    -999.25    -999.25    8.99250  -58.48060   -5.63040    8.99250
 6900.00000   10.05200   10.05200    2.53900    4.59850  217.46180   89.89990   89.89990  129.39400  129.39400  217.46180    -999.25    -999.25    -999.25  173.97380  -57.96000   -4.58680  173.97380
 6950.00000   10.25710   10.25710   53.41020   58.02520   17.23390   63.80640   63.80640  113.47940  113.47940   17.23390    -999.25    -999.25    -999.25   26.37770 -108.88670  -45.33320   26.37770
 7000.00000   10.67970   10.67970   41.93880   46.91990   21.31290   67.66880   67.66880  121.24150  121.24150   21.31290    -999.25    -999.25    -999.25   21.74910  -82.81910   -9.92980   21.74910
 7050.00000   10.83530   10.83530   61.03680   64.47230   15.51270   66.90940   66.90940  121.02750  121.02750   15.51270    -999.25    -999.25    -999.25   16.42780 -104.57570  -30.25030   16.42780
 7100.00000   10.41540   10.41540   29.40520   33.57300   29.78580   65.55010   65.55010  122.94160  122.94160   29.78580    -999.25    -999.25    -999.25   28.28420  -83.27860   -7.50770   28.28420
 7150.00000   10.42360   10.42360   26.52180   31.57930   31.66630   62.48850   62.48850  118.56550  118.56550   31.66630    -999.25    -999.25    -999.25   29.16130  -98.05100  -22.08300   29.16130
 7200.00000    9.70130    9.70130   17.11040   23.99460   41.67600   61.60830   61.60830  119.67950  119.67950   41.67600    -999.25    -999.25    -999.25   37.34260  -90.77560  -15.01030   37.34260
 7250.00000   10.27800   10.27800   43.66890   49.28730   20.28920   65.95330   65.95330  103.94170  103.94170   20.28920    -999.25    -999.25    -999.25   22.58520  -96.79210  -21.22820   22.58520
 7300.00000   11.28570   11.28570   25.79050   30.85050   32.41560   66.63920   66.63920  132.71670  132.71670   32.41570    -999.25    -999.25    -999.25   28.93510  -77.73180   -2.36940   28.93510
