~Version ---------------------------------------------------
VERS.      2.0 : CWLS log ASCII Standard -VERSION 2.0
WRAP.       NO : One line per depth step
CREA. 01/05/18 : LAS Creation Date
~Well ------------------------------------------------------
STRT.FT                         300.0 : START DEPTH
STOP.FT                       11250.0 : STOP DEPTH
STEP.FT                      50.00000 : STEP LENGTH
NULL.                         -999.25 : NULL VALUE
COMP.            MOBIL OIL CANADA LTD : COMPANY
WELL. MOBIL ET AL ROSEVEAR 10-4-54-15 : WELL
FLD .                              WC : FIELD
LOC .                                 : LOCATION
CTRY.                          CANADA : COUNTRY
SRVC.                    Schlumberger : SERVICE COMPANY
DATE.                     09-Jul-1971 : LOGDATE
PROV.                         Alberta : PROVINCE
UWI .                100100405415W500 : UNIQUE WELL ID
SLAT.WGS84                   53.63557 : SURFACE LATITUDE
SLON.WGS84                  -116.1457 : SURFACE LONGITUDE
~Curve Information -----------------------------------------
DEPT    .FT    : Depth Curve
CALDED  .IN    : CALIPER FROM DENSITY LOG [ADJ. TO RESISTIVITY LOG]
CALNED  .IN    : CALIPER FROM NEUTRON LOG [ADJ. TO RESISTIVITY LOG]
CALSED  .IN    : CALIPER FROM SONIC LOG [ADJ. TO RESISTIVITY LOG]
CALWS   .IN    : CALIPER [CALSED]
CILDED  .MMHO  : CONDUCTIVITY FROM RESISTIVITY LOG
CONDWS  .MMHO  : CONDUCTIVITY [1000/DRESWS]
DCORWS  .G/C3  : DENSITY CORRECTION [DRHOED]
DENWS   .G/C3  : FORMATION BULK DENSITY [RHOBED]
DPHILSED.V/V   : DENSITY POROSITY LIMESTONE [M=2.71 F=1.00] FROM DENSITY LOG [ADJ. TO RESISTIVITY LOG]
DPOLSWS .V/V   : DENSITY POROSITY LIMESTONE [CALC FROM DENWS, M=2.71 F=1.00]
DRESWS  .OHMM  : DEEP RESISTIVITY [1000/CILDED IF ILDED <=1, ILDED]
DRHOED  .G/C3  : DENSITY CORRECTION FROM DENSITY LOG [ADJ. TO RESISTIVITY LOG]
DTED    .US/F  : DELTA-T FROM SONIC LOG [ADJ. TO RESISTIVITY LOG]
DTWS    .US/F  : COMPRESSIONAL SONIC [DTED]
GRDED   .GAPI  : GAMMA RAY FROM DENSITY LOG [ADJ. TO RESISTIVITY LOG]
GRNED   .GAPI  : GAMMA RAY NEUTRON LOG [ADJ. TO RESISTIVITY LOG]
GRSED   .GAPI  : GAMMA RAY FROM SONIC LOG [ADJ. TO RESISTIVITY LOG]
GRWS    .GAPI  : GAMMA RAY [GRSED]
ILDED   .OHMM  : DEEP INDUCTION FROM RERSISTIVITY LOG
MCALED  .IN    : CALIPER FROM MICROLOG
NPOLSWS .V/V   : NEUTRON POROSITY LIMESTONE [SNPLSED]
RHOBED  .G/C3  : BULK DENSITY FROM DENSITY LOG  [ADJ. TO RESISTIVITY LOG]
SNED    .OHMM  : SHORT NORMAL RESISTIVITY FROM RESISTIVITY LOG
SNPLSED .V/V   : SIDE WALL NEUTRON POROSITY FROM DENSITY LOG [ADJ. TO RESISTIVITY LOG]
SPRED   .MV    : SPONTANEOUS POTENTIAL FROM RESISTIVITY LOG
SPWS    .MV    : SPONTANEOUS POTENTIAL [BASELINE 0 MV, SPRED]
SRESWS  .OHMM  : SHALLOW RESISTIVITY [SNED]
~Params ----------------------------------------------------
PD  .                     GL : PERMANENT DATUM
EPD .FT                 2903 : ELEVATION PERMANENT DATUM
LMF .                     KB : LOG MEASURED FROM
DAPD.FT                   13 : FEET ABOVE PERMANENT DATUM
EKB .FT                 2916 : KELLY BUSHING
EGL .FT                 2903 : GROUND LEVEL
DATE.               07/09/71 : RUN DATE
RUN .                      1 : RUN NUMBER
DD  .FT                11300 : DEPTH DRILLER
DL  .FT                11289 : DEPTH LOGGER
BLI .FT                11288 : BOTTOM LOG INTERVAL
TLI .FT                 1176 : TOP LOG INTERVAL
CBD .FT                 1176 : CASING BOTTOM DRILLER
CBL .FT                 1176 : CASING BOTTOM LOGGER
BS  .IN                 8.75 : BIT SIZE
BSD .FT                11300 : BIT SIZE AT DEPTH
DFT .                    GEL : DRILLING FLUID TYPE
DFD .                    9.1 : DRILLING FLUID DENSITY
DFV .                    100 : DRILLING FLUID VISCOSITY
DFPH.                     11 : DRILLING FLUID PH
DFL .                    8.2 : DRILLING FLUID LOSS
RMS .OHMM               2.46 : RESISTIVITY MUD SAMPLE
MST .DEGF                 71 : MUD SAMPLE TEMPERATURE
RMF .OHMM               2.36 : RESISTIVITY MUD FILTRATE SAMPLE
MFST.DEGF                 72 : MUD FILTRATE SAMPLE TEMPERATURE
RMC .OHMM               2.22 : RESISTIVITY MUD CAKE
MCST.DEGF                 72 : MUD CAKE SAMPLE TEMPERATURE
TCS .HRS                   5 : TIME CIRCULATED STOPPED
LUN .                   7501 : LOGGING UNIT NUMBER
LUL .                    EDM : LOGGING UNIT LOCATION
ENGI.                  PLUNE : RECORDING ENGINEER
WITN.                   DOAN : WITNESSED BY
CLNT.                A2DTECH : CLIENT CODE
ORIG.            2" 5" PRINT : ORIGIN OF DATA
UWI .       100100405415W500 : UNIQUE WELL ID
DICO. A2D Technologies, Inc. : DIGITIZING COMPANY
~Other -----------------------------------------------------
~ASCII -----------------------------------------------------
# ...
 5500.00000   11.31560   11.44960   10.28900   10.28900   79.02250   77.87130    0.25000    2.15050    0.36130    0.32720   12.84170    0.25000   78.56950   78.56950  123.48200   92.99960   90.72600   90.72600   12.84170   10.14480    0.33340    2.15050   14.13650    0.33340 -119.46890   -4.23820   14.13650
 5550.00000   12.29460   11.85150   10.11970   10.11970   91.84500   90.99600    0.25000    2.29170    0.22470    0.24460   10.98950    0.25000   86.25730   86.25730  122.51010   90.51070   82.60000   82.60000   10.98950    9.99620    0.38360    2.29170   11.89780    0.38360 -118.97210   -4.50160   11.89780
 5600.00000   11.58960   11.20350   10.18680   10.18680   87.98530   87.35140    0.25000    2.24810    0.32490    0.27010   11.44810    0.25000   78.70060   78.70060  125.47210   95.85060   93.24590   93.24590   11.44810   10.26430    0.31480    2.24810   12.86720    0.31480 -118.34240   -4.63590   12.86720
 5650.00000   11.20440   11.01700    9.92400    9.92400   98.97510   98.59500    0.25000    2.15430    0.33470    0.32500   10.14250    0.25000   81.12700   81.12700  135.43870  103.60260   94.96370   94.96370   10.14250    9.86840    0.35750    2.15430   11.81340    0.35750 -116.15120   -3.20110   11.81340
 5700.00000   11.88780   11.54740   10.33110   10.33110  107.10560  106.20740    0.25000    2.15330    0.35310    0.32560    9.41600    0.25000   91.58920   91.58920  141.96780  102.07890  101.59780  101.59780    9.41600    9.71120    0.38940    2.15330   11.31990    0.38940 -115.46560   -3.27950   11.31990
 5750.00000   10.44680   10.50750    9.97070    9.97070   71.38600   70.59600    0.25000    2.39140    -999.25    0.18630   14.16510    0.25000   86.59000   86.59000  150.30840  118.40500  114.89850  114.89850   14.16510    -999.25    -999.25    2.39140   18.14870    -999.25 -114.87020   -3.44050   18.14870
 5800.00000   11.19850    -999.25    9.93290    9.93290   81.51890   80.79500    0.25000    2.38470    -999.25    0.19020   12.37700    0.25000   84.46120   84.46120  136.22220    -999.25  105.50150  105.50150   12.37700    -999.25    -999.25    2.38470   15.71280    -999.25 -114.09550   -3.42610   15.71280
 5850.00000   11.06410    -999.25   10.15240   10.15240   69.04130   68.55310    0.25000    2.22860    -999.25    0.28150   14.58790    0.25000   87.32930   87.32930  137.42290    -999.25  106.52670  106.52670   14.58790    -999.25    -999.25    2.22860   18.85160    -999.25 -113.72850   -3.82310   18.85160
 5900.00000   10.55660    -999.25    9.69820    9.69820   56.04500   55.50340    0.25010    2.39830    -999.25    0.18230   18.01690    0.25010   90.02080   90.02080  141.42640    -999.25  114.00730  114.00730   18.01690    -999.25    -999.25    2.39830   23.77100    -999.25 -113.01840   -3.86940   23.77100
 5950.00000   10.74870    -999.25    9.80590    9.80590   44.12910   44.63140    0.21690    2.36000    -999.25    0.20470   22.40790    0.21690   88.80740   88.80740  131.62400    -999.25  107.33490  107.33490   22.40790    -999.25    -999.25    2.36000   29.09030    -999.25 -111.01700   -2.63200   29.09030
 6000.00000   10.35580    -999.25   10.05830   10.05830   66.12430   65.63010    0.25000    2.41470    -999.25    0.17270   15.23690    0.25000   85.32780   85.32780  134.97690    -999.25  105.81770  105.81770   15.23690    -999.25    -999.25    2.41470   18.87160    -999.25 -110.75340   -3.12480   18.87160
 6050.00000   11.14650    -999.25    9.90970    9.90970   56.69470   55.91970    0.25000    2.28850    -999.25    0.24650   17.88280    0.25000   96.25350   96.25350  142.59550    -999.25  128.51800  128.51800   17.88280    -999.25    -999.25    2.28850   23.29920    -999.25 -110.26410   -3.39570   23.29920
 6100.00000   11.14610    -999.25    9.89180    9.89180  114.03940  113.17260    0.25000    2.20580    -999.25    0.29490    8.83620    0.25000   79.01130   79.01130   94.81570    -999.25   90.53770   90.53770    8.83620    -999.25    -999.25    2.20580   10.22460    -999.25 -112.18280   -5.58370   10.22460
 6150.00000   11.61460    -999.25   10.79450   10.79450  115.08490  114.68420    0.25000    2.07420    -999.25    0.37180    8.71960    0.25000   86.27990   86.27990  106.70630    -999.25  105.47060  105.47060    8.71960    -999.25    -999.25    2.07420   10.49080    -999.25 -111.54130   -5.17770   10.49080
 6200.00000   12.19240    -999.25   10.63160   10.63160  132.14930  131.64040    0.23810    2.09170    -999.25    0.36160    7.59690    0.23810   83.18600   83.18600  100.73440    -999.25   98.48470   98.48470    7.59690    -999.25    -999.25    2.09170    9.32890    -999.25 -111.01200   -4.88620    9.32890
 6250.00000   12.77210    -999.25   10.28110   10.28110   97.39370   96.74270    0.25000    2.25040    -999.25    0.26880   10.33670    0.25000   78.14840   78.14840   96.39080    -999.25   94.19080   94.19080   10.33670    -999.25    -999.25    2.25040   12.37480    -999.25 -110.69290   -4.80260   12.37480
 6300.00000   12.96640    -999.25   10.60380   10.60380  113.30630  112.77140    0.22200    2.06760    -999.25    0.37570    8.86750    0.22200   79.82620   79.82620  111.02360    -999.25  104.77040  104.77040    8.86750    -999.25    -999.25    2.06760   10.98430    -999.25 -110.02300   -4.36930   10.98430
 6350.00000   13.64440   15.09910   10.32730   10.32730  107.33580  106.37800    0.19960    2.23690    -999.25    0.27670    9.40210    0.19960   88.79910   88.79910  129.05180  124.46910  129.94770  129.94770    9.40210    -999.25    -999.25    2.23690   11.34570    -999.25 -109.55710   -4.14130   11.34570
 6400.00000   15.07730   14.98690   11.93610   11.93610  215.35840  214.25660    0.24690    2.20480    0.29870    0.29540    4.66730    0.24690   90.26050   90.26050   88.09400   85.55230   86.82530   86.82530    4.66730   13.52970    0.26680    2.20480    5.64860    0.26680 -109.08650   -3.90620    5.64860
 6450.00000   15.00590   14.99400   13.26720   13.26720  202.66230  205.14510    0.18690    1.86500    0.47640    0.49420    4.87620    0.18690   94.42820   94.42820   95.17990   88.68990   81.27850   81.27850    4.87620   13.50730    0.40760    1.86500    5.60170    0.40760 -111.10440   -6.16180    5.60170
 6500.00000   14.93850    9.93080   11.82700   11.82700   46.02330   48.43600    0.21910    2.00240    0.50890    0.41380   20.64580    0.21910   84.45010   84.45010   76.26080   56.10440   61.56520   61.56520   20.64580   12.50510    0.35120    2.00240   23.07670    0.35120 -109.76790   -5.06090   23.07670
 6550.00000    9.97580   10.20960    9.99140    9.99140   43.10070   44.53350    0.08250    2.48990    0.17850    0.12870   22.45500    0.08250   69.46830   69.46830   90.22680   80.48920   79.51580   79.51580   22.45500   10.10460    0.08630    2.48990   25.54570    0.08630 -108.97590   -4.50550   25.54570
 6600.00000   12.07760   12.93270   10.30820   10.30820   96.38350   95.44480    0.24970    2.06790    0.37350    0.37550   10.48290    0.24970   78.85230   78.85230   87.59090   83.29880   85.30880   85.30880   10.48290   11.07090    0.23570    2.06790   12.48570    0.23570 -107.21370   -2.98120   12.48570
 6650.00000   15.00600   14.99180   15.34050   15.34050  208.46040  206.62860    0.15490    1.66060    0.59140    0.61370    4.83960    0.15490  143.95240  143.95240   59.09960   49.50540   49.93140   49.93140    4.83960   18.82590    0.45260    1.66060    7.77090    0.45260 -108.25080   -4.25380    7.77090
 6700.00000    9.37480    9.11680    9.43360    9.43360   47.13220   47.53750    0.05200    2.69190    0.05020    0.01060   21.03710    0.05200   67.05110   67.05110   77.20590   67.96490   67.63880   67.63880   21.03710    9.00440    0.10440    2.69190   25.91260    0.10440 -107.69520   -3.93590   25.91260
 6750.00000    9.30130    9.36660    9.36700    9.36700   33.98220   34.64200    0.04810    2.49450    0.17270    0.12600   28.86670    0.04810   70.21470   70.21470   43.31620   41.44370   40.91700   40.91700   28.86670    9.04120    0.12930    2.49450   34.08390    0.12930 -120.94460  -17.42090   34.08390
