~Version ---------------------------------------------------
VERS. 2.0 : CWLS log ASCII Standard -VERSION 2.0
WRAP.  NO : ONE LINE PER DEPTH STEP
~Well ------------------------------------------------------
STRT.M                    600.0 : START DEPTH
STOP.M                   4000.0 : STOP DEPTH
STEP.M                 50.00000 : STEP LENGTH
NULL.                   -999.25 : NULL VALUE
COMP. GULF CANADA RESOURCES INC : COMPANY
WELL.   GULF AEC KARR 3-22-66-3 : WELL
FLD .                        WC : FIELD
LOC .                           : LOCATION
CTRY.                    CANADA : COUNTRY
SRVC.              Schlumberger : SERVICE COMPANY
DATE.               26-Oct-1983 : LOGDATE
PROV.                   Alberta : PROVINCE
UWI .          100032206603W600 : UNIQUE WELL ID
SLAT.WGS84             54.72326 : SURFACE LATITUDE
SLON.WGS84            -118.3689 : SURFACE LONGITUDE
~Curve Information -----------------------------------------
DEPT    .M      : DEPTH METERS
C1ED    .MM     : CALIPER 1 FROM DENSITY LOG
C2ED    .MM     : CALIPER 2 FROM DENSITY LOG
CALDED  .MM     : CALIPER FROM DENSITY LOG
CALSED  .MM     : CALIPER FROM SONIC LOG
CALWS   .MM     : CALIPER [CALSED]
CONDWS  .MMHO   : CONDUCTIVITY [1000/DRESWS]
DCORWS  .KG/M3  : DENSITY CORRECTION [DRHOED]
DENWS   .KG/M3  : BULK DENSITY [M=2650/2710 AT 2400 F=1000] [CALCULATED FROM DPHISSED/DPHILSED]
DPHILSED.V/V    : DENSITY POROSITY [M=2710 F=1000] FROM DENSITY LOG
DPHISSED.V/V    : DENSITY POROSITY [M=2650 F=1000] FROM DENSITY LOG
DPOLSWS .V/V    : DENSITY POROSITY [M=2710 F=1000] [CALCULATED FROM DENWS]
DRESWS  .OHMM   : DEEP RESISTIVITY [ILDED]
DRHOED  .KG/M3  : DENSITY CORRECTION FROM DENSITY LOG
DTED    .US/M   : DELTA TIME FROM SONIC LOG
DTWS    .US/M   : DELTA TIME [DTED]
GRDED   .GAPI   : GAMMA RAY FROM DENSITY LOG
GRRED   .GAPI   : GAMMA RAY FROM RESISTIVITY LOG
GRSED   .GAPI   : GAMMA RAY FROM SONIC LOG
GRWS    .GAPI   : GAMMA RAY [GRSED] BULK SHIFTED +20API IN CASED HOLE @616m
ILDED   .OHMM   : INDUCTION LOG DEEP RESISTIVITY
ILMED   .OHMM   : INDUCTION LOG MEDIUM RESISTIVITY
MRESWS  .OHMM   : MEDIUM RESISTIVITY [ILMED]
NPHILSED.V/V    : NEUTRON POROSITY LIMESTONE FROM DENSITY LOG
NPHISSED.V/V    : NEUTRON POROSITY SANDSTONE FROM DENSITY LOG
NPOLSWS .V/V    : NEUTON POROSITY LIMESTONE [NPHISSED CONVERTED TO LIMESTONE FROM POWER LOG FROM START TO 2400, THEN NPHILSED TO END]
RHOBED  .KG/M3  : BULK DENSITY FROM DENSITY LOG
SFLUED  .OHMM   : SPHERICALLY FOCUSED LOG RESISTIVITY
SPRED   .MV     : SPONTANEOUS POTENTIAL FROM RESISTIVITY LOG SHIFTED
SPWS    .MV     : SPONTANEOUS POTENTIAL [BASELINE 0 MV] [SPRED] REVERSED IN SOME AREAS
SRESWS  .OHMM   : SHALLOW RESISTIVITY [SFLUED]
TENDED  .N      : TENSION FROM DENSITY LOG
TENRED  .N      : TENSION FROM RESISTIVITY LOG
TENSED  .N      : TENSION FROM SONIC LOG
~Params ----------------------------------------------------
PD  .                         GL : PERMANENT DATUM
EPD .M                       778 : ELEVATION PERMANENT DATUM
LMF .                         KB : LOG MEASURED FROM
DAPD.M                       7.5 : FEET ABOVE PERMANENT DATUM
DMF .                         KB : DRILLING MEASURED FROM
EKB .M                     785.5 : KELLY BUSHING
EDF .M                     785.1 : DRILLING FLOOR
EGL .M                       778 : GROUND LEVEL
DATE.                   10/26/83 : RUN DATE
RUN .                          2 : RUN NUMBER
DD  .M                      4035 : DEPTH DRILLER
DL  .M                      4034 : DEPTH LOGGER
BLI .M                      4033 : BOTTOM LOG INTERVAL
TLI .M                      2722 : TOP LOG INTERVAL
CS  .MM                      244 : CASING SIZE
CBD .M                      2723 : CASING BOTTOM DRILLER
CBL .M                      2722 : CASING BOTTOM LOGGER
BS  .MM                      216 : BIT SIZE
BSD .M                      4035 : BIT SIZE AT DEPTH
DFT .                    POLYMER : DRILLING FLUID TYPE
DFD .                       1120 : DRILLING FLUID DENSITY
DFV .                         45 : DRILLING FLUID VISCOSITY
DFPH.                        9.5 : DRILLING FLUID PH
DFL .                         13 : DRILLING FLUID LOSS
MSS .                CIRCULATION : MUD SAMPLE SOURCE
RMS .OHMM                  0.895 : RESISTIVITY MUD SAMPLE
MST .DEGC                     15 : MUD SAMPLE TEMPERATURE
RMF .OHMM                   0.83 : RESISTIVITY MUD FILTRATE SAMPLE
MFST.DEGC                     15 : MUD FILTRATE SAMPLE TEMPERATURE
MFSS.                     FILTER : MUD FILTRATE SAMPLE SOURCE
RMB .OHMM                  0.223 : RESISTIVITY MUD AT BHT
TCS .HRS                     800 : TIME CIRCULATED STOPPED
TLAB.HRS                    1700 : TIME LOGGER AT BOTTOM
LUN .                       8155 : LOGGING UNIT NUMBER
LUL .                         GP : LOGGING UNIT LOCATION
ENGI.                     MURRAY : RECORDING ENGINEER
WITN.                      KUPER : WITNESSED BY
CLNT.                    A2DTECH : CLIENT CODE
ORIG. 6.5"/100M 16.5"/100M PRINT : ORIGIN OF DATA
UWI .           100032206603W600 : UNIQUE WELL ID
DICO.     A2D Technologies, Inc. : DIGITIZING COMPANY
~Other -----------------------------------------------------
~ASCII -----------------------------------------------------
# ...
 2800.00000    -999.25    -999.25  313.74190  244.29260  244.29260   22.54200  172.83650 2167.75900    0.31710    -999.25    0.31710   44.36170  172.83650  171.69660  171.69660   39.06940   34.13740   33.91930   33.91930   44.36170   35.18270   35.18270    0.03530    -999.25    0.03530 2119.75220   92.71710  -46.32420  -48.98170   92.71710 17384.69340 18164.02930    -999.25
 2850.00000    -999.25    -999.25  388.15500  263.49200  263.49200    0.81000   88.44540 2452.81590    0.15040    -999.25    0.15040 1234.54920   88.44540  175.23230  175.23230   17.38560   13.07550   13.43920   13.43920 1234.54920  329.37920  329.37920    0.01950    -999.25    0.01950 2457.36670  666.15240  -62.17340  -65.05260  666.15240 17172.73440 18515.83200    -999.25
 2900.00000    -999.25    -999.25  282.57100  235.31140  235.31140   43.70990  247.47930 2455.03910    0.14910    -999.25    0.14910   22.87810  247.47930  178.59020  178.59020   37.81880   39.07870   38.54760   38.54760   22.87810   19.06360   19.06360    0.04840    -999.25    0.04840 2536.46070   26.03890  -66.84650  -69.94750   26.03890 17429.19530 18728.40820    -999.25
 2950.00000    -999.25    -999.25  243.68550  232.78830  232.78830    2.18330  206.76090 2701.62110    0.00490    -999.25    0.00490  458.01790  206.76090  168.02470  168.02470   34.29540   40.00140   40.34560   40.34560  458.01790  345.11280  345.11280    0.01620    -999.25    0.01620 2699.31540  277.92590  -29.44900  -32.77170  277.92590 17566.10160 19222.59770    -999.25
 3000.00000    -999.25    -999.25  396.26020  237.29810  237.29810    0.57130  119.53820 2386.12600    0.18940    -999.25    0.18940 1750.42810  119.53820  168.92070  168.92070   10.54170   13.06460   12.72170   12.72170 1750.42810 2010.68820 2010.68820    0.00620    -999.25    0.00620 2386.16330 1533.71620 -108.47730 -112.02170 1533.71620 19442.79100 18951.52540    -999.25
 3050.00000    -999.25    -999.25  292.72600  239.46890  239.46890   10.23160  250.01170 2724.53490   -0.00850    -999.25   -0.00850   97.73670  250.01170  174.64510  174.64510   42.74870   41.64670   42.03500   42.03500   97.73670  236.68320  236.68320    0.02030    -999.25    0.02030 2720.04000  105.62010   -0.93750   -5.94080  105.62010 18684.65040 19456.08590    -999.25
 3100.00000    -999.25    -999.25  244.10260  236.72840  236.72840    2.15920    9.01120 2689.13790    0.01220    -999.25    0.01220  463.13880    9.01120  169.82160  169.82160   34.07120   31.18890   31.39440   31.39440  463.13880  975.69870  975.69870    0.00750    -999.25    0.00750 2687.10230  417.62930  -21.92630  -29.40880  417.62930 18439.50780 20150.50390    -999.25
 3150.00000    -999.25    -999.25  252.19800  246.39010  246.39010   22.11800    1.81380 2702.13400    0.00460    -999.25    0.00460   45.21210    1.81380  191.08990  191.08990   45.24180   40.32680   40.19290   40.19290   45.21210   56.97610   56.97610    0.04180    -999.25    0.04180 2700.40310   51.33770   -4.34890  -14.31070   51.33770 18582.89650 19953.63670    -999.25
 3200.00000    -999.25    -999.25  243.16980  231.79190  231.79190   17.65210   -1.55400 2688.79590    0.01240    -999.25    0.01240   56.65040   -1.55400  208.57720  208.57720   77.19830   72.63610   72.62750   72.62750   56.65040   73.16750   73.16750    0.08860    -999.25    0.08860 2688.56420   67.95790  -11.74260  -23.62090   67.95790 20031.31640 20053.13090    -999.25
 3250.00000    -999.25    -999.25  220.85390  243.89880  243.89880    0.49860   13.93140 2727.10010   -0.01000    -999.25   -0.01000 2005.68740   13.93140  158.05620  158.05620   21.22360   16.77110   17.13740   17.13740 2005.68740 1988.20680 1988.20680    0.00040    -999.25    0.00040 2726.17040 1923.88330 -163.43650 -176.70340 1923.88330 19007.66800 20666.25200    -999.25
 3300.00000    -999.25    -999.25  213.05980  242.75180  242.75180    0.49880   -4.51100 2700.42410    0.00560    -999.25    0.00560 2004.96250   -4.51100  161.60480  161.60480   16.11380   11.69250   11.79180   11.79180 2004.96250 1460.93980 1460.93980    0.00240    -999.25    0.00240 2696.87620 1999.59070 -156.12330 -170.77880 1999.59070 19347.95310 21047.31840    -999.25
 3350.00000    -999.25    -999.25  212.81300  235.35490  235.35490    0.49890    1.23030 2709.31590    0.00040    -999.25    0.00040 2004.23770    1.23030  161.23280  161.23280   14.75130   14.29120   14.58330   14.58330 2004.23770 1839.81370 1839.81370    0.00760    -999.25    0.00760 2713.94630 1989.55910 -147.95830 -164.00250 1989.55910 19438.54690 21258.75590    -999.25
 3400.00000    -999.25    -999.25  217.80910  244.49530  244.49530    0.49910   12.22540 2726.41600   -0.00960    -999.25   -0.00960 2003.51270   12.22540  158.80420  158.80420   15.54410   13.93110   13.83850   13.83850 2003.51270 2033.56520 2033.56520    0.00270    -999.25    0.00270 2726.96780 2012.39140 -154.34120 -171.77400 2012.39140 19887.55470 21749.36720    -999.25
 3450.00000    -999.25    -999.25  222.90480  224.21720  224.21720   31.81810   16.19730 2730.00710   -0.01170    -999.25   -0.01170   31.42870   16.19730  170.21890  170.21890   27.48960   23.59150   23.68020   23.68020   31.42870  195.43910  195.43910    0.11790    -999.25    0.11790 2726.64600   39.11680  -78.97510  -97.79650   39.11680 20245.41020 21733.77340    -999.25
 3500.00000    -999.25    -999.25  286.27060  259.95680  259.95680    0.49540   27.25790 2971.97190   -0.15320    -999.25   -0.15320 2018.57840   27.25790  164.08760  164.08760   11.61290   12.76330   12.61700   12.61700 2018.57840 2042.36710 2042.36710   -0.00870    -999.25   -0.00870 2975.02910 2006.99490 -171.85600 -192.06610 2006.99490 20081.12110 21933.25000    -999.25
 3550.00000    -999.25    -999.25  331.31850  245.59240  245.59240    0.55630  249.91360 2549.77290    0.09370    -999.25    0.09370 1797.61670  249.91360  159.92890  159.92890   25.84580   23.03820   23.63020   23.63020 1797.61670 1176.61050 1176.61050    0.01250    -999.25    0.01250 2547.66430 1928.80190 -109.59220 -131.19090 1928.80190 20739.74610 22099.63090    -999.25
 3600.00000    -999.25    -999.25  479.81370  337.11020  337.11020  209.45480  119.18740 2262.32200    0.26180    -999.25    0.26180    4.77430  119.18740  250.70360  250.70360   60.51110   57.72040   57.52340   57.52340    4.77430    4.03620    4.03620    0.34900    -999.25    0.34900 2269.53150    5.40150   15.96490   -7.36750    5.40150 21580.08590 22516.31450    -999.25
 3650.00000    -999.25    -999.25  573.78990  369.60600  369.60600  258.27780   61.05580 1869.70610    0.49140    -999.25    0.49140    3.87180   61.05580  263.36400  263.36400   68.55900   71.78090   71.22150   71.22150    3.87180    3.05090    3.05090    0.43300    -999.25    0.43300 1848.87740    3.99940    6.41610  -20.60520    3.99940 21114.78520 22233.17380    -999.25
 3700.00000    -999.25    -999.25  325.84860  264.66260  264.66260   89.53510    -999.25 2596.28490    0.06650    -999.25    0.06650   11.16880    -999.25  209.77480  209.77480   65.44220   64.12470   64.85010   64.85010   11.16880   12.70980   12.70980    0.10040    -999.25    0.10040 2584.85250   13.06210    3.35350  -20.26140   13.06210 21286.09180 22390.67190    -999.25
 3750.00000    -999.25    -999.25  264.86650  264.82620  264.82620   71.28600   11.52740 2709.65800    0.00020    -999.25    0.00020   14.02800   11.52740  192.08080  192.08080   56.92980   51.32530   50.38170   50.38170   14.02800   17.39760   17.39760    0.09040    -999.25    0.09040 2711.12600   24.35340  -30.15880  -46.84100   24.35340 22231.78120 23022.91600    -999.25
 3800.00000    -999.25    -999.25  231.85570  232.56270  232.56270  102.62620   -2.82330 2710.68410   -0.00040    -999.25   -0.00040    9.74410   -2.82330  211.83890  211.83890   78.43680   79.80790   80.94160   80.94160    9.74410   11.29330   11.29330    0.12040    -999.25    0.12040 2708.52370   14.35500   26.92350   13.36270   14.35500 23035.07810 23366.70310    -999.25
 3850.00000    -999.25    -999.25  323.28220  274.41220  274.41220   47.20190   91.77640 1949.73400    0.44460    -999.25    0.44460   21.18560   91.77640  262.78140  262.78140  120.58170  150.70750  155.68610  155.68610   21.18560   38.95610   38.95610    0.31500    -999.25    0.31500 1949.50050   84.97510   15.93060    2.92900   84.97510 22568.10160 23759.60940    -999.25
