~Version ---------------------------------------------------
VERS.      2.0 : CWLS log ASCII Standard -VERSION 2.0
WRAP.       NO : One line per depth step
CREA. 11/03/17 : LAS Creation Date
~Well ------------------------------------------------------
STRT.FT                            1050.0 : START DEPTH
STOP.FT                            9900.0 : STOP DEPTH
STEP.FT                          50.00000 : STEP LENGTH
NULL.                             -999.25 : NULL VALUE
COMP.       HUDSON'S BAY OIL & GAS CO LTD : COMPANY
WELL. HB QUINTANA GULF EAGLET 16-13-64-17 : WELL
FLD .                                     : FIELD
LOC .                                     : LOCATION
CTRY.                              CANADA : COUNTRY
SRVC.                        Schlumberger : SERVICE COMPANY
DATE.                         24-Mar-1972 : LOGDATE
PROV.                             Alberta : PROVINCE
UWI .                    100161306417W500 : UNIQUE WELL ID
SLAT.WGS84                       54.54267 : SURFACE LATITUDE
SLON.WGS84                      -116.4235 : SURFACE LONGITUDE
~Curve Information -----------------------------------------
DEPT  .FT    : Depth Curve
CALSED.IN    : CALIPER FROM SONIC LOG
CALWS .IN    : CALIPER [CALRED]
CONDWS.MMHO  : CONDUCTIVITY [1000/DRESWS]
DRESWS.OHMM  : DEEP RESISTIVITY [ILDED]
DTED  .US/F  : DELTA-T FROM SONIC LOG
DTWS  .US/F  : COMPRESSIONAL SONIC [DTED]
GRSED .GAPI  : GAMMA RAY FROM SONIC LOG
GRWS  .GAPI  : GAMMA RAY [GRSED]
ILDED .OHMM  : DEEP INDUCTION RESISTIVITY FROM RESISTIVITY LOG
ILMED .OHMM  : MEDIUM INDUCTION RESISTIVITY FROM RESISTIVITY LOG
LL8ED .OHMM  : LATEROLOG 8 FROM RESISTIVITY LOG
MRESWS.OHMM  : MEDIUM RESISTIVITY [ILMED]
SPRED .MV    : SPONTANEOUS POTENTIAL FROM RESISTIVITY LOG
SPWS  .MV    : SPONTANEOUS POTENTIAL [BASELINE 0 MV,SPRED]
SRESWS.OHMM  : SHALLOW RESISTIVITY [LL8ED]
~Params ----------------------------------------------------
PD  .                     GL : PERMANENT DATUM
EPD .FT                 3075 : ELEVATION PERMANENT DATUM
LMF .                     KB : LOG MEASURED FROM
DAPD.FT                 13.5 : FEET ABOVE PERMANENT DATUM
DMF .                     KB : DRILLING MEASURED FROM
EKB .FT               3088.5 : KELLY BUSHING
EGL .FT                 3075 : GROUND LEVEL
DATE.               03/24/72 : RUN DATE
RUN .                      1 : RUN NUMBER
DD  .FT                 9942 : DEPTH DRILLER
DL  .FT                 9942 : DEPTH LOGGER
BLI .FT                 9936 : BOTTOM LOG INTERVAL
TLI .FT                 1030 : TOP LOG INTERVAL
CBD .FT                 1030 : CASING BOTTOM DRILLER
CBL .FT                 1030 : CASING BOTTOM LOGGER
BS  .IN                7.875 : BIT SIZE
BSD .FT                 9942 : BIT SIZE AT DEPTH
DFT .               CHEM GEL : DRILLING FLUID TYPE
DFD .                    9.4 : DRILLING FLUID DENSITY
DFV .                    147 : DRILLING FLUID VISCOSITY
DFPH.                    9.5 : DRILLING FLUID PH
DFL .                    9.4 : DRILLING FLUID LOSS
MSS .             CIRCULATED : MUD SAMPLE SOURCE
RMS .OHMM                2.4 : RESISTIVITY MUD SAMPLE
MST .DEGF                 84 : MUD SAMPLE TEMPERATURE
TCS .HRS                   3 : TIME CIRCULATED STOPPED
LUN .                   5670 : LOGGING UNIT NUMBER
LUL .                    EDM : LOGGING UNIT LOCATION
ENGI.        IBSEN SUNDQUIST : RECORDING ENGINEER
WITN.      POCHE FITZSIMMONS : WITNESSED BY
CLNT.                A2DTECH : CLIENT CODE
ORIG.            2" 5" PRINT : ORIGIN OF DATA
UWI .       100161306417W500 : UNIQUE WELL ID
DICO. A2D Technologies, Inc. : DIGITIZING COMPANY
~Other -----------------------------------------------------
~ASCII -----------------------------------------------------
# ...
 3350.00000    8.91290    8.91290  133.70340    7.48380   94.86830   94.86830   92.50280   92.50280    7.48380    9.10880    8.27440    9.10880   15.36820   -6.55620    8.27440
 3400.00000    9.09360    9.09360  153.53440    6.51320   91.57380   91.57380   90.19860   90.19860    6.51320    8.02080    7.12090    8.02080   13.46430   -8.88430    7.12090
 3450.00000   10.43920   10.43920  190.02830    5.26240  104.72860  104.72860   76.26340   76.26340    5.26240    6.53510    5.70370    6.53510    9.81340  -12.96380    5.70370
 3500.00000    9.70400    9.70400  156.26710    6.39930   92.26970   92.26970   81.29450   81.29450    6.39930    7.62590    6.82590    7.62590   11.86040  -11.34100    6.82590
 3550.00000    9.95670    9.95670  145.73220    6.86190   96.02320   96.02320   89.78750   89.78750    6.86190    8.34100    7.42110    8.34100   15.55050   -8.07730    7.42110
 3600.00000    9.19570    9.19570  181.81300    5.50020   97.46320   97.46320   81.07890   81.07890    5.50020    6.87880    5.91960    6.87880   12.21300  -11.84330    5.91960
 3650.00000    8.68830    8.68830  158.60430    6.30500   89.45200   89.45200   83.50420   83.50420    6.30500    7.74410    6.81740    7.74410   12.83270  -11.64780    6.81740
 3700.00000   10.03210   10.03210  153.55400    6.51560  104.29460  104.29460   83.01180   83.01180    6.51560    8.06160    7.49430    8.06160   12.14450  -12.76460    7.49430
 3750.00000    9.72760    9.72760  180.61950    5.53650   93.66630   93.66630   91.72230   91.72230    5.53650    6.92060    5.89630    6.92060   12.93880  -12.39450    5.89630
 3800.00000   10.17670   10.17670  140.40010    7.12250   87.13370   87.13370   81.01220   81.01220    7.12250    7.60770    8.57480    7.60770   13.84260  -11.91710    8.57480
 3850.00000    9.52160    9.52160  153.90860    6.49770   89.90020   89.90020   85.92780   85.92780    6.49770    7.10780    8.03170    7.10780   14.89200  -11.29620    8.03170
 3900.00000    9.80010    9.80010  166.78900    5.99560   95.33130   95.33130   97.92300   97.92300    5.99560    6.37510    7.48170    6.37510   14.81600  -11.79640    7.48170
 3950.00000    9.19030    9.19030  155.04670    6.45190   93.35900   93.35900   93.40570   93.40570    6.45190    7.36470    8.05470    7.36470   16.74310  -10.29790    8.05470
 4000.00000    9.22510    9.22510  179.31750    5.57670   93.77810   93.77810   97.81660   97.81660    5.57670    6.30420    7.30710    6.30420   21.18940   -6.27580    7.30710
 4050.00000    9.05230    9.05230  176.06560    5.67970   97.28990   97.28990  110.66220  110.66220    5.67970    6.07610    7.31480    6.07610   23.14420   -4.74740    7.31480
 4100.00000    8.75410    8.75410  158.46730    6.31080   97.82960   97.82960  109.79440  109.79440    6.31080    6.75810    7.78350    6.75810   24.05810   -4.26190    7.78350
 4150.00000    8.51330    8.51330  150.93880    6.62520   96.25550   96.25550  101.23380  101.23380    6.62520    7.03100    8.50590    7.03100   24.15040   -4.59390    8.50590
 4200.00000    8.14200    8.14200  132.17650    7.56610   99.20570   99.20570  127.62770  127.62770    7.56610    8.15120   10.47650    8.15120   25.58450   -3.58840   10.47650
 4250.00000    8.08710    8.08710  129.01060    7.75130  100.36960  100.36960  132.10660  132.10660    7.75130    8.12840   11.08280    8.12840   26.40410   -3.19300   11.08280
 4300.00000    8.53420    8.53420  139.38450    7.17440   83.33530   83.33530   81.64450   81.64450    7.17440    8.02650    9.06160    8.02650   23.42010   -6.60340    9.06160
 4350.00000    8.88160    8.88160  211.78730    4.72210   91.79060   91.79060   95.39050   95.39050    4.72210    4.97850    5.54470    4.97850   26.84830   -3.60370    5.54470
 4400.00000    8.76800    8.76800  178.17370    5.61250   87.52920   87.52920   93.87320   93.87320    5.61250    6.05250    6.71680    6.05250   27.71800   -3.15820    6.71680
 4450.00000    8.86190    8.86190  189.60590    5.27410   87.66140   87.66140   95.94610   95.94610    5.27410    5.67600    6.44450    5.67600   27.92560   -3.37920    6.44450
 4500.00000    8.68590    8.68590  161.57960    6.18890   83.70170   83.70170   90.13920   90.13920    6.18890    6.69240    6.91940    6.69240   25.28680   -6.44220    6.91940
 4550.00000    9.38980    9.38980  214.45880    4.66290   89.87680   89.87680   98.56980   98.56980    4.66290    5.12650    5.68310    5.12650   28.19290   -3.96250    5.68310
 4600.00000   10.45290   10.45290  264.11220    3.78630   96.76420   96.76420   98.43470   98.43470    3.78630    3.98110    5.11090    3.98110   27.02770   -5.55620    5.11090
 4650.00000    9.95890    9.95890  209.17880    4.78060   92.62050   92.62050  110.48850  110.48850    4.78060    5.09050    5.96110    5.09050   29.63140   -3.37670    5.96110
 4700.00000    9.24710    9.24710  432.93800    2.30980  102.53900  102.53900  113.78140  113.78140    2.30980    2.45380    3.19400    2.45380   32.12440   -1.30930    3.19400
 4750.00000    9.96680    9.96680  443.22310    2.25620  103.40120  103.40120  101.59850  101.59850    2.25620    2.43550    3.17370    2.43550   28.87870   -4.91540    3.17370
 4800.00000    8.86500    8.86500  215.67060    4.63670   91.19950   91.19950   92.86770   92.86770    4.63670    4.09650    5.31350    4.09650   32.04580   -2.11050    5.31350
 4850.00000    9.80500    9.80500  188.98770    5.29170   90.11260   90.11260   97.29690   97.29690    5.29170    4.82120    5.81310    4.82120   31.57920   -2.94990    5.81310
 4900.00000    7.49520    7.49520   56.84850   17.59060   76.92400   76.92400   42.12430   42.12430   17.59060   21.38190   35.37410   21.38190  -18.37610  -53.51900   35.37410
 4950.00000    9.29570    9.29570  395.97390    2.53760   79.36570   79.36570   69.78430   69.78430    2.53760    2.79730    4.25400    2.79730   21.80870  -13.95420    4.25400
 5000.00000    7.83310    7.83310   53.79320   18.58970   78.05360   78.05360   45.40320   45.40320   18.58970   22.06560   32.61180   22.06560   -8.82980  -45.20640   32.61180
 5050.00000    9.59960    9.59960  122.87130    8.13860  118.88260  118.88260   72.02300   72.02300    8.13860    9.12480   15.67740    9.12480   34.01990   -2.97360   15.67740
 5100.00000    8.68860    8.68860  152.31960    6.59010   94.29230   94.29230   72.99920   72.99920    6.59010    7.45370    9.44280    7.45370   37.21650   -1.71470    9.44280
 5150.00000    9.40030    9.40030  133.61840    7.48400   77.51030   77.51030   53.98510   53.98510    7.48400    8.23830    9.11520    8.23830   29.43330  -11.99840    9.11520
 5200.00000    8.02530    8.02530  119.79820    8.34780   78.95050   78.95050   46.03270   46.03270    8.34780   10.10930   21.07220   10.10930  -10.68240  -54.63970   21.07220
 5250.00000    8.82870    8.82870  125.25210    7.98390   77.60760   77.60760   72.59110   72.59110    7.98390    8.65570    9.86870    8.65570   41.51780   -4.94000    9.86870
 5300.00000   10.34190   10.34190   44.74690   22.34790   97.73610   97.73610   71.71250   71.71250   22.34790   31.54440   50.45200   31.54440   36.06000  -12.91080   50.45200
 5350.00000    8.63990    8.63990  117.19900    8.53260   77.78140   77.78140   86.51350   86.51350    8.53260    8.97550   11.40770    8.97550   49.26340   -2.16860   11.40770
 5400.00000    8.78130    8.78130  255.25830    3.91760   79.65840   79.65840   68.64460   68.64460    3.91760    4.53320    9.96340    4.53320    5.39930  -47.67850    9.96340
 5450.00000   10.82010   10.82010  101.19040   10.00150  126.43560  126.43560   42.39660   42.39660   10.00150   11.94570   13.74770   11.94570   38.83630  -15.90370   13.74770
 5500.00000    7.77450    7.77450  215.44300    4.64160   77.33600   77.33600   46.66430   46.66430    4.64160    7.46890   20.59280    7.46890  -30.86420  -87.25000   20.59280
 5550.00000    8.32420    8.32420  146.16680    6.84150   74.73490   74.73490   66.95620   66.95620    6.84150    7.17340    8.67010    7.17340   43.71970  -14.32010    8.67010
 5600.00000    8.58240    8.58240  129.59780    7.71630   76.93080   76.93080   82.96630   82.96630    7.71630    8.43040    9.01810    8.43040   47.14440  -12.55780    9.01810
