~Version ---------------------------------------------------
VERS.      2.0 : CWLS log ASCII Standard -VERSION 2.0
WRAP.       NO : One line per depth step
CREA. 08/13/13 : LAS Creation Date
~Well ------------------------------------------------------
STRT.M                         300.0 : START DEPTH
STOP.M                        2850.0 : STOP DEPTH
STEP.M                      50.00000 : STEP LENGTH
NULL.                        -999.25 : NULL VALUE
COMP.      GULF CANADA RESOURCES INC : COMPANY
WELL. GULF UNIT GOOSE RIVER 2-15-67- : WELL
FLD .                                : FIELD
LOC .                                : LOCATION
CTRY.                         CANADA : COUNTRY
SRVC.                        Unknown : SERVICE COMPANY
DATE.                    24-Jan-1984 : LOGDATE
PROV.                        Alberta : PROVINCE
UWI .               100021506718W500 : UNIQUE WELL ID
SLAT.WGS84                  54.79387 : SURFACE LATITUDE
SLON.WGS84                 -116.6546 : SURFACE LONGITUDE
~Curve Information -----------------------------------------
DEPT    .M      : DEPTH METER
C2ED    .MM     : CALIPER 2 FROM DENSITY LOG [ADJ.TO RESISTIVITY LOG]
CALDED  .MM     : CALIPER FROM DENSITY LOG [ADJ.TO RESISTIVITY LOG]
CALSED  .MM     : CALIPER FROM SONIC LOG
CALWS   .MM     : CALIPER [CALSED SPL.TO CALDED @ 2888M]
CILDED  .MMHO   : CONDUCTIVITY FROM RESISTIVITY LOG
CONDWS  .MMHO   : CONDUCTIVITY [1000/DRESWS]
DCORWS  .KG/M3  : DENSITY CORRECTION [DRHOED]
DENWS   .KG/M3  : FORMATION BULK DENSITY [RHOBED]
DPHILSED.V/V    : DENSITY POROSITY LIMESTONE [M=2710, F=1000] FROM DENSITY LOG [ADJ.TO RESISTIVITY LOG]
DPHISSED.V/V    : DENSITY POROSITY SANDSTONE [M=2650, F=1000] FROM DENSITY LOG [ADJ.TO RESISTIVITY LOG]
DPOLSWS .V/V    : DENSITY POROSITY LIMESTONE [CALC FROM DENWS, M=2710, F=1000]
DRESWS  .OHMM   : DEEP RESISTIVITY [1000/CILDED IF ILDED <1, ILDED, SPL @1096M TO ILDED]
DRHOED  .KG/M3  : DENSITY CORRECTION FROM DENSITY LOG [ADJ.TO RESISTIVITY LOG]
DTED    .US/M   : DELTA TIME FROM SONIC LOG
DTWS    .US/M   : COMPRESSIONAL SONIC [DTED]
GRDED   .GAPI   : GAMMA RAY FROM DENSITY LOG [ADJ.TO RESISTIVITY LOG]
GRSED   .GAPI   : GAMMA RAY FROM SONIC LOG
GRWS    .GAPI   : GAMMA RAY [GRSED SPL.TO GRDED @ 2880.5M]
ILDED   .OHMM   : DEEP INDUCTION FROM RESISTIVITY LOG
ILMED   .OHMM   : MEDIUM INDUCTION FROM RESISTIVITY LOG
MRESWS  .OHMM   : MEDIUM RESISTIVITY [ILMED]
NPHILSED.V/V    : NEUTRON POROSITY LIMESTONE FROM DENSITY LOG [ADJ.TO RESISTIVITY LOG]
NPHISSED.V/V    : NEUTRON POROSITY SANDSTONE FROM DENSITY LOG [ADJ.TO RESISTIVITY LOG]
NPOLSWS .V/V    : NEUTRON POROSITY LIMESTONE [NPHISSED MATRIX (SLB) CONVERSION FOR LIMESTONE, SPL.TO NPHILSED @ 1600.8M]
RHOBED  .KG/M3  : BULK DENSITY FROM DENSITY LOG [ADJ.TO RESISTIVITY LOG]
SFLUED  .OHMM   : SHALLOW FOCUSED FROM RESISTIVITY LOG
SPRED   .MV     : SPONTANEOUS POTENTIAL FROM RESISTIVITY LOG
SPWS    .MV     : SPONTANEOUS POTENTIAL [BASELINE 0 MV, SPRED]
SRESWS  .OHMM   : SHALLOW RESISTIVITY [SFLUED]
~Params ----------------------------------------------------
PD  .                         GL : PERMANENT DATUM
EPD .M                    810.15 : ELEVATION PERMANENT DATUM
LMF .                         KB : LOG MEASURED FROM
DAPD.M                       5.2 : FEET ABOVE PERMANENT DATUM
DMF .                         KB : DRILLING MEASURED FROM
EKB .M                    815.35 : KELLY BUSHING
EDF .M                    815.05 : DRILLING FLOOR
EGL .M                    810.15 : GROUND LEVEL
DATE.                   01/24/84 : RUN DATE
RUN .                          1 : RUN NUMBER
DD  .M                      2900 : DEPTH DRILLER
DL  .M                    2900.5 : DEPTH LOGGER
BLI .M                    2889.6 : BOTTOM LOG INTERVAL
TLI .M                     301.5 : TOP LOG INTERVAL
CS  .MM                      244 : CASING SIZE
CBD .M                       301 : CASING BOTTOM DRILLER
CBL .M                     301.5 : CASING BOTTOM LOGGER
BS  .MM                    222.2 : BIT SIZE
BSD .M                      2900 : BIT SIZE AT DEPTH
DFT .                   GEL CHEM : DRILLING FLUID TYPE
DFD .                       1110 : DRILLING FLUID DENSITY
DFV .                         96 : DRILLING FLUID VISCOSITY
DFPH.                        7.5 : DRILLING FLUID PH
DFL .                        9.5 : DRILLING FLUID LOSS
MSS .                   FLOWLINE : MUD SAMPLE SOURCE
RMS .OHMM                   2.68 : RESISTIVITY MUD SAMPLE
MST .DEGC                     19 : MUD SAMPLE TEMPERATURE
RMF .OHMM                   2.36 : RESISTIVITY MUD FILTRATE SAMPLE
MFST.DEGC                     17 : MUD FILTRATE SAMPLE TEMPERATURE
RMC .OHMM                  0.847 : RESISTIVITY MUD CAKE
MCST.DEGC                     86 : MUD CAKE SAMPLE TEMPERATURE
MFSS.                      PRESS : MUD FILTRATE SAMPLE SOURCE
RMB .OHMM                  1.012 : RESISTIVITY MUD AT BHT
TCS .HRS                    1000 : TIME CIRCULATED STOPPED
TLAB.HRS                    2030 : TIME LOGGER AT BOTTOM
LUN .                       8156 : LOGGING UNIT NUMBER
LUL .                        EDM : LOGGING UNIT LOCATION
ENGI.                    GAGGINO : RECORDING ENGINEER
WITN.                   GILKISON : WITNESSED BY
CLNT.                    A2DTECH : CLIENT CODE
ORIG. 6.5"/100M 16.5"/100M PRINT : ORIGIN OF DATA
UWI .           100021506718W500 : UNIQUE WELL ID
DICO.     A2D Technologies, Inc. : DIGITIZING COMPANY
~Other -----------------------------------------------------
DI-SFL-BHC LOG RUN IN COMBO & CN-FDC LOG RUN
SPRED,CILDED,ILDED,SFLU CURVE DIG IN SMALL SCALE @ CSG.TO 1196M
RHOBED DIG IN SMALL SCALE & GRSED,CALSED,DTED FROM TOP TO 1100M
RHOB/DPHI_SS  NOT OVERLAPING BUT CURVE DATA MATCHING  WITH LOG IMAGE. FROM DEPTH 1109.9M TO 1158.5M
~ASCII -----------------------------------------------------
# ...
 1550.00000  267.15720  265.27840  266.09040  266.09040    -999.25   89.73200   -4.50490 2496.73580    -999.25    0.09220    0.12470   11.14430   -4.50490  247.99310  247.99310   75.07280   72.71710   72.71710   11.14430   12.19720   12.19720    -999.25    0.26270    0.21870 2496.73580   16.55160 -101.76800  -18.74360   16.55160
 1600.00000  372.75360  250.66740  273.32070  273.32070    -999.25   81.71940  139.72610 2327.09080    -999.25    0.19610    0.22390   12.23700  139.72610  351.02290  351.02290  136.25220  132.01560  132.01560   12.23700   10.53590   10.53590    -999.25    0.54500    0.50760 2327.09080   12.34630  -82.62880   -4.73450   12.34630
 1650.00000  224.92990  230.12370  220.28610  220.28610    -999.25  317.53090   34.61950 2384.69630    0.18880    0.15960    0.19020    3.14930   34.61950  237.31410  237.31410   50.30750   48.14480   48.14480    3.14930    5.46320    5.46320    0.17620    0.21790    0.17620 2384.69630   15.44660 -176.83010 -101.47680   15.44660
 1700.00000  273.36550  275.62600  272.77720  272.77720    -999.25   67.06190    8.32520 2784.41720   -0.04210    -999.25   -0.04350   14.91160    8.32520  158.54710  158.54710   34.30940   28.97200   28.97200   14.91160   19.03580   19.03580    0.08210    -999.25    0.08210 2784.41720   63.21160 -106.09700  -32.35760   63.21160
 1750.00000  300.92010  303.74980  303.66750  303.66750    -999.25   29.03380   -8.38170 2685.76680    0.01450    -999.25    0.01420   34.44260   -8.38170  181.04340  181.04340   47.81110   45.90640   45.90640   34.44260   41.21650   41.21650    0.05430    -999.25    0.05430 2685.76680   63.44110  -76.50320   -4.37760   63.44110
 1800.00000  321.80510  307.88750  288.26510  288.26510    -999.25  390.86930   69.47480 2632.52470    0.03800    -999.25    0.04530    2.55840   69.47480  222.85290  222.85290   24.53130   23.40650   23.40650    2.55840    3.54450    3.54450    0.21600    -999.25    0.21600 2632.52470   19.19730 -159.42250  -87.22210   19.19730
 1850.00000  322.50280  308.51820  290.44790  290.44790    -999.25   26.35580  -18.10430 2655.12080    0.02970    -999.25    0.03210   37.94230  -18.10430  169.06970  169.06970   18.57600   16.94910   16.94910   37.94230   49.92190   49.92190    0.06470    -999.25    0.06470 2655.12080  108.91660 -181.31220 -108.19760  108.91660
 1900.00000  328.85940  320.32470  322.28170  322.28170    -999.25  288.87540  -25.19660 2308.40210    0.20840    -999.25    0.23490    3.46170  -25.19660  225.86060  225.86060   59.76810   64.78970   64.78970    3.46170    3.60710    3.60710    0.27500    -999.25    0.27500 2308.40210    3.86650  -88.08640  -18.43150    3.86650
 1950.00000  282.88700  275.57430  280.87950  280.87950    -999.25   16.07530    0.23830 2685.13450    0.01400    -999.25    0.01450   62.20720    0.23830  172.39350  172.39350   27.95780   25.91260   25.91260   62.20720   73.34260   73.34260    0.02250    -999.25    0.02250 2685.13450  114.95560 -102.26490  -30.33640  114.95560
 2000.00000  241.94070  242.85630  237.10540  237.10540    -999.25   17.19340  -16.14490 2671.01440    0.02220    -999.25    0.02280   58.16190  -16.14490  175.87660  175.87660   34.67320   32.51610   32.51610   58.16190   72.18580   72.18580    0.02460    -999.25    0.02460 2671.01440   84.08130 -101.68430  -30.23510   84.08130
 2050.00000  265.55810  297.27430  277.16090  277.16090    -999.25   23.19530  -15.44040 2661.77930    0.02960    -999.25    0.02820   43.11210  -15.44040  218.22680  218.22680   71.57200   72.49080   72.49080   43.11210   49.34270   49.34270    0.12650    -999.25    0.12650 2661.77930   54.03040  -68.79520   -1.66690   54.03040
 2100.00000  246.49920  287.26800  258.70450  258.70450    -999.25    5.64190   -9.90790 2705.34160   -0.00010    -999.25    0.00270  177.24460   -9.90790  163.50490  163.50490   16.89680   17.17530   17.17530  177.24460  269.14470  269.14470    0.00900    -999.25    0.00900 2705.34160  475.59680 -169.50890  -95.43990  475.59680
 2150.00000  237.32750  272.25140  246.30560  246.30560    -999.25    6.28300  245.68190 2832.20120   -0.07270    -999.25   -0.07150  159.15850  245.68190  161.15390  161.15390   15.67760   13.48180   13.48180  159.15850  239.45460  239.45460    0.00950    -999.25    0.00950 2832.20120  328.98700 -133.74860  -56.22250  328.98700
 2200.00000  314.59190  313.95760  253.17630  253.17630    -999.25    9.24210  245.67210 2657.79440    0.02990    -999.25    0.03050  108.20100  245.67210  167.20740  167.20740   12.02980   13.83720   13.83720  108.20100  191.17060  191.17060   -0.00170    -999.25   -0.00170 2657.79440  328.54700 -187.26200 -106.27880  328.54700
 2250.00000  349.84760  230.87750  265.15410  265.15410    -999.25    3.12010   19.95570 2672.25120    0.02170    -999.25    0.02210  320.50730   19.95570  168.57670  168.57670   17.00370   15.40710   15.40710  320.50730  176.69120  176.69120    0.01420    -999.25    0.01420 2672.25120 1569.46680 -182.17130  -97.73100 1569.46680
 2300.00000  289.68510  283.37630  260.45100  260.45100    -999.25   26.87230  105.94730 2650.30180    0.03700    -999.25    0.03490   37.21300  105.94730  173.32810  173.32810   12.06630   14.19090   14.19090   37.21300   48.06450   48.06450    0.02080    -999.25    0.02080 2650.30180  197.18010 -170.80210  -82.90470  197.18010
 2350.00000  270.92970  238.75240  243.59850  243.59850    -999.25   12.71250   81.62010 2748.06710   -0.02100    -999.25   -0.02230   78.66260   81.62010  164.92870  164.92870   15.68130   14.78220   14.78220   78.66260  142.04050  142.04050    0.08240    -999.25    0.08240 2748.06710  483.09410 -147.37690  -69.95800  483.09410
 2400.00000  306.22330  240.90320  257.23460  257.23460    -999.25   11.17770    3.60810 2700.73220    0.00490    -999.25    0.00540   89.46360    3.60810  184.63750  184.63750   24.04580   25.86680   25.86680   89.46360   77.08140   77.08140    0.08470    -999.25    0.08470 2700.73220   84.23700 -109.60030  -59.18850   84.23700
 2450.00000  278.06060  374.75170  311.72020  311.72020    -999.25  122.12250  146.65660 2076.84720    0.37090    -999.25    0.37030    8.18850  146.65660  224.47070  224.47070   56.85750   58.99610   58.99610    8.18850    8.54520    8.54520    0.25370    -999.25    0.25370 2076.84720    9.51470  -53.43300  -13.51350    9.51470
 2500.00000  380.07840  516.00700  382.53380  382.53380    -999.25  245.06800  188.69310 2069.66460    0.37370    -999.25    0.37450    4.08050  188.69310  267.26360  267.26360   68.62080   71.30730   71.30730    4.08050    3.41110    3.41110    0.46500    -999.25    0.46500 2069.66460    4.19490  -58.94020  -19.35860    4.19490
 2550.00000  382.04710  374.92450  381.63500  381.63500    -999.25  222.74690  205.64810 2290.18730    0.24620    -999.25    0.24550    4.48940  205.64810  267.48660  267.48660   67.79190   76.34460   76.34460    4.48940    4.19820    4.19820    0.41410    -999.25    0.41410 2290.18730    5.05840  -31.78390   -8.70780    5.05840
 2600.00000  274.35150  243.45650  250.34910  250.34910    -999.25  110.30830   24.62430 2733.65600   -0.01620    -999.25   -0.01380    9.06550   24.62430  218.04180  218.04180   74.73900   74.21610   74.21610    9.06550   10.24570   10.24570    0.16730    -999.25    0.16730 2733.65600   13.55610  -20.53020  -11.42240   13.55610
 2650.00000  243.32460  230.75750  235.76710  235.76710    -999.25  129.51860   -1.47040 2707.79100    0.00310    -999.25    0.00130    7.72090   -1.47040  226.91580  226.91580   79.19330   88.14700   88.14700    7.72090    8.50430    8.50430    0.15780    -999.25    0.15780 2707.79100   10.23450  -27.18570  -20.16140   10.23450
 2700.00000  245.73640  228.46330  232.62170  232.62170    -999.25  146.49440  -20.69620 2662.80620    0.02630    -999.25    0.02760    6.82620  -20.69620  234.65950  234.65950   83.31880   82.79450   82.79450    6.82620    7.29330    7.29330    0.18890    -999.25    0.18890 2662.80620    9.53190   -9.93210  -12.32690    9.53190
 2750.00000  237.44870  225.26040  229.68780  229.68780    -999.25   41.91540   17.55880 2598.55370    0.06620    -999.25    0.06520   23.85760   17.55880  272.92060  272.92060  115.65600  123.54230  123.54230   23.85760   28.94800   28.94800    0.25280    -999.25    0.25280 2598.55370   44.62940  -10.54880  -13.91240   44.62940
