~Version ---------------------------------------------------
VERS.      2.0 : CWLS log ASCII Standard -VERSION 2.0
WRAP.       NO : One line per depth step
CREA. 01/03/18 : LAS Creation Date
~Well ------------------------------------------------------
STRT.FT                        800.0 : START DEPTH
STOP.FT                       8500.0 : STOP DEPTH
STEP.FT                     50.00000 : STEP LENGTH
NULL.                        -999.25 : NULL VALUE
COMP.        PETROMARK MINERALS LTD. : COMPANY
WELL. PETROMK IOE KINAKIN 4-12-64-10 : WELL
FLD .                                : FIELD
LOC .                                : LOCATION
CTRY.                         CANADA : COUNTRY
SRVC.                   Schlumberger : SERVICE COMPANY
DATE.                    02-Jan-1976 : LOGDATE
PROV.                        Alberta : PROVINCE
UWI .               100041206410W500 : UNIQUE WELL ID
SLAT.WGS84                  54.51845 : SURFACE LATITUDE
SLON.WGS84                 -115.3807 : SURFACE LONGITUDE
~Curve Information -----------------------------------------
DEPT  .FT    : Depth Curve
CALSED.IN    : CALIPER FROM SONIC LOG
CALWS .IN    : CALIPER [CALSED]
CILDED.MMHO  : CONDUCTIVITY FROM RESISTIVITY LOG
CONDWS.MMHO  : CONDUCTIVITY [866' CILDED 7400' 1000/ILDED]
DRESWS.OHMM  : DEEP RESISTIVITY [1000/CONDWS]
DTED  .US/F  : DELTA TIME FROM SONIC LOG
DTWS  .US/F  : DELTA TIME [DTED]
GRSED .GAPI  : GAMMA RAY FROM SONIC LOG
GRWS  .GAPI  : GAMMA RAY [GRSED]
ILDED .OHMM  : INDUCTION LOG DEEP RESISTIVITY
ILMED .OHMM  : INDUCTION LOG MEDIUM RESISTIVITY
LL8ED .OHMM  : 8 INCH LATEROLOG RESISTIVITY [FILLED GAPS]
MRESWS.OHMM  : MEDIUM RESISTIVITY [ILMED]
SPRED .MV    : SPONTANEOUS POTENTIAL FROM RESISTIVITY LOG
SPWS  .MV    : SPONTANEOUS POTENTIAL [BASELINE 0 MV] [SPRED]
SRESWS.OHMM  : SHALLOW RESISTIVITY [LL8ED]
~Params ----------------------------------------------------
PD  .                     GL : PERMANENT DATUM
EPD .FT               3170.9 : ELEVATION PERMANENT DATUM
LMF .                     KB : LOG MEASURED FROM
DAPD.FT                 14.4 : FEET ABOVE PERMANENT DATUM
EKB .FT               3185.3 : KELLY BUSHING
EGL .FT               3170.9 : GROUND LEVEL
DATE.               02/01/76 : RUN DATE
RUN .                      1 : RUN NUMBER
DD  .FT                 8507 : DEPTH DRILLER
DL  .FT                 8510 : DEPTH LOGGER
BLI .FT                 8504 : BOTTOM LOG INTERVAL
TLI .FT                  861 : TOP LOG INTERVAL
CBD .FT                  861 : CASING BOTTOM DRILLER
CBL .FT                  861 : CASING BOTTOM LOGGER
BS  .IN                7.875 : BIT SIZE
BSD .FT                 8507 : BIT SIZE AT DEPTH
DFT .               GEL CHEM : DRILLING FLUID TYPE
DFD .                    9.4 : DRILLING FLUID DENSITY
DFV .                    106 : DRILLING FLUID VISCOSITY
DFPH.                    9.5 : DRILLING FLUID PH
DFL .                      6 : DRILLING FLUID LOSS
MSS .            CIRCULATION : MUD SAMPLE SOURCE
RMS .OHMM               1.97 : RESISTIVITY MUD SAMPLE
MST .DEGF                 58 : MUD SAMPLE TEMPERATURE
RMF .OHMM                1.5 : RESISTIVITY MUD FILTRATE SAMPLE
MFST.DEGF                 58 : MUD FILTRATE SAMPLE TEMPERATURE
RMC .OHMM                2.3 : RESISTIVITY MUD CAKE
MCST.DEGF                 58 : MUD CAKE SAMPLE TEMPERATURE
TCS .HRS                   4 : TIME CIRCULATED STOPPED
LUN .                   7691 : LOGGING UNIT NUMBER
LUL .                    EDM : LOGGING UNIT LOCATION
ENGI.                  BORLE : RECORDING ENGINEER
WITN.                 SAVAGE : WITNESSED BY
CLNT.                A2DTECH : CLIENT CODE
ORIG.        2" 5" 10" PRINT : ORIGIN OF DATA
UWI .       100041206410W500 : UNIQUE WELL ID
DICO. A2D Technologies, Inc. : DIGITIZING COMPANY
~Other -----------------------------------------------------
~ASCII -----------------------------------------------------
  800.00000    -999.25    -999.25    -999.25    -999.25    -999.25    -999.25    -999.25   50.71570   50.71570    -999.25    -999.25    -999.25    -999.25    -999.25    -999.25    -999.25
  850.00000    -999.25    -999.25    -999.25    -999.25    -999.25    -999.25    -999.25   49.93170   49.93170    -999.25    -999.25    -999.25    -999.25    -999.25    -999.25    -999.25
  900.00000    8.54170    8.54170   74.84700   74.84700   13.36060  106.36730  106.36730   48.93940   48.93940   15.46850    -999.25   10.23500    -999.25  -38.18230  -21.71190   10.23500
  950.00000   10.21340   10.21340  238.34780  238.34780    4.19630  116.25430  116.25430   67.62270   67.62270    4.74200    -999.25    3.33730    -999.25  -26.35010   -9.87970    3.33730
 1000.00000    9.24450    9.24450  151.73830  151.73830    6.59030  137.38840  137.38840   48.70000   48.70000    7.38310    -999.25    4.83670    -999.25  -27.85950  -11.38910    4.83670
 1050.00000    9.40560    9.40560  289.19610  289.19610    3.45790  134.68240  134.68240   60.53410   60.53410    3.79140    -999.25    2.90730    -999.25  -25.96340   -9.49300    2.90730
 1100.00000    7.99210    7.99210   78.69090   78.69090   12.70910  118.84640  118.84640   42.60570   42.60570   14.59210    -999.25   10.51270    -999.25  -33.57440  -17.10400   10.51270
 1150.00000    8.63200    8.63200  215.95680  215.95680    4.63060  107.83330  107.83330   63.19100   63.19100    4.75700    -999.25    3.56030    -999.25  -24.31460   -7.84420    3.56030
 1200.00000   10.19760   10.19760  225.09520  225.09520    4.44340  130.15900  130.15900   49.10610   49.10610    4.88620    -999.25    3.66380    -999.25  -21.80410   -5.33370    3.66380
 1250.00000    8.97700    8.97700  206.11390  206.11390    4.85170  149.44020  149.44020   53.06710   53.06710    5.06350    -999.25    4.71670    -999.25  -25.68220   -9.21180    4.71670
 1300.00000    8.67600    8.67600  146.94790  146.94790    6.80510  108.37140  108.37140   64.07380   64.07380    7.00530    -999.25    5.30200    -999.25  -24.42500   -7.95460    5.30200
 1350.00000    8.80660    8.80660  308.87700  308.87700    3.24280  118.01610  118.01610   75.79120   75.79120    4.20900    -999.25    2.59010    -999.25  -25.45110   -8.98070    2.59010
 1400.00000    9.29810    9.29810  211.90140  211.90140    4.71920  120.66890  120.66890   62.33870   62.33870    5.83340    -999.25    5.17130    -999.25  -24.45630   -7.98590    5.17130
 1450.00000    8.78800    8.78800  228.96160  228.96160    4.37230  112.53150  112.53150   69.24220   69.24220    5.13510    -999.25    3.63470    -999.25  -26.65540  -10.18500    3.63470
 1500.00000    9.09390    9.09390  324.51750  324.51750    3.08150  113.31670  113.31670   63.17870   63.17870    3.35560    -999.25    2.54180    -999.25  -24.99150   -8.52110    2.54180
 1550.00000    9.64090    9.64090  288.24000  288.24000    3.46930  117.17660  117.17660   60.57030   60.57030    4.04310    -999.25    2.73540    -999.25  -25.20360   -8.73320    2.73540
 1600.00000    8.28460    8.28460   83.92170   83.92170   11.91610   84.76710   84.76710   45.85950   45.85950   13.83910    -999.25   10.44860    -999.25  -34.70690  -18.23650   10.44860
 1650.00000    9.25430    9.25430  238.52890  238.52890    4.19240  113.60620  113.60620   57.62180   57.62180    4.58400    -999.25    3.57090    -999.25  -26.25280   -9.78240    3.57090
 1700.00000    9.78680    9.78680  660.84830  660.84830    1.51320  154.28960  154.28960  112.11630  112.11630    1.85300    -999.25    1.52650    -999.25  -24.20100   -7.73060    1.52650
 1750.00000    8.79940    8.79940  224.91800  224.91800    4.44610  120.26570  120.26570   52.24730   52.24730    4.92660    -999.25    3.44460    -999.25  -26.21870   -9.74830    3.44460
 1800.00000    7.86310    7.86310   95.47070   95.47070   10.47440  104.73130  104.73130   55.71150   55.71150   11.96810    -999.25    8.68710    -999.25  -37.44030  -20.96990    8.68710
 1850.00000    9.96880    9.96880  234.89450  234.89450    4.26480  121.87020  121.87020   56.59300   56.59300    5.33090    -999.25    3.95590    -999.25  -26.05770   -9.58730    3.95590
 1900.00000    8.85750    8.85750  257.91840  257.91840    3.87720  108.92740  108.92740   50.34920   50.34920    4.27030    -999.25    3.05290    -999.25  -25.76080   -9.29040    3.05290
 1950.00000    8.11950    8.11950  121.00640  121.00640    8.28890   71.20080   71.20080   42.21510   42.21510    9.99850    -999.25    9.47170    -999.25  -25.08760   -8.61720    9.47170
 2000.00000    9.75600    9.75600  297.37940  297.37940    3.36270  118.15610  118.15610   67.08710   67.08710    3.78870    -999.25    2.66760    -999.25  -24.63570   -8.16530    2.66760
 2050.00000   10.27840   10.27840  219.87660  219.87660    4.54800  102.87990  102.87990   53.04230   53.04230    4.95970    -999.25    3.39030    -999.25  -24.09620   -7.62580    3.39030
 2100.00000    9.20960    9.20960  259.14770  259.14770    3.85880  106.28430  106.28430   63.85240   63.85240    4.33370    -999.25    2.99240    -999.25  -24.21690   -7.74640    2.99240
 2150.00000    8.31780    8.31780  131.41220  131.41220    7.60960  109.54610  109.54610   52.79600   52.79600    8.20880    -999.25    8.93380    -999.25  -33.38800  -16.91760    8.93380
 2200.00000    9.33250    9.33250  272.36640  272.36640    3.67150  108.06630  108.06630   57.88630   57.88630    4.01210    -999.25    3.09890    -999.25  -23.98790   -7.51740    3.09890
 2250.00000    9.21950    9.21950  233.00150  233.00150    4.29180  104.83240  104.83240   56.04180   56.04180    4.77340    -999.25    3.58660    -999.25  -25.08850   -8.61810    3.58660
 2300.00000   10.08610   10.08610  267.41740  267.41740    3.73950  110.55820  110.55820   49.87410   49.87410    3.91360    -999.25    3.22130    -999.25  -22.78530   -6.31490    3.22130
 2350.00000    8.50180    8.50180  185.13810  185.13810    5.40140  110.82540  110.82540   45.72190   45.72190    5.71630    -999.25    4.68430    -999.25  -28.33730  -11.86690    4.68430
 2400.00000    7.77050    7.77050  133.01650  133.01650    7.51790  111.05630  111.05630   35.28910   35.28910    8.31890    -999.25    8.78820    -999.25  -48.54640  -32.07600    8.78820
 2450.00000    8.58710    8.58710  239.12340  239.12340    4.18190  103.44420  103.44420   63.74020   63.74020    4.51570    -999.25    3.49890    -999.25  -23.60110   -7.13070    3.49890
 2500.00000    8.22420    8.22420   69.69510   69.69510   14.34820   60.26720   60.26720   31.69920   31.69920   15.70230    -999.25   35.17990    -999.25  -30.91160  -14.54450   35.17990
 2550.00000    8.49520    8.49520  250.32740  250.32740    3.99480  105.41400  105.41400   60.41740   60.41740    4.30800    -999.25    3.39590    -999.25  -24.62340   -8.54310    3.39590
 2600.00000    8.86910    8.86910  292.86070  292.86070    3.41500  106.91910  106.91910   67.89190   67.89190    3.93530    -999.25    2.99630    -999.25  -22.07530   -6.28320    2.99630
 2650.00000    9.27960    9.27960  197.04780  197.04780    5.07490  101.31330  101.31330   77.10360   77.10360    5.28510    -999.25    4.38630    -999.25  -24.84470   -9.33800    4.38630
 2700.00000   11.45540   11.45540  185.44180  185.44180    5.39280   93.73250   93.73250   68.56690   68.56690    5.91200    -999.25    4.29110    -999.25  -26.47210  -11.25360    4.29110
 2750.00000   10.37960   10.37960  174.40120  174.40120    5.73390   96.10260   96.10260   70.08230   70.08230    6.26360    -999.25    4.78490    -999.25  -27.51180  -12.57870    4.78490
 2800.00000   13.07570   13.07570  205.63640  205.63640    4.86300  112.62560  112.62560   84.61460   84.61460    5.53500    -999.25    4.28850    -999.25  -26.99890  -12.35260    4.28850
 2850.00000   10.60630   10.60630  152.78750  152.78750    6.54520  104.04140  104.04140  112.48540  112.48540    7.44750    -999.25    6.94920    -999.25  -25.50450  -11.14650    6.94920
 2900.00000   10.92620   10.92620  188.72830  188.72830    5.29860  101.90070  101.90070  101.17400  101.17400    5.75230    -999.25    4.93430    -999.25  -25.86520  -11.79260    4.93430
