~Version ---------------------------------------------------
VERS.      2.0 : CWLS log ASCII Standard -VERSION 2.0
WRAP.       NO : One line per depth step
CREA. 09/29/17 : LAS Creation Date
~Well ------------------------------------------------------
STRT.FT                        1400.0 : START DEPTH
STOP.FT                       12550.0 : STOP DEPTH
STEP.FT                      50.00000 : STEP LENGTH
NULL.                         -999.25 : NULL VALUE
COMP.    PAN AMERICAN PETROLEUM CORP. : COMPANY
WELL. SCURRY C-1 GOLD CREEK 6-17-68-4 : WELL
FLD .                                 : FIELD
LOC .                                 : LOCATION
CTRY.                          CANADA : COUNTRY
SRVC.                      Lane Wells : SERVICE COMPANY
DATE.                     15-Apr-1965 : LOGDATE
PROV.                         Alberta : PROVINCE
UWI .                100061706804W600 : UNIQUE WELL ID
SLAT.WGS84                   54.88524 : SURFACE LATITUDE
SLON.WGS84                   -118.574 : SURFACE LONGITUDE
~Curve Information -----------------------------------------
DEPT  .FT    : Depth Curve
AC1ED .US/F  : DELTA TIME (1' SPAN ACOUSTIC) FROM SONIC LOG
ACED  .US/F  : DELTA TIME (3' SPAN ACOUSTIC) FROM SONIC LOG
CALWS .IN    : CALIPER [MCALED]
CILDED.MMHO  : CONDUCTIVITY FROM RESISTIVITY LOG
CONDWS.MMHO  : CONDUCTIVITY [1000/DRESWS]
DRESWS.OHMM  : DEEP RESISTIVITY [1000/CILDED IF ILDED <=1 THEN ILDED]
DTWS  .US/F  : COMPRESSIONAL SONIC [ACED]
GRNED .GAPI  : GAMMA RAY FROM NEUTRON LOG [ADJ.TO RESISTIVITY LOG]
GRSED .GAPI  : GAMMA RAY FROM SONIC LOG
GRWS  .GAPI  : GAMMA RAY [GRSED]
ILDED .OHMM  : DEEP INDUCTION FROM RESISTIVITY LOG
MCALED.IN    : MICRO CALIPER FROM MLL LOG [ADJ.TO RESISTIVITY LOG]
NEUTED.NAPI  : NEUTRON FROM NEUTRON LOG [ADJ.TO RESISTIVITY LOG]
NEUTWS.NAPI  : NEUTRON [NEUTED]
SNED  .OHMM  : SHORT NORMAL FROM RESISTIVITY LOG
SPRED .MV    : SPONTANEOUS POTENTIAL FROM RESISTIVITY LOG
SPWS  .MV    : SPONTANEOUS POTENTIAL [BASELINE 0 MV, SPRED]
SRESWS.OHMM  : SHALLOW RESISTIVITY [SNED]
~Params ----------------------------------------------------
PD  .                     GL : PERMANENT DATUM
EPD .FT                 2238 : ELEVATION PERMANENT DATUM
LMF .                     KB : LOG MEASURED FROM
DAPD.FT                 15.1 : FEET ABOVE PERMANENT DATUM
DMF .                     KB : DRILLING MEASURED FROM
EKB .FT                 2253 : KELLY BUSHING
EGL .FT                 2238 : GROUND LEVEL
DATE.               04/15/65 : RUN DATE
RUN .                      2 : RUN NUMBER
DD  .FT                12655 : DEPTH DRILLER
DL  .FT                12596 : DEPTH LOGGER
BLI .FT                12592 : BOTTOM LOG INTERVAL
TLI .FT                11054 : TOP LOG INTERVAL
CS  .IN               13.375 : CASING SIZE
CBD .FT                 1389 : CASING BOTTOM DRILLER
CBL .FT                 1389 : CASING BOTTOM LOGGER
BS  .IN                6.125 : BIT SIZE
BSD .FT                12655 : BIT SIZE AT DEPTH
DFT .                MUD GEL : DRILLING FLUID TYPE
DFD .                    9.8 : DRILLING FLUID DENSITY
DFV .                    120 : DRILLING FLUID VISCOSITY
DFPH.                   10.5 : DRILLING FLUID PH
DFL .                      7 : DRILLING FLUID LOSS
MSS .               MUD TANK : MUD SAMPLE SOURCE
RMS .OHMM                1.4 : RESISTIVITY MUD SAMPLE
MST .DEGF                 40 : MUD SAMPLE TEMPERATURE
RMF .OHMM                0.8 : RESISTIVITY MUD FILTRATE SAMPLE
MFST.DEGF                 55 : MUD FILTRATE SAMPLE TEMPERATURE
RMC .OHMM               1.15 : RESISTIVITY MUD CAKE
MCST.DEGF                 60 : MUD CAKE SAMPLE TEMPERATURE
MFSS.                   MEAS : MUD FILTRATE SAMPLE SOURCE
MCSS.                   MEAS : MUD CAKE SAMPLE SOURCE
RMB .OHMM               0.25 : RESISTIVITY MUD AT BHT
TCS .HRS                   7 : TIME CIRCULATED STOPPED
LUN .                   8054 : LOGGING UNIT NUMBER
LUL .                     WC : LOGGING UNIT LOCATION
ENGI.        MOORE MCFADZEAN : RECORDING ENGINEER
WITN.                  SAMIS : WITNESSED BY
CLNT.                A2DTECH : CLIENT CODE
ORIG.            2" 5" PRINT : ORIGIN OF DATA
UWI .       100061706804W600 : UNIQUE WELL ID
DICO. A2D Technologies, Inc. : DIGITIZING COMPANY
~Other -----------------------------------------------------
IEL-AC-NEUTRON LOG RUN
~ASCII -----------------------------------------------------
# ...
 9200.00000    -999.25   50.02330   12.92120   29.84280   23.92220   41.80210   50.02330    -999.25   28.91930   28.91930   41.80210   12.92120    -999.25    -999.25  102.24920 -139.98650 -106.76540  102.24920
 9250.00000    -999.25   53.95930   14.56040   33.59530   26.51790   37.71040   53.95930    -999.25   16.79660   16.79660   37.71040   14.56040    -999.25    -999.25  108.09760 -150.04090 -115.52210  108.09760
 9300.00000    -999.25   49.85500   11.47860   42.04780   36.27330   27.57740   49.85500    -999.25   22.33400   22.33400   27.57740   11.47860    -999.25    -999.25   44.77960 -153.91400 -118.10400   44.77960
 9350.00000    -999.25   50.11140   10.42660   31.46260   23.82720   41.96880   50.11140    -999.25   16.95760   16.95760   41.96880   10.42660    -999.25    -999.25   60.59300 -126.16600  -89.05180   60.59300
 9400.00000    -999.25   53.18210   10.70680   26.65830   18.52400   53.98410   53.18210    -999.25   22.12370   22.12370   53.98410   10.70680    -999.25    -999.25   71.85490  -85.26820  -46.86250   71.85490
 9450.00000    -999.25   50.84190   11.91490   25.89830   16.35150   61.15650   50.84190    -999.25   27.08010   27.08010   61.15650   11.91490    -999.25    -999.25   69.71020  -87.87260  -48.16280   69.71020
 9500.00000    -999.25   56.98960   14.73370   22.04820   13.65060   73.25710   56.98960    -999.25   12.70730   12.70730   73.25710   14.73370    -999.25    -999.25  148.92880  -73.39330  -32.41800  148.92880
 9550.00000    -999.25   54.20670   10.59680   23.00740   13.95290   71.69460   54.20670    -999.25   17.15240   17.15240   71.69460   10.59680    -999.25    -999.25   67.82530 -145.10400 -106.20310   67.82530
 9600.00000    -999.25   52.14000   11.49620   47.70260   39.18020   25.52310   52.14000    -999.25   10.87180   10.87180   25.52310   11.49620    -999.25    -999.25    -999.25 -198.71270 -162.04410    -999.25
 9650.00000    -999.25   52.31080   14.36470   22.05070   14.17340   70.55490   52.31080    -999.25   14.50700   14.50700   70.55490   14.36470    -999.25    -999.25  169.15530 -214.71730 -180.25940  169.15530
 9700.00000    -999.25   65.56070   11.35990   63.80690   57.76240   17.31230   65.56070    -999.25   51.70320   51.70320   17.31230   11.35990    -999.25    -999.25   20.02460 -185.96000 -153.73340   20.02460
 9750.00000    -999.25   54.25020   10.63730   32.09200   25.69510   38.91790   54.25020    -999.25   33.32070   33.32070   38.91790   10.63730    -999.25    -999.25   57.40480 -145.60780 -115.60140   57.40480
 9800.00000    -999.25   52.65170   11.50850   32.87080   26.78270   37.33870   52.65170    -999.25   33.93180   33.93180   37.33870   11.50850    -999.25    -999.25   52.19470 -161.44280 -133.64750   52.19470
 9850.00000    -999.25   60.90930   13.48910   31.73710   24.17530   41.36450   60.90930    -999.25   31.77710   31.77710   41.36450   13.48910    -999.25    -999.25   55.06790 -126.45630 -100.89330   55.06790
 9900.00000    -999.25   58.76780   12.07390   27.86460   21.93860   45.58180   58.76780    -999.25   28.47340   28.47340   45.58180   12.07390    -999.25    -999.25   61.67800 -148.21800 -124.86570   61.67800
 9950.00000    -999.25   54.10250   10.19870   15.89960    8.86350  112.82260   54.10250    -999.25   24.54680   24.54680  112.82260   10.19870    -999.25    -999.25  101.96320 -126.39500 -105.27400  101.96320
 10000.00000    -999.25   52.36730   11.01970   22.58950   15.43260   64.79810   52.36730    -999.25   22.96270   22.96270   64.79810   11.01970    -999.25    -999.25  110.72340 -120.54720 -101.64630  110.72340
 10050.00000    -999.25   60.20440   12.03830   45.63750   41.24640   24.24450   60.20440    -999.25   49.56360   49.56360   24.24450   12.03830    -999.25    -999.25   26.93300 -168.71360 -152.02380   26.93300
 10100.00000    -999.25   57.83360   10.52050   26.96590   21.80780   45.85510   57.83360    -999.25   36.30330   36.30330   45.85510   10.52050    -999.25    -999.25    -999.25 -176.68990 -162.23250    -999.25
 10150.00000    -999.25   55.34860   10.18690   23.49460   15.72010   63.61300   55.34860    -999.25   33.33850   33.33850   63.61300   10.18690    -999.25    -999.25   59.17650 -169.11620 -156.86940   59.17650
 10200.00000   53.87730   55.57200   10.23310   25.46200   17.77650   56.25420   55.57200    -999.25   32.25440   32.25440   56.25420   10.23310    -999.25    -999.25   52.89000 -137.91290 -127.89750   52.89000
 10250.00000   67.06220   66.44430   10.91850   44.90630   37.20070   26.88120   66.44430    -999.25   49.67760   49.67760   26.88120   10.91850    -999.25    -999.25   28.03090 -109.38690 -101.59160   28.03090
 10300.00000   57.74560   60.02170   10.29760   27.56130   20.77990   48.12470   60.02170    -999.25   42.89400   42.89400   48.12470   10.29760    -999.25    -999.25   52.79820  -84.44690  -78.86280   52.79820
 10350.00000   56.34220   57.89780   10.11650   20.33970   11.38870   87.80610   57.89780    -999.25   47.57580   47.57580   87.80610   10.11650    -999.25    -999.25   55.39420  -39.18870  -35.83680   55.39420
 10400.00000   47.35180   47.59240   12.75300    7.96110    3.12920  319.57090   47.59240   21.33770   14.44190   14.44190  319.57090   12.75300  987.25870  987.25870  265.78910  -18.26780  -17.12670  265.78910
 10450.00000   48.05190   49.23410   11.46300    8.20180    3.06700  326.05110   49.23410   19.40350   15.05330   15.05330  326.05110   11.46300  895.29560  895.29560  242.96630  -54.76400  -55.22380  242.96630
 10500.00000   48.91010   48.27370   11.91710    7.86910    3.20650  311.86230   48.27370   20.06290   16.08240   16.08240  311.86230   11.91710  927.70450  927.70450  300.06510  -55.53960  -58.23730  300.06510
 10550.00000   47.25450   47.65460   12.09820    9.08250    3.60840  277.13220   47.65460   23.05390   12.55640   12.55640  277.13220   12.09820 1162.15790 1162.15790  267.65250  -62.80490  -65.34790  267.65250
 10600.00000   52.13550   48.12240   12.20480    9.22040    3.82290  261.58370   48.12240   20.56860   15.78500   15.78500  261.58370   12.20480 1026.33460 1026.33460  279.41010  -66.57360  -68.72200  279.41010
 10650.00000   49.55460   48.03550   10.09190    8.74130    3.44140  290.58040   48.03550   25.23070   15.69140   15.69140  290.58040   10.09190 1051.18270 1051.18270  248.43080 -123.66410 -125.42180  248.43080
 10700.00000   48.62120   46.89070    9.41010    9.49950    3.86740  258.56840   46.89070   20.65060   13.02740   13.02740  258.56840    9.41010 1077.70920 1077.70920  186.90640 -183.18430 -184.54750  186.90640
 10750.00000   49.30750   48.36930    9.48660   10.39260    4.02510  248.44100   48.36930   22.88790   13.82050   13.82050  248.44100    9.48660 1169.48360 1169.48360  132.36620 -147.82730 -148.79810  132.36620
 10800.00000   59.88540   59.41890    8.05770   11.08920    4.60380  217.27690   59.41890   20.64700   14.76320   14.76320  217.27690    8.05770  852.39470  852.39470  107.15190 -127.04260 -127.62260  107.15190
 10850.00000   60.82190   59.47510    7.57440   18.70160    9.85540  101.46680   59.47510   19.86190   15.56970   15.56970  101.46680    7.57440  779.56540  779.56540   55.09980 -143.73960 -143.92500   55.09980
 10900.00000   50.01130   52.91520    8.82150   12.27980    5.39900  185.22000   52.91520    -999.25   20.72470   20.72470  185.22000    8.82150  844.44110  844.44110  100.31490 -141.73350 -141.52810  100.31490
 10950.00000   51.38550   51.58850    7.63430   12.62730    5.32020  187.96320   51.58850    -999.25   16.21750   16.21750  187.96320    7.63430    -999.25    -999.25  100.86220 -137.33890 -136.73910  100.86220
 11000.00000   56.92060   56.16280    7.41130  184.34580  174.03410    5.74600   56.16280    -999.25   15.28660   15.28660    5.74600    7.41130    -999.25    -999.25   26.31800  -77.91310  -76.92090   26.31800
 11050.00000    -999.25    -999.25    7.30450    -999.25    -999.25    -999.25    -999.25    -999.25    -999.25    -999.25    -999.25    7.30450    -999.25    -999.25    -999.25    -999.25    -999.25    -999.25
