~Version ---------------------------------------------------
VERS.      2.0 : CWLS log ASCII Standard -VERSION 2.0
WRAP.       NO : One line per depth step
CREA. 08/02/17 : LAS Creation Date
~Well ------------------------------------------------------
STRT.FT                            1100.0 : START DEPTH
STOP.FT                           10850.0 : STOP DEPTH
STEP.FT                          50.00000 : STEP LENGTH
NULL.                             -999.25 : NULL VALUE
COMP.        PAN AMERICAN PETROLEUM CORP. : COMPANY
WELL. PAN AM ET AL E-3 KAYBOBS 6-26-59-18 : WELL
FLD .                        KAYBOB SOUTH : FIELD
LOC .                                     : LOCATION
CTRY.                              CANADA : COUNTRY
SRVC.                        Schlumberger : SERVICE COMPANY
DATE.                         16-Jul-1969 : LOGDATE
PROV.                             Alberta : PROVINCE
UWI .                    100062605918W500 : UNIQUE WELL ID
SLAT.WGS84                       54.12901 : SURFACE LATITUDE
SLON.WGS84                       -116.593 : SURFACE LONGITUDE
~Curve Information -----------------------------------------
DEPT   .FT        : Depth Curve
CALSED .IN        : CALIPER FROM SONIC LOG [ADJ. TO RESISTIVITY LOG]
CALWS  .IN        : CALIPER [CALSED]
CONDWS .MMHO      : CONDUCTIVITY [1000/DRESWS]
DRESWS .OHMM      : DEEP RESISTIVITY [ILDED]
DTED   .US/F      : DELTA-T FROM SONIC LOG [ADJ. TO RESISTIVITY LOG]
DTWS   .US/F      : COMPRESSIONAL SONIC [DTED]
GRSED  .GAPI      : GAMMA RAY FROM SONIC LOG [ADJ. TO RESISTIVITY LOG]
GRTED  .GAPI      : THEORETICAL GAMMA RAY VALUE TDT FROM TDT LOG [ADJ. TO RESISTIVITY LOG]
GRWS   .GAPI      : GAMMA RAY [GRSED]
ILDED  .OHMM      : DEEP INDUCTION RESISTIVITY FROM RESISTIVITY LOG
ILMED  .OHMM      : MEDIUM INDUCTION RESISTIVITY FROM RESISTIVITY LOG
LL8ED  .OHMM      : LATEROLOG 8 FROM RESISTIVITY LOG
MRESWS .OHMM      : MEDIUM RESISTIVITY [ILMED]
RATIOED.UNITLESS  : RATIO FROM TDT LOG [ADJ. TO RESISTIVITY LOG]
SIGMAED.CU        : SIGMA FROM TDT LOG [ADJ. TO RESISTIVITY LOG]
SIGMED .CU        : SIGM FROM TDT LOG [ADJ. TO RESISTIVITY LOG]
SPRED  .MV        : SPONTANEOUS POTENTIAL FROM RESISTIVITY LOG
SPWS   .MV        : SPONTANEOUS POTENTIAL [BASELINE 0MV, SPRED]
SRESWS .OHMM      : SHALLOW RESISTIVITY [LL8ED]
TAUED  .us        : NEUTRON DECAY TIME FROM TDT LOG [ADJ. TO RESISTIVITY LOG]
TRATED .UNITLESS  : NEAR/FAR CAPTURE RATIO FROM TDT LOG [ADJ. TO RESISTIVITY LOG]
~Params ----------------------------------------------------
PD  .              2" OUTLET : PERMANENT DATUM
EPD .FT               2964.7 : ELEVATION PERMANENT DATUM
LMF .                     KB : LOG MEASURED FROM
DAPD.FT                 14.3 : FEET ABOVE PERMANENT DATUM
EKB .FT               2979.0 : KELLY BUSHING
EGL .FT               2964.7 : GROUND LEVEL
DATE.               07/16/69 : RUN DATE
RUN .                      1 : RUN NUMBER
DD  .FT                10855 : DEPTH DRILLER
DL  .FT                10862 : DEPTH LOGGER
BLI .FT                10858 : BOTTOM LOG INTERVAL
TLI .FT                 1104 : TOP LOG INTERVAL
CBD .FT                 1104 : CASING BOTTOM DRILLER
CBL .FT                 1104 : CASING BOTTOM LOGGER
BS  .IN                 8.75 : BIT SIZE
BSD .FT                10855 : BIT SIZE AT DEPTH
DFT .               GEL CHEM : DRILLING FLUID TYPE
DFD .                    9.3 : DRILLING FLUID DENSITY
DFV .                     90 : DRILLING FLUID VISCOSITY
DFPH.                    9.0 : DRILLING FLUID PH
DFL .                    9.2 : DRILLING FLUID LOSS
MSS .                   CIRC : MUD SAMPLE SOURCE
RMS .OHMM                1.6 : RESISTIVITY MUD SAMPLE
MST .DEGF                 62 : MUD SAMPLE TEMPERATURE
RMF .OHMM               1.29 : RESISTIVITY MUD FILTRATE SAMPLE
MFST.DEGF                 67 : MUD FILTRATE SAMPLE TEMPERATURE
RMC .OHMM               1.35 : RESISTIVITY MUD CAKE
MCST.DEGF                 62 : MUD CAKE SAMPLE TEMPERATURE
TCS .HRS                   2 : TIME CIRCULATED STOPPED
LUN .                   7502 : LOGGING UNIT NUMBER
LUL .                    EDM : LOGGING UNIT LOCATION
ENGI.                 EDGSON : RECORDING ENGINEER
WITN.                  REMUS : WITNESSED BY
CLNT.                A2DTECH : CLIENT CODE
ORIG.            2" 5" PRINT : ORIGIN OF DATA
UWI .       100062605918W500 : UNIQUE WELL ID
DICO. A2D Technologies, Inc. : DIGITIZING COMPANY
~Other -----------------------------------------------------
~ASCII -----------------------------------------------------
# ...
 6050.00000   10.08690   10.08690  100.73910    9.92670   78.19900   78.19900   88.16200    -999.25   88.16200    9.92670   10.73590   11.57710   10.73590    -999.25    -999.25    -999.25  -87.79540   -9.38430   11.57710    -999.25    -999.25
 6100.00000    9.87410    9.87410   87.52120   11.42580   77.44440   77.44440   69.51080    -999.25   69.51080   11.42580   12.73840   15.25960   12.73840    -999.25    -999.25    -999.25  -93.25660  -14.90580   15.25960    -999.25    -999.25
 6150.00000    9.78980    9.78980   63.76900   15.68160   69.01330   69.01330   60.95010    -999.25   60.95010   15.68160   17.63660   21.42240   17.63660    -999.25    -999.25    -999.25  -94.73210  -16.44120   21.42240    -999.25    -999.25
 6200.00000    9.84140    9.84140   51.82130   19.29710   73.91230   73.91230   60.87600    -999.25   60.87600   19.29710   19.85860   21.39600   19.85860    -999.25    -999.25    -999.25  -98.94940  -20.71870   21.39600    -999.25    -999.25
 6250.00000   10.18590   10.18590   85.02530   11.76120   71.54620   71.54620   45.22580    -999.25   45.22580   11.76120   12.39540   13.38230   12.39540    -999.25    -999.25    -999.25  -99.97680  -21.80600   13.38230    -999.25    -999.25
 6300.00000   10.92000   10.92000   88.78100   11.27790   79.35600   79.35600   89.14500    -999.25   89.14500   11.27790   11.39850   10.78930   11.39850    -999.25    -999.25    -999.25  -93.37980  -15.26890   10.78930    -999.25    -999.25
 6350.00000   10.01640   10.01640   58.79340   17.00870   69.41750   69.41750   61.47420    -999.25   61.47420   17.00870   19.20520   22.64090   19.20520    -999.25    -999.25    -999.25  -92.58590  -14.53530   22.64090    -999.25    -999.25
 6400.00000   10.81960   10.81960   90.60680   11.03670  124.65400  124.65400   57.49350    -999.25   57.49350   11.03670   21.15450   26.24460   21.15450    -999.25    -999.25    -999.25  -86.63240   -8.64170   26.24460    -999.25    -999.25
 6450.00000   11.14740   11.14740   63.51060   15.74540  113.48110  113.48110   59.01500    -999.25   59.01500   15.74540   17.42510   17.91060   17.42510    -999.25    -999.25    -999.25  -87.12840   -9.19800   17.91060    -999.25    -999.25
 6500.00000   10.23950   10.23950   58.49800   17.09460   78.02010   78.02010   60.77560    -999.25   60.77560   17.09460   18.30710   21.41420   18.30710    -999.25    -999.25    -999.25  -86.71720   -8.84670   21.41420    -999.25    -999.25
 6550.00000    9.91960    9.91960   73.99770   13.51560   74.39620   74.39620   72.63970    -999.25   72.63970   13.51560   13.97650   17.20300   13.97650    -999.25    -999.25    -999.25  -81.26940   -3.45880   17.20300    -999.25    -999.25
 6600.00000    9.85940    9.85940   79.47170   12.58310   73.54330   73.54330   69.52090    -999.25   69.52090   12.58310   13.78660   16.01070   13.78660    -999.25    -999.25    -999.25  -86.94780   -9.19750   16.01070    -999.25    -999.25
 6650.00000    9.66850    9.66850   73.13420   13.67350   70.77010   70.77010   61.79290    -999.25   61.79290   13.67350   14.81580   16.03590   14.81580    -999.25    -999.25    -999.25  -84.29000   -6.59960   16.03590    -999.25    -999.25
 6700.00000   10.13700   10.13700   87.86340   11.38130   74.65760   74.65760   74.72890    -999.25   74.72890   11.38130   12.14220   12.81020   12.14220    -999.25    -999.25    -999.25  -82.34180   -4.71170   12.81020    -999.25    -999.25
 6750.00000   10.20280   10.20280   76.54560   13.06410   71.74220   71.74220   92.17840    -999.25   92.17840   13.06410   14.32720   18.27230   14.32720    -999.25    -999.25    -999.25  -80.32170   -2.75150   18.27230    -999.25    -999.25
 6800.00000    9.35390    9.35390   24.45880   40.94000   68.28860   68.28860   46.24440    -999.25   46.24440   40.94000   48.47690   49.27740   48.47690    -999.25    -999.25    -999.25  -95.20860  -18.00260   49.27740    -999.25    -999.25
 6850.00000    9.03760    9.03760    6.17660  161.90090   81.33610   81.33610   51.85550    -999.25   51.85550  161.90090  171.73130  361.77900  171.73130    -999.25    -999.25    -999.25  -81.12270   -4.47240  361.77900    -999.25    -999.25
 6900.00000    8.84270    8.84270   41.88040   23.87750   72.76630   72.76630   28.59190    -999.25   28.59190   23.87750   28.36360   40.51790   28.36360    -999.25    -999.25    -999.25 -111.35680  -35.25850   40.51790    -999.25    -999.25
 6950.00000    9.51440    9.51440   71.66100   13.95460   73.22720   73.22720   37.56460    -999.25   37.56460   13.95460   16.10110   31.23940   16.10110    -999.25    -999.25    -999.25 -139.48790  -63.94520   31.23940    -999.25    -999.25
 7000.00000    9.30010    9.30010   30.29540   33.00830   70.91250   70.91250   29.90860    -999.25   29.90860   33.00830   37.20050   53.67540   37.20050    -999.25    -999.25    -999.25 -110.54370  -35.55300   53.67540    -999.25    -999.25
 7050.00000   10.14140   10.14140   76.49940   13.07250  108.84160  108.84160   67.70100    -999.25   67.70100   13.07250   10.92350    7.72460   10.92350    -999.25    -999.25    -999.25  -80.85070   -6.41200    7.72460    -999.25    -999.25
 7100.00000   11.52240   11.52240  309.61670    3.22980   88.83190   88.83190   82.46200    -999.25   82.46200    3.22980    3.49070    4.64940    3.49070    -999.25    -999.25    -999.25  -81.76500   -7.88200    4.64940    -999.25    -999.25
 7150.00000   12.53350   12.53350  120.06680    8.32870  100.68880  100.68880   78.72500    -999.25   78.72500    8.32870    7.03440   12.32100    7.03440    -999.25    -999.25    -999.25  -83.51630  -10.18530   12.32100    -999.25    -999.25
 7200.00000    8.94680    8.94680    4.71280  212.18590   68.69700   68.69700   69.76260    -999.25   69.76260  212.18590  702.30720  530.65700  702.30720    -999.25    -999.25    -999.25 -115.06030  -42.28490  530.65700    -999.25    -999.25
 7250.00000    9.02430    9.02430    4.08680  244.68860   75.42520   75.42520    -999.25    -999.25    -999.25  244.68860 1339.51810 1027.77100 1339.51810    -999.25    -999.25    -999.25 -100.36640  -28.14300 1027.77100    -999.25    -999.25
 7300.00000    9.09540    9.09540   30.44750   32.84710   63.53420   63.53420   59.83770    -999.25   59.83770   32.84710   40.65000   58.73210   40.65000    -999.25    -999.25    -999.25 -104.05460  -32.38320   58.73210    -999.25    -999.25
 7350.00000    9.11390    9.11390   42.49880   23.53010   62.56000   62.56000   88.15840    -999.25   88.15840   23.53010   27.48010   32.15770   27.48010    -999.25    -999.25    -999.25  -87.41190  -16.29620   32.15770    -999.25    -999.25
 7400.00000    8.96090    8.96090   41.18550   24.28040   49.44860   49.44860   25.91960    -999.25   25.91960   24.28040   33.82230   49.99650   33.82230    -999.25    -999.25    -999.25 -115.99930  -45.43560   49.99650    -999.25    -999.25
 7450.00000    9.60050    9.60050    7.73770  129.23730   51.03060   51.03060   21.90440    -999.25   21.90440  129.23730  556.76260  829.21890  556.76260    -999.25    -999.25    -999.25 -136.68500  -66.67690  829.21890    -999.25    -999.25
 7500.00000    9.72760    9.72760    0.76710 1303.54680   49.58430   49.58430   14.19680    -999.25   14.19680 1303.54680 1565.62020 2209.89580 1565.62020    -999.25    -999.25    -999.25  -90.42210  -20.96600 2209.89580    -999.25    -999.25
 7550.00000    9.11280    9.11280    1.12550  910.92320   49.50890   49.50890   31.62730    -999.25   31.62730  910.92320 1536.39010 2196.24620 1536.39010    -999.25    -999.25    -999.25  -79.47310  -10.56900 2196.24620    -999.25    -999.25
 7600.00000    8.88440    8.88440    6.31650  158.31580   49.77820   49.77820    8.31950    -999.25    8.31950  158.31580  351.41460 2170.22000  351.41460    -999.25    -999.25    -999.25 -158.92450  -90.57610 2170.22000    -999.25    -999.25
 7650.00000    9.28690    9.28690   14.53360   68.80630   50.87480   50.87480   10.50490    -999.25   10.50490   68.80630   86.66030  335.36420   86.66030    -999.25    -999.25    -999.25 -175.63280 -107.83640  335.36420    -999.25    -999.25
