~Version ---------------------------------------------------
VERS.      2.0 : CWLS log ASCII Standard -VERSION 2.0
WRAP.       NO : One line per depth step
CREA. 08/31/17 : LAS Creation Date
~Well ------------------------------------------------------
STRT.FT                          850.0 : START DEPTH
STOP.FT                        11250.0 : STOP DEPTH
STEP.FT                       50.00000 : STEP LENGTH
NULL.                          -999.25 : NULL VALUE
COMP.        ATLANTIC REFINING COMPANY : COMPANY
WELL. ATLANTIC CROOKED LAKE 4-27-63-22 : WELL
FLD .                               WC : FIELD
LOC .                                  : LOCATION
CTRY.                           CANADA : COUNTRY
SRVC.           Schlumberger of Canada : SERVICE COMPANY
DATE.                      08-Mar-1961 : LOGDATE
PROV.                          Alberta : PROVINCE
UWI .                 100042706322W500 : UNIQUE WELL ID
SLAT.WGS84                    54.47412 : SURFACE LATITUDE
SLON.WGS84                   -117.2467 : SURFACE LONGITUDE
~Curve Information -----------------------------------------
DEPT  .FT    : Depth Curve
CALWS .IN    : CALIPER [MCALED]
CILDED.MMHO  : CONDUCTIVITY FROM IEL LOG
CONDWS.MMHO  : CONDUCTIVITY [1000/DRESWS]
DRESWS.OHMM  : DEEP RESISTIVITY [CALCULATED FROM 1000/CILDED, IF ILDED<1, ILDED]
DT1ED .US/F  : DELTA-T FROM SONIC LOG [ADJ.TO ILDED]
DTED  .US/F  : DELTA-T FROM SONIC LOG [ADJ.TO ILDED]
DTWS  .US/F  : COMPRESSIONAL SONIC [DTED SPL.TO DT1ED @ 11232']
GRSED .GAPI  : GAMMA RAY FROM SONIC LOG [ADJ.TO ILDED]
GRWS  .GAPI  : GAMMA RAY [GRSED*16.50]
ILDED .OHMM  : DEEP INDUCTION FROM IEL LOG
MCALED.IN    : MICRO CALIPER FROM MICRO LOG [ADJ.TO ILDED]
SNED  .OHMM  : SHORT NORMAL FROM IEL LOG
SPRED .MV    : SPONTANEOUS POTENTIAL FROM IEL LOG
SPWS  .MV    : SPONTANEOUS POTENTIAL [BASELINE 0 MV, SPRED]
SRESWS.OHMM  : SHALLOW RESISTIVITY [SNED]
~Params ----------------------------------------------------
LMF .                     KB : LOG MEASURED FROM
DMF .                     KB : DRILLING MEASURED FROM
EKB .FT                 2751 : KELLY BUSHING
EGL .FT               2736.1 : GROUND LEVEL
DATE.               03/08/61 : RUN DATE
RUN .                      1 : RUN NUMBER
DD  .FT                11255 : DEPTH DRILLER
DL  .FT                11257 : DEPTH LOGGER
BLI .FT                11256 : BOTTOM LOG INTERVAL
TLI .FT                 1146 : TOP LOG INTERVAL
CBD .FT                 1146 : CASING BOTTOM DRILLER
CBL .FT                 1146 : CASING BOTTOM LOGGER
BS  .IN                    9 : BIT SIZE
BSD .FT                11255 : BIT SIZE AT DEPTH
DFT .                GEL OIL : DRILLING FLUID TYPE
DFD .                    9.9 : DRILLING FLUID DENSITY
DFV .                    119 : DRILLING FLUID VISCOSITY
DFPH.                    9.5 : DRILLING FLUID PH
DFL .                    6.4 : DRILLING FLUID LOSS
RMS .OHMM               1.35 : RESISTIVITY MUD SAMPLE
MST .DEGF                 68 : MUD SAMPLE TEMPERATURE
RMF .OHMM               3.04 : RESISTIVITY MUD FILTRATE SAMPLE
MFST.DEGF                 68 : MUD FILTRATE SAMPLE TEMPERATURE
TCS .HRS                   4 : TIME CIRCULATED STOPPED
LUN .                  15730 : LOGGING UNIT NUMBER
LUL .                     WC : LOGGING UNIT LOCATION
ENGI.              HAUSEGGER : RECORDING ENGINEER
WITN.                  COWAN : WITNESSED BY
CLNT.                A2DTECH : CLIENT CODE
ORIG.            2" 5" PRINT : ORIGIN OF DATA
UWI .       100042706322W500 : UNIQUE WELL ID
DICO. A2D Technologies, Inc. : DIGITIZING COMPANY
~Other -----------------------------------------------------
~ASCII -----------------------------------------------------
  850.00000    -999.25    -999.25    -999.25    -999.25    -999.25    -999.25    -999.25   68.61360   67.90740    -999.25    -999.25    -999.25    -999.25    -999.25    -999.25
  900.00000    -999.25    -999.25    -999.25    -999.25    -999.25    -999.25    -999.25   77.12590   77.12590    -999.25    -999.25    -999.25    -999.25    -999.25    -999.25
  950.00000    -999.25    -999.25    -999.25    -999.25    -999.25    -999.25    -999.25   73.89360   72.79470    -999.25    -999.25    -999.25    -999.25    -999.25    -999.25
 1000.00000    -999.25    -999.25    -999.25    -999.25    -999.25    -999.25    -999.25   87.45990   87.45990    -999.25    -999.25    -999.25    -999.25    -999.25    -999.25
 1050.00000    -999.25    -999.25    -999.25    -999.25    -999.25    -999.25    -999.25   76.21350   76.21350    -999.25    -999.25    -999.25    -999.25    -999.25    -999.25
 1100.00000    -999.25    -999.25    -999.25    -999.25    -999.25    -999.25    -999.25    -999.25    -999.25    -999.25    -999.25    -999.25    -999.25    -999.25    -999.25
 1150.00000   10.05760    -999.25    -999.25    -999.25    -999.25  157.14000  157.14000   76.27780   76.27780    -999.25   10.05760    4.97360 -106.22100  -35.38490    4.97360
 1200.00000   11.11460  114.67060  126.42380    7.90990    -999.25  102.68070  102.68070   99.65260   99.57750    7.90990   11.11460    8.58420  -75.20450   -4.36840    8.58420
 1250.00000   11.67120  268.10790  272.18290    3.67400    -999.25  125.19360  125.19360  113.38640  113.38640    3.67400   11.67120    4.60020  -73.23960   -2.40350    4.60020
 1300.00000    9.76520   72.63910   83.67850   11.95050    -999.25  143.12900  143.12900   59.32080   59.32080   11.95050    9.76520   15.61670  -73.31790   -2.48180   15.61670
 1350.00000    9.53490  116.15610  113.59250    8.80340    -999.25  101.44180  101.44180  126.81650  129.20820    8.80340    9.53490    7.99940  -73.68830   -2.87990    7.99940
 1400.00000   10.61570  149.76280  150.52760    6.64330    -999.25  132.76470  132.76470  101.42880  101.42880    6.64330   10.61570    9.65410  -87.06930  -16.32180    9.65410
 1450.00000   12.13970  208.14770  213.94950    4.67400    -999.25  131.88420  131.88420  113.99190  114.73440    4.67400   12.13970    6.21250  -74.89260   -4.20640    6.21250
 1500.00000    9.95640  254.31200  261.54730    3.82340    -999.25  152.17800  152.17800  100.91900  100.91810    3.82340    9.95640    4.91020  -74.03880   -3.41350    4.91020
 1550.00000   11.69330  100.33020  113.04670    8.84590    -999.25  106.83030  106.83030   91.73180   91.73180    8.84590   11.69330    8.49060  -76.75470   -6.19030    8.49060
 1600.00000   12.06990  217.58900  220.11400    4.54310    -999.25  131.32840  131.32840  111.83450  111.17620    4.54310   12.06990    4.89740  -75.05190   -4.54880    4.89740
 1650.00000   12.03060   65.29510   73.85690   13.53970    -999.25   94.82100   94.82100   85.95180   85.95180   13.53970   12.03060   10.83930  -77.91420   -7.47200   10.83930
 1700.00000   11.35510  241.87540  259.00700    3.86090    -999.25  112.20000  112.20000  112.48630  111.06980    3.86090   11.35510    4.21950  -74.42100   -4.04010    4.21950
 1750.00000   10.81690  343.30790  323.82370    3.08810    -999.25  157.67210  157.67210  105.33110  105.33110    3.08810   10.81690    4.08970  -74.94740   -4.62740    4.08970
 1800.00000   10.25150  147.73950  185.01050    5.40510    -999.25  125.56580  125.56580  102.82470  102.82470    5.40510   10.25150    8.11160  -74.86470   -4.60570    8.11160
 1850.00000   12.53750  277.41280  290.52880    3.44200    -999.25  138.72140  138.72140  115.52970  113.33690    3.44200   12.53750    3.98330  -72.84790   -2.65020    3.98330
 1900.00000   11.83080  144.34540  138.78090    7.20560    -999.25  111.07090  111.07090  114.14870  114.14870    7.20560   11.83080    6.28170  -73.28910   -3.15230    6.28170
 1950.00000   11.79180  397.68770  397.74080    2.51420    -999.25  132.35960  132.35960  141.95770  141.94540    2.51420   11.79180    3.34700  -75.37970   -5.30420    3.34700
 2000.00000   11.70300  199.96240  235.72670    4.24220    -999.25  129.19760  129.19760  118.60370  118.60280    4.24220   11.70300    6.11650  -78.48080   -8.46620    6.11650
 2050.00000   11.66760  288.06750  287.75320    3.47520    -999.25  131.55520  131.55520  107.34410  107.34320    3.47520   11.66760    4.06710  -75.69110   -5.73740    4.06710
 2100.00000   13.63620  281.43950  304.45110    3.28460    -999.25  108.93280  108.93280  125.03120  124.08830    3.28460   13.63620    4.37430  -75.12640   -5.23400    4.37430
 2150.00000    8.40910   29.46300   32.99800   30.30490    -999.25  101.61380  101.61380   93.94610   93.94610   30.30490    8.40910   26.79990  -88.91590  -19.08440   26.79990
 2200.00000   13.24450  308.16620  312.89110    3.19600    -999.25  115.78610  115.78610  121.15540  120.77510    3.19600   13.24450    4.41500  -74.83400   -5.06380    4.41500
 2250.00000   12.65070  448.24040  427.05840    2.34160    -999.25  150.02750  150.02750  125.77460  125.77460    2.34160   12.65070    3.22910  -74.07740   -4.36820    3.22910
 2300.00000   12.55850  267.50440  280.52060    3.56480    -999.25  133.10180  133.10180  108.42980  108.42980    3.56480   12.55850    4.60310  -74.32180   -4.67350    4.60310
 2350.00000   12.23560  803.92850  723.43200    1.38230    -999.25  164.98180  164.98180  158.74730  157.57830    1.38230   12.23560    2.50160  -73.46550   -3.87850    2.50160
 2400.00000   12.94000  246.66510  248.52750    4.02370    -999.25  137.70920  137.70920  104.69090  104.69090    4.02370   12.94000    4.72490  -73.91760   -4.39150    4.72490
 2450.00000   12.66270  184.40290  180.97910    5.52550    -999.25  119.27970  119.27970  110.25790  109.76130    5.52550   12.66270    5.92050  -73.76590   -4.30110    5.92050
 2500.00000   10.52070   51.20530   57.67680   17.33800    -999.25  125.80090  125.80090   75.97590   75.97590   17.33800   10.52070   14.14100  -88.74160  -19.33770   14.14100
 2550.00000   12.19540  214.92190  221.61650    4.51230    -999.25  104.15510  104.15510  108.20700  108.20700    4.51230   12.19540    5.16280  -74.35730   -5.01430    5.16280
 2600.00000   11.42800  212.10420  223.37880    4.47670    -999.25  118.60230  118.60230   95.86830   95.18190    4.47670   11.42800    6.28100  -75.15680   -5.87510    6.28100
 2650.00000   11.38760  160.52150  173.33430    5.76920    -999.25  134.82060  134.82060   91.25990   91.25980    5.76920   11.38760    6.47260  -74.34280   -5.12200    6.47260
 2700.00000    9.36230   70.61730   79.42690   12.59020    -999.25   89.71880   89.71880   82.52560   81.02490   12.59020    9.36230   13.04910  -76.79240   -7.63300   13.04910
 2750.00000    9.72090  182.29580  188.49790    5.30510    -999.25   81.23210   81.23210   92.30270   92.30270    5.30510    9.72090    6.10240  -73.59400   -4.49550    6.10240
 2800.00000   12.20590  143.28640  162.20860    6.16490    -999.25  105.59410  105.59410   96.18680   96.18680    6.16490   12.20590    7.25620  -72.49230   -3.45470    7.25620
 2850.00000   12.17500   62.76770   66.22170   15.10080    -999.25   90.63250   90.63250   80.94570   81.51330   15.10080   12.17500   13.18930  -73.76880   -4.79250   13.18930
 2900.00000   11.06880   66.54880   59.13910   16.90930    -999.25   85.44460   85.44460   78.24800   78.24800   16.90930   11.06880   12.23740  -76.02330   -7.11980   12.23740
 2950.00000   11.11960  208.63060  217.01390    4.60800    -999.25  103.83140  103.83140   98.13620   99.07760    4.60800   11.11960    5.36770  -71.37230   -2.75700    5.36770
 3000.00000   10.76400  175.36240  177.53790    5.63260    -999.25   77.32880   77.32880  105.12150  105.12150    5.63260   10.76400    6.51790  -71.53800   -3.20900    6.51790
 3050.00000   10.31050  184.45540  200.28840    4.99280    -999.25  101.07180  101.07180   93.89490   93.89490    4.99280   10.31050    6.04490  -70.83950   -2.79680    6.04490
 3100.00000    8.05520   41.62390   43.79030   22.83610    -999.25   90.40020   90.40020   71.20490   71.48620   22.83610    8.05520   18.14420  -86.60110  -18.84660   18.14420
