~Version ---------------------------------------------------
VERS.      2.0 : CWLS log ASCII Standard -VERSION 2.0
WRAP.       NO : One line per depth step
CREA. 08/31/17 : LAS Creation Date
~Well ------------------------------------------------------
STRT.FT                         1000.0 : START DEPTH
STOP.FT                        10100.0 : STOP DEPTH
STEP.FT                       50.00000 : STEP LENGTH
NULL.                          -999.25 : NULL VALUE
COMP.             PETROFINA CANADA LTD : COMPANY
WELL. FINA AMOCO HB PASS CK 6-33-62-17 : WELL
FLD .                                  : FIELD
LOC .                                  : LOCATION
CTRY.                           CANADA : COUNTRY
SRVC.                     Schlumberger : SERVICE COMPANY
DATE.                      14-Feb-1977 : LOGDATE
PROV.                          Alberta : PROVINCE
UWI .                 100063306217W500 : UNIQUE WELL ID
SLAT.WGS84                    54.40414 : SURFACE LATITUDE
SLON.WGS84                   -116.4922 : SURFACE LONGITUDE
~Curve Information -----------------------------------------
DEPT    .FT    : Depth Curve
CALDED  .IN    : CALIPER FROM CNFD LOG
CALSED  .IN    : CALIPER FROM BCS LOG [ADJ.TO GRDED]
CALWS   .IN    : CALIPER [CALSED]
CILDED  .MMHO  : CONDUCTIVITY FROM DIL-LAT LOG
CONDWS  .MMHO  : CONDUCTIVITY [CILDED SPL.TO 1000/ILDED @ 1035.5' TO 1151.5' & 4943' TO 10143']
DCORED  .G/C3  : DENSITY CORRECTION FROM CNFD LOG
DCORWS  .G/C3  : DENSITY CORRECTION [DCORED]
DENWS   .G/C3  : FORMATION BULK DENSITY [RHOBED]
DPHILSED.V/V   : DENSITY POROSITY LIMESTONE [M=2.71, F=1.0] FROM CNFD LOG [ADJ.TO RHOBED]
DPHISSED.V/V   : DENSITY POROSITY SANDSTONE [M=2.65, F=1.0] FROM CNFD LOG [ADJ.TO RHOBED]
DPOLSWS .V/V   : DENSITY POROSITY LIMESTONE [CALCULATED FROM DENWS, M=2.71, F=1.0]
DRESWS  .OHMM  : DEEP RESISTIVITY [1000/CONDWS, IF ILDED <=4 THEN ILDED]
DTED    .US/F  : DELTA-T FROM BCS LOG [ADJ.TO GRDED]
DTWS    .US/F  : COMPRESSIONAL SONIC [DTED]
GRDED   .GAPI  : GAMMA RAY FROM CNFD LOG
GRSED   .GAPI  : GAMMA RAY FROM SONIC LOG [ADJ.TO GRDED]
GRWS    .GAPI  : GAMMA RAY [GRSED]
ILDED   .OHMM  : DEEP INDUCTION FROM DIL-LAT LOG
ILMED   .OHMM  : MEDIUM INDUCTION FROM DIL-LAT LOG
LL8ED   .OHMM  : LATEROLOG 8 FROM DIL-LAT LOG
MRESWS  .OHMM  : MEDIUM RESISTIVITY [ILMED]
NPHILSED.V/V   : NEUTRON POROSITY LIMESTONE FROM CNFD LOG [ADJ.TO RHOBED]
NPHISSED.V/V   : NEUTRON POROSITY SANDSTONE FROM CNFD LOG [ADJ.TO RHOBED]
NPOLSWS .V/V   : NEUTRON POROSITY LIMESTONE [NPHISSED CONVERTED TO LIMESTONE MATRIX & SPL.TO NPHILSED @ 6299.5']
RHOBED  .G/C3  : FORMATION BULK DENSITY FROM CNFD LOG
SPHIED  .V/V   : SONIC POROSITY [DTM=55.6, DTF=189 & DTM=45.5 @ 6250 TO TD] FROM BCS LOG [ADJ.TO GRDED]
SPOWS   .V/V   : SONIC POROSITY [SPHIED]
SPRED   .MV    : SPONTANEOUS POTENTIAL FROM DIL-LAT LOG
SPWS    .MV    : SPONTANEOUS POTENTIAL [BASELINE 0 MV, SPRED]
SRESWS  .OHMM  : SHALLOW RESISTIVITY [LL8ED]
~Params ----------------------------------------------------
PD  .                     GL : PERMANENT DATUM
EPD .FT                 2942 : ELEVATION PERMANENT DATUM
LMF .                     KB : LOG MEASURED FROM
DAPD.FT                13.15 : FEET ABOVE PERMANENT DATUM
DMF .                     KB : DRILLING MEASURED FROM
EKB .FT              2955.15 : KELLY BUSHING
EGL .FT               2942.0 : GROUND LEVEL
DATE.               02/14/77 : RUN DATE
RUN .                      1 : RUN NUMBER
DD  .FT                10160 : DEPTH DRILLER
DL  .FT                10155 : DEPTH LOGGER
BLI .FT                10149 : BOTTOM LOG INTERVAL
TLI .FT                 1027 : TOP LOG INTERVAL
CBD .FT                 1028 : CASING BOTTOM DRILLER
CBL .FT                 1027 : CASING BOTTOM LOGGER
BS  .IN                 8.75 : BIT SIZE
BSD .FT                10160 : BIT SIZE AT DEPTH
DFT .               GEL CHEM : DRILLING FLUID TYPE
DFD .                    9.0 : DRILLING FLUID DENSITY
DFV .                     93 : DRILLING FLUID VISCOSITY
DFPH.                   11.0 : DRILLING FLUID PH
DFL .                    5.6 : DRILLING FLUID LOSS
RMF .OHMM               2.08 : RESISTIVITY MUD FILTRATE SAMPLE
MFST.DEGF                 70 : MUD FILTRATE SAMPLE TEMPERATURE
RMC .OHMM               0.94 : RESISTIVITY MUD CAKE
MCST.DEGF                 70 : MUD CAKE SAMPLE TEMPERATURE
RMB .OHMM               0.85 : RESISTIVITY MUD AT BHT
TCS .HRS                 3.5 : TIME CIRCULATED STOPPED
LUN .                   7803 : LOGGING UNIT NUMBER
LUL .                     DC : LOGGING UNIT LOCATION
ENGI.                   WATT : RECORDING ENGINEER
WITN.                 NELSON : WITNESSED BY
CLNT.                A2DTECH : CLIENT CODE
ORIG.            2" 5" PRINT : ORIGIN OF DATA
UWI .       100063306217W500 : UNIQUE WELL ID
DICO. A2D Technologies, Inc. : DIGITIZING COMPANY
~Other -----------------------------------------------------
~ASCII -----------------------------------------------------
# ...
 3400.00000    -999.25    9.05030    9.05030  164.70120  164.70120    -999.25    -999.25    -999.25    -999.25    -999.25    -999.25    6.06910   91.76820   91.76820    -999.25  148.03780  148.03780    6.06910    -999.25    6.49170    -999.25    -999.25    -999.25    -999.25    -999.25    0.28310    0.28310  -66.60080   -2.47850    6.49170
 3450.00000    -999.25    9.45170    9.45170  163.42580  163.42580    -999.25    -999.25    -999.25    -999.25    -999.25    -999.25    6.12700   99.44010   99.44010    -999.25  135.85730  135.85730    6.12700    -999.25    6.55000    -999.25    -999.25    -999.25    -999.25    -999.25    0.33000    0.33000  -67.05550   -2.94560    6.55000
 3500.00000    -999.25    9.36840    9.36840  107.04260  107.04260    -999.25    -999.25    -999.25    -999.25    -999.25    -999.25    9.66660   86.65240   86.65240    -999.25  141.05220  141.05220    9.66660    -999.25   10.63790    -999.25    -999.25    -999.25    -999.25    -999.25    0.23590    0.23590  -68.18000   -4.08250   10.63790
 3550.00000    -999.25    9.46230    9.46230  132.68180  132.68180    -999.25    -999.25    -999.25    -999.25    -999.25    -999.25    7.81330   92.50300   92.50300    -999.25  135.30690  135.30690    7.81330    -999.25    8.27310    -999.25    -999.25    -999.25    -999.25    -999.25    0.27790    0.27790  -67.25690   -3.17180    8.27310
 3600.00000    -999.25    9.49580    9.49580  125.53280  125.53280    -999.25    -999.25    -999.25    -999.25    -999.25    -999.25    7.96570   86.29780   86.29780    -999.25  134.84120  134.84120    7.96570    -999.25    8.74270    -999.25    -999.25    -999.25    -999.25    -999.25    0.24560    0.24560  -68.10770   -4.03500    8.74270
 3650.00000    -999.25    9.55860    9.55860  170.51450  170.51450    -999.25    -999.25    -999.25    -999.25    -999.25    -999.25    5.83520   97.33180   97.33180    -999.25  134.13400  134.13400    5.83520    -999.25    6.47420    -999.25    -999.25    -999.25    -999.25    -999.25    0.31520    0.31520  -69.73210   -5.67190    6.47420
 3700.00000    -999.25    9.61630    9.61630  145.22530  145.22530    -999.25    -999.25    -999.25    -999.25    -999.25    -999.25    6.88910   91.77310   91.77310    -999.25  132.16300  132.16300    6.88910    -999.25    7.31440    -999.25    -999.25    -999.25    -999.25    -999.25    0.28520    0.28520  -67.59050   -3.54280    7.31440
 3750.00000    -999.25    9.43900    9.43900  146.78890  146.78890    -999.25    -999.25    -999.25    -999.25    -999.25    -999.25    6.83930   89.87890   89.87890    -999.25  143.64340  143.64340    6.83930    -999.25    7.50930    -999.25    -999.25    -999.25    -999.25    -999.25    0.26390    0.26390  -66.35300   -2.31760    7.50930
 3800.00000    -999.25    9.06310    9.06310  156.87450  156.87450    -999.25    -999.25    -999.25    -999.25    -999.25    -999.25    6.37580   91.14480   91.14480    -999.25  145.33670  145.33670    6.37580    -999.25    6.90170    -999.25    -999.25    -999.25    -999.25    -999.25    0.27150    0.27150  -66.34370   -2.32070    6.90170
 3850.00000    -999.25    9.31050    9.31050  156.86200  156.86200    -999.25    -999.25    -999.25    -999.25    -999.25    -999.25    6.37190   91.07650   91.07650    -999.25  137.55620  137.55620    6.37190    -999.25    6.97780    -999.25    -999.25    -999.25    -999.25    -999.25    0.27730    0.27730  -68.03490   -4.02440    6.97780
 3900.00000    -999.25    9.27760    9.27760  169.04190  169.04190    -999.25    -999.25    -999.25    -999.25    -999.25    -999.25    5.32960   89.38940   89.38940    -999.25  148.96500  148.96500    5.32960    -999.25    6.07410    -999.25    -999.25    -999.25    -999.25    -999.25    0.26450    0.26450  -67.53270   -3.53460    6.07410
 3950.00000    -999.25    9.35500    9.35500  140.37530  140.37530    -999.25    -999.25    -999.25    -999.25    -999.25    -999.25    6.90670   88.56900   88.56900    -999.25  135.14050  135.14050    6.90670    -999.25    7.56090    -999.25    -999.25    -999.25    -999.25    -999.25    0.25150    0.25150  -66.12870   -2.14310    7.56090
 4000.00000    -999.25    9.30150    9.30150  173.39360  173.39360    -999.25    -999.25    -999.25    -999.25    -999.25    -999.25    5.76740   94.73560   94.73560    -999.25  152.03920  152.03920    5.76740    -999.25    6.21510    -999.25    -999.25    -999.25    -999.25    -999.25    0.30640    0.30640  -67.37660   -3.99600    6.21510
 4050.00000    -999.25    9.44190    9.44190  121.39370  121.39370    -999.25    -999.25    -999.25    -999.25    -999.25    -999.25    8.23360   82.91730   82.91730    -999.25  140.68980  140.68980    8.23360    -999.25    8.66220    -999.25    -999.25    -999.25    -999.25    -999.25    0.21770    0.21770  -66.78190   -3.92920    8.66220
 4100.00000    -999.25   10.00270   10.00270  140.84840  140.84840    -999.25    -999.25    -999.25    -999.25    -999.25    -999.25    7.26630   85.00590   85.00590    -999.25  151.70010  151.70010    7.26630    -999.25    7.80360    -999.25    -999.25    -999.25    -999.25    -999.25    0.22240    0.22240  -66.27440   -3.87650    7.80360
 4150.00000    -999.25    9.78760    9.78760  131.02510  131.02510    -999.25    -999.25    -999.25    -999.25    -999.25    -999.25    7.63510   83.67140   83.67140    -999.25  142.29220  142.29220    7.63510    -999.25    8.15440    -999.25    -999.25    -999.25    -999.25    -999.25    0.21950    0.21950  -66.94980   -5.00680    8.15440
 4200.00000    -999.25    9.89750    9.89750  134.98070  134.98070    -999.25    -999.25    -999.25    -999.25    -999.25    -999.25    7.38840   84.62630   84.62630    -999.25  141.91450  141.91450    7.38840    -999.25    7.85310    -999.25    -999.25    -999.25    -999.25    -999.25    0.22760    0.22760  -65.08130   -3.59540    7.85310
 4250.00000    -999.25    9.70460    9.70460  167.19570  167.19570    -999.25    -999.25    -999.25    -999.25    -999.25    -999.25    6.46170   92.61570   92.61570    -999.25  163.38040  163.38040    6.46170    -999.25    6.89030    -999.25    -999.25    -999.25    -999.25    -999.25    0.27840    0.27840  -63.93490   -2.90150    6.89030
 4300.00000    -999.25    9.58360    9.58360  175.25840  175.25840    -999.25    -999.25    -999.25    -999.25    -999.25    -999.25    6.11550   93.68930   93.68930    -999.25  150.38000  150.38000    6.11550    -999.25    6.53780    -999.25    -999.25    -999.25    -999.25    -999.25    0.29010    0.29010  -62.83020   -2.25160    6.53780
 4350.00000    -999.25    9.57680    9.57680  145.63480  145.63480    -999.25    -999.25    -999.25    -999.25    -999.25    -999.25    7.18360   92.56090   92.56090    -999.25  166.32320  166.32320    7.18360    -999.25    8.23430    -999.25    -999.25    -999.25    -999.25    -999.25    0.29440    0.29440  -62.46330   -2.39660    8.23430
 4400.00000    -999.25    9.25380    9.25380  128.55400  128.55400    -999.25    -999.25    -999.25    -999.25    -999.25    -999.25    8.14220   90.85920   90.85920    -999.25  158.57690  158.57690    8.14220    -999.25   10.10960    -999.25    -999.25    -999.25    -999.25    -999.25    0.27240    0.27240  -62.42930   -3.02450   10.10960
 4450.00000    -999.25    9.03510    9.03510  127.46100  127.46100    -999.25    -999.25    -999.25    -999.25    -999.25    -999.25    8.31260   93.83910   93.83910    -999.25  179.59260  179.59260    8.31260    -999.25   10.06790    -999.25    -999.25    -999.25    -999.25    -999.25    0.29340    0.29340  -62.17900   -3.43940   10.06790
 4500.00000    -999.25    8.96460    8.96460  121.51520  121.51520    -999.25    -999.25    -999.25    -999.25    -999.25    -999.25    8.60570   94.58960   94.58960    -999.25  174.05870  174.05870    8.60570    -999.25   10.59880    -999.25    -999.25    -999.25    -999.25    -999.25    0.29910    0.29910  -62.03090   -3.87880   10.59880
 4550.00000    -999.25    9.28440    9.28440  168.55660  168.55660    -999.25    -999.25    -999.25    -999.25    -999.25    -999.25    6.27520   94.78650   94.78650    -999.25  143.05980  143.05980    6.27520    -999.25    7.76190    -999.25    -999.25    -999.25    -999.25    -999.25    0.29930    0.29930  -61.81830   -2.90510    7.76190
