~Version ---------------------------------------------------
VERS.      2.0 : CWLS log ASCII Standard -VERSION 2.0
WRAP.       NO : One line per depth step
CREA. 10/05/17 : LAS Creation Date
~Well ------------------------------------------------------
STRT.FT                  900.0 : START DEPTH
STOP.FT                11100.0 : STOP DEPTH
STEP.FT               50.00000 : STEP LENGTH
NULL.                   -999.0 : NULL VALUE
COMP.     CHEVRON STANDARD LTD : COMPANY
WELL. CHEVRON CLARK 10-2-59-18 : WELL
FLD .             KAYBOB SOUTH : FIELD
LOC .                          : LOCATION
CTRY.                   CANADA : COUNTRY
SRVC.             Schlumberger : SERVICE COMPANY
DATE.              17-Jul-1968 : LOGDATE
PROV.                  Alberta : PROVINCE
UWI .         100100205918W500 : UNIQUE WELL ID
SLAT.WGS84            54.07468 : SURFACE LATITUDE
SLON.WGS84           -116.5832 : SURFACE LONGITUDE
~Curve Information -----------------------------------------
DEPT    .FT    : Depth Curve
CALDED  .IN    : CALIPER FROM DENSITY LOG
CALNED  .IN    : CALIPER FROM NEUTRON LOG [ADJ. TO RESISTIVITY LOG]
CALSED  .IN    : CALIPER FROM SONIC LOG [ADJ. TO RESISTIVITY LOG]
CALWS   .IN    : CALIPER [CALSED SPL. TO CALDED @ 10654']
CONDWS  .MMHO  : CONDUCTIVITY [1000/DRESWS]
DCORWS  .G/C3  : DENSITY CORRECTION [DRHOED]
DENWS   .G/C3  : FORMATION BULK DENSITY [RHOBED]
DPHIDLED.V/V   : DENSITY POROSITY DOLOMITE [M=2.85, F=1.00] FROM DENSITY LOG [ADJ. TO RESISTIVITY LOG]
DPHILSED.V/V   : DENSITY POROSITY LIMESTONE [M=2.71,F=1.0] FROM DENSITY LOG [ADJ. TO RESISTIVITY LOG]
DPOLSWS .V/V   : DENSITY POROSITY LIMESTONE [CALC FROM DENWS,M=2.71, F=1.00]
DRESWS  .OHMM  : DEEP RESISTIVITY [ILDED]
DRHOED  .G/C3  : BULK DENSITY CORRECTION FROM DENSITY LOG [ADJ. TO RESISTIVITY LOG]
DTED    .US/F  : DELTA-T FROM SONIC LOG [ADJ. TO RESISTIVITY LOG]
DTWS    .US/F  : COMPRESSIONAL SONIC [DTED]
GRSED   .GAPI  : GAMMA RAY FROM SONIC LOG [ADJ. TO RESISTIVITY LOG]
GRWS    .GAPI  : GAMMA RAY [GRSED]
ILDED   .OHMM  : DEEP INDUCTION RESISTIVITY FROM RESISTIVITY LOG
ILMED   .OHMM  : MEDIUM INDUCTION RESISTIVITY FROM RESISTIVITY LOG
LL8ED   .OHMM  : LATEROLOG-8 RESISTIVITY FROM RESISTIVITY LOG
MRESWS  .OHMM  : MEDIUM RESISTIVITY [ILMED]
NPOLSWS .V/V   : NEUTRON POROSITY [SNPLSED]
RHOBED  .G/C3  : BULK DENSITY FROM DENSITY LOG
SNPLSED .V/V   : SIDEWALL NEUTRON POROSITY LIMESONTE FROM SNP LOG [ADJ. TO RESISTIVITY LOG]
SPRED   .MV    : SPONTANEOUS POTENTIAL FROM RESISTIVITY LOG
SPWS    .MV    : SPONTANEOUS POTENTIAL [BASELINE 0 MV,SPRED]
SRESWS  .OHMM  : SHALLOW RESISTIVITY [LL8ED]
~Params ----------------------------------------------------
PD  .                     GL : PERMANENT DATUM
EPD .FT                 3126 : ELEVATION PERMANENT DATUM
LMF .                     KB : LOG MEASURED FROM
DAPD.FT                   14 : FEET ABOVE PERMANENT DATUM
EKB .FT                 3140 : KELLY BUSHING
EDF .FT                 3126 : DRILLING FLOOR
DATE.               08/13/68 : RUN DATE
RUN .                      2 : RUN NUMBER
DD  .FT                11108 : DEPTH DRILLER
DL  .FT                11107 : DEPTH LOGGER
BLI .FT                11102 : BOTTOM LOG INTERVAL
TLI .FT                10629 : TOP LOG INTERVAL
CBD .FT                10630 : CASING BOTTOM DRILLER
CBL .FT                10629 : CASING BOTTOM LOGGER
BS  .IN                 6.25 : BIT SIZE
BSD .FT                11108 : BIT SIZE AT DEPTH
DFT .                    GEL : DRILLING FLUID TYPE
DFD .                    9.7 : DRILLING FLUID DENSITY
DFV .                     87 : DRILLING FLUID VISCOSITY
RMS .OHMM               1.52 : RESISTIVITY MUD SAMPLE
MST .DEGF                 70 : MUD SAMPLE TEMPERATURE
RMF .OHMM               1.25 : RESISTIVITY MUD FILTRATE SAMPLE
MFST.DEGF                 75 : MUD FILTRATE SAMPLE TEMPERATURE
RMC .OHMM               1.55 : RESISTIVITY MUD CAKE
MCST.DEGF                 70 : MUD CAKE SAMPLE TEMPERATURE
TCS .HRS                 1.5 : TIME CIRCULATED STOPPED
LUN .                   3702 : LOGGING UNIT NUMBER
LUL .                     DC : LOGGING UNIT LOCATION
ENGI.                   BIGG : RECORDING ENGINEER
WITN.         HOVDEBO GHAZAR : WITNESSED BY
CLNT.                A2DTECH : CLIENT CODE
ORIG.            2" 5" PRINT : ORIGIN OF DATA
UWI .       100100205918W500 : UNIQUE WELL ID
DICO. A2D Technologies, Inc. : DIGITIZING COMPANY
~Other -----------------------------------------------------
DIL-LAT/FDC/SNP/BCS LOG RAN
MATRIX VALUE NOT MENTION
~ASCII -----------------------------------------------------
# ...
 2250.00000     -999.0     -999.0   12.17490   12.17490  363.91430     -999.0     -999.0     -999.0     -999.0     -999.0    2.74790     -999.0  104.71840  104.71840   88.75260   88.75260    2.74790    2.58330    3.27960    2.58330     -999.0     -999.0     -999.0 -134.38670   -2.67450    3.27960
 2300.00000     -999.0     -999.0   12.57460   12.57460  183.70870     -999.0     -999.0     -999.0     -999.0     -999.0    5.44340     -999.0   92.43370   92.43370   58.46090   58.46090    5.44340    5.09820    5.71380    5.09820     -999.0     -999.0     -999.0 -138.54440   -6.96780    5.71380
 2350.00000     -999.0     -999.0   13.52890   13.52890  289.21800     -999.0     -999.0     -999.0     -999.0     -999.0    3.45760     -999.0  128.32760  128.32760   58.40150   58.40150    3.45760    3.64590    3.91430    3.64590     -999.0     -999.0     -999.0 -134.67500   -3.23490    3.91430
 2400.00000     -999.0     -999.0   13.07790   13.07790  196.96280     -999.0     -999.0     -999.0     -999.0     -999.0    5.07710     -999.0  100.04980  100.04980   69.56630   69.56630    5.07710    4.55260    5.49750    4.55260     -999.0     -999.0     -999.0 -136.15080   -4.84630    5.49750
 2450.00000     -999.0     -999.0   13.05210   13.05210  349.79070     -999.0     -999.0     -999.0     -999.0     -999.0    2.87300     -999.0  108.13680  108.13680   66.69810   66.69810    2.87300    2.76250    3.14860    2.76250     -999.0     -999.0     -999.0 -133.58180   -2.41370    3.14860
 2500.00000     -999.0     -999.0   12.55110   12.55110  281.95220     -999.0     -999.0     -999.0     -999.0     -999.0    3.54670     -999.0  106.24930  106.24930   65.28210   65.28210    3.54670    3.41680    3.71830    3.41680     -999.0     -999.0     -999.0 -133.01290   -1.98040    3.71830
 2550.00000     -999.0     -999.0   12.47450   12.47450  133.65230     -999.0     -999.0     -999.0     -999.0     -999.0    7.48210     -999.0   95.60680   95.60680   81.74340   81.74340    7.48210    7.84400    8.09480    7.84400     -999.0     -999.0     -999.0 -135.34250   -4.44560    8.09480
 2600.00000     -999.0     -999.0   12.54410   12.54410   99.51040     -999.0     -999.0     -999.0     -999.0     -999.0   10.04920     -999.0   83.72730   83.72730   48.48570   48.48570   10.04920   10.21060   10.63980   10.21060     -999.0     -999.0     -999.0 -139.45800   -8.69760   10.63980
 2650.00000     -999.0     -999.0   12.33800   12.33800  257.45990     -999.0     -999.0     -999.0     -999.0     -999.0    3.88410     -999.0  105.84500  105.84500   65.47640   65.47640    3.88410    4.06280    4.26470    4.06280     -999.0     -999.0     -999.0 -134.14530   -3.52040    4.26470
 2700.00000     -999.0     -999.0   12.20140   12.20140  223.53080     -999.0     -999.0     -999.0     -999.0     -999.0    4.47590     -999.0  115.27730  115.27730   66.22710   66.22710    4.47590    4.33620    4.63510    4.33620     -999.0     -999.0     -999.0 -132.20920   -1.72080    4.63510
 2750.00000     -999.0     -999.0   12.16540   12.16540  112.51500     -999.0     -999.0     -999.0     -999.0     -999.0    8.88770     -999.0   85.59860   85.59860   63.92230   63.92230    8.88770    9.57390   10.36370    9.57390     -999.0     -999.0     -999.0 -142.06110  -11.70830   10.36370
 2800.00000     -999.0     -999.0   12.59030   12.59030  215.54980     -999.0     -999.0     -999.0     -999.0     -999.0    4.63930     -999.0  100.16850  100.16850   73.68710   73.68710    4.63930    4.45510    4.37030    4.45510     -999.0     -999.0     -999.0 -133.05840   -2.84120    4.37030
 2850.00000     -999.0     -999.0   12.14190   12.14190  234.06600     -999.0     -999.0     -999.0     -999.0     -999.0    4.27230     -999.0   94.28480   94.28480   79.00280   79.00280    4.27230    4.43660    4.65960    4.43660     -999.0     -999.0     -999.0 -133.63670   -3.55590    4.65960
 2900.00000     -999.0     -999.0   12.50860   12.50860  198.28680     -999.0     -999.0     -999.0     -999.0     -999.0    5.04320     -999.0   91.45300   91.45300   73.62780   73.62780    5.04320    4.81960    5.42730    4.81960     -999.0     -999.0     -999.0 -134.33890   -4.39370    5.42730
 2950.00000     -999.0     -999.0   11.99960   11.99960   58.42330     -999.0     -999.0     -999.0     -999.0     -999.0   17.11910     -999.0   84.05780   84.05780   64.08570   64.08570   17.11910   23.74780   22.60540   23.74780     -999.0     -999.0     -999.0 -138.20870   -8.41710   22.60540
 3000.00000     -999.0     -999.0   12.47820   12.47820  286.18040     -999.0     -999.0     -999.0     -999.0     -999.0    3.49430     -999.0   94.95820   94.95820   78.66570   78.66570    3.49430    3.63510    3.77490    3.63510     -999.0     -999.0     -999.0 -133.59180   -4.03220    3.77490
 3050.00000     -999.0     -999.0   12.26860   12.26860  164.04470     -999.0     -999.0     -999.0     -999.0     -999.0    6.09590     -999.0   83.68370   83.68370   60.00020   60.00020    6.09590    6.49240    7.09490    6.49240     -999.0     -999.0     -999.0 -132.59920   -3.27150    7.09490
 3100.00000     -999.0     -999.0   11.83230   11.83230  135.16800     -999.0     -999.0     -999.0     -999.0     -999.0    7.39820     -999.0   83.97520   83.97520   59.06470   59.06470    7.39820    6.96490    7.80340    6.96490     -999.0     -999.0     -999.0 -134.47820   -5.38400    7.80340
 3150.00000     -999.0     -999.0   13.67940   13.67940  234.53810     -999.0     -999.0     -999.0     -999.0     -999.0    4.26370     -999.0   96.90390   96.90390   62.31130   62.31130    4.26370    4.49800    4.83510    4.49800     -999.0     -999.0     -999.0 -134.52570   -5.66350    4.83510
 3200.00000     -999.0     -999.0   13.24980   13.24980  215.49340     -999.0     -999.0     -999.0     -999.0     -999.0    4.64130     -999.0   97.83650   97.83650   58.90200   58.90200    4.64130    4.29140    3.89890    4.29140     -999.0     -999.0     -999.0 -132.38350   -3.75480    3.89890
 3250.00000     -999.0     -999.0   14.00040   14.00040  187.72640     -999.0     -999.0     -999.0     -999.0     -999.0    5.32690     -999.0   96.33810   96.33810   61.87070   61.87070    5.32690    5.21640    5.02680    5.21640     -999.0     -999.0     -999.0 -132.06020   -3.66350    5.02680
 3300.00000     -999.0     -999.0   13.05680   13.05680  284.34940     -999.0     -999.0     -999.0     -999.0     -999.0    3.51680     -999.0  108.55440  108.55440   71.24570   71.24570    3.51680    3.39180    3.23430    3.39180     -999.0     -999.0     -999.0 -132.03810   -3.87330    3.23430
 3350.00000     -999.0     -999.0   12.67260   12.67260  156.28170     -999.0     -999.0     -999.0     -999.0     -999.0    6.39870     -999.0   95.53450   95.53450   58.27370   58.27370    6.39870    6.10780    6.67960    6.10780     -999.0     -999.0     -999.0 -131.78920   -3.85790    6.67960
 3400.00000     -999.0     -999.0   12.08560   12.08560   78.17390     -999.0     -999.0     -999.0     -999.0     -999.0   12.79200     -999.0   81.14390   81.14390   53.99370   53.99370   12.79200   12.20780   11.90340   12.20780     -999.0     -999.0     -999.0 -132.92010   -5.22080   11.90340
 3450.00000     -999.0     -999.0   11.66460   11.66460   56.55700     -999.0     -999.0     -999.0     -999.0     -999.0   17.68310     -999.0   84.12990   84.12990   43.72220   43.72220   17.68310   23.74440   19.91130   23.74440     -999.0     -999.0     -999.0 -139.94020  -12.47440   19.91130
 3500.00000     -999.0     -999.0   11.60530   11.60530   49.09490     -999.0     -999.0     -999.0     -999.0     -999.0   20.36870     -999.0   76.02540   76.02540   34.66910   34.66910   20.36870   33.46930   37.82970   33.46930     -999.0     -999.0     -999.0 -144.09840  -16.86450   37.82970
 3550.00000     -999.0     -999.0   12.48940   12.48940  124.29930     -999.0     -999.0     -999.0     -999.0     -999.0    8.04510     -999.0   89.38330   89.38330   55.99110   55.99110    8.04510    7.22670    7.59810    7.22670     -999.0     -999.0     -999.0 -130.44460   -3.44270    7.59810
