~Version ---------------------------------------------------
VERS.      2.0 : CWLS log ASCII Standard -VERSION 2.0
WRAP.       NO : One line per depth step
CREA. 01/05/18 : LAS Creation Date
~Well ------------------------------------------------------
STRT.FT                              1700.0 : START DEPTH
STOP.FT                             14300.0 : STOP DEPTH
STEP.FT                            50.00000 : STEP LENGTH
NULL.                               -999.25 : NULL VALUE
COMP. CANADA CITIES SERVICE PETROLEUM CORP. : COMPANY
WELL.                 CS BRAZ R 11-22-43-13 : WELL
FLD .                                    WC : FIELD
LOC .                                       : LOCATION
CTRY.                                CANADA : COUNTRY
SRVC.                Schlumberger of Canada : SERVICE COMPANY
DATE.                           10-Oct-1970 : LOGDATE
PROV.                               Alberta : PROVINCE
UWI .                      100112204313W500 : UNIQUE WELL ID
SLAT.WGS84                         52.72078 : SURFACE LATITUDE
SLON.WGS84                        -115.8058 : SURFACE LONGITUDE
~Curve Information -----------------------------------------
DEPT    .FT       : Depth Curve
CALDED  .IN       : CALIPER FROM DENSITY LOG [ADJ. TO RESISTIVITY LOG]
CALNED  .IN       : CALIPER FROM SNP LOG [ADJ. TO RESISTIVITY LOG]
CALSED  .IN       : CALIPER FROM SONIC LOG
CALWS   .IN       : CALIPER [CALSED SPL. TO CALDED @ 10242']
CILDED  .MMHO     : CONDUCTIVITY FROM IEL LOG
CONDWS  .MMHO     : CONDUCTIVITY [1000/DRESWS]
DCORWS  .G/C3     : DENSITY CORRECTION [DRHOED]
DENWS   .G/C3     : FORMATION BULK DENSITY [RHOBED]
DPHIDMED.V/V      : DENSITY POROSITY DOLOMITE [M=2.87 F=1.00] FROM DENSITY LOG [ADJ. TO RESISTIVITY LOG]
DPHILSED.V/V      : DENSITY POROSITY LIMESTONE [M=2.71 F=1.00] FROM DENSITY LOG [ADJ. TO RESISTIVITY LOG]
DPHISSED.V/V      : DENSITY POROSITY SANDSTONE [M=2.65 F=1.00] FROM DENSITY LOG [ADJ. TO RESISTIVITY LOG]
DPOLSWS .V/V      : DENSITY POROSITY LIMESTONE [CALC. FROM DENWS, M=2.71 F=1.00]
DRESWS  .OHMM     : DEEP RESISTIVITY [1000/CILDED, IF ILDED< 2.5, ILDED SPL. TO ILDED @ 11263']
DRHOED  .G/C3     : DENSITY CORRECTIONFROM DENSITY LOG [ADJ. TO RESISTIVITY LOG]
DTED    .US/F     : DELTA TIME FROM SONIC LOG
DTWS    .US/F     : COMPRESSIONAL SONIC [DTED]
GRDED   .CU       : GAMMA RAY (GRD SPL @ 10670'-11252' TO GRD_1) FROM DENSITY LOG [ADJ. TO RESISTIVITY LOG]
GRN1ED  .GAPI     : GAMMA RAY FROM SNP LOG [ADJ. TO RESISTIVITY LOG]
GRNED   .Unknown  : GAMMA RAY FROM GRN LOG
GRSED   .GAPI     : GAMMA RAY (GRS SPL @10670'-10750' TO GRS_1) FROM SONIC LOG
GRWS    .GAPI     : GAMMA RAY [GRSED SPL @ 14288' TO GRDED]
ILDED   .OHMM     : DEEP INDUCTION LOG FROM DIL LOG
ILMED   .OHMM     : MEDIUM INDUCTION LOG FROM DIL LOG
LL8ED   .OHMM     : LATEROLOG 8 RESISTIVITY FROM DIL LOG
MRESWS  .OHMM     : MEDIUM RESISTIVITY [ILMED]
NEUTED  .NAPI     : NEUTRON FROM GRN LOG [ADJ. TO RESISTIVITY LOG]
NEUTWS  .NAPI     : NEUTRON [NEUTED]
NPOLSWS .V/V      : NEUTRON POROSITY LIMESTONE [SNPLSED]
RHOBED  .G/C3     : BULK DENSITYFROM DENSITY LOG [ADJ. TO RESISTIVITY LOG]
SNED    .OHMM     : SHORT NORMAL FROM IEL LOG
SNPLSED .V/V      : SIDEWALL NEUTRON POROSITY LIMESTONE FROM SNP LOG [ADJ. TO RESISTIVITY LOG]
SPHILSED.V/V      : SONIC POROSITY LIMESTONE [DTM=47.6, DTF=189] FROM SNP LOG
SPOLSWS .V/V      : SONIC POROSITY LIMESTONE [SPHILSED]
SPRED   .MV       : SPONTANEOUS POTENTIAL FROM IEL LOG <11250'> FROM DIL LOG
SPWS    .MV       : SPONTANEOUS POTENTIAL [BASELINE 0 MV, SPRED]
SRESWS  .OHMM     : SHALLOW RESISTIVITY [SNED SPL. TO LL8ED @ 12244']
~Params ----------------------------------------------------
PD  .                     GL : PERMANENT DATUM
EPD .FT                 3657 : ELEVATION PERMANENT DATUM
LMF .                     KB : LOG MEASURED FROM
DAPD.FT                 14.5 : FEET ABOVE PERMANENT DATUM
EKB .FT               3671.5 : KELLY BUSHING
EGL .FT                 3657 : GROUND LEVEL
DATE.               10/10/70 : RUN DATE
RUN .                      1 : RUN NUMBER
DD  .FT                14316 : DEPTH DRILLER
DL  .FT                14316 : DEPTH LOGGER
BLI .FT                14312 : BOTTOM LOG INTERVAL
TLI .FT                11258 : TOP LOG INTERVAL
CBD .FT                11258 : CASING BOTTOM DRILLER
CBL .FT                11258 : CASING BOTTOM LOGGER
BS  .IN                    6 : BIT SIZE
BSD .FT                14316 : BIT SIZE AT DEPTH
DFT .               GEL CHEM : DRILLING FLUID TYPE
DFD .                    9.2 : DRILLING FLUID DENSITY
DFV .                     51 : DRILLING FLUID VISCOSITY
DFPH.                   10.5 : DRILLING FLUID PH
DFL .                    8.8 : DRILLING FLUID LOSS
MSS .               FLOWLINE : MUD SAMPLE SOURCE
RMS .OHMM               1.22 : RESISTIVITY MUD SAMPLE
MST .DEGF                 98 : MUD SAMPLE TEMPERATURE
RMF .OHMM               1.23 : RESISTIVITY MUD FILTRATE SAMPLE
MFST.DEGF                 79 : MUD FILTRATE SAMPLE TEMPERATURE
RMB .OHMM                0.3 : RESISTIVITY MUD AT BHT
TCS .HRS                 3.5 : TIME CIRCULATED STOPPED
LUN .                   7004 : LOGGING UNIT NUMBER
LUL .                     RD : LOGGING UNIT LOCATION
ENGI.                  PERRY : RECORDING ENGINEER
WITN.       SHIER MENEGHETTI : WITNESSED BY
CLNT.                A2DTECH : CLIENT CODE
ORIG.            2" 5" PRINT : ORIGIN OF DATA
UWI .       100112204313W500 : UNIQUE WELL ID
DICO. A2D Technologies, Inc. : DIGITIZING COMPANY
~Other -----------------------------------------------------
~ASCII -----------------------------------------------------
# ...
 12700.00000    6.55600    6.70820    6.22570    6.55600    -999.25   22.03430    0.08180    2.89240    -999.25   -0.10400    -999.25   -0.10670   45.91870    0.08180   55.24680   55.24680  135.45560   71.87080    -999.25   63.66770   63.66770   45.91870  109.91330  134.91510  109.91330    -999.25    -999.25    0.04440    2.89240    -999.25    0.04440    0.05430    0.05430   38.23070 -135.73010  134.91510
 12750.00000    6.92370    7.24960    6.22140    6.92370    -999.25    0.52530    -999.25    2.78750    -999.25   -0.05540    -999.25   -0.04530 1903.61520    -999.25   47.85140   47.85140   71.60360   12.09460    -999.25    5.31800    5.31800 1903.61520 1572.35500 1518.59610 1572.35500    -999.25    -999.25    0.02860    2.78750    -999.25    0.02860    0.00450    0.00450  129.67450  -51.58450 1518.59610
 12800.00000    6.33770    6.66950    6.15130    6.33770    -999.25   45.16410    0.08700    2.78140    -999.25   -0.05390    -999.25   -0.04180   22.14150    0.08700   54.75520   54.75520  123.20040   65.87200    -999.25   59.87660   59.87660   22.14150   25.67690   31.17590   25.67690    -999.25    -999.25    0.04140    2.78140    -999.25    0.04140    0.05350    0.05350  178.70590   -9.88790   31.17590
 12850.00000    6.42810    6.90190    6.21860    6.42810    -999.25    3.83820    0.07940    2.81690    -999.25   -0.06890    -999.25   -0.06250  260.53690    0.07940   49.17560   49.17560   82.26200   26.77780    -999.25   20.18520   20.18520  260.53690 1639.33980 1149.81990 1639.33980    -999.25    -999.25    0.01000    2.81690    -999.25    0.01000    0.01280    0.01280  134.35690  -62.00780 1149.81990
 12900.00000    6.50400    7.03680    6.19270    6.50400    -999.25    6.69860    0.08300    2.80400    -999.25   -0.05450    -999.25   -0.05500  149.28400    0.08300   49.41900   49.41900   73.22090   26.01670    -999.25   19.62960   19.62960  149.28400  959.74430  625.83580  959.74430    -999.25    -999.25    0.00960    2.80400    -999.25    0.00960    0.01410    0.01410  117.25560  -86.91790  625.83580
 12950.00000    6.39130    7.18520    6.25820    6.39130    -999.25   72.98240    0.07250    2.76990    -999.25   -0.04330    -999.25   -0.03500   13.70200    0.07250   61.10630   61.10630  108.25340   58.67840    -999.25   56.02550   56.02550   13.70200   12.42320   23.61240   12.42320    -999.25    -999.25    0.04610    2.76990    -999.25    0.04610    0.10070    0.10070    -999.25    -999.25   23.61240
 13000.00000    6.38190    7.13020    6.26080    6.38190    -999.25  188.57960    0.07220    2.78350    -999.25   -0.05000    -999.25   -0.04300    5.30280    0.07220   69.46600   69.46600  132.71890   87.95520    -999.25   85.40140   85.40140    5.30280    5.11390    7.88070    5.11390    -999.25    -999.25    0.08450    2.78350    -999.25    0.08450    0.15900    0.15900  120.03590  -56.77610    7.88070
 13050.00000    6.26270    6.85350    6.12870    6.26270    -999.25  230.71780    0.12920    2.78620    -999.25   -0.04750    -999.25   -0.04460    4.33430    0.12920   73.03020   73.03020  143.30290  104.45520    -999.25   99.53980   99.53980    4.33430    4.11510    6.34750    4.11510    -999.25    -999.25    0.09480    2.78620    -999.25    0.09480    0.18220    0.18220  137.11150  -13.68410    6.34750
 13100.00000    6.34960    6.77670    6.15980    6.34960    -999.25  302.98440    0.06320    2.76480    -999.25   -0.04080    -999.25   -0.03200    3.30050    0.06320   77.28970   77.28970  148.57980  125.09030    -999.25  113.37300  113.37300    3.30050    3.18870    5.05040    3.18870    -999.25    -999.25    0.13590    2.76480    -999.25    0.13590    0.21450    0.21450   22.79010 -123.60620    5.05040
 13150.00000    6.54560    6.81910    6.25740    6.54560    -999.25  283.98600    0.06840    2.74860    -999.25   -0.02630    -999.25   -0.02260    3.52130    0.06840   76.29160   76.29160  140.23420  105.38720    -999.25  104.28280  104.28280    3.52130    3.42090    5.53940    3.42090    -999.25    -999.25    0.11400    2.74860    -999.25    0.11400    0.20610    0.20610  -16.61790 -161.01680    5.53940
 13200.00000    6.42870    6.87450    6.29360    6.42870    -999.25  204.77850    0.10190    2.78960    -999.25   -0.04780    -999.25   -0.04650    4.88350    0.10190   72.59660   72.59660  124.14070   89.80390    -999.25   95.09450   95.09450    4.88350    4.70910    7.29630    4.70910    -999.25    -999.25    0.10850    2.78960    -999.25    0.10850    0.18130    0.18130  -42.07940 -184.47090    7.29630
 13250.00000    6.28480    6.95270    6.25860    6.28480    -999.25  203.86110    0.05670    2.76770    -999.25   -0.04110    -999.25   -0.03370    4.90530    0.05670   70.51600   70.51600  125.94920   92.13650    -999.25   92.64520   92.64520    4.90530    4.83130    7.37930    4.83130    -999.25    -999.25    0.09780    2.76770    -999.25    0.09780    0.16830    0.16830   29.22760 -111.17650    7.37930
 13300.00000    6.26850    6.82880    6.34910    6.26850    -999.25  248.60780    0.05060    2.72710    -999.25   -0.01980    -999.25   -0.01000    4.02240    0.05060   73.87540   73.87540  120.76450  107.37370    -999.25  101.05570  101.05570    4.02240    3.98440    6.22150    3.98440    -999.25    -999.25    0.11420    2.72710    -999.25    0.11420    0.19100    0.19100  -13.21890 -151.62560    6.22150
 13350.00000    6.22330    6.78430    6.27580    6.22330    -999.25  234.43360    0.04040    2.74580    -999.25   -0.02470    -999.25   -0.02090    4.26560    0.04040   73.32400   73.32400  118.25290   90.30040    -999.25   87.90070   87.90070    4.26560    4.05560    6.60820    4.05560    -999.25    -999.25    0.10810    2.74580    -999.25    0.10810    0.18540    0.18540   43.43570  -91.48710    6.60820
 13400.00000    6.30920    6.67890    6.24520    6.30920    -999.25  217.66100    0.04940    2.77260    -999.25   -0.03740    -999.25   -0.03660    4.59430    0.04940   72.39860   72.39860  105.67370   90.01410    -999.25   84.79470   84.79470    4.59430    4.53150    7.23570    4.53150    -999.25    -999.25    0.10560    2.77260    -999.25    0.10560    0.17810    0.17810   53.93190  -76.02040    7.23570
 13450.00000    6.23860    6.59590    6.26430    6.23860    -999.25  185.64280    0.03460    2.73530    -999.25   -0.02050    -999.25   -0.01480    5.38670    0.03460   72.64230   72.64230  113.05040   87.99910    -999.25   82.90360   82.90360    5.38670    5.17920    8.09130    5.17920    -999.25    -999.25    0.09860    2.73530    -999.25    0.09860    0.18050    0.18050   56.70890  -68.24810    8.09130
 13500.00000    6.15940    6.59490    6.20570    6.15940    -999.25  116.31830    0.02640    2.73380    -999.25   -0.01670    -999.25   -0.01390    8.59710    0.02640   63.75720   63.75720   69.69230   58.84110    -999.25   59.26650   59.26650    8.59710    8.40600   14.50880    8.40600    -999.25    -999.25    0.06400    2.73380    -999.25    0.06400    0.11990    0.11990    9.10230 -110.90900   14.50880
 13550.00000    6.31380    6.57800    6.15330    6.31380    -999.25  184.63470    0.06730    2.74800    -999.25   -0.02520    -999.25   -0.02220    5.41610    0.06730   70.83370   70.83370   96.20800   87.52660    -999.25   78.93770   78.93770    5.41610    6.04990   10.22560    6.04990    -999.25    -999.25    0.09510    2.74800    -999.25    0.09510    0.16950    0.16950   95.07530  -21.47390   10.22560
 13600.00000    6.43170    6.42210    6.31480    6.43170    -999.25  130.38490    0.03640    2.72440    -999.25   -0.01390    -999.25   -0.00840    7.66960    0.03640   64.82480   64.82480   78.71670   71.35110    -999.25   68.19540   68.19540    7.66960    7.80970   11.80640    7.80970    -999.25    -999.25    0.06920    2.72440    -999.25    0.06920    0.12630    0.12630   62.78820  -58.21800   11.80640
 13650.00000    6.54180    6.54830    6.20460    6.54180    -999.25  152.66010    0.13660    2.68100    -999.25    0.01290    -999.25    0.01700    6.55050    0.13660   84.43670   84.43670  115.98590  104.46490    -999.25  116.56730  116.56730    6.55050    5.90790   10.03470    5.90790    -999.25    -999.25    0.13530    2.68100    -999.25    0.13530    0.27500    0.27500   23.41890 -102.04430   10.03470
