~Version ---------------------------------------------------
VERS.      2.0 : CWLS log ASCII Standard -VERSION 2.0
WRAP.       NO : One line per depth step
CREA. 11/16/17 : LAS Creation Date
~Well ------------------------------------------------------
STRT.FT                   1000.0 : START DEPTH
STOP.FT                  10100.0 : STOP DEPTH
STEP.FT                 50.00000 : STEP LENGTH
NULL.                    -999.25 : NULL VALUE
COMP.     CALIFORNIA STANDARD CO : COMPANY
WELL. CALSTAN MEEKWAP 4-11-65-19 : WELL
FLD .                            : FIELD
LOC .                            : LOCATION
CTRY.                     CANADA : COUNTRY
SRVC.               Schlumberger : SERVICE COMPANY
DATE.                22-Sep-1960 : LOGDATE
PROV.                    Alberta : PROVINCE
UWI .           100041106519W500 : UNIQUE WELL ID
SLAT.WGS84              54.60522 : SURFACE LATITUDE
SLON.WGS84             -116.7693 : SURFACE LONGITUDE
~Curve Information -----------------------------------------
DEPT  .FT         : Depth Curve
CALWS .IN         : CALIPER [MCALED]
CILDED.MMHO       : DEEP INDUCTION CONDUCTIVITY FROM RESISTIVITY LOG
CONDWS.MMHO       : CONDUCTIVITY [1000/DRESWS]
DRESWS.OHMM       : DEEP RESISTIVITY [1000/CILDED,IF ILDED <1,ILDED]
DT1ED .US/F       : DELTA-T FROM SONIC LOG
DTED  .US/F       : DELTA-T FROM SONIC LOG
DTWS  .US/F       : COMPRESSIONAL SONIC [DTED]
GRED  .GAPI       : GAMMA RAY (CASING & COLLARS) FROM GRN LOG [ADJ. TO RESISTIVITY]
GRSED .UgRa-Eq/T  : GAMMA RAY FROM SONIC LOG [ADJ. TO RESISTIVITY]
GRWS  .GAPI       : GAMMA RAY [GRSED*16.5]
ILDED .OHMM       : DEEP INDUCTION RESISTIVITY FROM RESISTIVITY LOG
MCALED.IN         : CALIPER FROM MICROLOG
SNED  .OHMM       : SHORT NORMAL RESISTIVITY FROM RESISTIVITY LOG
SPRED .MV         : SPONTANEOUS POTENTIAL FROM RESISTIVITY LOG
SPWS  .MV         : SPONTANEOUS POTENTIAL [BASELINE 0 MV,SPRED]
SRESWS.OHMM       : SHALLOW RESISTIVITY [SNED]
TENRED.LBF        : TENSION FROM GRN LOG
~Params ----------------------------------------------------
LMF .                     KB : LOG MEASURED FROM
DMF .                     KB : DRILLING MEASURED FROM
EKB .FT                 2604 : KELLY BUSHING
EGL .FT                 2592 : GROUND LEVEL
DATE.               09/22/60 : RUN DATE
RUN .                      2 : RUN NUMBER
DD  .FT                10120 : DEPTH DRILLER
DL  .FT                10126 : DEPTH LOGGER
BLI .FT                10122 : BOTTOM LOG INTERVAL
TLI .FT                 5400 : TOP LOG INTERVAL
BS  .IN                    9 : BIT SIZE
BSD .FT                10120 : BIT SIZE AT DEPTH
DFT .               OIL EMUL : DRILLING FLUID TYPE
DFD .                   10.5 : DRILLING FLUID DENSITY
DFV .                    108 : DRILLING FLUID VISCOSITY
DFPH.                    9.5 : DRILLING FLUID PH
DFL .                    7.6 : DRILLING FLUID LOSS
RMS .OHMM                2.6 : RESISTIVITY MUD SAMPLE
MST .DEGF                 75 : MUD SAMPLE TEMPERATURE
RMF .OHMM                  2 : RESISTIVITY MUD FILTRATE SAMPLE
MFST.DEGF                 79 : MUD FILTRATE SAMPLE TEMPERATURE
RMC .OHMM                2.7 : RESISTIVITY MUD CAKE
MCST.DEGF                 79 : MUD CAKE SAMPLE TEMPERATURE
RMB .OHMM                1.0 : RESISTIVITY MUD AT BHT
TCS .HRS                   3 : TIME CIRCULATED STOPPED
LUN .                   1534 : LOGGING UNIT NUMBER
LUL .                    SKW : LOGGING UNIT LOCATION
ENGI.                  GOETZ : RECORDING ENGINEER
WITN.                 FARKAS : WITNESSED BY
CLNT.                A2DTECH : CLIENT CODE
ORIG.            2" 5" PRINT : ORIGIN OF DATA
UWI .       100041106519W500 : UNIQUE WELL ID
DICO. A2D Technologies, Inc. : DIGITIZING COMPANY
~Other -----------------------------------------------------
~ASCII -----------------------------------------------------
 1000.00000    -999.25    -999.25    -999.25    -999.25    -999.25    -999.25    -999.25    -999.25    3.14970   51.97010    -999.25    -999.25    -999.25    -999.25    -999.25    -999.25    -999.25
 1050.00000   10.82000  215.47100  209.43500    4.77470    -999.25  116.83010  116.83010    -999.25    4.64490   76.64080    4.77470   10.82000    6.60120 -173.84740   -4.48360    6.60120    -999.25
 1100.00000   13.29040  293.83820  268.01030    3.73120    -999.25  109.22550  109.22550    -999.25    4.19750   69.25870    3.73120   13.29040    3.85060 -173.60960   -4.35050    3.85060    -999.25
 1150.00000   12.10920  265.45910  245.32050    4.07630    -999.25  137.70150  137.70150    -999.25    5.60770   92.52710    4.07630   12.10920    4.54460 -172.87740   -3.71780    4.54460    -999.25
 1200.00000   12.11140  279.87390  254.21360    3.93370    -999.25  126.90950  126.90950    -999.25    4.76550   78.63080    3.93370   12.11140    4.38880 -172.12790   -3.06850    4.38880    -999.25
 1250.00000   10.06250  151.69520  152.85850    6.54200    -999.25  112.62850  112.62850    -999.25    4.92150   81.20480    6.54200   10.06250    6.91000 -171.90640   -2.94650    6.91000    -999.25
 1300.00000   10.02680  208.92110  211.07730    4.73760    -999.25  111.32720  111.32720    -999.25    4.26360   70.34860    4.73760   10.02680    5.18520 -173.27340   -4.41310    5.18520    -999.25
 1350.00000   10.55220  319.07830  305.99760    3.26800    -999.25  125.99700  125.99700    -999.25    5.49970   90.74500    3.26800   10.55220    3.70380 -171.83110   -3.07100    3.70380    -999.25
 1400.00000   12.92360  258.90330  251.45850    3.97680    -999.25  122.00670  122.00670    -999.25    5.24230   86.49800    3.97680   12.92360    4.32830 -172.12500   -3.46440    4.32830    -999.25
 1450.00000   15.31580  317.22450  319.85670    3.12640    -999.25  138.41150  138.41150    -999.25    4.95790   81.80540    3.12640   15.31580    3.51680 -171.65290   -3.09250    3.51680    -999.25
 1500.00000   10.70400  229.92270  216.88680    4.61070    -999.25  135.89050  135.89050    -999.25    5.00270   82.54540    4.61070   10.70400    5.25910 -172.27520   -3.81430    5.25910    -999.25
 1550.00000   10.04400  323.87440  314.10980    3.18360    -999.25  128.81770  128.81770    -999.25    5.62370   92.79150    3.18360   10.04400    3.36560 -171.74790   -3.38660    3.36560    -999.25
 1600.00000    9.36190  104.79280  106.07720    9.42710    -999.25  104.92630  104.92630    -999.25    3.70560   61.14240    9.42710    9.36190   10.90110 -182.62480  -14.36370   10.90110    -999.25
 1650.00000    9.38950  180.52280  184.25030    5.42740    -999.25   83.92750   83.92750    -999.25    3.56920   58.89100    5.42740    9.38950    6.51240 -175.67870   -7.51710    6.51240    -999.25
 1700.00000   10.45510  493.16060  442.75210    2.25860    -999.25  131.53000  131.53000    -999.25    4.69280   77.43120    2.25860   10.45510    2.44260 -170.94040   -2.87900    2.44260    -999.25
 1750.00000    8.92670   94.17450   97.91250   10.21320    -999.25  110.05500  110.05500    -999.25    4.69240   77.42460   10.21320    8.92670   12.05440 -183.42380  -15.46190   12.05440    -999.25
 1800.00000    9.02310   50.61240   49.08900   20.37120    -999.25   94.04910   94.04910    -999.25    3.11640   51.42140   20.37120    9.02310   18.48040 -183.91180  -16.04950   18.48040    -999.25
 1850.00000    9.83710  203.79000  203.70750    4.90900    -999.25  104.51350  104.51350    -999.25    3.97940   65.66010    4.90900    9.83710    5.58800 -171.75130   -3.98920    5.58800    -999.25
 1900.00000   10.98500  319.09380  290.43590    3.44310    -999.25  121.76900  121.76900    -999.25    4.18940   69.12510    3.44310   10.98500    3.95390 -170.76860   -3.10600    3.95390    -999.25
 1950.00000   10.01020  156.28450  168.43810    5.93690    -999.25   90.40780   90.40780    -999.25    3.68350   60.77770    5.93690   10.01020    6.38720 -170.61830   -3.05590    6.38720    -999.25
 2000.00000    9.70250   57.71150   55.17270   18.12490    -999.25  101.52150  101.52150    -999.25    3.35020   55.27830   18.12490    9.70250   17.51710 -174.27750   -6.81460   17.51710    -999.25
 2050.00000   10.26040  254.71410  254.74790    3.92550    -999.25  128.02140  128.02140    -999.25    3.65090   60.24070    3.92550   10.26040    4.57200 -170.47540   -3.11210    4.57200    -999.25
 2100.00000   11.59360  261.55610  238.74330    4.18860    -999.25  113.07000  113.07000    -999.25    4.00910   66.15010    4.18860   11.59360    4.69610 -170.47960   -3.21650    4.69610    -999.25
 2150.00000    9.88860   53.74630   50.28940   19.88490    -999.25   95.77950   95.77950    -999.25    3.57810   59.03870   19.88490    9.88860   22.54860 -172.49690   -5.33330   22.54860    -999.25
 2200.00000   11.11650  235.48360  233.81420    4.27690    -999.25  103.21930  103.21930    -999.25    3.70870   61.19350    4.27690   11.11650    5.09700 -170.46390   -3.40050    5.09700    -999.25
 2250.00000    9.67290  137.30720  145.46300    6.87460    -999.25  104.18900  104.18900    -999.25    2.78720   45.98880    6.87460    9.67290    9.16170 -172.45710   -5.49320    9.16170    -999.25
 2300.00000   10.14200  233.23250  233.22530    4.28770    -999.25  101.94550  101.94550    -999.25    4.96750   81.96460    4.28770   10.14200    4.82100 -170.25770   -3.39340    4.82100    -999.25
 2350.00000   11.29910  241.26520  241.94330    4.13320    -999.25  104.55780  104.55780    -999.25    4.44520   73.34580    4.13320   11.29910    4.76320 -170.28190   -3.51780    4.76320    -999.25
 2400.00000   10.96120  177.70090  187.78990    5.32510    -999.25  110.41320  110.41320    -999.25    3.65570   60.31900    5.32510   10.96120    6.41310 -170.59430   -3.92970    6.41310    -999.25
 2450.00000   11.05940  244.60810  243.35040    4.10930    -999.25  127.87730  127.87730    -999.25    4.30340   71.00610    4.10930   11.05940    4.67750 -170.15320   -3.58880    4.67750    -999.25
 2500.00000   10.31750  172.27510  177.61670    5.63010    -999.25   99.63680   99.63680    -999.25    3.73960   61.70340    5.63010   10.31750    6.81070 -170.24470   -3.77980    6.81070    -999.25
 2550.00000   10.03480  124.21710  130.33220    7.67270    -999.25   84.38460   84.38460    -999.25    4.87300   80.40450    7.67270   10.03480    9.74830 -170.21050   -3.84520    9.74830    -999.25
 2600.00000    9.90350  125.42060  133.61480    7.48420    -999.25   95.04730   95.04730    -999.25    3.92350   64.73780    7.48420    9.90350    9.08320 -170.30370   -4.02020    9.08320    -999.25
 2650.00000   10.61080  211.41110  211.72980    4.72300    -999.25  103.68670  103.68670    -999.25    4.25050   70.13320    4.72300   10.61080    5.70910 -169.30790   -2.92450    5.70910    -999.25
 2700.00000   10.84200  154.89310  161.19410    6.20370    -999.25  102.39800  102.39800    -999.25    4.89920   80.83680    6.20370   10.84200    7.79910 -171.57550   -5.09160    7.79910    -999.25
 2750.00000   10.77250  107.72870  113.06850    8.84420    -999.25   99.45200   99.45200    -999.25    5.52940   91.23510    8.84420   10.77250   10.75490 -171.56430   -4.98050   10.75490    -999.25
 2800.00000   10.82840  153.11790  156.37460    6.39490    -999.25   95.93000   95.93000    -999.25    5.84930   96.51340    6.39490   10.82840    8.24960 -171.42840   -4.74470    8.24960    -999.25
 2850.00000   10.81110  149.91760  157.27970    6.35810    -999.25  107.28700  107.28700    -999.25    7.35100  121.29150    6.35810   10.81110    9.46280 -169.54770   -2.76350    9.46280    -999.25
 2900.00000   10.67170  119.25820  124.58580    8.02660    -999.25   99.68230   99.68230   47.36980    6.40130  105.62150    8.02660   10.67170   11.69410 -171.19380   -4.30970   11.69410 2229.64160
 2950.00000   11.76570  148.73160  155.70020    6.42260    -999.25  102.16500  102.16500   14.97780    6.55390  108.13930    6.42260   11.76570    8.84860 -170.25270   -3.26810    8.84860 2278.12790
 3000.00000   11.87450  152.99760  159.13180    6.28410    -999.25   96.86550   96.86550    -999.25    5.58900   92.21850    6.28410   11.87450    7.81530 -173.04780   -5.96330    7.81530    -999.25
