~Version ---------------------------------------------------
VERS.      2.0 : CWLS log ASCII Standard -VERSION 2.0
WRAP.       NO : One line per depth step
CREA. 08/02/17 : LAS Creation Date
~Well ------------------------------------------------------
STRT.FT                        650.0 : START DEPTH
STOP.FT                      10150.0 : STOP DEPTH
STEP.FT                     50.00000 : STEP LENGTH
NULL.                        -999.25 : NULL VALUE
COMP.     THE CALIFORNIA STANDARD CO : COMPANY
WELL. CALSTAN B A IOSEGUN 7-33-63-19 : WELL
FLD .                         KAYBOB : FIELD
LOC .                                : LOCATION
CTRY.                         CANADA : COUNTRY
SRVC.         Schlumberger of Canada : SERVICE COMPANY
DATE.                    08-Oct-1957 : LOGDATE
PROV.                        Alberta : PROVINCE
UWI .               100073306319W500 : UNIQUE WELL ID
SLAT.WGS84                  54.49249 : SURFACE LATITUDE
SLON.WGS84                 -116.8075 : SURFACE LONGITUDE
~Curve Information -----------------------------------------
DEPT  .FT    : Depth Curve
CALWS .IN    : CALIPER [MCALED]
CILDED.MMHO  : CONDUCTIVITY FROM RESISTIVITY LOG
CONDWS.MMHO  : CONDUCTIVITY [1000/DRESWS]
DRESWS.OHMM  : DEEP RESISTIVITY [ILDED] IF ILDED<1;1000/CILDED; ELSE ILDED
GRNED .CU    : GAMMA RAY FROM NEUTRON LOG [ADJ TO ILDED]
GRWS  .CU    : GAMMA RAY [GRNED, CASED HOLE DATA]
ILDED .OHMM  : INDUCTION LOG DEEP RESISTIVITY
LATED .OHMM  : 18 FOOT 8 INCH LATERAL RESISTIVITY FROM IEL
LNED  .OHMM  : 64 INCH LONG NORMAL RESISTIVITY FROM IEL
MCALED.IN    : CALIPER MICROLOG
MLLED .OHMM  : MICROLATEROLOG RESISTIVITY [ADJ TO ILDED]
NEUTED.CU    : NEUTRON FROM NEUTRON LOG [ADJ TO ILDED]
NEUTWS.CU    : NEUTRON [NEUTED]
SNED  .OHMM  : 16 INCH SHORT NORMAL RESISTIVITY FROM IEL
SPRED .MV    : SPONTANEOUS POTENTIAL FROM RESISTIVITY LOG
SPWS  .MV    : SPONTANEOUS POTENTIAL [BASELINE 0 MV] [SPRED]
SRESWS.OHMM  : SHALLOW RESISTIVITY [SNED]
~Params ----------------------------------------------------
LMF .                     KB : LOG MEASURED FROM
DMF .                     KB : DRILLING MEASURED FROM
EKB .FT                 2601 : KELLY BUSHING
EGL .FT                 2588 : GROUND LEVEL
DATE.               10/08/57 : RUN DATE
RUN .                      1 : RUN NUMBER
DD  .FT                10194 : DEPTH DRILLER
DL  .FT                10189 : DEPTH LOGGER
BLI .FT                10188 : BOTTOM LOG INTERVAL
TLI .FT                  825 : TOP LOG INTERVAL
CBD .FT                  825 : CASING BOTTOM DRILLER
CBL .FT                  825 : CASING BOTTOM LOGGER
BS  .IN                    9 : BIT SIZE
BSD .FT                10194 : BIT SIZE AT DEPTH
DFT .                    GEL : DRILLING FLUID TYPE
DFD .                   10.6 : DRILLING FLUID DENSITY
DFV .                    177 : DRILLING FLUID VISCOSITY
DFPH.                    9.5 : DRILLING FLUID PH
DFL .                    5.4 : DRILLING FLUID LOSS
RMS .OHMM                8.0 : RESISTIVITY MUD SAMPLE
RMF .OHMM                1.6 : RESISTIVITY MUD FILTRATE SAMPLE
MFST.DEGF                 62 : MUD FILTRATE SAMPLE TEMPERATURE
RMC .OHMM                2.1 : RESISTIVITY MUD CAKE
MCST.DEGF                 62 : MUD CAKE SAMPLE TEMPERATURE
RMB .OHMM                1.0 : RESISTIVITY MUD AT BHT
TCS .HRS                   2 : TIME CIRCULATED STOPPED
LUN .                   1534 : LOGGING UNIT NUMBER
LUL .                     VV : LOGGING UNIT LOCATION
ENGI.               THOMPSON : RECORDING ENGINEER
WITN.                JOHNSON : WITNESSED BY
CLNT.                A2DTECH : CLIENT CODE
ORIG.            2" 5" PRINT : ORIGIN OF DATA
UWI .       100073306319W500 : UNIQUE WELL ID
DICO. A2D Technologies, Inc. : DIGITIZING COMPANY
~Other -----------------------------------------------------
~ASCII -----------------------------------------------------
  650.00000    -999.25    -999.25    -999.25    -999.25   12.52150   12.52150    -999.25    -999.25    -999.25    -999.25    -999.25  859.63690  859.63690    -999.25    -999.25    -999.25    -999.25
  700.00000    -999.25    -999.25    -999.25    -999.25   13.57850   13.57850    -999.25    -999.25    -999.25    -999.25    -999.25  857.93260  857.93260    -999.25    -999.25    -999.25    -999.25
  750.00000    -999.25    -999.25    -999.25    -999.25   13.41460   13.41460    -999.25    -999.25    -999.25    -999.25    -999.25  824.29190  824.29190    -999.25    -999.25    -999.25    -999.25
  800.00000    -999.25    -999.25    -999.25    -999.25   15.45370   15.45370    -999.25    -999.25    -999.25    -999.25    -999.25  899.58400  899.58400    -999.25    -999.25    -999.25    -999.25
  850.00000    -999.25  246.63710  279.59880    3.57700   26.85270   26.85270    3.57700    4.50900    8.29700    -999.25    -999.25  935.77800  935.77800    4.72640 -129.71120   -9.61820    4.72640
  900.00000    -999.25  147.92500  150.80110    6.63140   22.86230   22.86230    6.63140    9.78400   11.43050    -999.25    -999.25 1082.63010 1082.63010    7.59370 -137.17210  -17.28560    7.59370
  950.00000    -999.25  322.34320  352.24910    2.83890   26.97220   26.97220    2.83890    3.85820    6.75430    -999.25    -999.25  898.65620  898.65620    4.73850 -131.90040  -12.22150    4.73850
 1000.00000    -999.25  339.26350  381.70610    2.61990   23.09900   23.09900    2.61990    5.11380    5.23130    -999.25    -999.25  864.75390  864.75390    3.25220 -126.92160   -7.44820    3.25220
 1050.00000    -999.25  335.16990  387.25170    2.58230   26.87070   26.87070    2.58230    7.08990    3.83490    -999.25    -999.25  838.51120  838.51120    2.98750 -122.75710   -3.48920    2.98750
 1100.00000    -999.25  210.58400  217.77510    4.61370   27.70320   27.70320    4.61370    9.01940    5.35590    -999.25    -999.25  916.37290  916.37290    3.22880 -127.30420   -8.24390    3.22880
 1150.00000    -999.25   78.25430   81.12390   12.36000   18.81060   18.81060   12.36000   11.51110   11.03170    -999.25    -999.25 1179.09880 1179.09880    9.58620 -127.31680   -8.46310    9.58620
 1200.00000    -999.25  322.22670  365.69760    2.73450   25.66550   25.66550    2.73450    5.25360    5.04130    -999.25    -999.25  972.73770  972.73770    3.23620 -126.16590   -7.29720    3.23620
 1250.00000    -999.25  334.00490  365.01260    2.74050   21.23980   21.23980    2.74050    4.61090    6.08400    -999.25    -999.25  907.32140  907.32140    3.96740 -124.00010   -4.54610    3.96740
 1300.00000    -999.25  374.22320  412.40520    2.42480   24.81970   24.81970    2.42480    4.39050    6.63940    -999.25    -999.25  868.75040  868.75040    3.81770 -122.73680   -2.69750    3.81770
 1350.00000    -999.25  301.26410  331.94110    3.01280   25.73270   25.73270    3.01280    3.67780    6.79510    -999.25    -999.25  921.69910  921.69910    4.09090 -128.82530   -8.19490    4.09090
 1400.00000    -999.25  414.61070  428.89120    2.33330   21.40680   21.40680    2.33330    4.40650    4.48060    -999.25    -999.25  847.82650  847.82650    3.03510 -127.54400   -6.32530    3.03510
 1450.00000    -999.25  239.50560  266.87300    3.74710   21.00740   21.00740    3.74710   12.59040    3.50950    -999.25    -999.25  865.47470  865.47470    5.07510 -128.40250   -6.59260    5.07510
 1500.00000    -999.25  160.85760  174.54400    5.73390   29.65800   29.65800    5.73390    7.93660    8.48290    -999.25    -999.25  938.33470  938.33470    6.29130 -128.98230   -6.58700    6.29130
 1550.00000    -999.25  332.87890  363.01590    2.75470   22.84290   22.84290    2.75470    4.38660    4.82840    -999.25    -999.25  817.72530  817.72530    3.38790 -129.09040   -6.10990    3.38790
 1600.00000    -999.25  496.68800  481.72920    2.07930   24.18070   24.18070    2.07930    3.44960    4.62440    -999.25    -999.25  842.27390  842.27390    2.91980 -129.60140   -6.02970    2.91980
 1650.00000    -999.25  126.17350  122.14610    8.18960   29.20060   29.20060    8.18960    6.62510   10.07090    -999.25    -999.25 1004.33680 1004.33680    9.69610 -129.48700   -5.32700    9.69610
 1700.00000    -999.25  390.74800  434.08430    2.30370   23.86910   23.86910    2.30370    4.69250    4.98480    -999.25    -999.25  860.43440  860.43440    3.00350 -127.94850   -3.19740    3.00350
 1750.00000   13.30260  267.28500  296.49340    3.37350   27.13690   27.13690    3.37350    4.70820    4.60730   13.30260    -999.25 1041.21610 1041.21610    3.90090 -127.25130   -1.91490    3.90090
 1800.00000   12.12790  114.21540  112.24230    8.90930   16.78870   16.78870    8.90930    9.83690    9.54190   12.12790    7.10410 1035.40040 1035.40040    8.61060 -135.61090   -9.68910    8.61060
 1850.00000   14.28470  394.63450  391.97450    2.55250   25.96400   25.96400    2.55250    3.72350    3.89720   14.28470    1.82260  913.19600  913.19600    2.56310 -128.47000   -1.95710    2.56310
 1900.00000   11.04450  123.51280  112.92450    8.87870   20.67920   20.67920    8.87870    5.34840    7.91760   11.04450    7.21370  988.97790  988.97790    7.01960 -128.34170   -1.46520    7.01960
 1950.00000   11.39410  116.27430  106.36370    9.40170   21.53930   21.53930    9.40170    5.91370    9.03210   11.39410    7.25890 1014.93650 1014.93650    7.37460 -131.70900   -4.68840    7.37460
 2000.00000   13.02060  586.59160  540.29350    1.85080   34.23390   34.23390    1.85080    4.23610    4.04690   13.02060    0.97620  776.94320  776.94320    2.43480 -130.13850   -2.97540    2.43480
 2050.00000   12.24560  256.72530  280.20620    3.56880   20.79390   20.79390    3.56880    6.43560    6.23400   12.24560    1.83880  829.62940  829.62940    4.53230 -132.04280   -4.73700    4.53230
 2100.00000   12.64210  220.33620  232.53970    4.30060   19.75690   19.75690    4.30060   16.24390    8.98780   12.64210    2.02430  862.29490  862.29490    5.02940 -132.08800   -4.63810    5.02940
 2150.00000   11.28380  329.40850  349.01720    2.86520   20.19430   20.19430    2.86520    8.19940    6.31440   11.28380    1.83840  850.64630  850.64630    3.95180 -134.07980   -6.48660    3.95180
 2200.00000   11.77330  256.27190  264.68330    3.77810   22.17680   22.17680    3.77810    4.53030    6.76200   11.77330    4.28700  872.22560  872.22560    4.39210 -132.74430   -5.00710    4.39210
 2250.00000   11.90370  238.55390  219.15170    4.58860   19.66530   19.66530    4.58860    4.19760    7.19580   11.90370    8.59330  935.62770  935.62770    4.17810 -131.98540   -4.10560    4.17810
 2300.00000   12.60410  242.12870  270.12430    3.70200   22.80660   22.80660    3.70200    8.00380    6.06420   12.60410    1.52100  884.32980  884.32980    6.11370 -131.54440   -3.52190    6.11370
 2350.00000   10.25610   68.08720   63.92420   15.64360   15.60290   15.60290   15.64360   12.97530   22.44990   10.25610   15.28460 1032.97790 1032.97790   18.38060 -137.02680   -8.86030   18.38060
 2400.00000   10.83150  283.98600  317.81410    3.14940   19.20090   19.20090    3.14940    7.68720    8.92890   10.83150    1.99580  920.99100  920.99100    4.55960 -132.43020   -4.12040    4.55960
 2450.00000    8.30760   55.49930   54.79270   18.25060   17.18040   17.18040   18.25060   18.71460   10.52810    8.30760   11.43830 1369.85050 1369.85050   16.04350 -141.75770  -13.30380   16.04350
 2500.00000   11.18180  216.17680  226.97820    4.40620   19.17120   19.17120    4.40620    3.65880    8.91370   11.18180    6.12940  999.98710  999.98710    6.61540 -132.61540   -4.01890    6.61540
 2550.00000   12.49590  237.74040  264.50130    3.78070   21.64440   21.64440    3.78070    6.25130    5.90660   12.49590    2.63730  864.56020  864.56020    3.93850 -132.60280   -3.86370    3.93850
 2600.00000   12.18830  107.69460   96.54610   10.38220   17.73250   17.73250   10.38220   10.04430    7.83650   12.18830   11.84960 1011.77930 1011.77930   11.03870 -133.57150   -4.68830   11.03870
 2650.00000   12.06980  134.65510  141.09920    7.14630   19.14790   19.14790    7.14630   10.31820   10.56410   12.06980    8.71920 1028.74010 1028.74010    6.82120 -135.94420   -6.91770    6.82120
