~Version ---------------------------------------------------
VERS.      2.0 : CWLS log ASCII Standard -VERSION 2.0
WRAP.       NO : One line per depth step
CREA. 08/16/13 : LAS Creation Date
~Well ------------------------------------------------------
STRT.M                         300.0 : START DEPTH
STOP.M                        2750.0 : STOP DEPTH
STEP.M                      50.00000 : STEP LENGTH
NULL.                        -999.25 : NULL VALUE
COMP.         FOREST OIL CORPORATION : COMPANY
WELL. FOREST ET AL JUDY CREEK 6-25-6 : WELL
FLD .                                : FIELD
LOC .                                : LOCATION
CTRY.                         CANADA : COUNTRY
SRVC.                        Unknown : SERVICE COMPANY
DATE.                    11-Dec-1982 : LOGDATE
PROV.                        Alberta : PROVINCE
UWI .               100062506412W500 : UNIQUE WELL ID
SLAT.WGS84                  54.56351 : SURFACE LATITUDE
SLON.WGS84                 -115.6804 : SURFACE LONGITUDE
~Curve Information -----------------------------------------
DEPT    .M      : DEPTH METER
CALDED  .MM     : CALIPER FROM DENSITY LOG [ADJ.TO RESISTIVITY LOG]
CALSED  .MM     : CALIPER FROM SONIC LOG
CALWS   .MM     : CALIPER [CALDED]
CONDWS  .MMHO   : CONDUCTIVITY [1000/DRESWS]
DCORWS  .KG/M3  : DENSITY CORRECTION [DRHOED]
DENWS   .KG/M3  : FORMATION BULK DENSITY [CALC FROM DPOLSWS, M=2710, F=1000]
DPHILSED.V/V    : DENSITY POROSITY LIMESTONE [M=2710, F=1000] FROM DENSITY LOG [ADJ.TO RESISTIVITY LOG]
DPHISSED.V/V    : DENSITY POROSITY SANDSTONE [M=2650, F=1000] FROM DENSITY LOG [ADJ.TO RESISTIVITY LOG]
DPOLSWS .V/V    : DENSITY POROSITY LIMESTONE [DPHISSED CONVERTED TO LIMESTONE MATRIX, M=2710 F=1000 SPL.TO DPHILSED @ 1623.6M]
DRESWS  .OHMM   : DEEP RESISTIVITY [ILDED]
DRHOED  .KG/M3  : DENSITY CORRECTION FROM DENSITY LOG [ADJ.TO RESISTIVITY LOG]
DTED    .US/M   : DELTA TIME FROM SONIC LOG
DTWS    .US/M   : COMPRESSIONAL SONIC [DTED]
GRDED   .GAPI   : GAMMA RAY FROM DENSITY LOG [ADJ.TO RESISTIVITY LOG]
GRSED   .GAPI   : GAMMA RAY FROM SONIC LOG
GRWS    .GAPI   : GAMMA RAY [GRSED SPL.TO GRDED @ 2735M]
ILDED   .OHMM   : DEEP INDUCTION FROM RESISTIVITY LOG
ILMED   .OHMM   : MEDIUM INDUCTION FROM RESISTIVITY LOG
MRESWS  .OHMM   : MEDIUM RESISTIVITY [ILMED]
NPHILSED.V/V    : NEUTRON POROSITY LIMESTONE FROM DENSITY LOG [ADJ.TO RESISTIVITY LOG]
NPHISSED.V/V    : NEUTRON POROSITY SANDSTONE FROM DENSITY LOG [ADJ.TO RESISTIVITY LOG]
NPOLSWS .V/V    : NEUTRON POROSITY LIMESTONE [NPHISSED MATRIX (SLB) CONVERSION FOR LIMESTONE, SPL.TO NPHILSED @ 1623.6M]
RHOBED  .KG/M3  : BULK DENSITY FROM DENSITY LOG [ADJ.TO RESISTIVITY LOG]
SFLUED  .OHMM   : SHALLOW FOCUSED FROM RESISTIVITY LOG
SPRED   .MV     : SPONTANEOUS POTENTIAL FROM RESISTIVITY LOG
SPWS    .MV     : SPONTANEOUS POTENTIAL [BASELINE 0 MV, SPRED]
SRESWS  .OHMM   : SHALLOW RESISTIVITY [SFLUED]
~Params ----------------------------------------------------
PD  .                         GL : PERMANENT DATUM
EPD .M                    1024.2 : ELEVATION PERMANENT DATUM
LMF .                         KB : LOG MEASURED FROM
DAPD.M                       5.2 : FEET ABOVE PERMANENT DATUM
DMF .                         KB : DRILLING MEASURED FROM
EKB .M                    1029.4 : KELLY BUSHING
EGL .M                    1024.2 : GROUND LEVEL
DATE.                   12/11/82 : RUN DATE
RUN .                          1 : RUN NUMBER
DD  .M                      2765 : DEPTH DRILLER
DL  .M                      2758 : DEPTH LOGGER
BLI .M                      2757 : BOTTOM LOG INTERVAL
TLI .M                       186 : TOP LOG INTERVAL
CS  .MM                      244 : CASING SIZE
CBD .M                       186 : CASING BOTTOM DRILLER
CBL .M                       186 : CASING BOTTOM LOGGER
BS  .MM                      200 : BIT SIZE
BSD .M                      2765 : BIT SIZE AT DEPTH
DFT .                   GEL CHEM : DRILLING FLUID TYPE
DFD .                       1085 : DRILLING FLUID DENSITY
DFV .                         65 : DRILLING FLUID VISCOSITY
DFPH.                         10 : DRILLING FLUID PH
DFL .                        9.4 : DRILLING FLUID LOSS
MSS .                   FLOWLINE : MUD SAMPLE SOURCE
RMS .OHMM                   2.47 : RESISTIVITY MUD SAMPLE
MST .DEGC                   25.5 : MUD SAMPLE TEMPERATURE
RMF .OHMM                   2.75 : RESISTIVITY MUD FILTRATE SAMPLE
MFST.DEGC                   15.5 : MUD FILTRATE SAMPLE TEMPERATURE
MFSS.                      PRESS : MUD FILTRATE SAMPLE SOURCE
TCS .HRS                    2200 : TIME CIRCULATED STOPPED
TLAB.HRS                     830 : TIME LOGGER AT BOTTOM
LUN .                       8037 : LOGGING UNIT NUMBER
LUL .                        EDM : LOGGING UNIT LOCATION
ENGI.                     CSIKOS : RECORDING ENGINEER
WITN.                    WORONUK : WITNESSED BY
CLNT.                    A2DTECH : CLIENT CODE
ORIG. 6.5"/100M 16.5"/100M PRINT : ORIGIN OF DATA
UWI .           100062506412W500 : UNIQUE WELL ID
DICO.     A2D Technologies, Inc. : DIGITIZING COMPANY
~Other -----------------------------------------------------
DI-SFL-BHC LOG RUN IN COMBO & FDC-CNL LOG RUN
RHOBED DIG IN SMALL SCALE LOG
~ASCII -----------------------------------------------------
# ...
 1600.00000  262.36130  263.07510  262.36130   85.21730   34.79980 2485.49500    -999.25    0.09970    0.13130   11.73470   34.79980  245.11500  245.11500   76.09970   68.77620   68.77620   11.73470   12.42880   12.42880    -999.25    0.25820    0.21430 2484.17500   14.50210 -155.50160  -19.58270   14.50210
 1650.00000  270.54920  259.00070  270.54920  214.86890   17.39120 2551.48300    0.09270    0.04550    0.09270    4.65400   17.39120  200.86270  200.86270   27.15720   25.41950   25.41950    4.65400    5.47370    5.47370    0.19980    0.24540    0.19980 2557.67360   12.99620 -169.13550  -36.20600   12.99620
 1700.00000  243.29370  240.78810  243.29370   18.67690  112.96840 2591.49700    0.06930    -999.25    0.06930   53.54220  112.96840  179.06480  179.06480   12.90870   11.83260   11.83260   53.54220   77.98520   77.98520    0.08300    -999.25    0.08300 2591.66190  302.76680 -288.39650 -149.04970  302.76680
 1750.00000  233.43520  241.63600  233.43520   49.94610   13.50560 2671.18300    0.02270    -999.25    0.02270   20.02160   13.50560  185.48680  185.48680   32.20970   29.32120   29.32120   20.02160   23.62170   23.62170    0.09830    -999.25    0.09830 2675.00630   94.64760 -144.56100  -10.19210   94.64760
 1800.00000  233.01640  238.23590  233.01640   71.13440    5.14830 2638.86400    0.04160    -999.25    0.04160   14.05790    5.14830  182.27330  182.27330   20.90190   17.37370   17.37370   14.05790   15.29790   15.29790    0.05580    -999.25    0.05580 2636.31250   22.48320 -177.73480  -49.23700   22.48320
 1850.00000  245.07810  246.86550  245.07810   65.40480   17.52860 2635.27300    0.04370    -999.25    0.04370   15.28940   17.52860  197.20140  197.20140   54.12670   49.23760   49.23760   15.28940   16.04220   16.04220    0.09950    -999.25    0.09950 2631.49020   22.50210 -136.13180  -12.85250   22.50210
 1900.00000  229.80900  222.50430  229.80900   67.75430   35.14630 2493.85600    0.12640    -999.25    0.12640   14.75920   35.14630  274.00860  274.00860  189.16290  193.97580  193.97580   14.75920   15.88240   15.88240    0.22920    -999.25    0.22920 2494.89060   29.79280 -122.89170   -7.16270   29.79280
 1950.00000  248.17450  226.42960  248.17450    3.88750   24.95630 2628.60400    0.04760    -999.25    0.04760  257.23800   24.95630  165.33400  165.33400   15.07670   13.00280   13.00280  257.23800  185.47340  185.47340    0.02100    -999.25    0.02100 2627.79740  261.76200 -199.96070  -81.89600  261.76200
 2000.00000  226.89490  202.91840  226.89490   56.71830  116.58620 2613.38500    0.05650    -999.25    0.05650   17.63100  116.58620  180.20260  180.20260   11.13640   12.58190   12.58190   17.63100   36.38520   36.38520    0.07110    -999.25    0.07110 2609.70970  217.76490 -269.25000 -148.84960  217.76490
 2050.00000  217.78480  201.47180  217.78480   32.87330   44.18120 2565.84700    0.08430    -999.25    0.08430   30.41980   44.18120  177.36880  177.36880   10.85150   12.17290   12.17290   30.41980   50.66990   50.66990    0.06700    -999.25    0.06700 2566.28780  172.52630 -257.42100 -134.68480  172.52630
 2100.00000  217.81960  211.67120  217.81960   47.98280   69.55280 2625.69700    0.04930    -999.25    0.04930   20.84080   69.55280  176.75410  176.75410   11.54000   11.57040   11.57040   20.84080   36.55090   36.55090    0.08580    -999.25    0.08580 2628.64970  207.99650 -263.89890 -138.82700  207.99650
 2150.00000  238.07400  240.41330  238.07400   15.34390   26.80870 2896.21900   -0.10890    -999.25   -0.10890   65.17250   26.80870  160.78320  160.78320   11.06340    8.74070    8.74070   65.17250  127.00650  127.00650    0.00920    -999.25    0.00920 2896.21900 1685.30260 -158.46290  -33.10620 1685.30260
 2200.00000  232.66250  225.35050  232.66250  260.83100   13.16070 2632.02400    0.04560    -999.25    0.04560    3.83390   13.16070  194.39910  194.39910   38.53740   37.90810   37.90810    3.83390    4.24490    4.24490    0.17470    -999.25    0.17470 2633.08790    7.62790 -170.09390  -63.37730    7.62790
 2250.00000  252.94400  240.09360  252.94400  101.33870  156.59590 2630.48500    0.04650    -999.25    0.04650    9.86790  156.59590  213.75360  213.75360   73.95080   59.96910   59.96910    9.86790   10.72500   10.72500    0.14100    -999.25    0.14100 2630.48500   13.97470 -100.95830   -5.96220   13.97470
 2300.00000  246.76900  235.08910  246.76900  111.99590   48.79970 2603.80900    0.06210    -999.25    0.06210    8.92890   48.79970  214.41820  214.41820   57.45090   53.41330   53.41330    8.92890   10.07460   10.07460    0.15750    -999.25    0.15750 2603.80900   12.99560  -92.41920   -4.54340   12.99560
 2350.00000  243.57080  229.87920  243.57080   91.56840   44.40490 2591.66800    0.06920    -999.25    0.06920   10.92080   44.40490  200.50740  200.50740   53.45480   50.57710   50.57710   10.92080   11.36130   11.36130    0.12160    -999.25    0.12160 2591.66800   17.46540  -98.61040  -16.38420   17.46540
 2400.00000  229.74720  218.51410  229.74720  106.29590    2.20200 2642.28400    0.03960    -999.25    0.03960    9.40770    2.20200  214.43230  214.43230   75.92920   65.42020   65.42020    9.40770   10.86570   10.86570    0.16440    -999.25    0.16440 2641.77640   12.70550  -90.51540  -13.43550   12.70550
 2450.00000  236.68530  224.35190  236.68530   88.95610   11.69040 2684.35000    0.01500    -999.25    0.01500   11.24150   11.69040  205.53500  205.53500   60.33350   57.31330   57.31330   11.24150   12.49430   12.49430    0.12940    -999.25    0.12940 2684.73490   17.15550  -76.11210   -6.04150   17.15550
 2500.00000  252.27310  228.81200  252.27310  178.37390  240.79190 2638.00900    0.04210    -999.25    0.04210    5.60620  240.79190  235.96450  235.96450   81.89020   66.87560   66.87560    5.60620    6.13230    6.13230    0.20040    -999.25    0.20040 2638.00900    7.71850  -78.19100  -16.00830    7.71850
 2550.00000  201.22550  203.59070  201.22550  147.37310  123.03350 2449.90900    0.15210    -999.25    0.15210    6.78550  123.03350  225.87730  225.87730   57.92930   51.60370   51.60370    6.78550    7.37680    7.37680    0.18220    -999.25    0.18220 2449.90900    8.52670  -71.63790  -17.34300    8.52670
 2600.00000  214.20500  200.70280  214.20500   17.17950   21.66410 2714.95900   -0.00290    -999.25   -0.00290   58.20900   21.66410  186.67610  186.67610   41.21450   37.53740   37.53740   58.20900   63.02140   63.02140    0.08780    -999.25    0.08780 2714.95900   90.24430  -54.31250   -3.98970   90.24430
 2650.00000  207.34190  198.38890  207.34190   24.49220    8.36330 2703.33100    0.00390    -999.25    0.00390   40.82930    8.36330  177.88920  177.88920   32.27400   28.61380   28.61380   40.82930   46.12080   46.12080    0.06370    -999.25    0.06370 2703.33100   62.96980  -53.15080   -8.97390   62.96980
 2700.00000  202.23100  197.57360  202.23100    1.23060   11.21840 2696.14900    0.00810    -999.25    0.00810  812.61110   11.21840  161.28260  161.28260   14.62130   10.09160   10.09160  812.61110  715.16440  715.16440    0.01540    -999.25    0.01540 2696.14900  581.10240  -89.65550  -51.60410  581.10240
 2750.00000  194.82010    -999.25  194.82010 1433.69180   30.12850 2403.39700    0.17930    -999.25    0.17930    0.69750   30.12850    -999.25    -999.25  136.30470    -999.25  136.30470    0.69750    0.99370    0.99370    0.15310    -999.25    0.15310 2389.75660    8.90620 -176.98640 -143.76450    8.90620
