~Version ---------------------------------------------------
VERS.      2.0 : CWLS log ASCII Standard -VERSION 2.0
WRAP.       NO : One line per depth step
CREA. 09/28/17 : LAS Creation Date
~Well ------------------------------------------------------
STRT.FT                          850.0 : START DEPTH
STOP.FT                        10000.0 : STOP DEPTH
STEP.FT                       50.00000 : STEP LENGTH
NULL.                          -999.25 : NULL VALUE
COMP. SOCONY MOBIL OIL OF CANADA, LTD. : COMPANY
WELL.         MOBIL MCLEOD 12-33-55-13 : WELL
FLD .                               WC : FIELD
LOC .                                  : LOCATION
CTRY.                           CANADA : COUNTRY
SRVC.                     Schlumberger : SERVICE COMPANY
DATE.                      15-Feb-1963 : LOGDATE
PROV.                          Alberta : PROVINCE
UWI .                 100123305513W500 : UNIQUE WELL ID
SLAT.WGS84                    53.79757 : SURFACE LATITUDE
SLON.WGS84                   -115.8798 : SURFACE LONGITUDE
~Curve Information -----------------------------------------
DEPT  .FT    : Depth Curve
CALWS .IN    : CALIPER [MCALED]
CILDED.MMHO  : CONDUCTIVITY FROM RESISTIVITY LOG
CONDWS.MMHO  : CONDUCTIVITY [1000/DRESWS]
DRESWS.OHMM  : DEEP RESISTIVITY [1000/CILDED IF ILDED <=5, ILDED]
DT2ED .us/m  : DELTA TIME FROM SONIC LOG
DTED  .US/F  : DELTA TIME FROM SONIC LOG
DTWS  .US/F  : COMPRESSIONAL SONIC [DTED]
GRSED .GAPI  : GAMMA RAY FROM SONIC LOG
GRWS  .GAPI  : GAMMA RAY [GRSED]
ILDED .OHMM  : DEEP INDUCTION RESISTIVITY FROM RESISTIVITY LOG
MCALED.IN    : CALIPER FROM MICROLOG
SNED  .OHMM  : 16 INCH SHORT NORMAL RESISTIVITY FROM RESISTIVITY LOG
SPRED .MV    : SPONTANEOUS POTENTIAL FROM RESISTIVITY LOG
SPWS  .MV    : SPONTANEOUS POTENTIAL [BASELINE 0 MV, SPRED]
SRESWS.OHMM  : SHALLOW RESISTIVITY [SNED]
~Params ----------------------------------------------------
LMF .                     KB : LOG MEASURED FROM
EKB .FT                 2772 : KELLY BUSHING
DATE.               02/15/63 : RUN DATE
RUN .                      3 : RUN NUMBER
DD  .FT                10056 : DEPTH DRILLER
DL  .FT                10051 : DEPTH LOGGER
BLI .FT                10050 : BOTTOM LOG INTERVAL
TLI .FT                 9500 : TOP LOG INTERVAL
CBD .FT                 1020 : CASING BOTTOM DRILLER
BS  .IN                    9 : BIT SIZE
BSD .FT                10056 : BIT SIZE AT DEPTH
DFT .       CAUSTIC Q BROXIN : DRILLING FLUID TYPE
DFD .                    9.5 : DRILLING FLUID DENSITY
DFV .                    123 : DRILLING FLUID VISCOSITY
DFPH.                   10.5 : DRILLING FLUID PH
DFL .                    5.6 : DRILLING FLUID LOSS
RMF .OHMM               1.23 : RESISTIVITY MUD FILTRATE SAMPLE
MFST.DEGF                 64 : MUD FILTRATE SAMPLE TEMPERATURE
RMC .OHMM                1.9 : RESISTIVITY MUD CAKE
MCST.DEGF                 59 : MUD CAKE SAMPLE TEMPERATURE
TCS .HRS                 300 : TIME CIRCULATED STOPPED
LUN .                   3534 : LOGGING UNIT NUMBER
LUL .                     WC : LOGGING UNIT LOCATION
ENGI.               HATLELID : RECORDING ENGINEER
WITN.                MCMANUS : WITNESSED BY
CLNT.                A2DTECH : CLIENT CODE
ORIG.            2" 5" PRINT : ORIGIN OF DATA
UWI .       100123305513W500 : UNIQUE WELL ID
DICO. A2D Technologies, Inc. : DIGITIZING COMPANY
~Other -----------------------------------------------------
IEL-SONIC LOG RUN
SP SLIGHTLY AFFECTED BY TELLURIC CURRENTS
~ASCII -----------------------------------------------------
# ...
 7750.00000   13.60770    5.60340    5.31750  188.05930    -999.25   50.51330   50.51330   18.58130   18.58130  188.05930   13.60770  158.80820  -83.14610  -71.16330  158.80820
 7800.00000   10.15940   18.22610   18.93940   52.80010    -999.25   49.91270   49.91270   14.23660   14.23660   52.80010   10.15940  118.85750 -110.66130  -98.73950  118.85750
 7850.00000   10.34630    5.67670    5.68580  175.87650    -999.25   50.89930   50.89930   15.87240   15.87240  175.87650   10.34630  175.92180 -104.14870  -92.28790  175.92180
 7900.00000   10.32300   12.70960   12.99330   76.96280    -999.25   49.16300   49.16300   16.07600   16.07600   76.96280   10.32300  110.82740 -128.39560 -116.59580  110.82740
 7950.00000   11.49130    5.89480    6.07320  164.65830    -999.25   48.36230   48.36230   18.31470   18.31470  164.65830   11.49130  151.66170 -134.91970 -123.18090  151.66170
 8000.00000   10.95440    8.70200    8.10070  123.44540    -999.25   49.64950   49.64950   17.62030   17.62030  123.44540   10.95440  123.16560 -121.77160 -110.09380  123.16560
 8050.00000   10.05320   13.08230   13.46320   74.27670    -999.25   51.11550   51.11550   14.12420   14.12420   74.27670   10.05320   97.48310 -151.35800 -139.74130   97.48310
 8100.00000    9.76220   21.71310   23.21750   43.07100    -999.25   47.92500   47.92500   15.96430   15.96430   43.07100    9.76220  121.05790 -156.85620 -145.30040  121.05790
 8150.00000    9.62550   10.30830   11.21660   89.15320    -999.25   49.31230   49.31230   16.66550   16.66550   89.15320    9.62550   96.74930  -64.86870  -53.37400   96.74930
 8200.00000    8.89840   18.70520   18.14850   55.10100    -999.25   54.95930   54.95930   25.32660   25.32660   55.10100    8.89840  112.56270 -131.69660 -120.26290  112.56270
 8250.00000   11.64840   11.89420   12.13640   82.39660    -999.25   50.81850   50.81850   21.83620   21.83620   82.39660   11.64840   74.10740 -128.19640 -116.82370   74.10740
 8300.00000   12.87850   12.26420   12.16670   82.19180    -999.25   51.68330   51.68330   26.64400   26.64400   82.19180   12.87850   63.38840 -114.28000 -102.96830   63.38840
 8350.00000    9.37260   13.60440   13.61510   73.44790    -999.25   51.83870   51.83870   35.85850   35.85850   73.44790    9.37260   89.88800  -46.66860  -35.41790   89.88800
 8400.00000    9.48790   28.73670   29.51050   33.88620    -999.25   56.40780   56.40780   41.64820   41.64820   33.88620    9.48790   44.00790  -23.67280  -12.48310   44.00790
 8450.00000    9.79220   47.54380   47.99200   20.83680    -999.25   58.96020   58.96020   43.11380   43.11380   20.83680    9.79220   28.77530  -30.40090  -19.27220   28.77530
 8500.00000   13.60520  166.66970  198.35760    5.04140    -999.25   76.54770   76.54770   69.96570   69.96570    5.04140   13.60520    7.94160  -26.11770  -20.36510    7.94160
 8550.00000   13.07140  168.75750  168.75750    5.92570    -999.25   74.49300   74.49300   72.47930   72.47930    4.84570   13.07140    7.45700  -36.96860  -40.28560    7.45700
 8600.00000   14.25470  136.26370  153.86270    6.49930    -999.25   75.51150   75.51150   63.99030   63.99030    6.49930   14.25470    9.53800  -70.06180  -82.44840    9.53800
 8650.00000    9.64030   35.24030   36.02690   27.75700    -999.25   66.50150   66.50150   66.33550   66.33550   27.75700    9.64030   41.12340  -17.60120  -39.05740   41.12340
 8700.00000   10.76290   92.21200   93.16890   10.73320    -999.25   63.60650   63.60650   47.31440   47.31440   10.73320   10.76290   19.99510   17.68650  -10.99540   19.99510
 8750.00000   15.09900  128.20790  139.74290    7.15600    -999.25   73.84700   73.84700   63.06040   63.06040    7.15600   15.09900    9.44320    4.71470  -21.51210    9.44320
 8800.00000   13.58310  120.25770  137.39470    7.27830    -999.25   64.21000   64.21000   70.63690   70.63690    7.27830   13.58310   11.15440  -32.18900  -55.96070   11.15440
 8850.00000   12.43520   78.29250   77.89800   12.83730    -999.25   69.01530   69.01530   75.55050   75.55050   12.83730   12.43520   17.11950  -48.52480  -69.84140   17.11950
 8900.00000   12.22210   85.49400   88.45880   11.30470    -999.25   64.58100   64.58100   61.76690   61.76690   11.30470   12.22210   16.51690  -66.92630  -85.78780   16.51690
 8950.00000   11.81350   74.76360   76.59780   13.05520    -999.25   69.72500   69.72500   64.86600   64.86600   13.05520   11.81350   17.99400  -29.46870  -45.87510   17.99400
 9000.00000   10.04580   65.40340   69.17260   14.45660    -999.25   61.90550   61.90550   60.77490   60.77490   14.45660   10.04580   23.05610  -13.80010  -27.75140   23.05610
 9050.00000   12.77710  115.91390  125.65340    7.95840    -999.25   71.90000   71.90000   75.68750   75.68750    7.95840   12.77710   12.05600   -4.70180  -16.19800   12.05600
 9100.00000   13.63880  131.22220  147.93120    6.75990    -999.25   72.87200   72.87200   78.65080   78.65080    6.75990   13.63880   10.25410  -36.69820  -48.72690   10.25410
 9150.00000   11.25960   91.48070   94.37260   10.59630    -999.25   68.78670   68.78670   76.36640   76.36640   10.59630   11.25960   16.11120  -22.65670  -35.40860   16.11120
 9200.00000   10.89920   99.31860  102.76440    9.73100    -999.25   68.22330   68.22330   69.99190   69.99190    9.73100   10.89920   15.47950  -54.26510  -67.74020   15.47950
 9250.00000    9.67380   68.20780   72.06480   13.87640    -999.25   63.24850   63.24850   61.00380   61.00380   13.87640    9.67380   22.31480  -14.28260  -28.48100   22.31480
 9300.00000   12.14180  159.49970  194.33700    5.14570    -999.25   77.41050   77.41050   78.95940   78.95940    5.14570   12.14180   10.06340  -40.37790  -55.29950   10.06340
 9350.00000   10.00440   93.31710   98.03540   10.20040    -999.25   69.13200   69.13200   71.07190   71.07190   10.20040   10.00440   17.64750  -13.84610  -29.49090   17.64750
 9400.00000    9.24320   65.78260   69.76660   14.33350    -999.25   63.48050   63.48050   60.48130   60.48130   14.33350    9.24320   24.28740  -13.22940  -29.59740   24.28740
 9450.00000    9.10630   15.35500   15.86760   63.02150    -999.25   60.02850   60.02850   42.96430   42.96430   63.02150    9.10630   80.85000    6.62660  -10.46460   80.85000
 9500.00000    9.50230   25.56160   29.02460   34.45350  295.27400   90.50250   90.50250  138.39800  138.39800   34.45350    9.50230   53.44690   -8.62590  -24.98070   53.44690
 9550.00000   10.93730  182.27320  182.27320    5.48630  273.61960   82.76200   82.76200   94.83710   94.83710    4.28020   10.93730    9.47570  -25.83710  -41.01960    9.47570
 9600.00000    9.15450   19.06520   20.55550   48.64870  183.84100   55.13980   55.13980   43.91890   43.91890   48.64870    9.15450   68.90660  -16.24170  -30.25180   68.90660
 9650.00000    9.20820   80.24760   86.22550   11.59750  209.96390   63.37470   63.37470   67.70460   67.70460   11.59750    9.20820   19.38470  -26.71880  -39.55660   19.38470
 9700.00000    9.22790   65.34380   66.86590   14.95530  210.79970   62.28330   62.28330   59.59200   59.59200   14.95530    9.22790   22.90550   -4.83240  -16.49780   22.90550
 9750.00000    9.16850   23.87950   25.01310   39.97910  157.99380   53.17630   53.17630   44.87560   44.87560   39.97910    9.16850   74.52810   -2.15250  -13.50140   74.52810
 9800.00000    9.07170   21.18640   21.64740   46.19490  187.79860   55.91350   55.91350   44.45120   44.45120   46.19490    9.07170   52.61830  -20.23610  -31.58500   52.61830
 9850.00000    9.09070    7.57860    7.62950  131.07030  171.36810   52.47450   52.47450   37.25440   37.25440  131.07030    9.09070  175.29470  -32.16320  -43.51210  175.29470
 9900.00000    9.78850    5.08460    4.96460  201.42620  169.15850   49.09050   49.09050   14.09360   14.09360  201.42620    9.78850  197.82060 -105.86150 -117.21040  197.82060
 9950.00000   10.24930    2.39650    2.05110  487.53440  165.91450   49.34370   49.34370   17.91700   17.91700  487.53440   10.24930  292.91350  -43.22000  -54.56890  292.91350
 10000.00000    9.36200    4.06050    4.69540  212.97540  179.48410   52.42450   52.42450    -999.25    -999.25  212.97540    9.36200  177.29050  -81.51080  -92.85970  177.29050
