~Version ---------------------------------------------------
VERS.      2.0 : CWLS log ASCII Standard -VERSION 2.0
WRAP.       NO : One line per depth step
CREA. 08/31/17 : LAS Creation Date
~Well ------------------------------------------------------
STRT.FT                            1200.0 : START DEPTH
STOP.FT                           11900.0 : STOP DEPTH
STEP.FT                          50.00000 : STEP LENGTH
NULL.                             -999.25 : NULL VALUE
COMP.                THE PURE OIL COMPANY : COMPANY
WELL. PURE AMERADA ANTE CREEK 12-17-66-26 : WELL
FLD .                                     : FIELD
LOC .                                     : LOCATION
CTRY.                              CANADA : COUNTRY
SRVC.              Schlumberger of Canada : SERVICE COMPANY
DATE.                         16-Mar-1961 : LOGDATE
PROV.                             Alberta : PROVINCE
UWI .                    100121706626W500 : UNIQUE WELL ID
SLAT.WGS84                       54.71423 : SURFACE LATITUDE
SLON.WGS84                      -117.9041 : SURFACE LONGITUDE
~Curve Information -----------------------------------------
DEPT  .FT         : Depth Curve
CALWS .IN         : CALIPER [MCALED]
CILDED.MMHO       : DEEP CONDUCTIVITY INDUCTION FROM IEL LOG
CONDWS.MMHO       : CONDUCTIVITY [1000/DRESWS]
DRESWS.OHMM       : DEEP RESISTIVITY [ILDED]
DTED  .US/F       : ACOUSTIC TRANSIT TIME SLOWNESS, DELTA T FROM BCS LOG [ADJ. TO NEUTED]
DTWS  .US/F       : COMPRESSIONAL SONIC [DTED]
GRNED .UgRa-Eq/T  : GAMMA RAY NEUTRON FROM GRN LOG
GRSED .UgRa-Eq/T  : GAMMA RAY FROM BCS LOG [ADJ. TO GRNED]
GRWS  .GAPI       : GAMMA RAY [GRSED SPL. TO GRNED @ 8833', GRWS*16.50]
ILDED .OHMM       : DEEP INDUCTION RESISTIVITY FROM IEL LOG
MCALED.IN         : MLT MICROLOG CALIPER FROM ML LOG
NEUTED.NAPI       : NEUTRON FROM GRN LOG
NEUTWS.NAPI       : NEUTRON [NEUTED]
SNED  .OHMM       : SHORT NORMAL FROM IEL LOG
SPRED .MV         : SPONTANEOUS POTENTIAL FROM IEL LOG
SPWS  .MV         : SPONTANEOUS POTENTIAL [BASELINED 0 MV, SPRED]
SRESWS.OHMM       : SHALLOW RESISTIVITY [SNED]
~Params ----------------------------------------------------
LMF .                     KB : LOG MEASURED FROM
DMF .                     KB : DRILLING MEASURED FROM
EKB .FT                 2620 : KELLY BUSHING
EGL .FT                 2606 : GROUND LEVEL
DATE.               06/16/61 : RUN DATE
RUN .                      1 : RUN NUMBER
DD  .FT                11935 : DEPTH DRILLER
DL  .FT                11937 : DEPTH LOGGER
BLI .FT                11932 : BOTTOM LOG INTERVAL
TLI .FT                 1235 : TOP LOG INTERVAL
CBD .FT                 1236 : CASING BOTTOM DRILLER
CBL .FT                 1235 : CASING BOTTOM LOGGER
BS  .IN                    9 : BIT SIZE
BSD .FT                11935 : BIT SIZE AT DEPTH
DFT .                    GEL : DRILLING FLUID TYPE
DFD .                   10.1 : DRILLING FLUID DENSITY
DFV .                    600 : DRILLING FLUID VISCOSITY
DFPH.                    9.5 : DRILLING FLUID PH
DFL .                    7.8 : DRILLING FLUID LOSS
MSS .             CIRCULATED : MUD SAMPLE SOURCE
RMS .OHMM               3.65 : RESISTIVITY MUD SAMPLE
MST .DEGF                 56 : MUD SAMPLE TEMPERATURE
RMF .OHMM                2.8 : RESISTIVITY MUD FILTRATE SAMPLE
MFST.DEGF                 70 : MUD FILTRATE SAMPLE TEMPERATURE
RMC .OHMM                3.5 : RESISTIVITY MUD CAKE
MCST.DEGF                 70 : MUD CAKE SAMPLE TEMPERATURE
TCS .HRS                 600 : TIME CIRCULATED STOPPED
LUN .                  1573C : LOGGING UNIT NUMBER
LUL .                     WC : LOGGING UNIT LOCATION
ENGI.              HAUSEGGER : RECORDING ENGINEER
WITN.              ZASEYBIDA : WITNESSED BY
CLNT.                A2DTECH : CLIENT CODE
ORIG.            2" 5" PRINT : ORIGIN OF DATA
UWI .       100121706626W500 : UNIQUE WELL ID
DICO. A2D Technologies, Inc. : DIGITIZING COMPANY
~Other -----------------------------------------------------
~ASCII -----------------------------------------------------
# ...
 5300.00000    9.91170  173.73320  185.32930    5.39580   89.68870   89.68870    -999.25    6.92230  114.21800    5.39580    9.91170    -999.25    -999.25    7.71720 -118.24450   -1.73660    7.71720
 5350.00000    9.61890  113.60660  116.67660    8.57070   79.89980   79.89980    -999.25    7.78250  128.41130    8.57070    9.61890    -999.25    -999.25   12.98480 -118.67000   -2.47600   12.98480
 5400.00000    9.11650   42.00540   48.81190   20.48680   82.79300   82.79300    -999.25    2.65920   43.87680   20.48680    9.11650    -999.25    -999.25   28.11110 -144.99750  -29.11740   28.11110
 5450.00000    9.55550   89.96110   91.02580   10.98590   73.01330   73.01330    -999.25    5.51120   90.93480   10.98590    9.55550    -999.25    -999.25   14.66820 -121.81520   -6.24890   14.66820
 5500.00000    9.92840   76.20850   77.18970   12.95510   77.37780   77.37780    -999.25    6.69110  110.40320   12.95510    9.92840    -999.25    -999.25   19.30140 -118.27940   -3.02700   19.30140
 5550.00000   10.62190   61.42260   65.34280   15.30390  126.23870  126.23870    -999.25    3.37310   55.65610   15.30390   10.62190    -999.25    -999.25   25.59710 -127.39970  -12.46120   25.59710
 5600.00000    9.93110  109.87650  114.00040    8.77190   85.62750   85.62750    -999.25    5.81260   95.90790    8.77190    9.93110    -999.25    -999.25   12.49350 -118.49520   -3.87060   12.49350
 5650.00000   10.43770   87.29290   88.04680   11.35760   77.01520   77.01520    -999.25    4.26530   70.37740   11.35760   10.43770    -999.25    -999.25   16.22170 -118.29110   -3.98040   16.22170
 5700.00000    9.79430   89.42800   85.14770   11.74430   76.13500   76.13500    -999.25    5.77270   95.24950   11.74430    9.79430    -999.25    -999.25   16.78800 -118.14790   -4.14600   16.78800
 5750.00000    8.43700   50.99600   52.33140   19.10900   81.18880   81.18880    -999.25    2.51410   41.48270   19.10900    8.43700    -999.25    -999.25   32.78290 -168.16510  -54.43070   32.78290
 5800.00000    9.66040   72.89770   72.67920   13.75910  100.09700  100.09700    -999.25    5.49810   90.71860   13.75910    9.66040    -999.25    -999.25   27.51860 -119.81100   -6.34400   27.51860
 5850.00000    8.07720   49.07020   53.62820   18.64690   75.05730   75.05730    -999.25    1.54570   25.50400   18.64690    8.07720    -999.25    -999.25   40.35180 -182.17080  -68.97130   40.35180
 5900.00000    7.76160   46.09380   48.15660   20.76560   74.02980   74.02980    -999.25    1.95000   32.17500   20.76560    7.76160    -999.25    -999.25   42.64810 -184.01240  -71.08040   42.64810
 5950.00000    9.58000   63.77110   64.58200   15.48420   74.60150   74.60150    -999.25    4.79580   79.13070   15.48420    9.58000    -999.25    -999.25   31.36930 -125.78100  -13.11640   31.36930
 6000.00000    9.79690   63.91520   67.59310   14.79440   74.87480   74.87480    -999.25    5.38750   88.89370   14.79440    9.79690    -999.25    -999.25   21.58870 -112.68140   -0.28430   21.58870
 6050.00000    9.96140   92.29860   95.35250   10.48740   74.34050   74.34050    -999.25    5.38260   88.81290   10.48740    9.96140    -999.25    -999.25   14.11780 -113.92550   -1.79590   14.11780
 6100.00000    9.13910   79.91530   75.74720   13.20180   73.07970   73.07970    -999.25    4.42320   72.98280   13.20180    9.13910    -999.25    -999.25   22.91860 -139.73850  -27.87630   22.91860
 6150.00000    9.48530   90.21300   90.47240   11.05310   72.82280   72.82280    -999.25    4.38350   72.32770   11.05310    9.48530    -999.25    -999.25   19.19740 -125.97940  -14.49610   19.19740
 6200.00000    8.33630   54.03130   55.80980   17.91800   71.81450   71.81450    -999.25    3.36550   55.53070   17.91800    8.33630    -999.25    -999.25   33.04900 -155.51280  -44.68120   33.04900
 6250.00000    9.74050   84.29910   87.01330   11.49250   73.27200   73.27200    -999.25    4.63350   76.45270   11.49250    9.74050    -999.25    -999.25   16.91370 -123.13230  -12.95220   16.91370
 6300.00000    9.43530   64.62110   65.51790   15.26300   73.05900   73.05900    -999.25    5.41320   89.31780   15.26300    9.43530    -999.25    -999.25   22.64430 -112.11700   -2.58850   22.64430
 6350.00000    9.57230   89.67400   90.91740   10.99900   80.67120   80.67120    -999.25    6.01890   99.31190   10.99900    9.57230    -999.25    -999.25   15.71360 -112.30960   -3.43270   15.71360
 6400.00000    8.48960  107.07940  106.62910    9.37830   67.13400   67.13400    -999.25    3.33990   55.10840    9.37830    8.48960    -999.25    -999.25   15.77590 -127.35030  -19.12510   15.77590
 6450.00000    7.66840   65.99520   68.25430   14.65110   72.96430   72.96430    -999.25    2.52330   41.63450   14.65110    7.66840    -999.25    -999.25   33.35160 -172.21120  -64.63750   33.35160
 6500.00000   10.23420   95.61500   98.39420   10.16320   63.87280   63.87280    -999.25    7.25520  119.71080   10.16320   10.23420    -999.25    -999.25   18.17180 -109.86270   -2.94060   18.17180
 6550.00000    9.63430   49.31370   50.60810   19.75970   74.33220   74.33220    -999.25    6.20580  102.39570   19.75970    9.63430    -999.25    -999.25   39.18920 -107.19480   -0.92430   39.18920
 6600.00000    9.65810   41.52310   43.01060   23.25010   72.21580   72.21580    -999.25    5.90020   97.35330   23.25010    9.65810    -999.25    -999.25   39.37970 -111.39700   -5.77800   39.37970
 6650.00000    9.91970   54.41910   55.71340   17.94900   80.01320   80.01320    -999.25    6.88410  113.58770   17.94900    9.91970    -999.25    -999.25   32.43120 -112.40070   -7.43340   32.43120
 6700.00000    7.62050   80.64340   82.99100   12.04950   75.41270   75.41270    -999.25    2.24440   37.03260   12.04950    7.62050    -999.25    -999.25   33.23200 -186.97920  -83.05930   33.23200
 6750.00000    9.87200  112.52660  117.32680    8.52320   64.53470   64.53470    -999.25    6.83990  112.85840    8.52320    9.87200    -999.25    -999.25   16.38890 -118.07880  -15.47010   16.38890
 6800.00000    8.96500   47.97110   50.54080   19.78600   68.29180   68.29180    -999.25    4.66720   77.00880   19.78600    8.96500    -999.25    -999.25   26.90520 -122.90090  -21.60350   26.90520
 6850.00000   10.48360  272.15290  312.84220    3.19650   94.60550   94.60550    -999.25    5.95700   98.29050    3.19650   10.48360    -999.25    -999.25    5.77490 -110.80190  -10.81580    5.77490
 6900.00000   11.15340  200.70400  184.02650    5.43400   79.84650   79.84650    -999.25    4.17400   68.87100    5.43400   11.15340    -999.25    -999.25    9.17180 -119.38430  -20.70940    9.17180
 6950.00000    9.06900  343.11240  412.45620    2.42450  115.83400  115.83400    -999.25    5.21380   86.02770    2.42450    9.06900    -999.25    -999.25    4.82160 -111.13680  -13.77320    4.82160
 7000.00000   10.27240  329.62700  860.28910    1.16240   98.53780   98.53780    -999.25    5.26250   86.83120    1.16240   10.27240    -999.25    -999.25    4.70880 -119.56850  -23.51620    4.70880
 7050.00000    9.32480    4.96960    5.97730  167.30090   80.86030   80.86030    -999.25   11.60940  191.55510  167.30090    9.32480    -999.25    -999.25  241.67970 -144.44740  -49.70630  241.67970
 7100.00000    9.45120    4.96960    6.04230  165.50080   83.69000   83.69000    -999.25   15.00140  247.52310  165.50080    9.45120    -999.25    -999.25  160.85960 -155.76310  -62.33330  160.85960
 7150.00000    8.99650  116.57790  140.19740    7.13280   68.13950   68.13950    -999.25    4.93170   81.37310    7.13280    8.99650    -999.25    -999.25   34.30560 -229.96430 -137.84580   34.30560
 7200.00000    9.68930  124.88100  155.89920    6.41440   69.35750   69.35750    -999.25    6.03220   99.53130    6.41440    9.68930    -999.25    -999.25   23.00720 -182.24680  -91.43960   23.00720
 7250.00000    9.75050   89.31630  105.85370    9.44700   67.20400   67.20400    -999.25    5.53740   91.36710    9.44700    9.75050    -999.25    -999.25   25.43690 -160.84730  -71.35130   25.43690
 7300.00000    9.46990   43.27540   48.78910   20.49640   65.46030   65.46030    -999.25    6.13650  101.25230   20.49640    9.46990    -999.25    -999.25   33.42010 -116.42750  -28.24280   33.42010
