~Version ---------------------------------------------------
VERS.      2.0 : CWLS log ASCII Standard -VERSION 2.0
WRAP.       NO : One line per depth step
CREA. 09/23/17 : LAS Creation Date
~Well ------------------------------------------------------
STRT.FT                          900.0 : START DEPTH
STOP.FT                         9150.0 : STOP DEPTH
STEP.FT                       50.00000 : STEP LENGTH
NULL.                          -999.25 : NULL VALUE
COMP.    UNO-TEX PETROLEUM CORPORATION : COMPANY
WELL. UNO-TEX ET AL BOULDER 4-31-70-19 : WELL
FLD .                                  : FIELD
LOC .                                  : LOCATION
CTRY.                           CANADA : COUNTRY
SRVC.                     Schlumberger : SERVICE COMPANY
DATE.                      14-Sep-1974 : LOGDATE
PROV.                          Alberta : PROVINCE
UWI .                 100043107019W500 : UNIQUE WELL ID
SLAT.WGS84               55.1008449393 : SURFACE LATITUDE
SLON.WGS84             -116.8929272887 : SURFACE LONGITUDE
~Curve Information -----------------------------------------
DEPT  .FT    : Depth Curve
CALSED.IN    : CALIPER FROM SONIC LOG
CALWS .IN    : CALIPER (CALSED)
CILDED.MMHO  : CONDUCTIVITY FROM LOG
CONDWS.MMHO  : CONDUCTIVITY (1000/DRESWS)
DRESWS.OHMM  : DEEP RESISTIVITY (ILDED)
DTED  .US/F  : DELTA TIME
DTWS  .US/F  : DELTA TIME (DTED)
GRSED .GAPI  : GAMMA RAY FROM SONIC LOG
GRWS  .GAPI  : GAMMA RAY (GRSED)
ILDED .OHMM  : DEEP INDUCTION RESISTIVITY
ILMED .OHMM  : MEDIUM INDUCTION RESISTIVITY
LL8ED .OHMM  : LATEROLOG-8 RESISTIVITY
MRESWS.OHMM  : MEDIUM RESISTIVITY (ILMED)
SPRED .MV    : Spontaneous Potential from Resistivity Log
SPWS  .MV    : SPONTANEOUS POTENTIAL BASELINE 0 MV (SPRED)
SRESWS.OHMM  : SHALLOW RESISTIVITY (LL8ED)
~Params ----------------------------------------------------
PD  .                     GL : PERMANENT DATUM
EPD .FT                 2502 : ELEVATION PERMANENT DATUM
LMF .                     KB : LOG MEASURED FROM
DAPD.FT                   15 : FEET ABOVE PERMANENT DATUM
EKB .FT                 2517 : KELLY BUSHING
EGL .FT                 2502 : GROUND LEVEL
DATE.               09/14/74 : RUN DATE
RUN .                      1 : RUN NUMBER
DD  .FT                 9141 : DEPTH DRILLER
DL  .FT                 9155 : DEPTH LOGGER
BLI .FT                 9149 : BOTTOM LOG INTERVAL
TLI .FT                  912 : TOP LOG INTERVAL
CBD .FT                  912 : CASING BOTTOM DRILLER
CBL .FT                  912 : CASING BOTTOM LOGGER
BS  .IN                7.875 : BIT SIZE
BSD .FT                 9141 : BIT SIZE AT DEPTH
DFT .                    GEL : DRILLING FLUID TYPE
DFD .                    9.2 : DRILLING FLUID DENSITY
DFV .                    104 : DRILLING FLUID VISCOSITY
DFPH.                    9.5 : DRILLING FLUID PH
DFL .                    7.0 : DRILLING FLUID LOSS
MSS .             CIRCULATED : MUD SAMPLE SOURCE
RMS .OHMM               1.32 : RESISTIVITY MUD SAMPLE
MST .DEGF                 60 : MUD SAMPLE TEMPERATURE
RMF .OHMM               2.14 : RESISTIVITY MUD FILTRATE SAMPLE
MFST.DEGF                 71 : MUD FILTRATE SAMPLE TEMPERATURE
RMB .OHMM               0.97 : RESISTIVITY MUD AT BHT
TCS .HRS                   9 : TIME CIRCULATED STOPPED
LUN .                   7670 : LOGGING UNIT NUMBER
LUL .                    FDM : LOGGING UNIT LOCATION
ENGI.                   WOON : RECORDING ENGINEER
WITN.                 HARRIS : WITNESSED BY
CLNT.                A2DTECH : CLIENT CODE
ORIG.            2" 5" PRINT : ORIGIN OF DATA
UWI .       100043107019W500 : UNIQUE WELL ID
DICO. A2D Technologies, Inc. : DIGITIZING COMPANY
~Other -----------------------------------------------------
~ASCII -----------------------------------------------------
# ...
 7350.00000    8.37080    8.37080    -999.25  138.10800    7.28800   54.65740   54.65740   28.77870   28.77870    7.28800   12.74550   14.99200   12.74550   -5.59400  -33.46970   14.99200
 7400.00000    8.29650    8.29650    -999.25  204.64960    4.88640   61.56200   61.56200   38.81660   38.81660    4.88640    7.68810   27.86290    7.68810  -19.11630  -46.15200   27.86290
 7450.00000    8.40800    8.40800    -999.25   16.86690   59.28770   49.77330   49.77330   24.17440   24.17440   59.28770  105.42680  109.09650  105.42680  -65.10450  -91.28740  109.09650
 7500.00000    8.47890    8.47890    -999.25   83.42310   11.98790   51.71860   51.71860   26.49880   26.49880   11.98790   17.43590   26.65810   17.43590  -79.41950 -104.76230   26.65810
 7550.00000    8.46630    8.46630    -999.25    9.47530  105.53710   52.68180   52.68180   35.85780   35.85780  105.53710  137.80170  134.85490  137.80170    2.05500  -22.44780  134.85490
 7600.00000    8.53330    8.53330    -999.25    6.54730  154.10980   50.89660   50.89660   15.52610   15.52610  154.10980  206.60010  161.07510  206.60010  -79.45500 -103.10930  161.07510
 7650.00000    8.55730    8.55730    -999.25  101.83610    9.81970   62.05880   62.05880   57.79010   57.79010    9.81970   13.20870   12.38690   13.20870 -101.43640 -124.25060   12.38690
 7700.00000    8.96430    8.96430    -999.25   96.95560   10.31400   67.54750   67.54750   71.06450   71.06450   10.31400   12.40420   11.30590   12.40420 -128.59860 -150.56000   11.30590
 7750.00000   10.46350   10.46350    -999.25  183.42920    5.45370   78.18100   78.18100   79.27100   79.27100    5.45370    6.44160    7.27150    6.44160  -99.27210 -120.39350    7.27150
 7800.00000   10.45430   10.45430    -999.25  199.82420    5.00440   79.19860   79.19860   64.41730   64.41730    5.00440    5.97980    6.96010    5.97980  -47.56630  -67.84760    6.96010
 7850.00000   13.67230   13.67230    -999.25  233.42130    4.28410   82.32890   82.32890   89.89280   89.89280    4.28410    4.53540    5.47990    4.53540  -51.61670  -71.04950    5.47990
 7900.00000   14.25730   14.25730    -999.25  217.62310    4.59510   78.78240   78.78240   80.29390   80.29390    4.59510    4.82030    5.68560    4.82030  -59.46070  -78.05340    5.68560
 7950.00000   14.09470   14.09470    -999.25  198.04330    5.04940   79.78480   79.78480   86.05460   86.05460    5.04940    5.46590    6.55470    5.46590 -126.44090 -144.18080    6.55470
 8000.00000   12.68620   12.68620    -999.25  196.89310    5.07890   79.34360   79.34360   79.37720   79.37720    5.07890    5.56580    6.25190    5.56580  -87.63470 -104.53450    6.25190
 8050.00000   10.21740   10.21740    -999.25  195.57990    5.11300   75.89480   75.89480   76.41480   76.41480    5.11300    5.71590    6.58490    5.71590  -15.40400  -31.46380    6.58490
 8100.00000   10.60290   10.60290    -999.25  258.48220    3.86880   82.84210   82.84210   87.40330   87.40330    3.86880    4.09420    5.12860    4.09420  -30.54160  -45.75290    5.12860
 8150.00000   12.09020   12.09020    -999.25  256.04260    3.90560   85.27930   85.27930   96.63190   96.63190    3.90560    4.38560    5.32330    4.38560   -3.93350  -18.30470    5.32330
 8200.00000    8.31020    8.31020    -999.25   96.74170   10.33680   63.79270   63.79270   55.97390   55.97390   10.33680   15.64600   14.53200   15.64600  -48.53980  -62.05830   14.53200
 8250.00000    8.27810    8.27810    -999.25   86.78250   11.52380   65.23170   65.23170   58.01870   58.01870   11.52380   16.92070   14.71480   16.92070   -3.51880  -17.99650   14.71480
 8300.00000    8.29900    8.29900    -999.25  122.96490    8.13240   68.50730   68.50730   61.71120   61.71120    8.13240   10.76560   11.43450   10.76560  -20.15930  -36.75610   11.43450
 8350.00000    8.58190    8.58190    -999.25  110.70020    9.03420   70.43840   70.43840   83.54660   83.54660    9.03420   11.79500   12.82600   11.79500 -128.82190 -147.55920   12.82600
 8400.00000    8.46940    8.46940    -999.25  100.31600    9.96850   67.83800   67.83800   81.46450   81.46450    9.96850   11.98100   13.04690   11.98100 -172.20510 -193.06150   13.04690
 8450.00000    9.60760    9.60760    -999.25  162.38250    6.15830   77.49100   77.49100   59.77280   59.77280    6.15830    7.61480    7.87650    7.61480 -143.08840 -166.09590    7.87650
 8500.00000    8.77430    8.77430    -999.25  126.33220    7.91580   69.73950   69.73950   75.83420   75.83420    7.91580   10.15510   12.31110   10.15510 -109.70790 -134.83460   12.31110
 8550.00000    8.60840    8.60840    -999.25  105.46970    9.48140   68.35430   68.35430   82.40890   82.40890    9.48140   12.34620   13.68960   12.34620 -177.28810 -204.53380   13.68960
 8600.00000    9.04640    9.04640    -999.25  168.73490    5.92680   72.81250   72.81250  108.77600  108.77600    5.92680    7.62420    8.83840    7.62420 -148.51340 -177.89960    8.83840
 8650.00000    8.30070    8.30070    -999.25   23.72530   42.14910   62.38800   62.38800   61.11410   61.11410   42.14910   69.07280   94.91460   69.07280 -203.68800 -235.19330   94.91460
 8700.00000    8.79610    8.79610    -999.25  145.60700    6.86780   81.68990   81.68990  119.00580  119.00580    6.86780    8.76590   10.56020    8.76590  -64.15120  -97.80760   10.56020
 8750.00000    8.37760    8.37760    -999.25  128.50300    7.78210   68.93460   68.93460   67.25620   67.25620    7.78210   10.64570   11.40880   10.64570  -49.03730  -84.81280   11.40880
 8800.00000    8.25900    8.25900    -999.25   43.76540   22.84910   58.32060   58.32060   39.12080   39.12080   22.84910   31.72940   29.09410   31.72940   46.78540    8.89080   29.09410
 8850.00000    8.07840    8.07840    -999.25   22.83970   43.85450   50.66460   50.66460   10.63180   10.63180   43.85450   53.43780  100.01680   53.43780   30.48210   -9.55300  100.01680
 8900.00000    8.06550    8.06550    -999.25   13.81430   72.38890   51.65730   51.65730   10.33750   10.33750   72.38890   90.25240   72.65700   90.25240    5.45320  -36.70100   72.65700
 8950.00000    8.13560    8.13560    -999.25  180.52500    5.53940   58.03490   58.03490   10.93740   10.93740    5.53940    7.13550   27.23530    7.13550 -179.17270 -223.47800   27.23530
 9000.00000    8.25490    8.25490    -999.25    0.74390 1351.01100   49.25920   49.25920   11.80330   11.80330 1351.01100 1052.32250  668.34740 1052.32250  -83.62770 -130.05210  668.34740
 9050.00000    8.25940    8.25940    -999.25    0.57030 1753.38650   49.09050   49.09050   16.74890   16.74890 1753.38650 1518.00430 1603.25220 1518.00430  -87.90360 -136.44710 1603.25220
 9100.00000    8.31160    8.31160    -999.25 1128.00610    0.88950   68.34240   68.34240  173.88220  173.88220    0.88950    1.19530    7.93830    1.19530  -78.09820 -128.26030    7.93830
 9150.00000    8.00400    8.00400    -999.25    -999.25    -999.25   66.68280   66.68280    2.07980    2.07980    -999.25    -999.25    -999.25    -999.25    -999.25    -999.25    -999.25
