~Version ---------------------------------------------------
VERS. 2.0 : CWLS log ASCII Standard -VERSION 2.0
WRAP.  NO : ONE LINE PER DEPTH STEP
~Well ------------------------------------------------------
STRT.F                 750.0 : START DEPTH
STOP.F                7200.0 : STOP DEPTH
STEP.F              50.00000 : STEP LENGTH
NULL.                -999.25 : NULL VALUE
COMP.       HUNT OIL COMPANY : COMPANY
WELL. HPC OBERLIN 8-20-38-21 : WELL
FLD .                        : FIELD
LOC .                        : LOCATION
CTRY.                 CANADA : COUNTRY
SRVC. Schlumberger of Canada : SERVICE COMPANY
DATE.            27-May-1962 : LOGDATE
PROV.                Alberta : PROVINCE
UWI .       100082003821W400 : UNIQUE WELL ID
SLAT.WGS84          52.27925 : SURFACE LATITUDE
SLON.WGS84         -112.9595 : SURFACE LONGITUDE
~Curve Information -----------------------------------------
DEPT.F                 : 
SPR .MV                : SPONTANEOUS POTENTIAL FROM RESISTIVITY
SN  .OHMM 01 040 00 00 : SHORT NORMAL
ILD .OHMM              : DEEP INDUCTION RESISTIVITY
CILD.MMHO 07 110 00 00 : CONDUCTIVITY INDUCTION LOG
CALS.IN   60 280 50 00 : CALIPER FROM SONIC LOG
GRS .GAPI              : GAMMA RAY
AC  .US/F              : ACOUSTIC
~Params ----------------------------------------------------
PD  .                     GD : PERMANENT DATUM
EPD .FT                 2640 : ELEVATION PERMANENT DATUM
LMF .                     KB : LOG MEASURED FROM
DAPD.FT                   13 : FEET ABOVE PERMANENT DATUM
DMF .                     KB : DRILLING MEASURED FROM
EKB .FT                 2652 : KELLY BUSHING
EGL .FT                 2640 : GROUND LEVEL
DATE.               05/27/62 : RUN DATE
RUN .                      1 : RUN NUMBER
DD  .FT                 7244 : DEPTH DRILLER
DL  .FT                 7239 : DEPTH LOGGER
BLI .FT                 7243 : BOTTOM LOG INTERVAL
TLI .FT                  742 : TOP LOG INTERVAL
CBD .FT                  742 : CASING BOTTOM DRILLER
CBL .FT                  740 : CASING BOTTOM LOGGER
BS  .IN                7.875 : BIT SIZE
BSD .FT                 7244 : BIT SIZE AT DEPTH
DFT .                   LIME : DRILLING FLUID TYPE
DFD .                   10.6 : DRILLING FLUID DENSITY
DFV .                     60 : DRILLING FLUID VISCOSITY
DFPH.                    8.5 : DRILLING FLUID PH
DFL .                   12.1 : DRILLING FLUID LOSS
RMS .OHMM               0.76 : RESISTIVITY MUD SAMPLE
MST .DEGF                 85 : MUD SAMPLE TEMPERATURE
RMF .OHMM                0.3 : RESISTIVITY MUD FILTRATE SAMPLE
MFST.DEGF                 74 : MUD FILTRATE SAMPLE TEMPERATURE
RMC .OHMM               0.43 : RESISTIVITY MUD CAKE
MCST.DEGF                 76 : MUD CAKE SAMPLE TEMPERATURE
TCS .HRS                 2.5 : TIME CIRCULATED STOPPED
LUN .                   3815 : LOGGING UNIT NUMBER
ENGI.               STAFFORD : RECORDING ENGINEER
WITN.                   COOK : WITNESSED BY
CLNT.                A2DTECH : CLIENT CODE
ORIG.            2" 5" PRINT : ORIGIN OF DATA
UWI .       100082003821W400 : UNIQUE WELL ID
DICO. A2D Technologies, Inc. : DIGITIZING COMPANY
~Other -----------------------------------------------------
~ASCII -----------------------------------------------------
  750.00000  -76.17890    6.44080   48.82710   20.40250    -999.25    -999.25    -999.25
  800.00000  -88.68520    8.49540    5.82430  169.16060    -999.25    -999.25    -999.25
  850.00000  -89.07660   15.19970   18.73630   51.78120    -999.25    -999.25    -999.25
  900.00000  -85.31910    8.34980    8.44930  110.37320    -999.25    -999.25    -999.25
  950.00000  -80.82110    7.09980    6.11460  149.81290    -999.25    -999.25    -999.25
 1000.00000  -76.62580    5.90480    4.49910  209.17660    -999.25    -999.25    -999.25
 1050.00000  -77.27030    6.83020    8.10980  114.07390    -999.25    -999.25    -999.25
 1100.00000  -78.52820    5.38630    4.61230  215.73060    -999.25    -999.25    -999.25
 1150.00000  -74.37940    5.18020    3.76500  290.43740    -999.25    -999.25    -999.25
 1200.00000  -75.62920    6.33120    4.51060  218.47590    -999.25    -999.25    -999.25
 1250.00000  -80.29360    4.92550    3.50230  288.10800    -999.25    -999.25    -999.25
 1300.00000  -72.67080    5.05590    4.07200  249.24950    -999.25    -999.25    -999.25
 1350.00000  -77.59270    6.23240    7.21280  137.25660    -999.25    -999.25    -999.25
 1400.00000  -77.55390    6.04210    7.53230  128.71080    -999.25    -999.25    -999.25
 1450.00000  -76.38990    4.69310    4.07800  224.88160    -999.25    -999.25    -999.25
 1500.00000  -77.48420    3.40850    2.80000  406.33070    -999.25    -999.25    -999.25
 1550.00000  -76.21240    5.92950    5.40430  166.25130    -999.25    -999.25    -999.25
 1600.00000  -76.67630    6.17120    6.79100  159.50260    -999.25    -999.25    -999.25
 1650.00000  -79.79800    6.24050    5.58750  171.32950    -999.25    -999.25    -999.25
 1700.00000  -73.97040    5.13460    5.29340  182.88240    -999.25    -999.25    -999.25
 1750.00000  -81.86100    4.83700    4.51810  227.43500    -999.25    -999.25    -999.25
 1800.00000  -83.68020    9.73900   14.97870   65.90060    -999.25    -999.25    -999.25
 1850.00000  -81.54180    5.87420    4.77490  200.11380    -999.25    -999.25    -999.25
 1900.00000  -82.74790    5.90500    7.55950  135.01170    -999.25    -999.25    -999.25
 1950.00000  -83.09290    5.77280    6.05970  152.30440    -999.25    -999.25    -999.25
 2000.00000  -80.08090    4.51220    3.41690  255.74340    -999.25    -999.25    -999.25
 2050.00000  -76.20140    5.69640    5.00670  205.69250    -999.25    -999.25    -999.25
 2100.00000  -73.90960    5.87750    5.50480  183.81870    -999.25    -999.25    -999.25
 2150.00000  -72.28990    6.23750    4.32960  231.02060    -999.25    -999.25    -999.25
 2200.00000  -76.73400    8.87420   11.96240   84.53280    -999.25    -999.25    -999.25
 2250.00000  -75.24180    4.87090    3.74570  268.43060    -999.25    -999.25    -999.25
 2300.00000  -76.87610    4.91730    3.93290  273.67060    -999.25    -999.25    -999.25
 2350.00000  -76.59070    5.42250    4.72500  221.00690    -999.25    -999.25    -999.25
 2400.00000  -82.52920    6.16070    7.23930  136.94230    -999.25    -999.25    -999.25
 2450.00000  -82.42290    6.15890    7.12410  144.94270    -999.25    -999.25    -999.25
 2500.00000  -84.44190    8.61120   10.09400  102.33980    -999.25    -999.25    -999.25
 2550.00000  -83.03300    6.64630    7.65370  122.72840    -999.25    -999.25    -999.25
 2600.00000  -81.56200    7.01300    7.73150  129.33690    -999.25    -999.25    -999.25
 2650.00000  -82.44570    7.97490    8.88880  117.39840    -999.25    -999.25    -999.25
 2700.00000  -85.72130    7.20900    6.05200  147.89930    -999.25    -999.25    -999.25
 2750.00000  -89.23660   18.21200   15.90430   56.49890    -999.25    -999.25    -999.25
 2800.00000  -83.95680    8.81910    7.70700  125.01690    -999.25    -999.25    -999.25
 2850.00000  -83.77020    8.00010    6.73890  143.93140    -999.25    -999.25    -999.25
 2900.00000  -82.95700    7.06210    6.71180  143.12490    -999.25    -999.25    -999.25
 2950.00000  -78.84140    5.91160    6.98270  147.59300    -999.25    -999.25    -999.25
 3000.00000  -78.48810    7.10390    5.51930  172.07640    -999.25    -999.25    -999.25
 3050.00000  -81.40680    7.60120    6.49760  149.97970    -999.25    -999.25    -999.25
 3100.00000  -82.26080    8.76710    7.71880  120.54540    -999.25    -999.25    -999.25
 3150.00000  -82.14810    7.63180    6.40040  146.99530    -999.25    -999.25    -999.25
 3200.00000  -83.86200    7.69630    6.51600  148.41080    -999.25    -999.25    -999.25
 3250.00000  -84.69430    7.87800    8.95690  109.73740    -999.25    -999.25    -999.25
 3300.00000  -83.46510    6.71870    7.51040  141.20000    -999.25    -999.25    -999.25
 3350.00000  -83.20090    6.61710    7.68470  136.00970    -999.25    -999.25    -999.25
 3400.00000  -81.46650    7.84890    6.77360  144.82160    -999.25    -999.25    -999.25
 3450.00000  -80.45430    6.54250    5.28360  183.98140    -999.25    -999.25    -999.25
 3500.00000  -79.37720   10.80210    7.54220  129.26480    -999.25    -999.25    -999.25
 3550.00000  -81.35120   20.59280   14.93160   62.08270    -999.25    -999.25    -999.25
 3600.00000  -78.97090    9.12180    6.68390  153.07440    -999.25    -999.25    -999.25
 3650.00000  -77.36760   13.81490    9.59200   95.01380    -999.25    -999.25    -999.25
 3700.00000  -75.83990   11.25300    7.60720  128.10870    -999.25    -999.25    -999.25
 3750.00000  -74.98060    6.29160    5.41450  209.76830   10.18220  106.90800  101.06000
 3800.00000  -74.84860    3.36080    3.01680  410.88680   10.70180   78.14400  113.43000
 3850.00000  -81.09400    3.54940    4.40540  303.65680   10.72980   86.23200  110.67000
 3900.00000  -80.83490    3.95810    4.46780  325.16670    9.61530   83.70000   93.41000
 3950.00000  -81.04270    7.41760    6.26400  172.60340    8.49660   80.37600   83.49000
 4000.00000  -81.19220    8.85790    7.54900  131.07000    9.24020   68.78400   73.23000
 4050.00000  -80.62210    1.48190    2.68930  837.94300   13.55440   70.56000  131.87000
 4100.00000  -81.04330    2.20550    3.21220  632.51010   10.69430   72.78000  112.78000
 4150.00000  -81.39910    8.15450    7.55980  134.57590   11.06570   70.68000   79.58000
 4200.00000  -81.49350   12.31180   10.48420   91.23930    9.28240   73.87200   74.95000
 4250.00000  -81.50830    8.27880    7.68340  137.78300    9.42010   90.02400   76.83000
 4300.00000  -85.25520   11.24780   11.80380   81.05070   10.79090   62.26800   75.81000
 4350.00000  -96.35120   25.52650   14.48250   66.39500   11.68000   29.70000  137.42000
 4400.00000  -85.55450   12.83250   10.70250   89.09470    9.05420   67.92000   71.21000
 4450.00000  -82.10510   12.59460    9.04400  103.79070    9.07390   67.63200   74.28000
 4500.00000  -88.69810    8.75130    5.75450  175.52320    7.86830   77.47200   93.19000
 4550.00000 -127.38600   14.40700    8.76710  109.59940    7.29930   30.54000   74.55000
 4600.00000  -89.28140    7.96290    6.55580  150.58470    8.73300   73.80000   69.15000
 4650.00000  -90.19550    5.45610    4.87980  222.61000   12.13320   84.13200   79.54000
 4700.00000  -96.69410    4.67760    4.27560  268.76410   12.07160   82.04400   90.92000
 4750.00000  -98.06660   26.03840   21.00580   41.86550    8.26610  223.64400   92.87000
 4800.00000 -100.01470   15.45180   12.15680   81.20150    8.35200   38.91600   64.29600
 4850.00000 -112.42120   84.95930  126.74620    4.10600    8.03300   16.68000   51.90000
 4900.00000  -97.17640    -999.25   30.06930   32.68980    8.16500   24.74400   56.04000
 4950.00000  -91.11500    -999.25   49.33630   19.24260    7.98060   16.24800   52.38800
 5000.00000  -99.15880    -999.25   45.04010   14.99080    8.00430   33.63600   54.99200
 5050.00000 -101.59010   76.73240   99.78400    7.22360    7.96630   15.28800   49.68400
 5100.00000 -101.10370   75.97990  115.93370    5.71940    7.95390   27.85200   48.15600
 5150.00000 -108.44680   52.39380   39.23250   25.03360    8.08290   16.54800   51.39200
 5200.00000 -112.57980   87.72590  166.73340    7.51270    7.86990   14.16000   52.13600
