~Version ---------------------------------------------------
VERS.      2.0 : CWLS log ASCII Standard -VERSION 2.0
WRAP.       NO : One line per depth step
CREA. 09/04/13 : LAS Creation Date
~Well ------------------------------------------------------
STRT.M                         400.0 : START DEPTH
STOP.M                        2900.0 : STOP DEPTH
STEP.M                      50.00000 : STEP LENGTH
NULL.                        -999.25 : NULL VALUE
COMP.      PEMBINA RESOURCES LIMITED : COMPANY
WELL. PEMBINA ET AL VIRGHILLS 2-32-6 : WELL
FLD .                 VIRGINIA HILLS : FIELD
LOC .                                : LOCATION
CTRY.                         CANADA : COUNTRY
SRVC.                   Schlumberger : SERVICE COMPANY
DATE.                    09-Feb-1985 : LOGDATE
PROV.                        Alberta : PROVINCE
UWI .               100023206413W500 : UNIQUE WELL ID
SLAT.WGS84                  54.57594 : SURFACE LATITUDE
SLON.WGS84                  -115.925 : SURFACE LONGITUDE
~Curve Information -----------------------------------------
DEPT    .M      : DEPTH METER
CALDED  .MM     : CALIPER FROM DENSITY LOG [ADJ. TO RESISTIVITY LOG]
CALSED  .MM     : CALIPER FROM SONIC LOG [ADJ. TO RESISTIVITY LOG]
CALWS   .MM     : CALIPER [CALDED]
CONDWS  .MMHO   : CONDUCTIVITY [1000/DRESWS]
DCORWS  .KG/M3  : DENSITY CORRECTION [DRHOED]
DENWS   .KG/M3  : FORMATION BULK DENSITY [CALC. FROM DPOLSWS, M=2710, F=1000]
DPHILSED.V/V    : DENSITY POROSITY LIMESTONE [M=2710, F=1000] FROM DENSITY LOG [ADJ. TO RESISTIVITY LOG]
DPHISSED.V/V    : DENSITY POROSITY SANDSTONE [M=2650, F=1000] FROM DENSITY LOG [ADJ. TO RESISTIVITY LOG]
DPOLSWS .V/V    : DENSITY POROSITY LIMESTONE [DPHISSED MATRIX CONVERSION FOR LIMESTONE, M=2710, F=1000, SPL. TO DPHILSED @ 1850 M]
DRESWS  .OHMM   : DEEP RESISTIVITY [ILDED]
DRHOED  .KG/M3  : BULK DENSITY CORRECTION FROM DENSITY LOG [ADJ. TO DPHISSED/DPHILSED/ RESISTIVITY LOG]
DTED    .US/M   : DELTA T FROM SONIC LOG [ADJ. TO RESISTIVITY LOG]
DTWS    .US/M   : COMPRESSIONAL SONIC [DTED]
GRSED   .GAPI   : GAMMA RAY FROM SONIC LOG [ADJ. TO RESISTIVITY LOG]
GRWS    .GAPI   : GAMMA RAY [GRSED SPL. TO SGRDDED @ 2900 M]
ILDED   .OHMM   : DEEP INDUCTION RESISTIVITY FROM RESISTIVITY LOG
ILMED   .OHMM   : MEDIUM INDUCTION RESISTIVITY FROM RESISTIVITY LOG
LAED    .MM     : LONG AXIS CALIPER FROM DENSITY LOG [ADJ. TO RESISTIVITY LOG]
MRESWS  .OHMM   : MEDIUM RESISTIVITY [ILMED]
NPHILSED.V/V    : NEUTRON POROSITY LIMESTONE FROM DENSITY LOG [ADJ. TO RESISTIVITY LOG]
NPHISSED.V/V    : NEUTRON POROSITY SANDSTONE FROM DENSITY LOG [ADJ. TO RESISTIVITY LOG]
NPOLSWS .V/V    : NEUTRON POROSITY LIMESTONE [NPHISSED MATRIX CONVERSION FOR LIMESTONE, SPL. TO NPHILSED @ 1850 M]
RHOBED  .KG/M3  : BULK DENSITY FROM DENSITY LOG [ADJ. TO DPHISSED/DPHILSED/ RESISTIVITY LOG]
SFLUED  .OHMM   : SHALLOW FOCUS FROM RESISTIVITY LOG
SGRDDED .GAPI   : GAMMA RAY FROM DENSITY LOG [ADJ. TO RESISTIVITY LOG]
SPRED   .MV     : SPONTANEOUS POTENTIAL FROM RESISTIVITY LOG
SPWS    .MV     : SPONTANEOUS POTENTIAL [BASELINE 0 MV, SPRED]
SRESWS  .OHMM   : SHALLOW RESISTIVITY [SFLUED]
~Params ----------------------------------------------------
PD  .                         GL : PERMANENT DATUM
EPD .M                    1160.5 : ELEVATION PERMANENT DATUM
LMF .                         KB : LOG MEASURED FROM
DAPD.M                       6.4 : FEET ABOVE PERMANENT DATUM
DMF .                         KB : DRILLING MEASURED FROM
EKB .M                    1166.5 : KELLY BUSHING
EDF .M                    1166.6 : DRILLING FLOOR
EGL .M                    1160.5 : GROUND LEVEL
DATE.                   02/09/85 : RUN DATE
RUN .                          1 : RUN NUMBER
DD  .M                      2920 : DEPTH DRILLER
DL  .M                    2922.5 : DEPTH LOGGER
BLI .M                    2920.5 : BOTTOM LOG INTERVAL
TLI .M                       428 : TOP LOG INTERVAL
CS  .MM                      244 : CASING SIZE
CBD .M                       428 : CASING BOTTOM DRILLER
CBL .M                       428 : CASING BOTTOM LOGGER
BS  .MM                      222 : BIT SIZE
BSD .M                      2920 : BIT SIZE AT DEPTH
DFT .                   GEL CHEM : DRILLING FLUID TYPE
DFD .                       1120 : DRILLING FLUID DENSITY
DFV .                         75 : DRILLING FLUID VISCOSITY
DFPH.                       11.5 : DRILLING FLUID PH
DFL .                        7.5 : DRILLING FLUID LOSS
MSS .                   FLOWLINE : MUD SAMPLE SOURCE
RMS .OHMM                  2.729 : RESISTIVITY MUD SAMPLE
MST .DEGC                     17 : MUD SAMPLE TEMPERATURE
RMF .OHMM                   2.36 : RESISTIVITY MUD FILTRATE SAMPLE
MFST.DEGC                     12 : MUD FILTRATE SAMPLE TEMPERATURE
RMC .OHMM                   1.05 : RESISTIVITY MUD CAKE
MCST.DEGC                     54 : MUD CAKE SAMPLE TEMPERATURE
MFSS.                       MEAS : MUD FILTRATE SAMPLE SOURCE
RMB .OHMM                  1.389 : RESISTIVITY MUD AT BHT
TCS .HRS                    1930 : TIME CIRCULATED STOPPED
TLAB.HRS                     603 : TIME LOGGER AT BOTTOM
LUN .                       8163 : LOGGING UNIT NUMBER
LUL .                        EDM : LOGGING UNIT LOCATION
ENGI.                     EVERLY : RECORDING ENGINEER
WITN.                     TURNER : WITNESSED BY
CLNT.                    A2DTECH : CLIENT CODE
ORIG. 6.5"/100M 16.5"/100M PRINT : ORIGIN OF DATA
UWI .           100023206413W500 : UNIQUE WELL ID
DICO.     A2D Technologies, Inc. : DIGITIZING COMPANY
~Other -----------------------------------------------------
CNFD-DILSFL-BCS LOG RAN.
RHOB & DRHO FROM SMALL SECTION.
~ASCII -----------------------------------------------------
# ...
 1650.00000  250.33630  240.73030  250.33630  197.58550    6.63020 1754.05000    -999.25    0.54300    0.55900    5.06110    6.63020  374.20240  374.20240   86.40580   86.40580    5.06110    5.55000  268.46490    5.55000    -999.25    0.59170    0.55000 1793.74170    6.09910   85.00150  -72.42210  -20.80920    6.09910
 1700.00000  254.86130  231.91810  254.86130  188.66500    9.20460 2542.25500    -999.25    0.06530    0.09810    5.30040    9.20460  266.48000  266.48000   65.78370   65.78370    5.30040    7.22980  239.57290    7.22980    -999.25    0.31510    0.27120 2533.57570    9.69150   68.28300  -92.34250  -43.46870    9.69150
 1750.00000  268.77050  264.32530  268.77050  212.79310    2.30200 2527.57000    -999.25    0.07420    0.10670    4.69940    2.30200  267.06860  267.06860   67.80000   67.80000    4.69940    5.06280  275.60590    5.06280    -999.25    0.27160    0.22760 2529.99490    5.96760   65.45250  -77.31540  -31.18060    5.96760
 1800.00000  314.64480  301.41930  314.64480  211.30030  150.92580 2354.81500    -999.25    0.17890    0.20770    4.73260  150.92580  288.90800  288.90800   71.57710   71.57710    4.73260    5.01960  330.10860    5.01960    -999.25    0.35100    0.30740 2353.13890    5.00510   80.26070  -58.70120  -14.43490    5.00510
 1850.00000  349.48020  329.48070  349.48020  268.85330  141.05580 2363.89000    -999.25    0.17340    0.20240    3.71950  141.05580  292.69010  292.69010   89.09260   89.09260    3.71950    3.41050  368.57080    3.41050    -999.25    0.41880    0.37630 2377.19340    3.82270   85.84040  -62.63440  -16.37570    3.82270
 1900.00000  265.14440  266.06790  265.14440   67.56440   -1.75620 2747.10700   -0.02170    -999.25   -0.02170   14.80070   -1.75620  200.53260  200.53260   45.37470   45.37470   14.80070   16.95880  271.95590   16.95880    0.09230    -999.25    0.09230 2743.90040   26.04580   44.06790  -77.08090  -28.82980   26.04580
 1950.00000  238.53510  255.10030  238.53510   16.64770   18.04960 2646.55900    0.03710    -999.25    0.03710   60.06850   18.04960  173.39240  173.39240   12.62250   12.62250   60.06850   74.93030  294.25430   74.93030    0.02270    -999.25    0.02270 2634.74830  298.06870   14.69730 -163.95530 -115.79500  298.06870
 2000.00000  253.62600  241.23730  253.62600  480.58440   98.40080 2571.31900    0.08110    -999.25    0.08110    2.08080   98.40080  225.97240  225.97240   44.37540   44.37540    2.08080    3.19930  253.71360    3.19930    0.19810    -999.25    0.19810 2568.16550   10.04970   43.37060 -152.60540 -108.02250   10.04970
 2050.00000  282.84900  285.63120  282.84900   32.17730    8.07050 2705.38300    0.00270    -999.25    0.00270   31.07780    8.07050  187.14520  187.14520   29.26110   29.26110   31.07780   32.30070  288.89250   32.30070    0.02790    -999.25    0.02790 2698.26150   46.49400   22.77530  -91.46040  -50.45490   46.49400
 2100.00000  236.06340  230.43270  236.06340   36.83870   -1.46010 2713.76200   -0.00220    -999.25   -0.00220   27.14540   -1.46010  187.08600  187.08600   42.90730   42.90730   27.14540   27.94220  244.41410   27.94220    0.02650    -999.25    0.02650 2712.65210   32.41030   41.65030  -53.95700  -16.54650   32.41030
 2150.00000  248.66750  243.71370  248.66750   17.75740   -0.19290 2742.66100   -0.01910    -999.25   -0.01910   56.31440   -0.19290  165.03210  165.03210   23.31340   23.31340   56.31440   84.21860  256.29330   84.21860    0.00260    -999.25    0.00260 2738.49370  166.00910   21.28850  -67.59830  -33.83750  166.00910
 2200.00000  248.63220  244.32660  248.63220    2.62830   -0.63840 2747.79100   -0.02210    -999.25   -0.02210  380.47660   -0.63840  162.85690  162.85690   19.68520   19.68520  380.47660  229.10140  259.50880  229.10140    0.00130    -999.25    0.00130 2747.42500  331.28970   18.37560  -68.48640  -35.37470  331.28970
 2250.00000  239.62320  231.30300  239.62320   14.41880   52.36640 2744.02900   -0.01990    -999.25   -0.01990   69.35380   52.36640  158.06760  158.06760   12.39590   12.39590   69.35380  102.97520  237.37200  102.97520    0.00350    -999.25    0.00350 2730.95850  577.75320   14.44140 -148.70960 -115.02140  577.75320
 2300.00000  248.67690  241.91790  248.67690   41.05830    0.22200 2691.70300    0.01070    -999.25    0.01070   24.35560    0.22200  172.33460  172.33460   14.12680   14.12680   24.35560   31.45620  244.45270   31.45620    0.01750    -999.25    0.01750 2692.75070  165.32710   14.31090 -148.37420 -114.10960  165.32710
 2350.00000  235.42320  219.38250  235.42320   36.84220   -2.50710 2729.49400   -0.01140    -999.25   -0.01140   27.14280   -2.50710  168.99420  168.99420    9.21670    9.21670   27.14280   51.98700  232.53190   51.98700    0.02040    -999.25    0.02040 2737.20410  195.02200   13.77200 -156.19920 -121.35810  195.02200
 2400.00000  233.83850  236.31320  233.83850   19.98900   39.01090 2729.32300   -0.01130    -999.25   -0.01130   50.02750   39.01090  189.01090  189.01090   17.94970   17.94970   50.02750   74.78750  260.85390   74.78750    0.07860    -999.25    0.07860 2708.68120  189.60050   16.76650  -65.41510  -29.99760  189.60050
 2450.00000  267.25140  240.15110  267.25140   86.76110   10.56220 2780.79400   -0.04140    -999.25   -0.04140   11.52590   10.56220  178.14590  178.14590   28.89280   28.89280   11.52590   13.57840  239.45920   13.57840    0.09000    -999.25    0.09000 2761.28810   21.05160   25.95520  -83.56150  -62.71620   21.05160
 2500.00000  256.11270  250.93300  256.11270   67.13120   -2.58260 2735.65000   -0.01500    -999.25   -0.01500   14.89620   -2.58260  197.82980  197.82980   60.14170   60.14170   14.89620   15.43160  252.73400   15.43160    0.06510    -999.25    0.06510 2736.09350   18.02250   59.19300  -20.45820  -11.27830   18.02250
 2550.00000  269.71210  255.46160  269.71210  120.18800   15.35020 2726.58700   -0.00970    -999.25   -0.00970    8.32030   15.35020  226.84070  226.84070   65.98130   65.98130    8.32030    8.80750  256.02130    8.80750    0.14390    -999.25    0.14390 2727.20610   10.20940   65.03640  -13.10010   -6.84230   10.20940
 2600.00000  251.23580  243.94300  251.23580  102.18680   -1.96940 2732.57200   -0.01320    -999.25   -0.01320    9.78600   -1.96940  196.79860  196.79860   51.62720   51.62720    9.78600   11.15690  249.16120   11.15690    0.06950    -999.25    0.06950 2739.42650   13.53140   42.84470   -7.88640   -7.43520   13.53140
 2650.00000  353.97810  297.44350  353.97810  217.42440  227.87850 2370.56500    0.19850    -999.25    0.19850    4.59930  227.87850  255.41090  255.41090   76.64040   76.64040    4.59930    4.43760  280.29030    4.43760    0.27250    -999.25    0.27250 2357.44360    4.78020   82.31910  -17.09320  -25.70120    4.78020
 2700.00000  261.50790  242.32750  261.50790  139.81320  234.68050 2618.00200    0.05380    -999.25    0.05380    7.15240  234.68050  226.47320  226.47320   74.41560   74.41560    7.15240    7.55680  254.98760    7.55680    0.15720    -999.25    0.15720 2619.94920    8.87800   77.96430   -5.78130  -11.87020    8.87800
 2750.00000  247.38020  237.23260  247.38020  160.88030  105.45990 2754.11800   -0.02580    -999.25   -0.02580    6.21580  105.45990  224.15170  224.15170   66.61050   66.61050    6.21580    6.77610  243.03280    6.77610    0.17380    -999.25    0.17380 2756.78660    7.52540   66.12000   -3.08760   -9.42380    7.52540
 2800.00000  244.76460  249.10640  244.76460  231.57260  151.67740 2509.93000    0.11700    -999.25    0.11700    4.31830  151.67740  280.20480  280.20480  115.33070  115.33070    4.31830    4.54810  287.71480    4.54810    0.26510    -999.25    0.26510 2441.48710    5.83280  124.08160  -13.94790  -26.03470    5.83280
 2850.00000  231.29190  223.58750  231.29190   20.61650    4.19450 2714.95900   -0.00290    -999.25   -0.00290   48.50480    4.19450  180.20760  180.20760   45.40000   45.40000   48.50480   73.96400  236.11380   73.96400    0.02780    -999.25    0.02780 2701.77640  371.63760   54.06480    9.63880   -2.44800  371.63760
