~Version ---------------------------------------------------
VERS.      2.0 : CWLS log ASCII Standard -VERSION 2.0
WRAP.       NO : One line per depth step
CREA. 11/16/17 : LAS Creation Date
~Well ------------------------------------------------------
STRT.FT                       700.0 : START DEPTH
STOP.FT                      7200.0 : STOP DEPTH
STEP.FT                    50.00000 : STEP LENGTH
NULL.                       -999.25 : NULL VALUE
COMP.           GULF CANADA LIMITED : COMPANY
WELL. B.A. RICHARDS STETW 6-6-37-20 : WELL
FLD .                               : FIELD
LOC .                               : LOCATION
CTRY.                        CANADA : COUNTRY
SRVC.                  Schlumberger : SERVICE COMPANY
DATE.                   06-Nov-1960 : LOGDATE
PROV.                       Alberta : PROVINCE
UWI .              100060603720W400 : UNIQUE WELL ID
SLAT.WGS84                 52.14843 : SURFACE LATITUDE
SLON.WGS84                -112.8522 : SURFACE LONGITUDE
~Curve Information -----------------------------------------
DEPT  .FT    : Depth Curve
CALWS .IN    : CALIPER [MCALED]
CILDED.MMHO  : CONDUCTIVITY FROM RESISTIVITY LOG
CONDWS.MMHO  : CONDUCTIVITY [1000/DRESWS]
DRESWS.OHMM  : DEEP RESISTIVITY [CALC FROM 1000/CILDED, IF ILDED<1, ILDED]
DTED  .US/F  : SONIC INTERVAL TRANSIT TIME FROM SONIC LOG
DTWS  .US/F  : COMPRESSIONAL SONIC [DTED]
GRSED .GAPI  : GAMMA RAY FROM SONIC LOG
GRWS  .GAPI  : GAMMA RAY [GRSED]
ILDED .OHMM  : DEEP INDUCTION RESISTIVITY FROM RESISTIVITY LOG
MCALED.IN    : MLT [MICROLOG] CALIPER
SNED  .OHMM  : SHORT NORMAL FROM RESISTIVITY LOG
SPRED .MV    : SPONTANEOUS POTENTIAL FROM RESISTIVITY
SPWS  .MV    : SPONTANEOUS POTENTIAL [BASELINE 0 MV, SPRED]
SRESWS.OHMM  : SHALLOW RESISTIVITY [SNED]
~Params ----------------------------------------------------
EKB .FT                 2773 : KELLY BUSHING
EGL .FT                 2762 : GROUND LEVEL
DATE.               11/06/60 : RUN DATE
RUN .                      3 : RUN NUMBER
DD  .FT                 7241 : DEPTH DRILLER
DL  .FT                 7236 : DEPTH LOGGER
BLI .FT                 7230 : BOTTOM LOG INTERVAL
TLI .FT                 4616 : TOP LOG INTERVAL
CBD .FT                  743 : CASING BOTTOM DRILLER
CBL .FT                  743 : CASING BOTTOM LOGGER
BS  .IN                 8.75 : BIT SIZE
BSD .FT                 7241 : BIT SIZE AT DEPTH
DFT .               OIL EMUL : DRILLING FLUID TYPE
DFD .                     10 : DRILLING FLUID DENSITY
DFV .                     72 : DRILLING FLUID VISCOSITY
DFPH.                    7.6 : DRILLING FLUID PH
DFL .                    4.6 : DRILLING FLUID LOSS
RMS .OHMM               1.06 : RESISTIVITY MUD SAMPLE
MST .DEGF                 68 : MUD SAMPLE TEMPERATURE
RMF .OHMM               0.65 : RESISTIVITY MUD FILTRATE SAMPLE
MFST.DEGF                 60 : MUD FILTRATE SAMPLE TEMPERATURE
RMC .OHMM               1.59 : RESISTIVITY MUD CAKE
MCST.DEGF                 60 : MUD CAKE SAMPLE TEMPERATURE
RMB .OHMM               0.53 : RESISTIVITY MUD AT BHT
TCS .HRS                   4 : TIME CIRCULATED STOPPED
LUN .                   3815 : LOGGING UNIT NUMBER
LUL .                      C : LOGGING UNIT LOCATION
ENGI.               SHABBITS : RECORDING ENGINEER
WITN.               HANNEGAN : WITNESSED BY
CLNT.                A2DTECH : CLIENT CODE
ORIG.            2" 5" PRINT : ORIGIN OF DATA
UWI .       100060603720W400 : UNIQUE WELL ID
DICO. A2D Technologies, Inc. : DIGITIZING COMPANY
~Other -----------------------------------------------------
~ASCII -----------------------------------------------------
# ...
 3150.00000    9.53030  117.71230  123.55290    8.09370  102.10320  102.10320    6.37430  105.17600    8.09370    9.53030   10.30200 -133.58490   -3.52920   10.30200
 3200.00000    9.72170  106.87420  112.69510    8.87350   97.01020   97.01020    6.61570  109.15910    8.87350    9.72170   11.48620 -138.32560   -7.99510   11.48620
 3250.00000   10.55180  157.35440  165.68640    6.03550  101.32050  101.32050    6.51470  107.49260    6.03550   10.55180    8.11290 -138.00410   -7.34970    8.11290
 3300.00000    9.82190  121.46690  127.60960    7.83640   95.69600   95.69600    5.78770   95.49710    7.83640    9.82190    9.36260 -137.28520   -6.30690    9.36260
 3350.00000    9.84530  112.37990  119.71170    8.35340   93.65390   93.65390    6.21230  102.50300    8.35340    9.84530    9.95950 -136.03780   -4.73360    9.95950
 3400.00000   10.05410  127.19430  130.50060    7.66280   94.65620   94.65620    6.26320  103.34280    7.66280   10.05410   10.26290 -143.65890  -12.03080   10.26290
 3450.00000   10.21230  154.87640  163.15080    6.12930  102.82700  102.82700    6.18330  102.02450    6.12930   10.21230    8.28310 -141.27550   -9.32140    8.28310
 3500.00000    9.19810  149.78870  159.79550    6.25800  102.34910  102.34910    6.85210  113.05970    6.25800    9.19810    9.31350 -137.19570   -4.91780    9.31350
 3550.00000    9.06700   76.84760   74.19060   13.47880   96.25930   96.25930    7.42420  122.49930   13.47880    9.06700   19.56630 -136.36710   -3.76530   19.56630
 3600.00000    9.15550  110.50800  113.58730    8.80380   96.28610   96.28610    7.16690  118.25390    8.80380    9.15550   13.60180 -136.68150   -3.75370   13.60180
 3650.00000    9.09660  127.77610  137.14220    7.29170  109.63980  109.63980    7.66680  126.50220    7.29170    9.09660   11.11200 -142.38460   -9.81640   11.11200
 3700.00000    8.82610   90.01920   93.45360   10.70050  105.21300  105.21300   12.53730  206.86550   10.70050    8.82610   18.49880 -138.77090   -6.57370   18.49880
 3750.00000    9.16340  177.94040  189.03950    5.28990  102.29000  102.29000    9.24080  152.47320    5.28990    9.16340    7.86540 -136.73990   -4.91140    7.86540
 3800.00000    9.04850  127.59220  140.39620    7.12270   97.65720   97.65720   10.89140  179.70810    7.12270    9.04850    9.65540 -135.80110   -4.34120    9.65540
 3850.00000   10.36710  298.68060  275.61880    3.62820  103.67730  103.67730    6.29680  103.89720    3.62820   10.36710    4.23980 -135.29420   -4.20530    4.23980
 3900.00000   10.61120  320.58680  288.96720    3.46060  111.15010  111.15010    5.51900   91.06350    3.46060   10.61120    3.94940 -134.29180   -3.57160    3.94940
 3950.00000    9.19780  262.14220  258.47810    3.86880  102.76110  102.76110    5.67720   93.67380    3.86880    9.19780    4.85990 -131.83570   -1.48650    4.85990
 4000.00000    9.17970  107.08030  111.49510    8.96900   84.61530   84.61530    5.31380   87.67770    8.96900    9.17970   11.71010 -139.94310   -9.91760   11.71010
 4050.00000   11.43680  375.47270  328.80680    3.04130  100.15480  100.15480    5.13050   84.65330    3.04130   11.43680    3.42750 -137.59390   -7.71660    3.42750
 4100.00000   10.19620  465.56220  427.91730    2.33690  109.99420  109.99420    5.84360   96.41940    2.33690   10.19620    2.68130 -135.27300   -5.54480    2.68130
 4150.00000    8.83050   75.10740   72.42340   13.80770   72.44500   72.44500    3.58610   59.17070   13.80770    8.83050   19.67050 -137.94920   -8.36920   19.67050
 4200.00000    8.91500  112.73570  116.73920    8.56610   86.85210   86.85210    5.58340   92.12610    8.56610    8.91500   14.10150 -139.73280  -10.30200   14.10150
 4250.00000    8.87740   75.10890   73.14430   13.67160   81.63350   81.63350    4.69810   77.51870   13.67160    8.87740   17.65110 -152.54190  -23.25920   17.65110
 4300.00000    8.81790   63.05680   63.13410   15.83930   81.05800   81.05800    4.63720   76.51380   15.83930    8.81790   20.20750 -141.93320  -12.79870   20.20750
 4350.00000    8.88010  159.03070  165.39860    6.04600   89.05650   89.05650    2.52200   41.61300    6.04600    8.88010   11.79440 -163.16690  -42.19400   11.79440
 4400.00000    8.79920   25.37210   26.42980   37.83610   63.04850   63.04850    3.34420   55.17930   37.83610    8.79920   51.52980 -122.58470  -11.29990   51.52980
 4450.00000    8.78800   90.57710   90.45350   11.05540   75.55350   75.55350    4.28690   70.73390   11.05540    8.78800   16.42110 -120.13210  -11.64970   16.42110
 4500.00000    9.77360  140.81150  151.15560    6.61570   82.34540   82.34540    6.05800   99.95700    6.61570    9.77360    9.73390 -115.16830   -9.47000    9.73390
 4550.00000   14.22880  179.18980  193.78720    5.16030   88.03150   88.03150    6.43480  106.17420    5.16030   14.22880    8.07410 -107.69540   -4.78120    8.07410
 4600.00000   12.09280  164.25650  176.88780    5.65330   84.42270   84.42270    6.73160  111.07140    5.65330   12.09280    8.60830 -105.07130   -4.95960    8.60830
 4650.00000   14.88960  191.12020  200.90000    4.97760   91.26340   91.26340    5.82890   96.17690    4.97760   14.88960    7.71440  -99.09080   -1.39730    7.71440
 4700.00000   14.86630  202.21500  205.14920    4.87450   95.48800   95.48800    6.10490  100.73080    4.87450   14.86630    7.48010 -100.97470   -5.28530    7.48010
 4750.00000   14.81100  225.88790  217.68000    4.59390   95.28840   95.28840    6.12940  101.13510    4.59390   14.81100    6.79090 -104.08140  -10.38300    6.79090
 4800.00000    9.15980   64.84400   66.67640   14.99780   99.97280   99.97280    7.66380  126.45270   14.99780    9.15980   30.68950  -93.63300   -1.92560   30.68950
 4850.00000    9.03920    3.42290    5.38300  185.77060   51.48080   51.48080    0.79240   13.07460  185.77060    9.03920   90.37230 -118.22610  -31.52870   90.37230
 4900.00000    9.36110    7.37800    9.35470  106.89820   53.73120   53.73120    0.75270   12.41960  106.89820    9.36110   96.63730  -94.76990  -13.16080   96.63730
 4950.00000    9.33780   12.45200   17.71390   56.45290   55.86700   55.86700    0.85090   14.03980   56.45290    9.33780   56.03110  -87.32570  -10.83840   56.03110
 5000.00000    9.10380   23.77210   29.00160   34.48080   55.58100   55.58100    0.58960    9.72840   34.48080    9.10380   64.53750 -114.43680  -43.03780   64.53750
 5050.00000    9.16850    7.29000    8.75020  114.28250   55.95380   55.95380    0.53380    8.80770  114.28250    9.16850   88.93400  -83.88140  -17.57070   88.93400
 5100.00000    9.09380    6.65300    8.98180  111.33600   50.05100   50.05100    0.75300   12.42450  111.33600    9.09380   97.44440  -88.79880  -27.60990   97.44440
 5150.00000    9.19580    7.94770    9.20410  108.64740   55.68780   55.68780    0.84780   13.98870  108.64740    9.19580  101.17520  -60.71550   -4.61490  101.17520
 5200.00000    9.10160    2.52880    2.47340  404.30020   49.62930   49.62930    0.50580    8.34570  404.30020    9.10160  132.41200  -62.81600  -42.47410  132.41200
 5250.00000    9.26330    3.98850    5.53480  180.67530   54.50050   54.50050    0.59020    9.73830  180.67530    9.26330  114.32880   12.38450  -12.13440  114.32880
 5300.00000    9.34230   10.20880    8.64620  115.65810   54.65770   54.65770    0.96310   15.89120  115.65810    9.34230  101.84680   16.62810   -4.26890  101.84680
 5350.00000    8.83400   11.13350   13.37980   74.73940   73.58890   73.58890    0.79660   13.14390   74.73940    8.83400   57.08800  -60.29010  -62.37820   57.08800
 5400.00000    8.67650   84.83880   75.37780   13.26650   56.86430   56.86430    0.89770   14.81210   13.26650    8.67650   29.31630  -70.79220  -54.19440   29.31630
 5450.00000    8.65740  115.93930  127.12460    7.86630   55.06050   55.06050    0.74930   12.36350    7.86630    8.65740   16.28880  -74.36560  -36.00100   16.28880
 5500.00000    8.61930   36.03860   37.24660   26.84810   56.73940   56.73940    1.09300   18.03450   26.84810    8.61930   31.46180  -75.69980  -21.59980   31.46180
 5550.00000    8.61710   84.60150   83.22720   12.01530   54.03680   54.03680    0.69710   11.50220   12.01530    8.61710   25.58880  -90.13290  -37.39350   25.58880
