~Version ---------------------------------------------------
VERS.      2.0 : CWLS log ASCII Standard -VERSION 2.0
WRAP.       NO : One line per depth step
CREA. 12/22/12 : LAS Creation Date
~Well ------------------------------------------------------
STRT.M                               450.0 : START DEPTH
STOP.M                              3050.0 : STOP DEPTH
STEP.M                            50.00000 : STEP LENGTH
NULL.                              -999.25 : NULL VALUE
COMP.                    SABINE CANADA LTD : COMPANY
WELL. SABINE ET AL LITTLE SMOKY 11-8-67-21 : WELL
FLD .                                   WC : FIELD
LOC .                                      : LOCATION
CTRY.                               CANADA : COUNTRY
SRVC.                         Schlumberger : SERVICE COMPANY
DATE.                          31-Jul-1979 : LOGDATE
PROV.                              Alberta : PROVINCE
UWI .                     100110806721W500 : UNIQUE WELL ID
SLAT.WGS84                        54.78587 : SURFACE LATITUDE
SLON.WGS84                       -117.1677 : SURFACE LONGITUDE
~Curve Information -----------------------------------------
DEPT    .M      : DEPTH METER
CALDED  .MM     : CALIPER FROM CNFD LOG
CALSED  .MM     : CALIPER FROM BCS LOG [ADJ. TO GRDED]
CALWS   .MM     : CALIPER [CALSED SPL. @ 3073.1M TO CALDED]
CONDWS  .MMHO   : CONDUCTIVITY [1000/DRESWS]
DCORED  .KG/M3  : DENSITY CORRECTION FROM CNFD LOG
DCORWS  .KG/M3  : DENSITY CORRECTION [DCORED]
DENWS   .KG/M3  : FORMATION BULK DENSITY [RHOBED]
DPHILSED.V/V    : DENSITY POROSITY LIMESTONE [D=2710, F=1000] FROM CNFD LOG [ADJ. TO RHOBED]
DPHISSED.V/V    : DENSITY POROSITY SANDSTONE [D=2650, F=1000] FROM CNFD LOG [ADJ. TO RHOBED]
DPOWS   .V/V    : DENSITY POROSITY LIMESTONE [CALCULATED FROM DENWS, M=2.71, F=1.0]
DRESWS  .OHMM   : DEEP RESISTIVITY [ILDED]
DTED    .US/M   : DELTA-T (INTERVAL TRANSIT TIME) FROM BCS LOG [ADJ. TO GRDED]
DTWS    .US/M   : COMPRESSIONAL SONIC [DTED]
GRDED   .GAPI   : GAMMA RAY FROM CNFD LOG
GRSED   .GAPI   : GAMMA RAY FROM BCS LOG [ADJ. TO GRDED]
GRWS    .GAPI   : GAMMA RAY [GRSED SPL. @ 3063M TO GRDED]
ILDED   .OHMM   : DEEP INDUCTION FROM DI-SFL LOG
ILMED   .OHMM   : MEDIUM INDUCTION FROM DI-SFL LOG
MRESWS  .OHMM   : MEDIUM RESISTIVITY [ILMED]
NPHILSED.V/V    : NEUTRON POROSITY LIMESTONE FROM CNFD LOG [ADJ. TO RHOBED]
NPHISSED.V/V    : NEUTRON POROSITY SANDSTONE FROM CNFD LOG [ADJ. TO RHOBED]
NPOWS   .V/V    : NEUTRON POROSITY LIMESTONE [NPHISSED MATRIX CONVERSION FOR LIMESTONE, SPL. TO NPHILSED @ 1770']
RHOBED  .KG/M3  : BULK DENSITY FROM CNFD LOG
SFLED   .OHMM   : SPHERICALLY FOCUSED INDUCTION FROM DI-SFL LOG
SPRED   .MV     : SPONTANEOUS POTENTIAL FROM DI-SFL LOG
SPWS    .MV     : SPONTANEOUS POTENTIAL [BASELINED 0 MV, SPRED]
SRESWS  .OHMM   : SHALLOW RESISTIVITY [SFLED]
~Params ----------------------------------------------------
PD  .                         GL : PERMANENT DATUM
EPD .M                    697.26 : ELEVATION PERMANENT DATUM
LMF .                         KB : LOG MEASURED FROM
DAPD.M                      4.74 : FEET ABOVE PERMANENT DATUM
DMF .                         KB : DRILLING MEASURED FROM
EKB .M                       702 : KELLY BUSHING
EGL .M                    697.26 : GROUND LEVEL
DATE.                   07/31/79 : RUN DATE
RUN .                          1 : RUN NUMBER
DD  .M                    3073.7 : DEPTH DRILLER
DL  .M                      3074 : DEPTH LOGGER
BLI .FT                     3073 : BOTTOM LOG INTERVAL
TLI .FT                      465 : TOP LOG INTERVAL
CS  .MM                      244 : CASING SIZE
CBD .M                       461 : CASING BOTTOM DRILLER
BSD .M                     30737 : BIT SIZE AT DEPTH
DFT .                        GEL : DRILLING FLUID TYPE
DFD .                       1100 : DRILLING FLUID DENSITY
DFV .                         90 : DRILLING FLUID VISCOSITY
DFPH.                        9.5 : DRILLING FLUID PH
DFL .                       11.2 : DRILLING FLUID LOSS
MSS .                   FLOWLINE : MUD SAMPLE SOURCE
RMS .OHMM                   2.48 : RESISTIVITY MUD SAMPLE
MST .DEGFC                  25.6 : MUD SAMPLE TEMPERATURE
RMF .OHMM                   1.77 : RESISTIVITY MUD FILTRATE SAMPLE
MFST.DEGC                   20.6 : MUD FILTRATE SAMPLE TEMPERATURE
MFSS.                       MEAS : MUD FILTRATE SAMPLE SOURCE
MCSS.                      PRESS : MUD CAKE SAMPLE SOURCE
RMB .OHMM                   1.05 : RESISTIVITY MUD AT BHT
TCS .HRS                    1600 : TIME CIRCULATED STOPPED
TLAB.HRS                    2400 : TIME LOGGER AT BOTTOM
LUN .                       7809 : LOGGING UNIT NUMBER
LUL .                        EDM : LOGGING UNIT LOCATION
ENGI.             DRONEN VERKAIK : RECORDING ENGINEER
WITN.                    TAXBOOK : WITNESSED BY
CLNT.                    A2DTECH : CLIENT CODE
ORIG. 6.5"/100M 16.5"/100M PRINT : ORIGIN OF DATA
UWI .           100110806721W500 : UNIQUE WELL ID
DICO.     A2D Technologies, Inc. : DIGITIZING COMPANY
~Other -----------------------------------------------------
~ASCII -----------------------------------------------------
  450.00000    -999.25    -999.25    -999.25    -999.25    -999.25    -999.25    -999.25    -999.25    -999.25    -999.25    -999.25    -999.25    -999.25    -999.25   44.25230   44.25230    -999.25    -999.25    -999.25    -999.25    -999.25    -999.25    -999.25    -999.25    -999.25    -999.25    -999.25
  500.00000  354.06700  304.21300  304.21300    -999.25   26.24390   26.24390 1832.25830    -999.25    0.49170    0.51330    4.76000  439.13850  439.13850   57.37310   55.07920   55.07920    4.76000    3.70630    3.70630    -999.25    0.53860    0.53860 1832.25830    3.43970 -114.13360   -1.11240    3.43970
  550.00000  301.08130  293.62750  293.62750    -999.25  104.06590  104.06590 1887.46410    -999.25    0.37120    0.48100    4.13930  477.31620  477.31620   62.60840   58.66950   58.66950    4.13930    3.25240    3.25240    -999.25    0.50770    0.50770 1887.46410    3.51350 -113.53290   -0.51170    3.51350
  600.00000  278.69590  246.39700  246.39700    -999.25   35.11150   35.11150 2410.55320    -999.25    0.14110    0.17510    9.31580  328.42170  328.42170   46.73210   42.83200   42.83200    9.31580    8.82310    8.82310    -999.25    0.29440    0.29440 2410.55320    8.02110 -122.51980   -9.49860    8.02110
  650.00000  334.60680  274.77400  274.77400    -999.25   56.14030   56.14030 2343.29980    -999.25    0.19160    0.21440    4.32760  345.97300  345.97300   68.13880   63.24350   63.24350    4.32760    3.85950    3.85950    -999.25    0.47390    0.47390 2343.29980    3.73090 -114.99190   -2.02440    3.73090
  700.00000  311.04030  279.39490  279.39490  149.44560   85.64620   85.64620 2389.55100    -999.25    0.16360    0.18740    6.69140  365.85580  365.85580  120.49620  104.78530  104.78530    6.69140    5.82140    5.82140    -999.25    0.42790    0.42790 2389.55100    7.00850 -116.86820   -4.39800    7.00850
  750.00000  375.33690  329.42030  329.42030  156.17680   52.36500   52.36500 1703.14450    -999.25    0.55580    0.58880    6.40300  447.26540  447.26540   72.71120   71.30330   71.30330    6.40300    5.18450    5.18450    -999.25    0.56850    0.56850 1703.14450    6.05640 -121.19670   -9.22380    6.05640
  800.00000  375.96600  364.54840  364.54840  130.21510   23.55570   23.55570 1992.73320    -999.25    0.28750    0.41950    7.67960  364.18700  364.18700   87.10590   76.78970   76.78970    7.67960    6.28790    6.28790    -999.25    0.45640    0.45640 1992.73320    6.29890 -120.89960   -9.42390    6.29890
  850.00000  375.00000  361.08070  361.08070  114.99280   19.14400   11.37270 1882.67300    -999.25    0.43030    0.48380    8.69620  329.26320  329.26320   83.33320   71.50610   71.50610    8.69620    6.55450    6.56190    -999.25    0.45170    0.45170 1879.44410    6.93370 -120.90010   -9.92170    6.93430
  900.00000  375.05230  353.75850  353.75850  126.93250   52.28360   49.88420 2400.22940    -999.25    0.15480    0.18120    7.87870  313.11700  313.11700  117.10950   85.62010   85.62010    7.84960    6.71520    6.71630    -999.25    0.35680    0.35680 2401.05200    6.96180 -119.96000   -9.47890    6.96210
  950.00000  294.88090  271.17460  271.17460  138.60170  108.78480  109.46700 1897.72950    -999.25    0.44000    0.47500    7.21530  333.22490  333.22490  114.01840  108.77720  108.77720    7.24050    6.71760    6.70340    -999.25    0.44380    0.44380 1896.55150    7.65350 -114.73100   -4.74720    7.59840
 1000.00000  268.58270  254.03560  254.03560  121.15820  150.24530  151.17650 2419.26940    -999.25    0.14420    0.17000    8.25370  344.04050  344.04050  120.19450  117.38450  117.38450    8.25370    7.96700    7.96700    -999.25    0.42890    0.42890 2423.49830    9.68600 -113.61270   -4.12610    9.69440
 1050.00000  276.19920  258.90290  258.90290  148.98470  117.15010  117.15010 1825.16970    -999.25    0.48770    0.51740    6.71210  301.15350  301.15350   87.94360   90.30050   90.30050    6.71210    6.34960    6.34960    -999.25    0.43640    0.43640 1825.16970    6.83830 -114.53080   -5.72470    6.83830
 1100.00000  239.21310  240.56860  240.56860  179.47520  136.42950  136.42950 2190.43070    -999.25    0.28670    0.30380    5.57180  301.72810  301.72810  104.75040   94.15030   94.15030    5.57180    6.00110    6.00110    -999.25    0.41130    0.41130 2190.43070    6.21340 -110.36600   -2.51980    6.21340
 1150.00000  293.48100  281.11930  281.11930  158.53390  113.71030  113.71030 2372.69480    -999.25    0.15160    0.19730    6.30780  293.07980  293.07980   96.99230   89.86280   89.86280    6.30780    6.64640    6.64640    -999.25    0.37230    0.37230 2372.69480    8.00930 -110.12850   -3.24210    8.00930
 1200.00000  375.00000  304.53020  304.53020  455.72620   78.66040   78.66040 1817.79170    -999.25    0.50750    0.52180    2.19430  368.87160  368.87160   91.46590   83.24500   83.24500    2.19430    2.33590    2.33590    -999.25    0.55430    0.55430 1817.79170    2.74570 -108.29090   -2.36440    2.74570
 1250.00000  375.00000  341.11000  341.11000  214.62450  119.49960  119.49960 2018.81570    -999.25    0.35060    0.40420    4.65930  324.06310  324.06310   95.31490   85.44250   85.44250    4.65930    4.39880    4.39880    -999.25    0.43010    0.43010 2018.81570    4.88060 -107.29990   -2.33320    4.88060
 1300.00000  276.16730  281.77370  281.77370  154.70780   13.22720   13.22720 2251.25980    -999.25    0.19200    0.26830    6.46380  313.97690  313.97690   67.37940   69.64160   69.64160    6.46380    6.99380    6.99380    -999.25    0.39880    0.39880 2251.25980    6.93840 -120.51610  -16.50930    6.93840
 1350.00000  284.61090  290.56270  290.56270  112.53280   69.46180   69.46180 2501.54570    -999.25    0.08540    0.12190    8.88630  270.07290  270.07290   73.78250   67.90060   67.90060    8.88630    9.10650    9.10650    -999.25    0.28920    0.28920 2501.54570   10.69050 -123.01900  -19.97200   10.69050
 1400.00000  280.08230  280.44530  280.44530  162.34820    1.49640    1.49640 2495.14500    -999.25    0.09380    0.12560    6.15960  267.32920  267.32920   62.57120   55.24130   55.24130    6.15960    5.95590    5.95590    -999.25    0.24370    0.24370 2495.14500    5.78400 -103.97300   -2.67390    5.78400
 1450.00000  282.12730  272.84160  272.84160  177.51340   24.16770   24.04380 2499.10780    -999.25    0.09530    0.12330    5.63340  254.99340  254.99340   73.32950   67.54640   67.54640    5.63340    6.15920    6.19020    -999.25    0.26120    0.26120 2504.39990    8.02420 -119.19500  -20.80620    8.10720
 1500.00000  281.18130  270.51170  270.51170  139.94840   15.53650   15.53650 2611.07900    -999.25    0.02340    0.05780    7.14600  270.32970  270.32970   98.75570   79.63620   79.63620    7.14580    7.50280    7.50310    -999.25    0.28630    0.28630 2611.41990    7.81380  -98.76210   -3.28370    7.84140
 1550.00000  236.96080  238.51590  238.51590   46.25950   94.80780   94.80790 2405.61250    -999.25    0.15780    0.17800   21.61990  249.63810  249.63810   37.46200   33.44740   33.44740   21.70420   28.79430   28.79670    -999.25    0.22480    0.22480 2404.67160   39.85180 -185.17050  -92.60240   39.85200
 1600.00000  239.67010  223.03270  223.03270  110.04200   36.67800   38.01890 2451.69660    -999.25    0.12290    0.15110    9.09530  245.19950  245.19950   33.80280   37.35640   37.35640    9.09130   13.02000   13.03580    -999.25    0.16190    0.16190 2454.30540   23.57970 -149.95320  -60.29550   23.27390
 1650.00000  375.00000  344.29100  344.29100  372.88390  101.43450  101.43450 1869.74850    -999.25    0.47080    0.49140    2.68180  335.19370  335.19370   93.36150   79.44030   79.44030    2.68180    2.82890    2.82890    -999.25    0.47140    0.47140 1869.74850    3.44790  -92.06850   -5.32110    3.44790
 1700.00000  262.98140  272.49990  272.49990  185.04130  -10.30070  -10.30070 2648.54590    -999.25    0.00580    0.03590    5.40420  219.99850  219.99850   97.66500   89.22730   89.22730    5.40420    6.23530    6.23530    -999.25    0.16840    0.16840 2648.54590    7.47520 -114.62260  -30.78560    7.47520
