~Version ---------------------------------------------------
VERS.      2.0 : CWLS log ASCII Standard -VERSION 2.0
WRAP.       NO : One line per depth step
CREA. 09/28/13 : LAS Creation Date
~Well ------------------------------------------------------
STRT.M                                400.0 : START DEPTH
STOP.M                               2800.0 : STOP DEPTH
STEP.M                             50.00000 : STEP LENGTH
NULL.                               -999.25 : NULL VALUE
COMP. CONOCOPHILLIPS CANADA RESOURCES CORP. : COMPANY
WELL.         GULF ET AL LPINECK 6-14-31-27 : WELL
FLD .                                       : FIELD
LOC .                                       : LOCATION
CTRY.                                CANADA : COUNTRY
SRVC.                          Schlumberger : SERVICE COMPANY
DATE.                           20-Aug-1988 : LOGDATE
PROV.                               Alberta : PROVINCE
UWI .                      100061403127W400 : UNIQUE WELL ID
SLAT.WGS84                         51.65514 : SURFACE LATITUDE
SLON.WGS84                        -113.7265 : SURFACE LONGITUDE
~Curve Information -----------------------------------------
DEPT   .M      : DEPTH METER
C1     .MM     : CALIPER 1 FROM DENSITY LOG
C2     .MM     : CALIPER 2 FROM DENSITY LOG
CALD   .MM     : CALIPER FROM DENSITY LOG
CALS   .MM     : CALIPER FROM SONIC LOG
DPHI_LS.DEC    : DENSITY POROSITY LIMESTONE [M=2710, F=1000] FROM DENSITY LOG
DPHI_SS.DEC    : DENSITY POROSITY SANDSTONE [M=2650, F=1000] FROM DENSITY LOG
DRHO   .KG/M3  : DENSITY CORRECTION FROM DENSITY LOG
DT     .US/M   : DELTA TIME FROM SONIC LOG
GRD    .GAPI   : GAMMA RAY FROM DENSITY LOG
GRS    .GAPI   : GAMMA RAY FROM SONIC LOG
ILD    .OHMM   : DEEP INDUCTION RESISTIVITY FROM RESISTIVITY LOG
ILM    .OHMM   : MEDIUM INDUCTION RESISTIVITY FROM RESISTIVITY LOG
NPHI_LS.DEC    : NEUTRON POROSITY LIMESTONE FROM DENSITY LOG
NPHI_SS.DEC    : NEUTRON POROSITY SANDSTONE FROM DENSITY LOG
RHOB   .KG/M3  : BULK DENSITY FROM DENSITY LOG
SFLU   .OHMM   : SPHERICALLY FOCUSED LOG RESISTIVITY FROM RESISTIVITY LOG
SPR    .MV     : SPONTANEOUS POTENTIAL FROM RESISTIVITY LOG
TEND   .LB     : TENSION FROM DENSITY LOG
TENR   .LB     : TOTAL TENSION FROM RESISTIVITY LOG
~Params ----------------------------------------------------
PD  .                         GL : PERMANENT DATUM
EPD .M                     925.4 : ELEVATION PERMANENT DATUM
LMF .                         KB : LOG MEASURED FROM
DAPD.M                       4.8 : FEET ABOVE PERMANENT DATUM
DMF .                         KB : DRILLING MEASURED FROM
EKB .M                     930.2 : KELLY BUSHING
EDF .M                     929.9 : DRILLING FLOOR
EGL .M                     925.4 : GROUND LEVEL
DATE.                   08/26/88 : RUN DATE
RUN .                          1 : RUN NUMBER
DD  .M                      2848 : DEPTH DRILLER
DL  .M                      2845 : DEPTH LOGGER
BLI .M                      2844 : BOTTOM LOG INTERVAL
TLI .M                     424.5 : TOP LOG INTERVAL
CS  .MM                      244 : CASING SIZE
CBD .M                       426 : CASING BOTTOM DRILLER
CBL .M                     424.5 : CASING BOTTOM LOGGER
BS  .MM                      222 : BIT SIZE
BSD .M                      2848 : BIT SIZE AT DEPTH
DFT .                   GEL CHEM : DRILLING FLUID TYPE
DFD .                       1085 : DRILLING FLUID DENSITY
DFV .                         61 : DRILLING FLUID VISCOSITY
DFPH.                       10.5 : DRILLING FLUID PH
DFL .                        6.4 : DRILLING FLUID LOSS
MSS .                   FLOWLINE : MUD SAMPLE SOURCE
RMS .OHMM                   0.62 : RESISTIVITY MUD SAMPLE
MST .DEGC                     18 : MUD SAMPLE TEMPERATURE
RMF .OHMM                  0.561 : RESISTIVITY MUD FILTRATE SAMPLE
MFST.DEGC                     20 : MUD FILTRATE SAMPLE TEMPERATURE
MFSS.                      PRESS : MUD FILTRATE SAMPLE SOURCE
RMB .OHMM                  0.254 : RESISTIVITY MUD AT BHT
TCS .HRS                    1730 : TIME CIRCULATED STOPPED
TLAB.HRS                    2324 : TIME LOGGER AT BOTTOM
LUN .                       8063 : LOGGING UNIT NUMBER
LUL .                   RED DEER : LOGGING UNIT LOCATION
ENGI.              CURTIS BROCHU : RECORDING ENGINEER
WITN.                    STEVENS : WITNESSED BY
CLNT.                    A2DTECH : CLIENT CODE
ORIG. 6.5"/100M 16.5"/100M PRINT : ORIGIN OF DATA
UWI .           100061403127W400 : UNIQUE WELL ID
DICO.     A2D Technologies, Inc. : DIGITIZING COMPANY
~Other -----------------------------------------------------
~ASCII -----------------------------------------------------
  400.00000    -999.25    -999.25    -999.25    -999.25    -999.25    -999.25    -999.25    -999.25    -999.25   51.82870    -999.25    -999.25    -999.25    -999.25    -999.25    -999.25    -999.25    -999.25    -999.25
  450.00000  222.18020  318.31200  280.42580  245.32190    -999.25    -999.25    -999.25  281.85530   76.46480   88.64690    7.75720    6.12600    -999.25    -999.25    -999.25    6.54980    7.88640    -999.25 1157.38200
  500.00000  227.91910  243.86050  270.27180  243.68390    -999.25    -999.25    -999.25  364.26320   82.16020   82.44110    4.83020    3.97480    -999.25    -999.25    -999.25    5.22800   13.08180    -999.25 1220.45570
  550.00000  234.30970  300.00670  306.85040  259.15410    -999.25    -999.25    -999.25  311.70600   77.89920   74.00770    4.71610    4.36630    -999.25    -999.25    -999.25    4.98510   11.63970    -999.25 1256.37210
  600.00000  215.52170  282.22120  292.03850  243.56610    -999.25    -999.25    -999.25  288.05610   82.20640   71.11090    6.72040    5.98040    -999.25    -999.25    -999.25    5.41230   10.85330    -999.25 1322.85660
  650.00000  211.76000  264.01130  278.77840  245.44300    -999.25    -999.25    -999.25  273.13590   59.18560   71.37400    8.38220    8.03820    -999.25    -999.25    -999.25    7.87990   16.66410    -999.25 1359.32980
  700.00000  225.59960  244.92270  256.47550  233.61070    -999.25    -999.25    -999.25  280.10240   79.17360   78.33860    7.49920    6.56340    -999.25    -999.25    -999.25    6.18130   -6.12710    -999.25 1405.19420
  750.00000  227.73430  267.57030  287.10950  232.19990    -999.25    -999.25    -999.25  303.17350   98.71420   92.38480    5.73980    5.51860    -999.25    -999.25    -999.25    6.58380  -12.61950    -999.25 1442.36400
  800.00000  222.17070  256.77150  271.19200  241.97750    -999.25    -999.25    -999.25  311.41640   69.85160   78.18580    3.80400    3.58450    -999.25    -999.25    -999.25    3.37880  -10.36050    -999.25 1473.24100
  850.00000  252.88380  224.79310  241.72770  239.75410    -999.25    -999.25    -999.25  268.51640   65.77290   60.55260    6.08880    5.93700    -999.25    -999.25    -999.25    5.65250  -15.09200    -999.25 1507.77940
  900.00000  243.63210  222.42840  229.81140  233.34980    -999.25    -999.25    -999.25  346.90260   61.33710   64.94620    5.65180    4.75940    -999.25    -999.25    -999.25    4.04840  -10.45150    -999.25 1592.20410
  950.00000  228.90060  220.96280  223.48290  218.63420    -999.25    -999.25    -999.25  222.59860   41.96930   44.59670   24.59990   23.21580    -999.25    -999.25    -999.25   22.46850  -19.13910    -999.25 1632.27510
 1000.00000  228.44030  234.17360  226.14490  233.27720    -999.25    -999.25    -999.25  243.14900   60.67740   48.34450    9.10390    8.83300    -999.25    -999.25    -999.25    7.68680  -10.26990    -999.25 1641.27510
 1050.00000  220.96530  222.60270  228.76860  221.10350    -999.25    -999.25    -999.25  251.47820   65.28490   49.85190   11.75060   12.13040    -999.25    -999.25    -999.25   15.80470  -23.22620    -999.25 1688.41380
 1100.00000  227.29730  322.41490  325.32320  241.01240    -999.25    -999.25    -999.25  298.56740   76.79180   70.06310    4.94160    4.57480    -999.25    -999.25    -999.25    4.76720   -8.48430    -999.25 1761.56010
 1150.00000  343.75450  261.28390  268.22470  254.03370    -999.25    -999.25    -999.25  261.56090   94.74450   85.31200    9.75550   10.58660    -999.25    -999.25    -999.25    8.96720  -16.33670    -999.25 1784.96520
 1200.00000  262.39690  254.04610  257.97130  253.89850    -999.25    -999.25    -999.25  271.58400  113.68090  110.68230   12.02260   12.99890    -999.25    -999.25    -999.25   14.61830  -15.80260    -999.25 1850.33150
 1250.00000  266.89830  221.69460  226.36150  231.04430    -999.25    -999.25    -999.25  262.16930  103.45590  104.91010   11.69990   12.45770    -999.25    -999.25    -999.25   12.16520  -13.54900    -999.25 1908.49180
 1300.00000  307.97750  221.08950  225.55790  236.02590    -999.25    -999.25    -999.25  266.39560  100.85590   94.62110    8.53850    8.35610    -999.25    -999.25    -999.25    8.69920  -10.06150    -999.25 1912.88110
 1350.00000  281.62020  223.42340  226.39150  228.86840    -999.25    -999.25    -999.25  282.75700  111.93330   96.71520    7.99950    7.80060    -999.25    -999.25    -999.25    8.41370   -8.27430    -999.25 1976.34110
 1400.00000  346.52100  223.33540  227.05330  243.39650    -999.25    -999.25    -999.25  261.04170  106.67450  104.74980    8.26950    8.12830    -999.25    -999.25    -999.25    8.38400   -6.81300    -999.25 2032.88940
 1450.00000  350.71280  211.32990  231.00270  258.64620    -999.25    -999.25    -999.25  265.47190  101.63000   97.33860    8.53730    7.70020    -999.25    -999.25    -999.25    8.00970   -4.93930    -999.25 2048.64180
 1500.00000  455.27310  233.23390  249.38130  267.15500    -999.25    -999.25    -999.25  284.39360   99.35760   99.51600    7.25700    6.73680    -999.25    -999.25    -999.25    7.75190   -3.40460    -999.25 2092.52810
 1550.00000  232.82820  227.54640  267.86770  238.85280    -999.25    -999.25    -999.25  304.12950  111.40790   96.48990    7.67900    6.22020    -999.25    -999.25    -999.25   29.19790    1.06370    -999.25 2174.43630
 1600.00000  282.27980  209.54990  224.30030  239.79660    -999.25    0.11870   -3.30700  344.70250  227.49510  227.18680   22.72880   20.64320    -999.25    0.46950 2464.64650   39.61900   -1.54190 2561.66410 2212.13750
 1650.00000  373.74160  237.17430  254.22060  257.01090    -999.25    0.37100  107.91760  281.65650   93.28520  103.42770    4.19900    4.11310    -999.25    0.53510 2049.28030    5.43050    3.16930 2806.75050 2257.22240
 1700.00000  246.94000  299.44170  304.50430  260.42260    -999.25    0.18280    9.71050  268.86050  106.46480  105.91940    7.63980    7.21770    -999.25    0.25920 2358.37130    7.61030   -0.92780 2755.63620 2360.69310
 1750.00000  299.82490  339.24940  344.41210  309.91020    -999.25    0.68390   48.35160  365.82340   50.75520   44.12320   18.81800   11.88630    -999.25    0.46890 1959.77640   70.50150   18.72610 2702.90500 2373.96310
 1800.00000  284.12960  336.35180  333.46090  310.43240    -999.25    0.06290    3.43620  240.24170   50.17560   43.91890   16.60940   13.06010    -999.25    0.19460 2534.74680   13.78070   11.43650 2741.07180 2394.29100
 1850.00000  306.75670  329.13440  302.22320  314.92110    -999.25    0.02630   -4.71800  228.83460   55.85600   50.23930   19.68650   17.44530    -999.25    0.20400 2622.03250   19.31340   -1.90180 2793.67770 2455.06030
 1900.00000  268.69270  289.30690  264.37380  277.24410    -999.25   -0.00210   43.00100  201.22150   63.19060   67.86120   39.34010   34.21970    0.06550    0.09390 2669.37820   43.28910  -74.29870 2832.65010 2492.32200
 1950.00000  254.53030  271.01360  280.21050  268.76380    -999.25    0.01010  101.65950  167.20950   13.69990   16.45440  166.67140 1875.83460    0.02140    0.06900 2659.39260  130.52910 -108.80980 2877.13350 2552.65870
 2000.00000  350.40320  264.65550  266.83330  286.46160    0.00770    -999.25    2.21220  162.18120   16.44470   13.13330 2035.90300  245.42860    0.00720    -999.25 2695.22290 1686.53920  -53.25710 2973.66380 2596.88940
 2050.00000  246.56290  234.02450  236.40040  236.95280    0.03250    -999.25   19.13240  187.29500   44.24070   41.37600   28.87370   26.06340    0.03720    -999.25 2678.59550   30.83120   -7.27270 2980.91750 2647.74340
 2100.00000  262.51940  254.08530  255.98220  259.67230    0.02980    -999.25   -2.74680  197.74740   36.09120   41.49400   28.08860   30.35160    0.05940    -999.25 2672.42160   33.77910   40.85370 3077.03930 2683.79910
 2150.00000  253.05550  303.75450  289.69230  252.33990    0.05390    -999.25  249.54740  174.55650   39.76180   62.71740  250.10960  110.23710    0.01310    -999.25 2617.35740  524.74960 -110.96270 3117.73900 2809.93990
 2200.00000  245.06680  282.04380  264.61760  254.21830   -0.12180    -999.25    5.26710  192.70950   11.13440   14.48790   54.45420   50.81840    0.01280    -999.25 2912.58670   81.14890  -82.27310 3117.96090 2854.48050
