~Version ---------------------------------------------------
VERS.      2.0 : CWLS log ASCII Standard -VERSION 2.0
WRAP.       NO : One line per depth step
CREA. 08/04/17 : LAS Creation Date
~Well ------------------------------------------------------
STRT.FT                             1100.0 : START DEPTH
STOP.FT                            11250.0 : STOP DEPTH
STEP.FT                           50.00000 : STEP LENGTH
NULL.                              -999.25 : NULL VALUE
COMP.                 PETROFINA CANADA LTD : COMPANY
WELL. FINA AMOCO HB SAKWATAMAU 10-21-62-15 : WELL
FLD .                                   WC : FIELD
LOC .                                      : LOCATION
CTRY.                               CANADA : COUNTRY
SRVC.                         Schlumberger : SERVICE COMPANY
DATE.                          21-Aug-1976 : LOGDATE
PROV.                              Alberta : PROVINCE
UWI .                     100102106215W500 : UNIQUE WELL ID
SLAT.WGS84                        54.37886 : SURFACE LATITUDE
SLON.WGS84                       -116.1857 : SURFACE LONGITUDE
~Curve Information -----------------------------------------
DEPT    .FT    : Depth Curve
CALDED  .IN    : CALIPER FROM CND LOG [ADJ. TO ILDED]
CALSED  .IN    : CALIPER FROM BCS LOG [ADJ. TO GRDED]
CALWS   .IN    : CALIPER [CALSED]
CILDED  .MMHO  : DEEP INDUCTION CONDUCTIVITY FROM DIL-LAT LOG
CONDWS  .MMHO  : CONDUCTIVITY [CILDED]
DCORWS  .G/C3  : DENSITY CORRECTION [DRHOED]
DENWS   .G/C3  : FROMATION BILK DENSITY [RHOBED]
DPHILSED.V/V   : DENSITY POROSITY LIMESTONE [M=2.71, F=1000] FROM CND LOG [ADJ. TO RHOBED]
DPHISSED.V/V   : DENSITY POROSITY SANDSTONE [M=2.65, F=1.00] FROM CND LOG [ADJ. TO RHOBED]
DPOLSWS .V/V   : DENSITY POROSITY LIMESTONE [CALCULATED FROM DENWS, M=2.71, F=1.00]
DRESWS  .OHMM  : DEEP RESISTIVITY [spl. 1000/CONDWS, IF ILDED <=1, ILDED/ILDED at 4490']
DRHOED  .G/C3  : BULK DENSITY CORRECTION FROM CND LOG [ADJ. TO ILDED]
DTED    .US/F  : DELTA-T (INTERVAL TRANSIT TIME) FROM BCS LOG  [ADJ. TO GRDED]
DTWS    .US/F  : COMPRESSIONA L SONIC [DTED]
GRDED   .GAPI  : GAMMA RAY FROM CND LOG [ADJ. TO ILDED]
GRSED   .GAPI  : GAMMA RAY FROM BCS LOG  [ADJ. TO GRDED]
GRWS    .GAPI  : GAMMA RAY [GRSED SPL. TO GRDED @ 11233.5']
ILDED   .OHMM  : DEEP INDUCTION RESISTIVITY FROM DIL-LAT LOG
ILMED   .OHMM  : MEDIUM INDUCTION  RESISTIVITY FROM DIL-LAT LOG
LL8ED   .OHMM  : LATEROLOG 8 FROM DIL-LAT LOG
MRESWS  .OHMM  : MEDIUM RESISTIVITY [ILMED]
NPHILSED.V/V   : NEUTRON POROSITY LIMESTONE FROM CND LOG [ADJ. TO RHOBED]
NPHISSED.V/V   : NEUTRON POROSITY SANDSTONE FROM CND LOG [ADJ. TO RHOBED]
NPOLSWS .V/V   : NEUTRON POROSITY LIMESTONE [NPHISSED MATRIX CONVERSION FRO LIMESTONE,SPL TO NPHILSED @ 6345']
RHOBED  .G/C3  : BULK DENSITY FROM CND LOG [ADJ. TO ILDED]
SPRED   .MV    : SPONTANEOUS POTENTIAL FROM DIL-LAT LOG
SPWS    .MV    : SPONTANEOUS POTENTIAL [BASELINE 0 MV, SPRED]
SRESWS  .OHMM  : SHALLOW RESISTIVITY [LL8ED]
~Params ----------------------------------------------------
PD  .                     GL : PERMANENT DATUM
EPD .FT               3315.9 : ELEVATION PERMANENT DATUM
LMF .                     KB : LOG MEASURED FROM
DAPD.FT                 15.1 : FEET ABOVE PERMANENT DATUM
EKB .FT                 3331 : KELLY BUSHING
EGL .FT               3315.9 : GROUND LEVEL
DATE.               08/21/76 : RUN DATE
RUN .                      1 : RUN NUMBER
DD  .FT                11275 : DEPTH DRILLER
DL  .FT                11270 : DEPTH LOGGER
BLI .FT                11267 : BOTTOM LOG INTERVAL
TLI .FT                 1134 : TOP LOG INTERVAL
CBD .FT                 1134 : CASING BOTTOM DRILLER
CBL .FT                 1134 : CASING BOTTOM LOGGER
BS  .IN                 8.75 : BIT SIZE
BSD .FT                11275 : BIT SIZE AT DEPTH
DFT .               GEL CHEM : DRILLING FLUID TYPE
DFD .                    9.5 : DRILLING FLUID DENSITY
DFV .                     95 : DRILLING FLUID VISCOSITY
DFPH.                   10.5 : DRILLING FLUID PH
DFL .                      7 : DRILLING FLUID LOSS
MSS .               FLOWLINE : MUD SAMPLE SOURCE
RMS .OHMM                2.7 : RESISTIVITY MUD SAMPLE
MST .DEGF                 55 : MUD SAMPLE TEMPERATURE
RMF .OHMM               2.65 : RESISTIVITY MUD FILTRATE SAMPLE
MFST.DEGF                 56 : MUD FILTRATE SAMPLE TEMPERATURE
RMB .OHMM               0.56 : RESISTIVITY MUD AT BHT
TCS .HRS                 3.5 : TIME CIRCULATED STOPPED
LUN .                   7691 : LOGGING UNIT NUMBER
LUL .                    WCT : LOGGING UNIT LOCATION
ENGI.                GOODMAN : RECORDING ENGINEER
WITN.                 TIFFIN : WITNESSED BY
CLNT.                A2DTECH : CLIENT CODE
ORIG.            2" 5" PRINT : ORIGIN OF DATA
UWI .       100102106215W500 : UNIQUE WELL ID
DICO. A2D Technologies, Inc. : DIGITIZING COMPANY
~Other -----------------------------------------------------
~ASCII -----------------------------------------------------
# ...
 3600.00000    -999.25   10.09570   10.09570  143.88620  136.74650    -999.25    -999.25    -999.25    -999.25    -999.25    7.31280    -999.25   89.77640   89.77640    -999.25   88.27720   88.27720    7.31280    -999.25    6.82990    -999.25    -999.25    -999.25    -999.25    -999.25  -46.86300   -6.07980    6.82990
 3650.00000    -999.25    9.67530    9.67530  187.75620  184.59380    -999.25    -999.25    -999.25    -999.25    -999.25    5.41730    -999.25   94.26560   94.26560    -999.25  110.66850  110.66850    5.41730    -999.25    5.71460    -999.25    -999.25    -999.25    -999.25    -999.25  -46.45380   -4.57770    5.71460
 3700.00000    -999.25    9.84110    9.84110  185.08420  181.61680    -999.25    -999.25    -999.25    -999.25    -999.25    5.50610    -999.25  101.36230  101.36230    -999.25  116.33670  116.33670    5.50610    -999.25    6.17290    -999.25    -999.25    -999.25    -999.25    -999.25  -43.83240   -5.16500    6.17290
 3750.00000    -999.25   10.07170   10.07170  121.34520  113.17980    -999.25    -999.25    -999.25    -999.25    -999.25    8.83550    -999.25   89.11400   89.11400    -999.25  105.33050  105.33050    8.83550    -999.25    9.67210    -999.25    -999.25    -999.25    -999.25    -999.25  -43.86050   -7.42090    9.67210
 3800.00000    -999.25   10.96150   10.96150  158.78920  153.13940    -999.25    -999.25    -999.25    -999.25    -999.25    6.53000    -999.25   95.40980   95.40980    -999.25  111.50760  111.50760    6.53000    -999.25    6.78640    -999.25    -999.25    -999.25    -999.25    -999.25  -44.73870   -9.62330    6.78640
 3850.00000    -999.25   10.42360   10.42360  151.72850  146.33150    -999.25    -999.25    -999.25    -999.25    -999.25    6.83380    -999.25   90.81170   90.81170    -999.25   92.35200   92.35200    6.83380    -999.25    7.11250    -999.25    -999.25    -999.25    -999.25    -999.25  -45.29200  -11.50950    7.11250
 3900.00000    -999.25   10.46760   10.46760  173.05260  172.17630    -999.25    -999.25    -999.25    -999.25    -999.25    5.80800    -999.25   91.15230   91.15230    -999.25   89.56930   89.56930    5.80800    -999.25    6.11000    -999.25    -999.25    -999.25    -999.25    -999.25  -46.09570  -13.63740    6.11000
 3950.00000    -999.25   10.22210   10.22210  171.57360  172.43760    -999.25    -999.25    -999.25    -999.25    -999.25    5.79920    -999.25   94.86590   94.86590    -999.25   93.47380   93.47380    5.79920    -999.25    6.06290    -999.25    -999.25    -999.25    -999.25    -999.25  -44.33650  -13.21100    6.06290
 4000.00000    -999.25   10.01940   10.01940  131.18350  124.09870    -999.25    -999.25    -999.25    -999.25    -999.25    8.05810    -999.25   85.46450   85.46450    -999.25   96.74100   96.74100    8.05810    -999.25    8.25540    -999.25    -999.25    -999.25    -999.25    -999.25  -34.66730   -4.06960    8.25540
 4050.00000    -999.25   10.17050   10.17050  181.77720  179.16330    -999.25    -999.25    -999.25    -999.25    -999.25    5.58150    -999.25   91.62000   91.62000    -999.25   95.75030   95.75030    5.58150    -999.25    6.02300    -999.25    -999.25    -999.25    -999.25    -999.25  -35.25630   -4.36880    6.02300
 4100.00000    -999.25   10.01220   10.01220  148.78740  152.11210    -999.25    -999.25    -999.25    -999.25    -999.25    6.57410    -999.25   89.69290   89.69290    -999.25  103.00140  103.00140    6.57410    -999.25    6.99220    -999.25    -999.25    -999.25    -999.25    -999.25  -36.96010   -5.78100    6.99220
 4150.00000    -999.25   10.28930   10.28930  129.59640  124.86890    -999.25    -999.25    -999.25    -999.25    -999.25    8.00840    -999.25   86.32990   86.32990    -999.25   89.15600   89.15600    8.00840    -999.25    8.11040    -999.25    -999.25    -999.25    -999.25    -999.25  -37.33460   -5.86580    8.11040
 4200.00000    -999.25    9.96200    9.96200  194.77950  194.77230    -999.25    -999.25    -999.25    -999.25    -999.25    5.13420    -999.25  102.59890  102.59890    -999.25  110.60850  110.60850    5.13420    -999.25    5.48620    -999.25    -999.25    -999.25    -999.25    -999.25  -35.58440   -3.82380    5.48620
 4250.00000    -999.25    9.98940    9.98940  135.88570  128.82610    -999.25    -999.25    -999.25    -999.25    -999.25    7.76240    -999.25   89.07080   89.07080    -999.25   99.28640   99.28640    7.76240    -999.25    7.36850    -999.25    -999.25    -999.25    -999.25    -999.25  -35.95670   -3.90640    7.36850
 4300.00000    -999.25   10.00820   10.00820  146.31380  141.11940    -999.25    -999.25    -999.25    -999.25    -999.25    7.08620    -999.25   88.44620   88.44620    -999.25  103.85780  103.85780    7.08620    -999.25    6.77700    -999.25    -999.25    -999.25    -999.25    -999.25  -33.99320   -4.53170    6.77700
 4350.00000    -999.25   10.30600   10.30600  148.04270  146.49650    -999.25    -999.25    -999.25    -999.25    -999.25    6.82610    -999.25   85.27520   85.27520    -999.25  103.55250  103.55250    6.82610    -999.25    7.21060    -999.25    -999.25    -999.25    -999.25    -999.25  -34.36140   -8.30110    7.21060
 4400.00000    -999.25    9.78550    9.78550  137.10900  133.30310    -999.25    -999.25    -999.25    -999.25    -999.25    7.50170    -999.25   88.00020   88.00020    -999.25  104.75490  104.75490    7.50170    -999.25    7.71050    -999.25    -999.25    -999.25    -999.25    -999.25  -30.64280   -7.96160    7.71050
 4450.00000    -999.25    9.80110    9.80110  177.69640  172.63110    -999.25    -999.25    -999.25    -999.25    -999.25    5.79270    -999.25   93.62790   93.62790    -999.25  108.78430  108.78430    5.79270    -999.25    6.43970    -999.25    -999.25    -999.25    -999.25    -999.25  -28.50420   -9.22410    6.43970
 4500.00000   11.48940    9.66840    9.66840    -999.25  171.40600    0.05710    2.48150    -999.25    0.10190    0.13360    5.83410    0.05710   97.63940   97.63940  132.24010  120.40300  120.40300    5.83410    6.44650    7.19170    6.44650    -999.25    0.36290    0.31940    2.48150  -27.31820  -11.41700    7.19170
 4550.00000   11.40780    9.79080    9.79080    -999.25  150.36240    0.05510    2.51900    -999.25    0.08240    0.11170    6.65060    0.05510   98.56200   98.56200  133.70780  125.65580  125.65580    6.65060    7.05710    8.72220    7.05710    -999.25    0.38970    0.34660    2.51900  -16.12740   -3.60520    8.72220
 4600.00000   10.90910    9.74000    9.74000    -999.25  135.60060    0.03760    2.51380    -999.25    0.07770    0.11470    7.37460    0.03760   95.45320   95.45320  131.30160  124.97950  124.97950    7.37460    7.84830    9.66930    7.84830    -999.25    0.34790    0.30420    2.51380  -13.72270   -4.11690    9.66930
 4650.00000   10.88680    9.69870    9.69870    -999.25  129.22900    0.07610    2.49090    -999.25    0.09860    0.12810    7.73820    0.07610   98.30660   98.30660  135.72440  120.90540  120.90540    7.73820    8.21420   10.76120    8.21420    -999.25    0.36580    0.32240    2.49090  -12.77480   -4.50830   10.76120
 4700.00000   11.63710    9.79380    9.79380    -999.25  163.89680    0.09320    2.46650    -999.25    0.11160    0.14240    6.10140    0.09320   97.39050   97.39050  123.28320  112.77540  112.77540    6.10140    6.52580    7.91640    6.52580    -999.25    0.37980    0.33660    2.46650  -11.80000   -4.52740    7.91640
 4750.00000   11.04050    9.68200    9.68200    -999.25  184.47460    0.10630    2.47240    -999.25    0.10540    0.13890    5.42080    0.10630   90.60210   90.60210  118.88330  110.10800  110.10800    5.42080    5.71230    6.44600    5.71230    -999.25    0.29440    0.25040    2.47240  -13.24310   -6.34020    6.44600
 4800.00000   11.97230    9.90260    9.90260    -999.25  190.73410    0.12370    2.51410    -999.25    0.08350    0.11460    5.24290    0.12370   88.26430   88.26430  109.07670  100.63420  100.63420    5.24290    5.62720    6.14480    5.62720    -999.25    0.30600    0.26200    2.51410  -14.15130   -7.61800    6.14480
