~Version ---------------------------------------------------
VERS. 2.0 : CWLS log ASCII Standard -VERSION 2.0
WRAP.  NO : ONE LINE PER DEPTH STEP
~Well ------------------------------------------------------
STRT.M                        500.0 : START DEPTH
STOP.M                       3000.0 : STOP DEPTH
STEP.M                     50.00000 : STEP LENGTH
NULL.                       -999.25 : NULL VALUE
COMP.   PARAMOUNT RESOURCES COMPANY : COMPANY
WELL. PARA ET AL KAYBOB 12-35-63-18 : WELL
FLD .                        KAYBOB : FIELD
LOC .                               : LOCATION
CTRY.                        CANADA : COUNTRY
SRVC.                    Computalog : SERVICE COMPANY
DATE.                   20-Nov-2000 : LOGDATE
PROV.                       Alberta : PROVINCE
UWI .              100123506318W500 : UNIQUE WELL ID
SLAT.WGS84                 54.49699 : SURFACE LATITUDE
SLON.WGS84                -116.6156 : SURFACE LONGITUDE
~Curve Information -----------------------------------------
DEPT    .M      : DEPTH METERS
CALWS   .MM     : CALIPER [CALXED]
CALXDED .MM     : CALIPER X FROM DENSITY LOG
CALYDED .MM     : CALIPER Y FROM DENSITY LOG
CALYSED .MM     : CALIPER Y FROM SONIC LOG
CONDWS  .MMHO   : CONDUCTIVITY [1000/DRESWS]
DCORED  .KG/M3  : DENSITY CORRECTION FROM DENSITY LOG
DCORWS  .KG/M3  : DENSITY CORRECTION [DCORED]
DENWS   .KG/M3  : BULK DENSITY [M=2650/2710 AT 1875 F=1000] [CALCULATED FROM DPORSSED/DPORLSED]
DPOLSWS .V/V    : DENSITY POROSITY [CONVERTED M=2710 F=1000] [CALCULATED FROM DENWS]
DPORLSED.V/V    : DENSITY POROSITY [M=2710 F=1000] FROM DENSITY LOG
DPORSSED.V/V    : DENSITY POROSITY [M=2650 F=1000] FROM DENSITY LOG
DRESWS  .OHMM   : DEEP RESISTIVITY [STIDED]
DTED    .US/M   : DELTA TIME FROM SONIC LOG
DTWS    .V/V    : DELTA TIME [DTED]
GRDED   .GAPI   : GAMMA RAY FROM DENSITY LOG
GRRED   .GAPI   : GAMMA RAY FROM RESISTIVITY LOG
GRSED   .GAPI   : GAMMA RAY FROM SONIC LOG
GRWS    .GAPI   : GAMMA RAY [GRRED] CSG @ 454m
MRESWS  .OHMM   : MEDIUM RESISTIVITY [STIMED]
NPOLSWS .V/V    : NEUTRON POROSITY LIMESTONE [NPORSSED CONVERTED TO LIMESTONE FROM POWER LOG FROM START TO 1875,THEN NPORLSED TO END]
NPORLSED.V/V    : NEUTRON POROSITY LIMESTONE FROM DENSITY LOG
NPORSSED.V/V    : NEUTRON POROSITY SANDSTONE FROM DENSITY LOG
PEED    .B/E    : PHOTOELECTRIC FACTOR FROM DENSITY LOG
PEFWS   .B/E    : PHOTOELECTRIC FACTOR [PEED]
RHOBED  .KG/M3  : BULK DENSITY FROM DENSITY LOG
SFLED   .OHMM   : SPHERICALLY FOCUSED LOG RESISTIVITY
SPRED   .MV     : SPONTANEOUS POTENTIAL FROM RESISTIVITY LOG
SPWS    .MV     : SPONTANEOUS POTENTIAL [BASELINE 0 MV] [SPRED]
SRESWS  .OHMM   : SHALLOW RESISTIVITY [SFLED]
STIDED  .OHMM   : SIMULTANEOUS TRIPLE INDUCTION DEEP
STIMED  .OHMM   : SIMULTANEOUS TRIPLE INDUCTION MEDIUM
TENDED  .KG     : TENSION FROM DENSITY LOG
TENRED  .KG     : TENSION FROM RESISTIVITY LOG
TENSED  .KG     : TENSION FROM SONIC LOG
~Params ----------------------------------------------------
PD  .                         GL : PERMANENT DATUM
EPD .FT                    800.1 : ELEVATION PERMANENT DATUM
LMF .                         KB : LOG MEASURED FROM
DAPD.FT                     5.55 : FEET ABOVE PERMANENT DATUM
EKB .FT                   805.65 : KELLY BUSHING
EGL .FT                    800.1 : GROUND LEVEL
DATE.                   11/20/00 : RUN DATE
RUN .                          1 : RUN NUMBER
DD  .M                      3040 : DEPTH DRILLER
DL  .M                    3040.3 : DEPTH LOGGER
BLI .M                      3018 : BOTTOM LOG INTERVAL
TLI .M                       484 : TOP LOG INTERVAL
CBD .M                       484 : CASING BOTTOM DRILLER
CBL .M                       484 : CASING BOTTOM LOGGER
BS  .MM                      200 : BIT SIZE
BSD .M                      3040 : BIT SIZE AT DEPTH
DFT .               GEL CHEMICAL : DRILLING FLUID TYPE
DFD .                       1150 : DRILLING FLUID DENSITY
DFV .                        149 : DRILLING FLUID VISCOSITY
DFPH.                        9.5 : DRILLING FLUID PH
DFL .                          6 : DRILLING FLUID LOSS
MSS .                   FLOWLINE : MUD SAMPLE SOURCE
RMS .OHMM                   1.65 : RESISTIVITY MUD SAMPLE
MST .DEGC                     14 : MUD SAMPLE TEMPERATURE
RMF .OHMM                   1.45 : RESISTIVITY MUD FILTRATE SAMPLE
MFST.DEGC                     14 : MUD FILTRATE SAMPLE TEMPERATURE
RMC .OHMM                    1.8 : RESISTIVITY MUD CAKE
MCST.DEGC                     14 : MUD CAKE SAMPLE TEMPERATURE
RMB .OHMM                    0.5 : RESISTIVITY MUD AT BHT
TCS .HRS                       9 : TIME CIRCULATED STOPPED
LUN .                        364 : LOGGING UNIT NUMBER
LUL .             GRANDE PRAIRIE : LOGGING UNIT LOCATION
ENGI.          GRUBB MUTCH YOUNG : RECORDING ENGINEER
WITN.                     BREDIN : WITNESSED BY
CLNT.                    A2DTECH : CLIENT CODE
ORIG. 6.5"/100M 16.5"/100M PRINT : ORIGIN OF DATA
UWI .           100123506318W500 : UNIQUE WELL ID
DICO.     A2D Technologies, Inc. : DIGITIZING COMPANY
~Other -----------------------------------------------------
~ASCII -----------------------------------------------------
  500.00000  200.01730  200.01730  281.72320  283.84740  277.53110   68.03080   68.03080 2364.55000    0.20200    -999.25    0.17300    3.60320  359.90320  359.90320   81.05010   79.58170   74.95270   79.58170    3.16920    0.34690    -999.25    0.39190    2.59240    2.59240 2364.75780    2.75560  -31.03710   -4.04470    2.75560    3.60320    3.16920  300.22780  648.60640  463.27030
  550.00000  200.12050  200.12050  251.49160  259.72680  257.83830   16.02290   16.02290 2344.75000    0.21360    -999.25    0.18500    3.87840  352.08050  352.08050   62.60000   69.44580   55.27370   69.44580    3.53610    0.32160    -999.25    0.36660    2.61090    2.61090 2340.27340    3.19410  -27.77260   -2.34620    3.19410    3.87840    3.53610  322.59330  687.29450  443.23570
  600.00000  195.42040  195.42040  221.52600  221.46220   87.34230   41.87410   41.87410 2257.13500    0.26480    -999.25    0.23810   11.44920  338.21250  338.21250   65.45650   63.19920   63.44530   63.19920   10.59600    0.33490    -999.25    0.37990    2.49420    2.49420 2243.72580    9.75200  -26.85900   -2.99870    9.75200   11.44920   10.59600  330.00930  688.66850  456.53140
  650.00000  250.32620  250.32620  323.29290  308.70600  201.11820  155.89400  155.89400 2381.87500    0.19190    -999.25    0.16250    4.97220  414.26770  414.26770   64.85610   60.10310   66.35290   60.10310    6.73990    0.39140    -999.25    0.43640    2.86310    2.86310 2374.49070    2.79100  -25.46150   -3.73890    2.79100    4.97220    6.73990  325.77560  729.49910  479.32240
  700.00000  213.94490  213.94490  299.52860  300.01050  198.68080  200.44490  200.44490 2351.02000    0.20990    -999.25    0.18120    5.03320  322.84200  322.84200   49.44470   57.62740   49.25300   57.62740    4.70750    0.35050    -999.25    0.39550    2.94630    2.94630 2372.47660    5.02680  -22.12750   -2.90190    5.02680    5.03320    4.70750  333.16730  747.89090  467.43080
  750.00000  202.04740  202.04740  216.15940  216.64870   73.65130   18.41390   18.41390 2286.34010    0.24780    -999.25    0.22040   13.57750  310.71810  310.71810   42.09420   39.79220   43.04180   39.79220   13.12330    0.28940    -999.25    0.33440    2.27410    2.27410 2286.31670   11.91500  -26.14360   -7.96180   11.91500   13.57750   13.12330  359.62020  774.21230  492.29290
  800.00000  169.54570  169.54570  337.07890  351.64900  230.45190  140.62050  140.62050 2338.31490    0.21740    -999.25    0.18890    4.33930  341.99510  341.99510   57.83500   55.92890   57.40630   55.92890    3.84470    0.40550    -999.25    0.45050    2.56360    2.56360 2309.63350    3.99000  -20.26760   -2.08580    3.99000    4.33930    3.84470  374.47890  790.12030  524.42090
  850.00000  223.70410  223.70410  217.21430  223.93550  129.72520   95.99500   95.99500 2423.62010    0.16750    -999.25    0.13720    7.70860  276.03460  276.03460   56.49100   55.91660   57.36390   55.91660    6.63740    0.34230    -999.25    0.38730    2.71810    2.71810 2423.27510    6.34540  -19.59180   -1.41000    6.34540    7.70860    6.63740  389.00530  839.13900  490.12380
  900.00000  224.78020  224.78020  424.29950  424.12750  129.62770  238.92420  238.92420 2317.52490    0.22950    -999.25    0.20150    7.71440  310.60520  310.60520   91.04840   75.38920   72.21190   75.38920    6.95030    0.41830    -999.25    0.46330    2.57780    2.57780 2358.46040    6.29530  -20.27510   -4.15070    6.29530    7.71440    6.95030  397.92580  863.17740  502.71750
  950.00000  257.26630  257.26630  213.04300  212.94880  118.09020  201.28920  201.28920 2426.09500    0.16600    -999.25    0.13570    8.46810  314.70910  314.70910   94.26750   97.23880   92.26440   97.23880    8.60020    0.31560    -999.25    0.36060    2.77540    2.77540 2426.50660    9.21510  -17.40930   -4.04270    9.21510    8.46810    8.60020  406.12930  885.49900  527.31240
 1000.00000  281.89410  281.89410  238.11630  238.13320  137.88730  212.45680  212.45680 1803.38500    0.53020    -999.25    0.51310    7.25230  319.33110  319.33110   87.42310   89.68400   84.97070   89.68400    6.73830    0.39520    -999.25    0.44020    2.39490    2.39490 1909.29930    6.38840  -15.98990   -5.38120    6.38840    7.25230    6.73830  411.20290  906.20520  543.03170
 1050.00000  221.44910  221.44910  227.71510  228.13340  164.26830  389.61990  389.61990 2139.32500    0.33370    -999.25    0.30950    6.08760  317.75670  317.75670  105.13930   98.70370  104.43610   98.70370    5.81690    0.41050    -999.25    0.45550    2.49580    2.49580 2130.51780    5.52430  -12.96760   -5.11680    5.52430    6.08760    5.81690  437.09870  953.28040  553.15560
 1100.00000  264.50120  264.50120  234.02090  215.77730  108.14790  121.70790  121.70790 2394.08500    0.18470    -999.25    0.15510    9.24660  295.85380  295.85380   87.02240   82.64340   81.29530   82.64340    8.83090    0.26980    -999.25    0.31480    2.56900    2.56900 2395.93360    8.57610  -10.13510   -5.04220    8.57610    9.24660    8.83090  439.74310  976.14510  585.46580
 1150.00000  226.88040  226.88040  274.53800  281.82970  117.91760   87.73550   87.73550 2546.87500    0.09540    -999.25    0.06250    8.48050  294.31020  294.31020   99.25870   96.61100   98.31270   96.61100    8.28920    0.29130    -999.25    0.33630    2.65070    2.65070 2548.41500    7.69530   -7.22990   -4.89490    7.69530    8.48050    8.28920  461.03780  970.00070  575.13790
 1200.00000  205.32790  205.32790  286.12740  313.13130  138.80410  170.94770  170.94770 2506.12010    0.11920    -999.25    0.08720    7.20440  327.80070  327.80070  111.46190  106.99710  106.38440  106.99710    7.42600    0.34030    -999.25    0.38530    2.63320    2.63320 2510.96390    8.05310   -2.08250   -2.50530    8.05310    7.20440    7.42600  470.05980  998.69980  588.07350
 1250.00000  203.51750  203.51750  213.42990  213.73840   72.22460   50.71800   50.71800 2584.99000    0.07310    -999.25    0.03940   13.84570  272.23080  272.23080   94.86880   79.68430   70.70280   79.68430   14.45140    0.29700    -999.25    0.34200    3.61710    3.61710 2583.20870   24.74850   -0.27190   -5.80740   24.74850   13.84570   14.45140  473.54490  988.29500  599.57670
 1300.00000  211.99910  211.99910  316.94420  314.63850  176.47580  269.46380  269.46380 2451.34010    0.15130    -999.25    0.12040    5.66650  308.13180  308.13180  106.04410   95.48190  107.95440   95.48190    5.83440    0.38690    -999.25    0.43190    2.85100    2.85100 2451.60300    5.98520    3.55640   -7.09170    5.98520    5.66650    5.83440  477.16840  994.46180  614.12660
 1350.00000  212.66630  212.66630  230.15620  230.73280  169.22480  166.62240  166.62240 2570.13990    0.08180    -999.25    0.04840    5.90930  297.66490  297.66490  103.85630  100.65010   96.55410  100.65010    6.10180    0.31770    -999.25    0.36270    2.82240    2.82240 2570.19870    6.21790    9.43620   -6.32450    6.21790    5.90930    6.10180  494.03180 1065.72670  617.38360
 1400.00000  249.74570  249.74570  229.33010  226.09420  274.67250  231.09630  231.09630 2280.07010    0.25140    -999.25    0.22420    3.64070  368.72240  368.72240  176.00980  144.10710  147.13060  144.10710    4.09370    0.36010    -999.25    0.40510    3.16520    3.16520 2253.10520    4.47450   18.99560   -1.87770    4.47450    3.64070    4.09370  504.14140 1083.75590  639.72220
 1450.00000  216.54990  216.54990  221.39710  219.95290  189.64180  167.86740  167.86740 2471.13990    0.13970    -999.25    0.10840    5.27310  310.96310  310.96310  109.01060  106.41660  107.89030  106.41660    5.46510    0.33530    -999.25    0.38030    2.53140    2.53140 2460.87740    5.61050   24.12200   -4.52270    5.61050    5.27310    5.46510  502.79710 1125.09330  638.78960
 1500.00000  216.18910  216.18910  217.82000  216.71310  103.03440   94.68720   94.68720 2580.86500    0.07550    -999.25    0.04190    9.70550  249.41050  249.41050   75.80360   75.44270   89.04370   75.44270   10.78480    0.22860    -999.25    0.27360    3.79780    3.79780 2582.74100   11.25670   34.13530   -4.60080   11.25670    9.70550   10.78480  520.07900 1120.27970  645.82340
