~Version ---------------------------------------------------
VERS.      2.0 : CWLS log ASCII Standard -VERSION 2.0
WRAP.       NO : ONE LINE PER DEPTH STEP
CREA. 08/16/13 : LAS CREATION DATE
~Well ------------------------------------------------------
STRT.M                         400.0 : START DEPTH
STOP.M                        3750.0 : STOP DEPTH
STEP.M                      50.00000 : STEP LENGTH
NULL.                        -999.25 : NULL VALUE
COMP.         BERKLEY PETROLEUM CORP : COMPANY
WELL. BPC CHEVRON WASKAHIGAN 11-36-6 : WELL
FLD .                                : FIELD
LOC .                                : LOCATION
CTRY.                         CANADA : COUNTRY
SRVC.                   Schlumberger : SERVICE COMPANY
DATE.                    04-Dec-1997 : LOGDATE
PROV.                        Alberta : PROVINCE
UWI .               100113606225W500 : UNIQUE WELL ID
SLAT.WGS84                  54.40909 : SURFACE LATITUDE
SLON.WGS84                 -117.6177 : SURFACE LONGITUDE
~Curve Information -----------------------------------------
DEPT    .M      : DEPTH METERS
AT10ED  .OHMM   : 10 INCH RESISTIVITY TWO FOOT RESOLUTION FROM AIT LOG
AT20ED  .OHMM   : 20 INCH RESISTIVITY TWO FOOT RESOLUTION FROM AIT LOG
AT30ED  .OHMM   : 30 INCH RESISTIVITY TWO FOOT RESOLUTION FROM AIT LOG
AT60ED  .OHMM   : 60 INCH RESISTIVITY TWO FOOT RESOLUTION FROM AIT LOG
AT90ED  .OHMM   : 90 INCH RESISTIVITY TWO FOOT RESOLUTION FROM AIT LOG
CALD2ED .MM     : CALIPER 2 FROM CND LOG
CALWS   .MM     : CALIPER [HCALDED]
CONDWS  .MMHO   : CONDUCTIVITY [1000/DRESWS]
DCORWS  .KG/M3  : DENSITY CORRECTION [HDRAED]
DENWS   .KG/M3  : BULK DENSITY [M=2710 F=1000] [RHOZED]
DPHZLSED.V/V    : HRDD STANDARD RESOLUTION DENSITY POROSITY LIMESTONE FROM CND LOG
DPHZSSED.V/V    : HRDD STANDARD RESOLUTION DENSITY POROSITY SANDSTONE FROM CND LOG
DPOLSWS .V/V    : DENSITY POROSITY [M=2710 F=1000] [CALCULATED FROM DENWS]
DRESWS  .OHMM   : DEEP RESISTIVITY [AT90ED]
DTED    .US/M   : DELTA TIME FROM SONIC LOG
DTWS    .US/M   : DELTA TIME [DTED]
GRSED   .GAPI   : GAMMA RAY FROM SONIC LOG [IN CASING<417M]
GRWS    .GAPI   : GAMMA RAY [GRSED]
HCALDED .MM     : HILT CALIPER FROM CND LOG
HDED    .MM     : HOLE DIAMETER FROM CND LOG
HDRAED  .KG/M3  : DENSITY CORRECTION FROM CND LOG
MRESWS  .OHMM   : MEDIUM RESISTIVITY [AT30ED]
NPOLSWS .V/V    : NEUTRON POROSITY LIMESTONE [SPLICED NPORSSED [CONVERTED TO LIME] TO NPORLSED @2451M]
NPORLSED.V/V    : NEUTRON POROSITY LIMESTONE FROM CND LOG
NPORSSED.V/V    : NEUTRON POROSITY SANDSTONE FROM CND LOG [IN CASING<417M]
PEFWS   .B/E    : PHOTOELECTRIC FACTOR [PEFZED]
PEFZED  .B/E    : PHOTOELECTRIC FACTOR STANDARD RESOLUTION FROM CND LOG
RHOZED  .KG/M3  : BULK DENSITY HRDD STANDARD RESOLUTION FROM CND LOG
RXOZED  .OHMM   : STANDARD RESOLUTION INVADED ZONE RESISTIVITY FROM AIT LOG
SPRED   .MV     : SPONTANEOUS POTENTIAL FROM AIT LOG
SPWS    .MV     : SPONTANEOUS POTENTIAL [BASELINE 0 MV] [SPRED]
SRESWS  .OHMM   : SHALLOW RESISTIVITY [AT10ED]
TENDED  .N      : TENSION FROM CND LOG
~Params ----------------------------------------------------
PD  .                                  GL : PERMANENT DATUM
EPD .M                             897.86 : ELEVATION PERMANENT DATUM
LMF .                                  KB : LOG MEASURED FROM
DAPD.M                                7.2 : FEET ABOVE PERMANENT DATUM
DMF .                                  KB : DRILLING MEASURED FROM
EKB .M                             905.09 : KELLY BUSHING
EDF .M                              804.6 : DRILLING FLOOR
EGL .M                             897.88 : GROUND LEVEL
DATE.                            12/04/97 : RUN DATE
RUN .                                   1 : RUN NUMBER
DD  .M                               3795 : DEPTH DRILLER
DL  .M                               3792 : DEPTH LOGGER
BLI .M                             3787.5 : BOTTOM LOG INTERVAL
TLI .M                               2452 : TOP LOG INTERVAL
CS  .MM                             177.8 : CASING SIZE
CBD .M                               2450 : CASING BOTTOM DRILLER
CBL .M                               2452 : CASING BOTTOM LOGGER
BS  .MM                               156 : BIT SIZE
BSD .M                               3795 : BIT SIZE AT DEPTH
DFT .                            GEL CHEM : DRILLING FLUID TYPE
DFD .                                1090 : DRILLING FLUID DENSITY
DFV .                                  80 : DRILLING FLUID VISCOSITY
DFPH.                                  10 : DRILLING FLUID PH
DFL .                                 8.5 : DRILLING FLUID LOSS
MSS .                            MEASURED : MUD SAMPLE SOURCE
RMS .OHMM                            1.43 : RESISTIVITY MUD SAMPLE
MST .DEGC                              14 : MUD SAMPLE TEMPERATURE
RMF .OHMM                             1.2 : RESISTIVITY MUD FILTRATE SAMPLE
MFST.DEGC                              14 : MUD FILTRATE SAMPLE TEMPERATURE
RMC .OHMM                            1.65 : RESISTIVITY MUD CAKE
MCST.DEGC                              14 : MUD CAKE SAMPLE TEMPERATURE
MFSS.                            MEASURED : MUD FILTRATE SAMPLE SOURCE
MCSS.                          CALCULATED : MUD CAKE SAMPLE SOURCE
RMB .OHMM                           0.452 : RESISTIVITY MUD AT BHT
TCS .HRS                             2200 : TIME CIRCULATED STOPPED
TLAB.HRS                              500 : TIME LOGGER AT BOTTOM
LUN .                                2005 : LOGGING UNIT NUMBER
LUL .                               NISKU : LOGGING UNIT LOCATION
ENGI.                                 DIP : RECORDING ENGINEER
WITN.                              COOPER : WITNESSED BY
CLNT.                             A2DTECH : CLIENT CODE
ORIG. 6.5"/100M 16.5"/100M 33"/100M PRINT : ORIGIN OF DATA
UWI .                    100113606225W500 : UNIQUE WELL ID
DICO.              A2D Technologies, Inc. : DIGITIZING COMPANY
~Other -----------------------------------------------------
1. ALL CURVES APPEAR ON DEPTH
~ASCII -----------------------------------------------------
# ...
 1500.00000   16.05450   16.41710   17.09440   17.27230   17.80830    -999.25  226.98040   56.15360   10.42390 2575.97240    -999.25    0.04220    0.07840   17.80830  249.49700  249.49700  118.59850  118.59850  226.98040  235.49740   10.42390   17.09440    0.17250    -999.25    0.22460    2.68780    2.68780 2575.97240   19.44340   30.21880   -7.69780   16.05450 16417.57810
 1550.00000   10.22430   10.82990   11.19620   11.28720   11.56160    -999.25  243.80470   86.49320   11.61810 2608.44920    -999.25    0.02550    0.05940   11.56160  264.16130  264.16130  109.92940  109.92940  243.80470  234.92400   11.61810   11.19620    0.23370    -999.25    0.28560    3.06280    3.06280 2608.44920   11.60540   25.24930  -12.01410   10.22430 16392.98440
 1600.00000   10.60530   11.72800   11.92420   11.84200   12.11640    -999.25  221.52460   82.53280    6.86160 2568.78100    -999.25    0.04790    0.08260   12.11640  280.22670  280.22670  136.88510  136.88510  221.52460  244.09550    6.86160   11.92420    0.27730    -999.25    0.32750    3.58550    3.58550 2568.78100   14.47850   27.03930   -9.57090   10.60530 16403.69920
 1650.00000   10.82460   11.18000   11.71360   11.44870   12.06930    -999.25  222.66660   82.85480   32.70970 2587.45260    -999.25    0.03840    0.07170   12.06930  275.04960  275.04960  129.58150  129.58150  222.66660  228.11390   32.70970   11.71360    0.29620    -999.25    0.34530    3.46990    3.46990 2587.45260   14.61960   25.28230  -10.67470   10.82460 17083.07230
 1700.00000   10.83300   10.55410   10.57110   10.32670    9.95290    -999.25  243.79190  100.47320  459.91630 2651.04830    -999.25    0.00450    0.03450    9.95290  286.76800  286.76800  123.10770  123.10770  243.79190  216.21120  459.91630   10.57110    0.24950    -999.25    0.30090    3.51570    3.51570 2651.04830    7.33420   22.06390  -13.23990   10.83300 17640.28910
 1750.00000   11.65680   11.24760   12.03890   11.69820   12.02850    -999.25  248.96050   83.13590  452.53520 2548.85620    -999.25    0.05590    0.09420   12.02850  246.65360  246.65360   94.16560   94.16560  248.96050  217.87280  452.53520   12.03890    0.17080    -999.25    0.22280    3.13150    3.13150 2548.85620    6.38610   22.00320  -12.64740   11.65680 17839.25200
 1800.00000    6.89860    7.14620    7.31250    7.40150    7.57670    -999.25  228.56310  131.98360   46.00450 2599.17500    -999.25    0.02880    0.06480    7.57670  278.11420  278.11420  135.55080  135.55080  228.56310  237.37780   46.00450    7.31250    0.30640    -999.25    0.35490    3.45400    3.45400 2599.17500    9.43550   25.39760   -8.59990    6.89860 17737.27540
 1850.00000    6.93780    7.63390    8.13390    7.80630    8.02660    -999.25  221.37730  124.58580   66.99500 2587.38820    -999.25    0.03920    0.07170    8.02660  261.02320  261.02320  125.39730  125.39730  221.37730  239.52880   66.99500    8.13390    0.28540    -999.25    0.33510    3.43300    3.43300 2587.38820   10.03260   27.72840   -5.61590    6.93780 18264.16800
 1900.00000    3.50790    4.21050    4.34980    4.46430    4.58180    -999.25  229.10030  218.25480  137.63200 2469.76590    -999.25    0.11200    0.14050    4.58180  295.48020  295.48020  118.67940  118.67940  229.10030  315.85130  137.63200    4.34980    0.35600    -999.25    0.40090    3.05310    3.05310 2469.76590    4.09790   30.89310   -1.79800    3.50790 18143.84180
 1950.00000   19.10090   22.72890   23.88330   23.56480   24.76590    -999.25  222.45890   40.37810   12.64110 2576.38870    -999.25    0.04440    0.07810   24.76590  226.80770  226.80770   81.93010   81.93010  222.45890  260.24180   12.64110   23.88330    0.14120    -999.25    0.19140    2.43930    2.43930 2576.38870   26.62030   21.55490  -10.48300   19.10090 18656.25590
 2000.00000   32.29960   25.90460   21.51260   18.08520   19.78910    -999.25  245.04030   50.53290   19.27570 2655.65110    -999.25   -0.00280    0.03180   19.78910  225.55290  225.55290   63.59910   63.59910  245.04030  234.93490   19.27570   21.51260    0.19890    -999.25    0.25150    3.83210    3.83210 2655.65110   24.84560   14.76190  -16.62280   32.29960 18784.54100
 2050.00000   24.72620   21.12010   19.38270   19.03520   18.59510    -999.25  257.38810   53.77760   12.91180 2561.45580    -999.25    0.05360    0.08690   18.59510  220.39250  220.39250   63.56000   63.56000  257.38810  249.04180   12.91180   19.38270    0.12580    -999.25    0.17450    2.42120    2.42120 2561.45580   27.71370   11.37280  -19.35870   24.72620 19597.82420
 2100.00000   20.60930   16.53690   16.30970   15.73140   16.09440    -999.25  271.89340   62.13340   19.79020 2639.44170    -999.25    0.00530    0.04130   16.09440  218.58100  218.58100   70.31580   70.31580  271.89340  260.03840   19.79020   16.30970    0.18270    -999.25    0.23510    3.36400    3.36400 2639.44170   24.70240  -11.97730  -42.05570   20.60930 19333.92970
 2150.00000   26.75490   19.68940   19.04150   16.73380   15.56130    -999.25  298.07740   64.26200   23.14720 2617.25630    -999.25    0.01000    0.05420   15.56130  219.02550  219.02550   78.45890   78.45890  298.07740  287.73920   23.14720   19.04150    0.19040    -999.25    0.24300    2.91820    2.91820 2617.25630   24.02410   12.61640  -16.80880   26.75490 19899.16990
 2200.00000   26.61430   19.03420   18.80550   18.23240   17.97950    -999.25  273.60730   55.61890   -9.05170 2635.43990    -999.25    0.01010    0.04360   17.97950  213.34970  213.34970   65.44760   65.44760  273.60730  272.34810   -9.05170   18.80550    0.15850    -999.25    0.20990    3.48740    3.48740 2635.43990   25.71950   -0.92030  -29.69230   26.61430 20067.48240
 2250.00000  194.85330   52.09700   50.33540   51.18750   50.88050    -999.25  263.63060   19.65390    4.21660 2597.68140    -999.25    0.03300    0.06570   50.88050  205.00290  205.00290   60.55300   60.55300  263.63060  258.57830    4.21660   50.33540    0.12050    -999.25    0.16870    2.71100    2.71100 2597.68140   77.52000    3.20180  -24.91700  194.85330 20355.25590
 2300.00000   45.43520   28.08420   26.48210   26.80250   26.32010    -999.25  267.11000   37.99380   55.91640 2692.67650    -999.25   -0.02660    0.01010   26.32010  220.76810  220.76810   96.41570   96.41570  267.11000  256.76640   55.91640   26.48210    0.20700    -999.25    0.25960    3.32260    3.32260 2692.67650   40.22030    4.14390  -23.32170   45.43520 20714.05470
 2350.00000   13.96360   14.28580   13.60230   13.58410   13.38620    -999.25  247.83210   74.70380  -13.19430 2624.01950    -999.25    0.01330    0.05030   13.38620  245.25430  245.25430  136.17580  136.17580  247.83210  277.72500  -13.19430   13.60230    0.22730    -999.25    0.27950    3.16510    3.16510 2624.01950   20.57230   27.90790    1.09550   13.96360 20443.89840
 2400.00000    4.43740    4.60230    4.68310    4.94670    5.05880    -999.25  223.78550  197.67530   25.55550 2646.16140    -999.25   -0.00040    0.03730    5.05880  287.20790  287.20790  130.81590  130.81590  223.78550  232.59610   25.55550    4.68310    0.32120    -999.25    0.36880    3.60250    3.60250 2646.16140    8.03290   23.68360   -2.50440    4.43740 20205.90230
 2450.00000    -999.25    -999.25    -999.25    -999.25    -999.25    -999.25    -999.25    -999.25    -999.25    -999.25    -999.25    -999.25    -999.25    -999.25    -999.25    -999.25   60.41050   60.41050    -999.25    -999.25    -999.25    -999.25    -999.25    -999.25    -999.25    -999.25    -999.25    -999.25    -999.25   -7.76340  -33.95140    -999.25 20436.18950
 2500.00000   39.24180   37.91390   37.75620   37.14550   36.78080  165.27560  163.37750   27.18810   -3.90260 2730.82080   -0.00760    -999.25   -0.01220   36.78080  195.91530  195.91530  114.90710  114.90710  163.37750    -999.25   -3.90260   37.75620    0.06290    0.06290    -999.25    3.15820    3.15820 2730.82080   42.66080  -60.53130  -86.71930   39.24180 19033.38670
 2550.00000   76.80750   62.04840   59.10290   57.12180   54.34280  164.56130  163.97590   18.40170   17.59030 2707.43020   -0.00120    -999.25    0.00150   54.34280  191.35300  191.35300  106.77690  106.77690  163.97590    -999.25   17.59030   59.10290    0.06040    0.06040    -999.25    3.22680    3.22680 2707.43020   86.22240  -50.88190  -77.06990   76.80750 19327.79100
