~Version ---------------------------------------------------
VERS. 2.0 : CWLS log ASCII Standard -VERSION 2.0
WRAP.  NO : ONE LINE PER DEPTH STEP
~Well ------------------------------------------------------
STRT.F                      1150.0 : START DEPTH
STOP.F                     11800.0 : STOP DEPTH
STEP.F                    50.00000 : STEP LENGTH
NULL.                      -999.25 : NULL VALUE
COMP.         PETROFINA CANADA LTD : COMPANY
WELL. PCI AMMIN ECONOMY 11-15-68-2 : WELL
FLD .                              : FIELD
LOC .                              : LOCATION
CTRY.                       CANADA : COUNTRY
SRVC.                      Unknown : SERVICE COMPANY
DATE.                  01-Jan-1900 : LOGDATE
PROV.                      Alberta : PROVINCE
UWI .             100111506802W600 : UNIQUE WELL ID
SLAT.WGS84                54.88852 : SURFACE LATITUDE
SLON.WGS84               -118.2198 : SURFACE LONGITUDE
~Curve Information -----------------------------------------
DEPT   .F     : 
GRS    .GAPI  : GAMMA RAY FROM SONIC LOG
CALS   .IN    : CALIPER FROM SONIC LOG
DT     .US/F  : DELTA TIME FROM SONIC LOG
RHOB   .G/C3  : BULK DENSITY
DRHO   .G/C3  : DENSITY CORRECTION
CALD   .IN    : CALIPER FROM DENSITY LOG
GRD    .GAPI  : GAMMA RAY FROM DENSITY LOG
NPHI_SS.DEC   : NEUTRON POROSITY SANDSTONE
DPHI_SS.DEC   : DENSITY POROSITY SANDSTONE
DPHI_LS.DEC   : DENSITY POROSITY LIMESTONE
NPHI_LS.DEC   : NEUTRON POROSITY LIMESTONE
SPR    .MV    : SPONTANEOUS POTENTIAL FROM RESISTIVITY LOG
ILD    .OHMM  : DEEP INDUCTION RESISTIVITY
LL8    .OHMM  : LATEROLOG-8 RESISTIVITY
ILM    .OHMM  : INDUCTION MEDIUM RESISTIVITY
~Params ----------------------------------------------------
PD  .                     GL : PERMANENT DATUM
EPD .FT               2259.3 : ELEVATION PERMANENT DATUM
LMF .                     KB : LOG MEASURED FROM
DAPD.FT                 13.7 : FEET ABOVE PERMANENT DATUM
EKB .FT                 2273 : KELLY BUSHING
EGL .FT               2259.3 : GROUND LEVEL
DATE.               10/12/76 : RUN DATE
RUN .                      1 : RUN NUMBER
DD  .FT                11825 : DEPTH DRILLER
DL  .FT                11801 : DEPTH LOGGER
BLI .FT                11795 : BOTTOM LOG INTERVAL
TLI .FT                 1228 : TOP LOG INTERVAL
CBD .FT                 1232 : CASING BOTTOM DRILLER
CBL .FT                 1228 : CASING BOTTOM LOGGER
BS  .IN                 8.75 : BIT SIZE
BSD .FT                11825 : BIT SIZE AT DEPTH
DFT .                    GEL : DRILLING FLUID TYPE
DFD .                    8.9 : DRILLING FLUID DENSITY
DFV .                    150 : DRILLING FLUID VISCOSITY
DFPH.                   10.5 : DRILLING FLUID PH
DFL .                    5.8 : DRILLING FLUID LOSS
MSS .               FLOWLINE : MUD SAMPLE SOURCE
RMF .OHMM               0.71 : RESISTIVITY MUD FILTRATE SAMPLE
MFST.DEGF                 76 : MUD FILTRATE SAMPLE TEMPERATURE
RMB .OHMM               0.28 : RESISTIVITY MUD AT BHT
TCS .HRS                 4.5 : TIME CIRCULATED STOPPED
LUN .                   7803 : LOGGING UNIT NUMBER
LUL .                     OC : LOGGING UNIT LOCATION
ENGI.                STADNYK : RECORDING ENGINEER
WITN.                  CLARK : WITNESSED BY
CLNT.                A2DTECH : CLIENT CODE
ORIG.          1" 2.5" PRINT : ORIGIN OF DATA
UWI .       100111506802W600 : UNIQUE WELL ID
DICO. A2D Technologies, Inc. : DIGITIZING COMPANY
~Other -----------------------------------------------------
~ASCII -----------------------------------------------------
# ...
 3450.00000  125.49490    9.71540   94.14530    -999.25    -999.25    -999.25    -999.25    -999.25    -999.25    -999.25    -999.25 -114.37510    8.15760   26.38100    7.74720
 3500.00000  123.35050    9.94680   90.71820    -999.25    -999.25   10.50840    -999.25    -999.25    -999.25    -999.25    -999.25 -114.20060    9.78880   32.62810    9.18030
 3550.00000  168.72380    9.60850   99.71500    2.31400    0.28740    9.82150  184.89780    0.41880    0.11590    -999.25    -999.25 -113.51740   12.50280   46.00050   12.05400
 3600.00000  139.80820    9.78090   95.44480    2.16230    0.28070   10.73530  151.65240    0.38430    0.30940    -999.25    -999.25 -114.72090    8.68830   27.25450    8.37540
 3650.00000  146.07900    9.80910   97.49130    2.33090    0.23030   11.09490  162.36070    0.38890    0.19440    -999.25    -999.25 -114.26250    8.17520   28.17370    7.88430
 3700.00000  125.65390   10.49870   94.39810    1.86430    0.22480   13.71680  143.23920    0.42650    0.46990    -999.25    -999.25 -117.59360    9.14820   29.67480    8.75750
 3750.00000  103.94890   10.54920   79.88850    2.15690    0.20540   13.50750  119.11150    0.24680    0.34730    -999.25    -999.25 -116.01270   11.73640   30.86410    9.83450
 3800.00000   87.09250   13.66210   79.19190    2.04500    0.21870    -999.25   93.06340    0.47980    0.35670    -999.25    -999.25 -114.55760    9.71650   24.99110    7.96240
 3850.00000   92.18670   12.20470   90.39810    2.12370    0.25780   12.61550  114.73810    0.42940    0.30140    -999.25    -999.25 -114.06360    6.42550   19.19150    5.93140
 3900.00000  120.49330   13.16290  101.94830    1.61870    0.16360   15.01130  135.83660    0.45010    -999.25    -999.25    -999.25 -113.57340    5.45510   23.79810    4.48040
 3950.00000  108.49940    9.69460   86.81240    2.23720    0.27480   11.70000  127.70630    0.31020    0.24120    -999.25    -999.25 -114.41020    8.18290   25.20950    7.81120
 4000.00000  125.38260   10.04520   78.09950    2.51080    0.15520   10.44140  135.05720    0.28170    0.07720    -999.25    -999.25 -114.13990   11.04340   31.61610   10.48560
 4050.00000  103.86920   10.19650   81.27050    2.22880    0.28120   10.38440  117.04520    0.26620    0.18190    -999.25    -999.25 -112.90500    9.53990   23.73050    9.05430
 4100.00000  132.70260   10.10710   89.63100    2.19210    0.24670   12.12750  142.57320    0.37180    0.30920    -999.25    -999.25 -112.91290    6.61830   19.54020    6.00170
 4150.00000   98.41490    9.76300   80.76020    2.38020    0.13450    9.59510  110.70410    0.26190    0.13860    -999.25    -999.25 -124.11500   15.69900   48.69250   14.68100
 4200.00000  116.00680   10.39610   76.41840    2.44170    0.27410   11.56830  126.91920    0.26920    0.11890    -999.25    -999.25 -113.31810   11.13950   37.36530   10.96730
 4250.00000  146.55760   10.56580   87.94330    2.08410    0.23950   12.26550  142.88730    0.35600    0.34670    -999.25    -999.25 -111.97680    7.15090   21.95560    6.77650
 4300.00000  135.38360   10.80930   86.54520    2.13080    0.24830   12.72060  138.26580    0.43440    0.32260    -999.25    -999.25 -112.00680    7.03780   21.37120    6.49390
 4350.00000  152.81680   11.24580   98.40790    2.04960    0.26630   11.73050  150.68440    0.43030    0.36310    -999.25    -999.25 -110.30670    3.67430   12.31570    3.45350
 4400.00000  141.22010   11.07350   98.90850    2.12880    0.19960   12.67680  150.99540    0.40980    0.29640    -999.25    -999.25 -110.16380    3.82640   12.87930    3.71060
 4450.00000  127.81420   10.16270   88.96530    2.08450    0.23480   12.51460  127.90380    0.37650    0.33290    -999.25    -999.25 -111.90880    5.85750   17.77840    5.67320
 4500.00000  129.08730   10.72440   92.72460    2.01560    0.22310   12.69570  137.57650    0.40830    0.40040    -999.25    -999.25 -109.32130    4.39700   13.84210    4.11380
 4550.00000  123.02780   10.79270   85.23110    2.22230    0.21450   12.10430  134.72720    0.37360    0.25560    -999.25    -999.25 -110.50410    5.21550   16.24660    5.11790
 4600.00000  119.46420   10.52790   91.32450    2.26260    0.22860   11.16550  132.48740    0.36460    0.21710    -999.25    -999.25 -111.26850    5.03980   15.92010    4.70140
 4650.00000  126.83830   10.14780   90.85040    2.16330    0.27470   11.34780  137.12730    0.32380    0.26090    -999.25    -999.25 -110.65210    6.64460   19.97240    6.38310
 4700.00000  162.70110    9.94130   83.22250    2.30130    0.31360   10.28200  182.44890    0.30210    0.18610    -999.25    -999.25 -111.23160    9.05850   28.84040    8.57960
 4750.00000   27.37730    8.66250   74.78130    2.42880    0.10010    8.90050   33.31370    0.17550    0.14610    -999.25    -999.25 -148.84330    8.25730   32.71190    9.05390
 4800.00000   47.73010    8.80420   74.92050    2.51130    0.09930    9.08200   45.62230    0.20780    0.11670    -999.25    -999.25 -147.77260    8.35270   29.54350    9.77460
 4850.00000  116.39010   10.97370   98.06790    2.18140    0.18580   11.19960  129.62450    0.43450    0.34120    -999.25    -999.25 -107.06120    3.83780   14.25300    3.32230
 4900.00000   91.01810   11.66980  106.45870    1.80370    0.19740   10.90270  103.11850    0.53170    0.46800    -999.25    -999.25 -110.92100    9.88230   47.42190    7.89200
 4950.00000   71.24200   10.65410   78.41990    2.45800    0.04380    9.99990   75.52960    0.28660    0.07620    -999.25    -999.25 -111.83440    5.41770   25.62700    5.00990
 5000.00000   86.56280   10.21880   74.13150    2.56830    0.12520   10.03200   92.44060    0.21540    0.06120    -999.25    -999.25 -116.82220   15.77520   45.82130   16.80490
 5050.00000   90.18180   10.15600   71.74570    2.56190    0.04470   10.37860   97.53300    0.23160    0.05090    -999.25    -999.25 -114.03710   14.87060   42.31300   14.39530
 5100.00000   50.92890    9.51430   71.46860    2.51180    0.11520    9.73940   58.72510    0.21160    0.07740    -999.25    -999.25 -129.43070   16.65590   55.28940   17.89950
 5150.00000   92.66830    9.84670   78.23450    2.45230    0.23980   10.14330  110.75050    0.26560    0.14870    -999.25    -999.25 -117.48160   15.83570   56.58740   17.00250
 5200.00000   32.40590    9.04540   76.80360    2.40210    0.10760    8.92440   41.38920    0.19040    0.13950    -999.25    -999.25 -140.55270    9.44500   34.79080   10.28980
 5250.00000   68.07070   10.36740   69.02720    2.60360    0.04590   10.07140   74.74210    0.16240    0.03240    -999.25    -999.25 -112.59090   20.72580   70.77020   21.42420
 5300.00000   63.00790    9.84190   68.85950    2.52510    0.05660    9.95780   66.53330    0.19240    0.08220    -999.25    -999.25 -125.05640   12.68710   67.07060   14.46940
 5350.00000   94.46060    9.67400   74.32500    2.47990    0.18380    9.80510  110.92690    0.27040    0.08990    -999.25    -999.25 -113.09010   13.04740   75.10270   14.47720
 5400.00000   62.61540    9.92710   71.80590    2.52910    0.04180    9.90810   76.88760    0.21330    0.04290    -999.25    -999.25 -119.67140   13.85150   68.12460   14.79240
 5450.00000   55.23690    8.86140   70.59690    2.52210    0.10570    9.01590   55.31620    0.18890    0.09040    -999.25    -999.25 -145.69450   10.02020   43.56100   12.74120
 5500.00000  105.35050    9.71330   73.49620    2.61360    0.12410    9.72550  128.65450    0.26860    0.00270    -999.25    -999.25 -107.02940   14.93040   64.69420   15.38110
 5550.00000  113.69960    9.93400   77.84370    2.48450    0.31500    9.81320  130.51780    0.24080    0.06750    -999.25    -999.25 -106.00220   17.34100   65.55710   18.36970
 5600.00000  101.92020    9.64540   69.12980    2.59840    0.03400    9.55180  113.93190    0.19820    0.01290    -999.25    -999.25 -110.36580   18.97530   57.27040   20.95930
 5650.00000   58.34240    9.17400   70.84690    2.47750    0.06800    9.15520   70.64910    0.21330    0.13090    -999.25    -999.25 -135.18460   10.81550   45.73850   13.07830
 5700.00000   98.99210   10.04450   69.58710    2.54990    0.28120   10.76350  105.68800    0.21560    0.03390    -999.25    -999.25 -110.37320   16.46790   53.66920   16.72550
