~Version ---------------------------------------------------
VERS.      2.0 : CWLS log ASCII Standard -VERSION 2.0
WRAP.       NO : One line per depth step
CREA. 08/28/13 : LAS Creation Date
~Well ------------------------------------------------------
STRT.M                            300.0 : START DEPTH
STOP.M                           3900.0 : STOP DEPTH
STEP.M                         50.00000 : STEP LENGTH
NULL.                           -999.25 : NULL VALUE
COMP.  CHEVRON CANADA RESOURCES LIMITED : COMPANY
WELL. CHEVRON SHELL SIMONETTE 2-3-64-26 : WELL
FLD .                                   : FIELD
LOC .                                   : LOCATION
CTRY.                            CANADA : COUNTRY
SRVC.                      Schlumberger : SERVICE COMPANY
DATE.                       03-Oct-1995 : LOGDATE
PROV.                           Alberta : PROVINCE
UWI .                  100163406326W500 : UNIQUE WELL ID
SLAT.WGS84                     54.49935 : SURFACE LATITUDE
SLON.WGS84                    -117.8368 : SURFACE LONGITUDE
~Curve Information -----------------------------------------
DEPT   .M      : DEPTH METER
CAL2   .MM     : CALIPER 2 FROM DENSITY LOG
CALD   .MM     : CALIPER FROM DENSITY LOG
DPHI_LS.DEC    : DENSITY POROSITY LIMESTONE [M=2710,F=1000] FROM DENSITY LOG
DPHI_SS.DEC    : DENSITY POROSITY SANDSTONE [M=2650,F=1000] FROM DENSITY LOG
DRHO   .KG/M3  : DENSITY CORRECTION FROM DENSITY LOG
DT     .US/M   : DELTA TIME FROM SONIC LOG
GRD    .GAPI   : GAMMA RAY FROM DENSITY LOG
GRS    .GAPI   : GAMMA RAY FROM SONIC LOG
HD     .MM     : HOLE DIAMETER FROM SONIC LOG
IDPH   .OHMM   : DEEP INDUCTION PHASE RESISTIVITY FROM RESISTIVITY LOG
IMPH   .OHMM   : MEDIUM INDUCTION PHASE RESISTIVITY FROM RESISTIVITY LOG
NPOR_LS.DEC    : NEUTRON POROSITY LIMESTONE FROM DENSITY LOG
NPOR_SS.DEC    : NEUTRON POROSITY SANDSTONE FROM DENSITY LOG
PEF    .B/E    : PHOTOELECTRIC FACTOR FROM DENSITY LOG
RHOB   .KG/M3  : BULK DENSITY FROM DENSITY LOG
SFLU   .OHMM   : SPHERICALLY FOCUSED RESISTIVITY FROM RESISTIVITY LOG
SPR    .MV     : SPONTANEOUS POTENTIAL FROM RESISTIVITY LOG
TEND   .N      : TENSION FROM DENSITY LOG
TENR   .N      : TENSION FROM RESISTIVITY LOG
~Params ----------------------------------------------------
PD  .                         GL : PERMANENT DATUM
EPD .M                    814.11 : ELEVATION PERMANENT DATUM
LMF .                         KB : LOG MEASURED FROM
DAPD.M                       6.9 : FEET ABOVE PERMANENT DATUM
DMF .                         KB : DRILLING MEASURED FROM
EKB .M                    920.96 : KELLY BUSHING
EDF .M                    920.66 : DRILLING FLOOR
EGL .M                    914.11 : GROUND LEVEL
DATE.                   10/03/95 : RUN DATE
RUN .                          1 : RUN NUMBER
DD  .M                      3912 : DEPTH DRILLER
DL  .M                      3914 : DEPTH LOGGER
BLI .M                    3912.1 : BOTTOM LOG INTERVAL
TLI .M                     457.5 : TOP LOG INTERVAL
CS  .MM                    244.5 : CASING SIZE
CBD .M                     457.5 : CASING BOTTOM DRILLER
CBL .M                     457.5 : CASING BOTTOM LOGGER
BS  .MM                      222 : BIT SIZE
BSD .M                      3912 : BIT SIZE AT DEPTH
DFT .                GEL POLYMER : DRILLING FLUID TYPE
DFD .                       1190 : DRILLING FLUID DENSITY
DFV .                         73 : DRILLING FLUID VISCOSITY
DFPH.                       10.5 : DRILLING FLUID PH
DFL .                          6 : DRILLING FLUID LOSS
MSS .                   FLOWLINE : MUD SAMPLE SOURCE
RMS .OHMM                   1.54 : RESISTIVITY MUD SAMPLE
MST .DEGC                     13 : MUD SAMPLE TEMPERATURE
RMF .OHMM                   1.83 : RESISTIVITY MUD FILTRATE SAMPLE
MFST.DEGC                     16 : MUD FILTRATE SAMPLE TEMPERATURE
RMC .OHMM                   2.08 : RESISTIVITY MUD CAKE
MCST.DEGC                     16 : MUD CAKE SAMPLE TEMPERATURE
MFSS.                   MEASURED : MUD FILTRATE SAMPLE SOURCE
MCSS.                   MEASURED : MUD CAKE SAMPLE SOURCE
RMB .OHMM                  0.487 : RESISTIVITY MUD AT BHT
TLAB.HRS                    1200 : TIME LOGGER AT BOTTOM
LUN .                       8381 : LOGGING UNIT NUMBER
LUL .              GRANDE PRAIRE : LOGGING UNIT LOCATION
ENGI.                     FENSKY : RECORDING ENGINEER
WITN.                       LANG : WITNESSED BY
CLNT.                    A2DTECH : CLIENT CODE
ORIG. 6.5"/100M 16.5"/100M PRINT : ORIGIN OF DATA
UWI .           100163406326W500 : UNIQUE WELL ID
DICO.     A2D Technologies, Inc. : DIGITIZING COMPANY
~Other -----------------------------------------------------
~ASCII -----------------------------------------------------
  300.00000    -999.25    -999.25    -999.25    -999.25    -999.25    -999.25    -999.25   40.49240    -999.25    -999.25    -999.25    -999.25    -999.25    -999.25    -999.25    -999.25    -999.25    -999.25    -999.25
  350.00000    -999.25    -999.25    -999.25    -999.25    -999.25    -999.25    -999.25   53.04180    -999.25    -999.25    -999.25    -999.25    -999.25    -999.25    -999.25    -999.25    -999.25    -999.25    -999.25
  400.00000    -999.25    -999.25    -999.25    -999.25    -999.25    -999.25    -999.25   57.06890    -999.25    -999.25    -999.25    -999.25    -999.25    -999.25    -999.25    -999.25    -999.25    -999.25    -999.25
  450.00000    -999.25    -999.25    -999.25    -999.25    -999.25    -999.25   43.27380   43.19720    -999.25    -999.25    -999.25    -999.25    -999.25    -999.25    -999.25    -999.25    -999.25    -999.25    -999.25
  500.00000  220.56520  240.16350    -999.25    -999.25    -999.25  345.95910   89.68780   87.29160  248.74680    4.67010    4.04940    -999.25    -999.25    -999.25    -999.25    3.97450  -99.77540 8824.96580 7317.80220
  550.00000  224.69180  315.17340    -999.25    -999.25    -999.25  398.79470   64.94370   69.02960  249.06780    5.22170    3.85580    -999.25    -999.25    -999.25    -999.25    5.13920 -102.04900 8883.38380 7624.44290
  600.00000  228.83720  288.01410    -999.25    -999.25    -999.25  316.58920   83.52160   70.73160  246.43110    4.88200    4.48400    -999.25    -999.25    -999.25    -999.25    4.53940  -96.70600 9039.97270 7686.05570
  650.00000  227.49320  239.65510    -999.25    -999.25    -999.25  302.38680   53.72460   52.53760  230.28690   10.01320    9.64990    -999.25    -999.25    -999.25    -999.25   10.35970  -92.35870 9130.46480 7873.11870
  700.00000  224.71770  250.29690    -999.25    -999.25    -999.25  289.72380   53.30350   63.50840  241.13900   10.92320    9.66830    -999.25    -999.25    -999.25    -999.25    9.09240 -102.60100 9318.30860 7704.75930
  750.00000  243.15920  250.37100    -999.25    -999.25    -999.25  297.53870   90.29490   90.74550  231.54110    6.52590    6.04740    -999.25    -999.25    -999.25    -999.25    6.11000  -75.86980 9679.97460 7903.92140
  800.00000  246.39820  252.42660    -999.25    -999.25    -999.25  331.58180   73.55130   75.91240  239.01240    5.44010    5.12460    -999.25    -999.25    -999.25    -999.25    5.06000  -76.69420 10313.23540 8197.60940
  850.00000  274.25540  289.30020    -999.25    -999.25    -999.25  276.34730   78.61320   70.20210  254.97130    9.20430    8.31160    -999.25    -999.25    -999.25    -999.25    7.38150  -74.93350 10482.46000 8295.25780
  900.00000  234.95820  253.37250    -999.25    -999.25    -999.25  313.36290   74.47340   76.82370  233.63040    4.64860    4.40460    -999.25    -999.25    -999.25    -999.25    4.56730  -80.55060 10736.08790 8492.29000
  950.00000  278.98100  249.14940    -999.25    -999.25    -999.25  313.44160   78.19420   74.56950  233.74510    5.07960    4.66410    -999.25    -999.25    -999.25    -999.25    4.39140  -80.34960 10996.56050 9209.09860
 1000.00000  253.39900  256.39870    -999.25    -999.25    -999.25  276.52840   53.81810   51.40840  270.89950    7.03200    6.35560    -999.25    -999.25    -999.25    -999.25    6.08180  -88.29640 10769.55180 9272.50100
 1050.00000  233.47260  259.27760    -999.25    -999.25    -999.25  281.08710   64.71970   59.79270  234.54080    6.48810    6.01260    -999.25    -999.25    -999.25    -999.25    5.89340  -77.14030 11003.72950 9490.52340
 1100.00000  243.73520  260.30360    -999.25    -999.25    -999.25  305.94600   63.51400   63.21350  234.03350    5.29260    4.92650    -999.25    -999.25    -999.25    -999.25    4.90620  -77.16070 11511.47170 9508.13380
 1150.00000  279.75340  300.92710    -999.25    -999.25    -999.25  364.19220   59.95750   59.18770  250.19790    6.57220    4.60020    -999.25    -999.25    -999.25    -999.25    4.19600  -74.56780 11623.90820 9817.86430
 1200.00000  241.99620  291.75460    -999.25    -999.25    -999.25  275.49810   67.81800   65.77590  256.23430    9.25590    9.09790    -999.25    -999.25    -999.25    -999.25    8.83980  -82.03970 11461.14650 9837.83790
 1250.00000  265.55700  287.76640    -999.25    -999.25    -999.25  279.80780  101.26740   88.56210  266.79830   10.19510    9.41430    -999.25    -999.25    -999.25    -999.25    9.22280  -91.96710 11855.68750 9947.88480
 1300.00000  288.49950  354.24010    -999.25    -999.25    -999.25  278.12130   84.48150   78.70130  304.86020   12.86650   11.21730    -999.25    -999.25    -999.25    -999.25   12.01760  -88.95460 12045.55760 10555.51660
 1350.00000  251.43810  306.54440    -999.25    -999.25    -999.25  273.67270   90.51260   88.45330  293.67150    9.36150    8.10260    -999.25    -999.25    -999.25    -999.25    8.38210  -82.41780 12409.11330 10643.08590
 1400.00000  278.73430  292.52680    -999.25    -999.25    -999.25  268.46460   95.73780   85.98990  289.48650   10.51590   10.00640    -999.25    -999.25    -999.25    -999.25   10.42920  -87.74140 12166.58590 10594.18460
 1450.00000  233.08430  221.73570    -999.25    -999.25    -999.25  240.14150   21.62400   20.43680  230.73870   23.28910   21.14080    -999.25    -999.25    -999.25    -999.25   19.82660 -112.98550 12737.14650 10808.95610
 1500.00000  265.91780  284.65070    -999.25    -999.25    -999.25  254.67350   92.15650   89.11220  285.98440   13.24490   12.51710    -999.25    -999.25    -999.25    -999.25   12.25330  -72.08680 13043.55270 11320.18850
 1550.00000  277.46970  275.62630    -999.25    -999.25    -999.25  287.22000  106.19140  109.07950  274.05540   10.11330    9.03570    -999.25    -999.25    -999.25    -999.25   10.06330  -63.14190 12481.16020 11319.58110
 1600.00000  245.16860  270.60240    -999.25    -999.25    -999.25  284.11920  100.95570  100.45760  247.38990   12.41940   11.96710    -999.25    -999.25    -999.25    -999.25   12.65620  -69.72700 14011.14360 11835.96480
 1650.00000  245.13230  244.00030    -999.25    -999.25    -999.25  263.37550   81.88930   94.79550  237.50600   26.91390   31.02640    -999.25    -999.25    -999.25    -999.25   54.33610  -76.61100 14245.45900 12437.78520
 1700.00000  232.97000  284.01200    -999.25    -999.25    -999.25  331.32520  122.50950  115.60030  261.49010   10.65540    9.83070    -999.25    -999.25    -999.25    -999.25   12.09880  -82.78860 14501.51660 12552.13960
 1750.00000  236.05970  297.76100    -999.25    0.22410  141.30000  253.07420  100.29960   99.09000  264.29280   13.04770   11.29040    -999.25    0.29650    2.97180 2279.79250   10.28720  -80.01250 14630.82130 12725.04880
 1800.00000  277.53550  252.79050    -999.25    0.06070   35.40000  266.07200   87.68540   90.97240  257.84620    7.66240    8.63450    -999.25    0.24170    2.80420 2563.25950    8.88610  -67.66240 14611.54690 12913.81740
 1850.00000  251.49310  274.19720    -999.25    0.07980   46.40000  260.92580   94.82320   94.57390  266.44940    8.95980    8.59820    -999.25    0.31420    2.79660 2519.93140    8.87870  -72.09130 14902.11620 13006.61910
 1900.00000  271.49740  322.27040    -999.25    0.31390   34.40000  276.74200   87.98480   84.64080  292.25810    4.40250    4.30400    -999.25    0.44270    2.46490 2130.21950    5.72900  -65.60130 15099.28030 13392.59770
 1950.00000  253.58400  306.80990    -999.25    0.19430  161.80000  241.37230   86.69440   86.62380  286.12570   18.22900   17.66080    -999.25    0.21260    2.39980 2328.96310   18.89500  -77.25320 15246.25880 13117.36430
 2000.00000  310.37100  305.92390    -999.25    0.28940  101.80000  253.28730   82.12450   76.49320  295.69090    9.32320    9.99520    -999.25    0.41410    2.73340 2160.81470   12.50790  -78.19120 15585.42190 12976.31150
 2050.00000  321.30250  392.59470    -999.25    0.33140   85.30000  257.69880   76.32100   68.88850  332.19020    9.85010    8.02360    -999.25    0.40390    2.47400 2071.06010    8.04150  -86.63360 15860.58200 13448.48540
 2100.00000  278.88770  292.27050    -999.25    0.10490  144.50000  167.37420   69.79830   63.40170  299.59160   29.65990   22.60800    -999.25    0.30060    3.44970 2516.73360   36.05910  -20.43510 16120.08200 13969.91410
