~Version ---------------------------------------------------
VERS.      2.0 : CWLS log ASCII Standard -VERSION 2.0
WRAP.       NO : One line per depth step
CREA. 11/22/17 : LAS Creation Date
~Well ------------------------------------------------------
STRT.FT                      1000.0 : START DEPTH
STOP.FT                      9700.0 : STOP DEPTH
STEP.FT                    50.00000 : STEP LENGTH
NULL.                       -999.25 : NULL VALUE
COMP. HUDSON'S BAY OIL & GAS CO LTD : COMPANY
WELL.         HB MEEKWAP 11-8-66-18 : WELL
FLD .                               : FIELD
LOC .                               : LOCATION
CTRY.                        CANADA : COUNTRY
SRVC.                  Schlumberger : SERVICE COMPANY
DATE.                   20-Feb-1976 : LOGDATE
PROV.                       Alberta : PROVINCE
UWI .              100110806618W500 : UNIQUE WELL ID
SLAT.WGS84                 54.70024 : SURFACE LATITUDE
SLON.WGS84                -116.6871 : SURFACE LONGITUDE
~Curve Information -----------------------------------------
DEPT    .FT    : Depth Curve
CALDED  .IN    : CALIPER FROM DENSITY LOG [ADJ. TO RESISTIVITY LOG]
CALSED  .IN    : CALIPER FROM SONIC LOG [ADJ. TO RESISTIVITY LOG]
CALWS   .IN    : CALIPER [CALSED]
CILDED  .MMHO  : CONDUCTIVITY FROM RESISTIVITY LOG
CONDWS  .MMHO  : CONDUCTIVITY [1000/DRESWS]
DCORWS  .G/C3  : DENSITY CORRECTION [DRHOED]
DENWS   .G/C3  : FORMATION BULK DENSITY [RHOBED]
DPHILSED.V/V   : DENSITY POROSITY LIMESTONE [M=2.71, F=1.00] FROM DENSITY LOG [ADJ. TO RESISTIVITY LOG]
DPHISSED.V/V   : DENSITY POROSITY SANDSTONE [M=2.65, F=1.00] FROM DENSITY LOG [ADJ. TO RESISTIVITY LOG]
DPOLSWS .V/V   : DENSITY POROSITY LIMESTONE [CALC. FROM DENWS M=2.71, F=1.00]
DRESWS  .OHMM  : DEEP RESISTIVITY [FROM START TO 4053' IF ILDED<5;1000/CILDED;ELSE ILDED
DRHOED  .G/C3  : BULK DENSITY CORRECTION FROM DENSITY LOG [ADJ. TO RESISTIVITY LOG/DPHISSED/DPHILSED]
DTED    .US/F  : DELTA-T FROM SONIC LOG [ADJ. TO RESISTIVITY LOG]
DTWS    .US/F  : COMPRESSIONAL SONIC [DTED]
GRDED   .GAPI  : GAMMA RAY FROM DENSITY LOG [ADJ. TO RESISTIVITY LOG]
GRSED   .GAPI  : GAMMA RAY FROM SONIC LOG [ADJ. TO RESISTIVITY LOG]
GRWS    .GAPI  : GAMMA RAY [GRSED]
ILDED   .OHMM  : DEEP INDUCTION FROM RESISTIVITY LOG
ILMED   .OHMM  : MEDIUM INDUCTION FROM RESISTIVITY LOG
LL8ED   .OHMM  : LATEROLOG 8 FROM RESISTIVITY LOG
MRESWS  .OHMM  : MEDIUM RESISTIVITY [ILMED]
NPHILSED.V/V   : NEUTRON POROSITY LIMESTONE FROM DENSITY LOG [ADJ. TO RESISTIVITY LOG]
NPHISSED.V/V   : NEUTRON POROSITY SANDSTONE FROM DENSITY LOG [ADJ. TO RESISTIVITY LOG]
NPOLSWS .V/V   : NEUTRON POROSITY LIMESTONE [NPHISSED MATRIX CONVERSION FOR LIMESTONE FROM SCHLUMBERGER (CNL), SPL. TO NPHILSED @ 5502']
RHOBED  .G/C3  : BULK DENSITY FROM DENSITY LOG [ADJ. TO RESISTIVITY LOG/DPHISSED/DPHILSED]
SPRED   .MV    : SPONTANEOUS POTENTIAL FROM RESISTIVITY LOG
SPWS    .MV    : SPONTANEOUS POTENTIAL [BASELINE 0 MV, SPRED]
SRESWS  .OHMM  : SHALLOW RESISTIVITYV [LL8ED]
~Params ----------------------------------------------------
PD  .                     GL : PERMANENT DATUM
EPD .FT                 2674 : ELEVATION PERMANENT DATUM
LMF .                     KB : LOG MEASURED FROM
DAPD.FT                 16.8 : FEET ABOVE PERMANENT DATUM
EKB .FT               2690.8 : KELLY BUSHING
EGL .FT                 2674 : GROUND LEVEL
DATE.               02/20/76 : RUN DATE
RUN .                      1 : RUN NUMBER
DD  .FT                 9730 : DEPTH DRILLER
DL  .FT                 9732 : DEPTH LOGGER
BLI .FT                 9726 : BOTTOM LOG INTERVAL
TLI .FT                  995 : TOP LOG INTERVAL
CBD .FT                  995 : CASING BOTTOM DRILLER
CBL .FT                  995 : CASING BOTTOM LOGGER
BS  .IN                 8.75 : BIT SIZE
BSD .FT                 9730 : BIT SIZE AT DEPTH
DFT .                    GEL : DRILLING FLUID TYPE
DFD .                    9.6 : DRILLING FLUID DENSITY
DFV .                    120 : DRILLING FLUID VISCOSITY
DFPH.                      9 : DRILLING FLUID PH
DFL .                     10 : DRILLING FLUID LOSS
MSS .               FLOWLINE : MUD SAMPLE SOURCE
RMS .OHMM               0.68 : RESISTIVITY MUD SAMPLE
MST .DEGF                199 : MUD SAMPLE TEMPERATURE
RMF .OHMM                1.9 : RESISTIVITY MUD FILTRATE SAMPLE
MFST.DEGF                 60 : MUD FILTRATE SAMPLE TEMPERATURE
RMB .OHMM               0.57 : RESISTIVITY MUD AT BHT
LUN .                   7800 : LOGGING UNIT NUMBER
LUL .                    EDM : LOGGING UNIT LOCATION
ENGI.               BERNLSKY : RECORDING ENGINEER
WITN.                HARDMAN : WITNESSED BY
CLNT.                A2DTECH : CLIENT CODE
ORIG.            2" 5" PRINT : ORIGIN OF DATA
UWI .       100110806618W500 : UNIQUE WELL ID
DICO. A2D Technologies, Inc. : DIGITIZING COMPANY
~Other -----------------------------------------------------
DIL-CNFD-BHC LOG RUN
ALL DATA FROM DIL LOG VERIFY FROM TOP -4048'FROM 2" SCALE LOG
~ASCII -----------------------------------------------------
# ...
 6000.00000    9.52450    9.62750    9.62750    -999.25   38.51220    0.02910    2.68790    0.01040    -999.25    0.01290   25.96580    0.02910   59.14450   59.14450   76.65630   75.67290   75.67290   25.96580   23.66300   36.19290   23.66300    0.04530    -999.25    0.04530    2.68790 -194.54780   13.61420   36.19290
 6050.00000    9.35590    9.58730    9.58730    -999.25   85.48690    0.05860    2.72620   -0.01250    -999.25   -0.00950   11.69770    0.05860   58.31570   58.31570   45.36050   45.77160   45.77160   11.69770    9.15810   34.50280    9.15810    0.09340    -999.25    0.09340    2.72620 -295.01640  -85.92350   34.50280
 6100.00000    9.26270    9.46190    9.46190    -999.25  359.40200    0.16510    2.66300    0.02290    -999.25    0.02750    2.78240    0.16510   67.42580   67.42580   41.38130   43.10910   43.10910    2.78240    2.56380    9.21600    2.56380    0.18440    -999.25    0.18440    2.66300 -323.73370 -113.70380    9.21600
 6150.00000    9.40110    9.28640    9.28640    -999.25  170.80290    0.05150    2.72400   -0.00060    -999.25   -0.00820    5.85470    0.05150   58.57120   58.57120   26.59850   29.77140   29.77140    5.85470    5.55900   23.09960    5.55900    0.07920    -999.25    0.07920    2.72400 -305.93230  -94.97160   23.09960
 6200.00000    9.37270    9.41240    9.41240    -999.25   41.38880    0.10930    2.62410    0.03650    -999.25    0.05020   24.16110    0.10930   57.15230   57.15230   64.49370   66.11700   66.11700   24.16110   22.08970   47.52550   22.08970    0.07530    -999.25    0.07530    2.62410 -247.71760  -35.81990   47.52550
 6250.00000    9.27090    9.53020    9.53020    -999.25   36.36350    0.10140    2.76790   -0.03640    -999.25   -0.03390   27.50010    0.10140   51.84310   51.84310   18.92870   20.13730   20.13730   27.50010   19.20770   96.02890   19.20770    0.02200    -999.25    0.02200    2.76790 -346.25490 -133.42640   96.02890
 6300.00000    9.50940   10.02110   10.02110    -999.25   14.26460    0.03450    2.70330    0.00580    -999.25    0.00390   70.10350    0.03450   51.32130   51.32130   15.18180   13.06440   13.06440   70.10350   55.68070  206.43650   55.68070    0.01000    -999.25    0.01000    2.70330 -330.24120 -116.48180  206.43650
 6350.00000    9.69010    9.51960    9.51960    -999.25    7.29340    0.06900    2.75710   -0.03560    -999.25   -0.02750  137.11050    0.06900   50.01920   50.01920   19.99020   21.49130   21.49130  137.11050  110.90710 1107.92570  110.90710    0.00510    -999.25    0.00510    2.75710 -291.20560  -76.50930 1107.92570
 6400.00000   10.47330   10.47690   10.47690    -999.25  377.94320    0.03680    2.66560    0.02450    -999.25    0.02600    2.64590    0.03680   65.44220   65.44220   57.88030   57.34750   57.34750    2.64590    2.48540    3.74610    2.48540    0.16420    -999.25    0.16420    2.66560 -230.47140  -14.96800    3.74610
 6450.00000    9.86400    9.34460    9.34460    -999.25  121.58050    0.07340    2.71650   -0.00790    -999.25   -0.00380    8.22500    0.07340   61.29450   61.29450   69.02840   72.79830   72.79830    8.22500    7.28430   16.92590    7.28430    0.12300    -999.25    0.12300    2.71650 -224.53630   -9.28010   16.92590
 6500.00000   10.07750    9.74330    9.74330    -999.25  179.00940    0.05580    2.70530    0.00320    -999.25    0.00270    5.58630    0.05580   61.67720   61.67720   39.96300   39.55200   39.55200    5.58630    5.04520    7.24450    5.04520    0.08920    -999.25    0.08920    2.70530 -240.80570  -25.79500    7.24450
 6550.00000   10.22770   10.01580   10.01580    -999.25   30.22720    0.02890    2.69980    0.00420    -999.25    0.00600   33.08280    0.02890   54.86950   54.86950   23.52350   27.20210   27.20210   33.08280   31.53920   46.68560   31.53920    0.01810    -999.25    0.01810    2.69980 -259.22000  -44.45480   46.68560
 6600.00000    9.57710    9.30860    9.30860    -999.25   11.18330    0.02660    2.71570   -0.00890    -999.25   -0.00330   89.41930    0.02660   53.45440   53.45440   23.09360   27.20300   27.20300   89.41930   84.19270  197.87550   84.19270    0.01500    -999.25    0.01500    2.71570 -244.97700  -30.45900  197.87550
 6650.00000    9.24310    9.06880    9.06880    -999.25   15.92410    0.04420    2.71110    0.00120    -999.25   -0.00060   62.79780    0.04420   53.60210   53.60210   27.16130   30.11660   30.11660   62.79780   57.08590  104.57530   57.08590    0.01720    -999.25    0.01720    2.71110 -280.99180  -66.71930  104.57530
 6700.00000    9.21600    8.99810    8.99810    -999.25   18.82830    0.02020    2.69960    0.00220    -999.25    0.00610   53.11150    0.02020   54.50160   54.50160   33.56370   30.84620   30.84620   53.11150   49.33500   82.31610   49.33500    0.02340    -999.25    0.02340    2.69960 -290.15400  -76.12860   82.31610
 6750.00000    8.98020    8.99950    8.99950    -999.25   22.48770    0.05300    2.71560   -0.00300    -999.25   -0.00330   44.46880    0.05300   55.30510   55.30510   35.46950   36.89400   36.89400   44.46880   41.95590   66.38020   41.95590    0.03110    -999.25    0.03110    2.71560 -329.84310 -116.06330   66.38020
 6800.00000    9.38740    9.10690    9.10690    -999.25   23.70890    0.06360    2.73060   -0.00750    -999.25   -0.01200   42.17830    0.06360   55.92650   55.92650   41.71310   40.23970   40.23970   42.17830   39.74470   55.29310   39.74470    0.03270    -999.25    0.03270    2.73060 -355.92110 -142.38680   55.29310
 6850.00000    9.07580    9.07570    9.07570    -999.25   21.27040    0.02240    2.69300    0.00880    -999.25    0.00990   47.01370    0.02240   56.52510   56.52510   46.04700   43.20830   43.20830   47.01370   45.68200   65.17490   45.68200    0.03770    -999.25    0.03770    2.69300 -356.44000 -143.15280   65.17490
 6900.00000    8.93720    8.89080    8.89080    -999.25   22.90560    0.02380    2.70150    0.00370    -999.25    0.00500   43.65750    0.02380   56.22940   56.22940   42.73500   40.26370   40.26370   43.65750   41.82970   55.76630   41.82970    0.03810    -999.25    0.03810    2.70150 -297.38840  -84.34680   55.76630
 6950.00000    9.10140    9.09130    9.09130    -999.25   23.70650    0.01900    2.68770    0.00810    -999.25    0.01300   42.18250    0.01900   56.74750   56.74750   48.77320   46.22400   46.22400   42.18250   39.97100   52.65940   39.97100    0.04780    -999.25    0.04780    2.68770 -248.17960  -35.38510   52.65940
 7000.00000    9.24210    9.26540    9.26540    -999.25    7.09490    0.05710    2.76320   -0.03530    -999.25   -0.03110  140.94630    0.05710   51.48990   51.48990   23.17750   20.68810   20.68810  140.94630  122.57800  365.67650  122.57800    0.00820    -999.25    0.00820    2.76320 -260.99400  -48.44500  365.67650
 7050.00000    9.10580    9.12180    9.12180    -999.25   91.38090    0.02840    2.41700    0.16630    -999.25    0.17130   10.94320    0.02840   83.22290   83.22290  281.47990  302.06820  302.06820   10.94320    6.73360    9.04360    6.73360    0.24320    -999.25    0.24320    2.41700 -229.67630  -17.27770    9.04360
 7100.00000    9.47990    9.41270    9.41270    -999.25    5.52430    0.02420    2.69700    0.00630    -999.25    0.00760  181.01690    0.02420   50.96890   50.96890   17.35470   14.62000   14.62000  181.01690  134.10850  345.78370  134.10850    0.00400    -999.25    0.00400    2.69700 -304.14910  -91.14160  345.78370
 7150.00000   10.07450    9.29460    9.29460    -999.25    5.03620    0.03850    2.73300   -0.01370    -999.25   -0.01350  198.56330    0.03850   50.15100   50.15100   14.24150   15.94010   15.94010  198.56330  138.72270  444.85590  138.72270    0.00170    -999.25    0.00170    2.73300 -315.50020 -101.88780  444.85590
 7200.00000    9.73090    9.29470    9.29470    -999.25    9.12810    0.05120    2.73520   -0.01280    -999.25   -0.01470  109.55130    0.05120   50.29160   50.29160   17.51820   16.37120   16.37120  109.55130   88.21640  217.74460   88.21640    0.00620    -999.25    0.00620    2.73520 -319.32520 -105.10390  217.74460
