~Version ---------------------------------------------------
VERS.      2.0 : CWLS log ASCII Standard -VERSION 2.0
WRAP.       NO : One line per depth step
CREA. 12/15/17 : LAS Creation Date
~Well ------------------------------------------------------
STRT.FT                                  850.0 : START DEPTH
STOP.FT                                 9450.0 : STOP DEPTH
STEP.FT                               50.00000 : STEP LENGTH
NULL.                                  -999.25 : NULL VALUE
COMP. THE BRITISH AMERICAN OIL COMPANY LIMITED : COMPANY
WELL.                 BA SNIPE LAKE 4-22-69-18 : WELL
FLD .                                          : FIELD
LOC .                                          : LOCATION
CTRY.                                   CANADA : COUNTRY
SRVC.                                  Unknown : SERVICE COMPANY
DATE.                              19-Nov-1961 : LOGDATE
PROV.                                  Alberta : PROVINCE
UWI .                         100042206918W500 : UNIQUE WELL ID
SLAT.WGS84                            54.98301 : SURFACE LATITUDE
SLON.WGS84                           -116.6662 : SURFACE LONGITUDE
~Curve Information -----------------------------------------
DEPT  .FT         : Depth Curve
CALWS .IN         : CALIPER [MCALED]
CILDED.MMHO       : CONDUCTIVITY FROM RESISTIVITY LOG
CONDWS.MMHO       : CONDUCTIVITY [1000/DRESWS]
DRESWS.OHMM       : DEEP RESISTIVITY [1000/CILDED, IF ILDED < 1, ILDED]
GRNED .UgRa-Eq/T  : GAMMA RAY FROM GRN LOG [ADJ. TO RESISTIVITY LOG]
GRWS  .GAPI       : GAMMA RAY [UgRa-Eq/T*16.5][GRNED]
ILDED .OHMM       : DEEP INDUCTION LOG RESISTIVITY FROM RESISTIVITY LOG
MCALED.IN         : MLT [MICROLOG][IN*25.4] CALIPER FROM MICROLOG
NEUTED.CPS        : NEUTRON FROM GRN LOG [ADJ. TO RESISTIVITY LOG]
NEUTWS.CPS        : NEUTRON [NEUTED]
SNED  .OHMM       : 16 INCH SHORT NORMAL RESISTIVITY FROM RESISTIVITY LOG
SPRED .MV         : SPONTANEOUS POTENTIAL FROM RESISTIVITY LOG [SPR IS DIVIDED BY 2 TO REDUCE READINGS]
SPWS  .MV         : SPONTANEOUS POTENTIAL [BASELINE TO 0 MV, SPRED]
SRESWS.OHMM       : SHALLOW RESISTIVITY [SNED]
~Params ----------------------------------------------------
PD  .                     GL : PERMANENT DATUM
EPD .FT               2982.5 : ELEVATION PERMANENT DATUM
LMF .                     KB : LOG MEASURED FROM
DAPD.FT                 13.5 : FEET ABOVE PERMANENT DATUM
EKB .FT                 2996 : KELLY BUSHING
EGL .FT               2982.5 : GROUND LEVEL
DATE.               11/19/61 : RUN DATE
RUN .                      2 : RUN NUMBER
DD  .FT                 9486 : DEPTH DRILLER
DL  .FT                 9484 : DEPTH LOGGER
BLI .FT                 9483 : BOTTOM LOG INTERVAL
TLI .FT                 6200 : TOP LOG INTERVAL
CBD .FT                  950 : CASING BOTTOM DRILLER
BS  .IN                    9 : BIT SIZE
BSD .FT                 9486 : BIT SIZE AT DEPTH
DFT .                    GEL : DRILLING FLUID TYPE
DFD .                   10.2 : DRILLING FLUID DENSITY
DFV .                    160 : DRILLING FLUID VISCOSITY
DFPH.                    8.5 : DRILLING FLUID PH
DFL .                    7.6 : DRILLING FLUID LOSS
RMS .OHMM                3.2 : RESISTIVITY MUD SAMPLE
MST .DEGF                 60 : MUD SAMPLE TEMPERATURE
RMF .OHMM                1.6 : RESISTIVITY MUD FILTRATE SAMPLE
MFST.DEGF                 71 : MUD FILTRATE SAMPLE TEMPERATURE
RMC .OHMM                3.0 : RESISTIVITY MUD CAKE
MCST.DEGF                 74 : MUD CAKE SAMPLE TEMPERATURE
RMB .OHMM                1.1 : RESISTIVITY MUD AT BHT
TCS .HRS                   3 : TIME CIRCULATED STOPPED
LUN .                   1534 : LOGGING UNIT NUMBER
LUL .                     WC : LOGGING UNIT LOCATION
ENGI.        MILLS HAUSEGGER : RECORDING ENGINEER
WITN.               ANDERSON : WITNESSED BY
CLNT.                A2DTECH : CLIENT CODE
ORIG.            2" 5" PRINT : ORIGIN OF DATA
UWI .       100042206918W500 : UNIQUE WELL ID
DICO. A2D Technologies, Inc. : DIGITIZING COMPANY
~Other -----------------------------------------------------
~ASCII -----------------------------------------------------
# ...
 5750.00000   10.25610  809.86130  515.62340    1.93940    2.15560   35.56740    1.93940   10.25610  224.22230  224.22230    7.77580  -95.86280  -59.35650    7.77580
 5800.00000   10.42900  256.11070  230.84030    4.33200    2.66340   43.94610    4.33200   10.42900  240.35720  240.35720    8.77550  -76.12920  -39.89050    8.77550
 5850.00000    9.83040  321.59300  265.32940    3.76890    3.52660   58.18890    3.76890    9.83040  225.30050  225.30050    7.59790  -78.16550  -42.19610    7.59790
 5900.00000    8.50910  195.35150  173.15420    5.77520    1.12930   18.63350    5.77520    8.50910  265.23260  265.23260   32.51760  -99.53500  -63.83310   32.51760
 5950.00000    8.57460  109.34980  105.92210    9.44090    1.63850   27.03530    9.44090    8.57460  272.33870  272.33870   46.56670 -108.20260  -72.77000   46.56670
 6000.00000    8.29330   82.56370   80.50950   12.42090    1.50050   24.75830   12.42090    8.29330  311.78140  311.78140   69.31860 -108.64470  -73.47950   69.31860
 6050.00000    8.20010  206.23110  189.00730    5.29080    1.20620   19.90310    5.29080    8.20010  275.59860  275.59860   49.97080 -119.27680  -84.37920   49.97080
 6100.00000    9.46080  281.38040  241.42340    4.14210    4.98910   82.32010    4.14210    9.46080  218.23430  218.23430    5.34210  -57.99450  -23.36620    5.34210
 6150.00000    9.18350  263.36520  227.29860    4.39950    3.63230   59.93290    4.39950    9.18350  212.95140  212.95140    6.02720  -68.44480  -34.08400    6.02720
 6200.00000    9.53330  352.85990  292.45750    3.41930    4.74110   78.22810    3.41930    9.53330  224.96300  224.96300    5.04790  -59.76360  -25.67210    5.04790
 6250.00000    9.14460  104.64420   98.25890   10.17720    3.93200   64.87800   10.17720    9.14460  262.21370  262.21370   14.37640  -39.09260   -5.26870   14.37640
 6300.00000   10.03190   76.72460   83.22380   12.01580    3.10880   51.29520   12.01580   10.03190  260.79660  260.79660   21.76010  -36.47390   -2.91740   21.76010
 6350.00000   10.21920   31.05840   30.78170   32.48680    1.28530   21.20750   32.48680   10.21920  324.25130  324.25130   45.20740  -38.08700   -4.73140   45.20740
 6400.00000    9.93550   48.07990   47.60090   21.00800    2.09590   34.58230   21.00800    9.93550  277.70320  277.70320   32.89640  -54.55250  -21.39350   32.89640
 6450.00000    9.15630   44.27910   43.27710   23.10690    2.08650   34.42730   23.10690    9.15630  329.88170  329.88170   31.57170  -53.70450  -20.74370   31.57170
 6500.00000    9.19940   22.58100   22.69660   44.05940    1.57770   26.03210   44.05940    9.19940  354.26800  354.26800   74.00080  -61.85180  -29.08770   74.00080
 6550.00000    9.88360   47.74230   48.34140   20.68620    2.35620   38.87650   20.68620    9.88360  314.24910  314.24910   28.70570  -49.93940  -17.37200   28.70570
 6600.00000    9.31650   19.99830   20.05650   49.85920    1.59100   26.25150   49.85920    9.31650  381.47550  381.47550   65.04710  -58.67430  -26.30480   65.04710
 6650.00000   11.00930  100.08820  103.67420    9.64560    4.14650   68.41720    9.64560   11.00930  247.88250  247.88250   14.21110  -51.70830  -19.53560   14.21110
 6700.00000    9.21670   67.36090   67.95000   14.71670    3.32360   54.83940   14.71670    9.21670  290.86720  290.86720   26.15030  -58.04570  -26.07100   26.15030
 6750.00000    9.99950  168.85890  177.80620    5.62410    7.85730  129.64550    5.62410    9.99950  205.31480  205.31480   10.67980  -64.58250  -32.80460   10.67980
 6800.00000   12.44830  229.02790  232.41760    4.30260    6.89390  113.74850    4.30260   12.44830  196.17570  196.17570    6.93570  -68.12650  -36.54520    6.93570
 6850.00000    9.99040    9.69270    8.67830  115.22970    1.25760   20.75040  115.22970    9.99040  400.67650  400.67650  112.84660  -82.31590  -50.93270  112.84660
 6900.00000   10.21270   14.00010   13.30140   75.17980    1.04680   17.27220   75.17980   10.21270  368.44880  368.44880  106.47770  -92.55890  -61.37240  106.47770
 6950.00000   10.77750    6.89590    5.61500  178.09410    1.21190   19.99640  178.09410   10.77750  359.40500  359.40500  201.99030  -85.98520  -54.99680  201.99030
 7000.00000   10.58370   14.83320   14.16620   70.59060    1.23720   20.41380   70.59060   10.58370  304.70900  304.70900  122.60710 -111.13750  -80.34580  122.60710
 7050.00000    9.20670    9.02860    8.50630  117.55930    0.88280   14.56620  117.55930    9.20670  393.91290  393.91290  131.17010  -83.10180  -52.50690  131.17010
 7100.00000    9.30380   16.04100   19.87760   50.30800    1.06520   17.57580   50.30800    9.30380  342.87920  342.87920  143.95420 -114.79120  -84.39420  143.95420
 7150.00000   10.88610   15.33490   18.61390   53.72330    0.88210   14.55470   53.72330   10.88610  361.95810  361.95810  111.31230 -110.07090  -79.87070  111.31230
 7200.00000    8.43150   17.67630   19.15060   52.21780    0.96700   15.95550   52.21780    8.43150  315.13780  315.13780  140.38730 -108.95540  -78.95310  140.38730
 7250.00000   10.02880    8.16320    7.39530  135.22160    1.22980   20.29170  135.22160   10.02880  340.83820  340.83820  195.27490  -92.54680  -62.74130  195.27490
 7300.00000    9.78820   18.32660   15.58270   64.17360    1.12980   18.64090   64.17360    9.78820  297.18080  297.18080  100.55270  -95.13300  -65.52430  100.55270
 7350.00000    9.47970   11.53800   11.45230   87.31890    1.16950   19.29670   87.31890    9.47970  305.15640  305.15640  142.60180  -86.59280  -57.18210  142.60180
 7400.00000    9.79880   10.94060   11.19380   89.33490    1.29930   21.43850   89.33490    9.79880  324.36600  324.36600  126.71410 -101.90400  -72.69000  126.71410
 7450.00000    9.63030   16.68610   20.30770   49.24230    1.06400   17.55600   49.24230    9.63030  323.73390  323.73390  143.71180 -129.35660 -100.34060  143.71180
 7500.00000    9.67780   15.67730   20.00000   50.00000    0.95830   15.81200   50.00000    9.67780  329.61910  329.61910  144.88290 -141.44820 -112.62890  144.88290
 7550.00000    8.12400   57.01560   59.60720   16.77650    1.09050   17.99330   16.77650    8.12400  331.08720  331.08720   77.15040 -174.27880 -145.65620   77.15040
 7600.00000    9.24350   55.54730   48.02410   20.82290    1.26650   20.89730   20.82290    9.24350  359.42860  359.42860   48.06350  -78.80500  -50.38050   48.06350
 7650.00000    8.02570  199.76080  218.76090    4.57120    2.38760   39.39540    4.57120    8.02570  267.34100  267.34100   32.56150  -98.92110  -70.69340   32.56150
 7700.00000    8.68090  101.24700  106.75210    9.36750    2.31130   38.13560    9.36750    8.68090  266.66760  266.66760   42.99700 -100.18550  -72.15580   42.99700
 7750.00000    8.89900   84.81490   93.82010   10.65870    1.60070   26.41160   10.65870    8.89900  292.93650  292.93650   21.06790  -69.47320  -41.64020   21.06790
 7800.00000    8.78630   20.47110   20.08790   49.78110    1.50950   24.90760   49.78110    8.78630  331.57900  331.57900   65.45810  -58.96550  -31.32920   65.45810
 7850.00000    9.33180   82.43950   88.66740   11.27810    4.28700   70.73550   11.27810    9.33180  227.85980  227.85980   17.16000  -41.90090  -14.46260   17.16000
 7900.00000    8.73500   13.40250   13.40130   74.61960    1.12150   18.50470   74.61960    8.73500  342.75730  342.75730  103.92620  -51.19590  -23.95440  103.92620
 7950.00000    9.19330   86.83590   92.56860   10.80280    2.93950   48.50170   10.80280    9.19330  233.93290  233.93290   19.22240  -34.08910   -7.04550   19.22240
 8000.00000    9.19220  133.42110  135.65210    7.37180    5.37060   88.61490    7.37180    9.19220  253.27690  253.27690   12.06800  -38.91790  -12.07110   12.06800
 8050.00000   10.70850  240.33300  246.77340    4.05230    6.15570  101.56990    4.05230   10.70850  190.87670  190.87670    6.17400  -42.91470  -16.26460    6.17400
 8100.00000   11.98550  270.93620  280.37910    3.56660    5.80290   95.74790    3.56660   11.98550  201.62700  201.62700    4.78580  -47.32590  -20.87390    4.78580
 8150.00000   13.25150  251.24220  264.87260    3.77540    5.32320   87.83280    3.77540   13.25150  200.02210  200.02210    4.94150  -54.62900  -28.37370    4.94150
