~Version ---------------------------------------------------
VERS. 2.0 : CWLS log ASCII Standard -VERSION 2.0
WRAP.  NO : ONE LINE PER DEPTH STEP
~Well ------------------------------------------------------
STRT.F                      900.0 : START DEPTH
STOP.F                    11750.0 : STOP DEPTH
STEP.F                   50.00000 : STEP LENGTH
NULL.                     -999.25 : NULL VALUE
COMP.        MOBIL OIL CANADA LTD : COMPANY
WELL. MOBIL ET AL PINE CREEK 6-36 : WELL
FLD .                             : FIELD
LOC .                             : LOCATION
CTRY.                      CANADA : COUNTRY
SRVC.                Schlumberger : SERVICE COMPANY
DATE.                 21-Apr-1961 : LOGDATE
PROV.                     Alberta : PROVINCE
UWI .            100063605819W500 : UNIQUE WELL ID
SLAT.WGS84               54.05556 : SURFACE LATITUDE
SLON.WGS84              -116.6911 : SURFACE LONGITUDE
~Curve Information -----------------------------------------
DEPT.F                 : 
CILD.MMHO 07 110 46 00 : CONDUCTIVITY INDUCTION LOG DEEP
ILD .OHMM              : DEEP INDUCTION RESISTIVITY
SPR .MV                : SPONTANEOUS POTENTIAL FROM RESISTIVITY
SN  .OHMM 01 040 10 00 : SHORT NORMAL 10"
MCAL.IN                : MLT [MICROLOG] CALIPER
DT  .US/F 60 520 00 00 : ACOUSTIC TRANSIT TIME SLOWNESS, DELTA T
DT_1.US/F 60 520 00 00 : ACOUSTIC TRANSIT TIME SLOWNESS, DELTA T
DT_2.US/F 60 520 00 00 : ACOUSTIC TRANSIT TIME SLOWNESS, DELTA T
DT_3.US/F 60 520 00 00 : ACOUSTIC TRANSIT TIME SLOWNESS, DELTA T
GRS .GAPI 00 000 00 01 : GAMMA RAY FROM SONIC
~Params ----------------------------------------------------
PD  .                     GL : PERMANENT DATUM
LMF .                     KB : LOG MEASURED FROM
DAPD.FT                 13.6 : FEET ABOVE PERMANENT DATUM
DMF .                     KB : DRILLING MEASURED FROM
EKB .FT                 3433 : KELLY BUSHING
EGL .FT               3419.4 : GROUND LEVEL
DATE.               04/21/61 : RUN DATE
RUN .                      2 : RUN NUMBER
DD  .FT                11780 : DEPTH DRILLER
DL  .FT                11781 : DEPTH LOGGER
BLI .FT                11780 : BOTTOM LOG INTERVAL
TLI .FT                 8720 : TOP LOG INTERVAL
BS  .IN                    9 : BIT SIZE
BSD .FT                11780 : BIT SIZE AT DEPTH
DFT .              LIME BASE : DRILLING FLUID TYPE
DFV .                    120 : DRILLING FLUID VISCOSITY
DFPH.                     13 : DRILLING FLUID PH
DFL .                    8.8 : DRILLING FLUID LOSS
RMS .OHMM                1.0 : RESISTIVITY MUD SAMPLE
MST .DEGF                 55 : MUD SAMPLE TEMPERATURE
RMF .OHMM               0.22 : RESISTIVITY MUD FILTRATE SAMPLE
MFST.DEGF                203 : MUD FILTRATE SAMPLE TEMPERATURE
RMC .OHMM               0.39 : RESISTIVITY MUD CAKE
MCST.DEGF                203 : MUD CAKE SAMPLE TEMPERATURE
RMB .OHMM               0.28 : RESISTIVITY MUD AT BHT
TCS .HRS                   4 : TIME CIRCULATED STOPPED
LUN .                   2742 : LOGGING UNIT NUMBER
LUL .                    EDM : LOGGING UNIT LOCATION
ENGI.               MC CAMUS : RECORDING ENGINEER
WITN.           CURRIE MOORE : WITNESSED BY
CLNT.                A2DTECH : CLIENT CODE
ORIG.            2" 5" PRINT : ORIGIN OF DATA
UWI .       100063605819W500 : UNIQUE WELL ID
DICO. A2D Technologies, Inc. : DIGITIZING COMPANY
~Other -----------------------------------------------------
~ASCII -----------------------------------------------------
# ...
 4200.00000  153.93810    6.34320  -60.74360    6.90840   12.09200   85.18600    -999.25    -999.25    -999.25    4.49350
 4250.00000  149.80700    6.17850  -56.78310    6.93190   13.34340   91.00010    -999.25    -999.25    -999.25    4.25660
 4300.00000  180.59970    4.97600  -55.20900    5.49120   13.09390   82.97330    -999.25    -999.25    -999.25    4.39130
 4350.00000  152.75060    6.52700  -59.53950    7.59210   11.81180   88.46590    -999.25    -999.25    -999.25    4.10880
 4400.00000  139.73140    6.75580  -59.81170    6.94200   12.13550   90.19250    -999.25    -999.25    -999.25    4.11430
 4450.00000  130.00990    7.77080  -57.92100    7.34100   11.72520   85.21050    -999.25    -999.25    -999.25    4.11870
 4500.00000  161.68150    5.52420  -58.77550    7.50170   12.27910   91.48730    -999.25    -999.25    -999.25    3.69000
 4550.00000  101.19210    9.58860  -58.57020    8.08090   11.64960   78.64910    -999.25    -999.25    -999.25    3.78180
 4600.00000   93.04250    9.96290  -70.00800   11.43760   11.79390   76.24040    -999.25    -999.25    -999.25    4.34510
 4650.00000  141.53210    6.62350  -61.83470    7.19820   12.98240   89.45790    -999.25    -999.25    -999.25    4.43570
 4700.00000   75.89830   12.38940  -68.23000   12.97390   12.88930   73.70000    -999.25    -999.25    -999.25    3.80210
 4750.00000  113.14800    8.67450  -62.57910    7.97780   12.60160   80.20890    -999.25    -999.25    -999.25    5.84130
 4800.00000  121.08820    8.05410  -59.80310    7.62240   12.23900   81.25770    -999.25    -999.25    -999.25    5.31920
 4850.00000  108.56000    8.84760  -60.89060    8.21740   13.13070   82.47940    -999.25    -999.25    -999.25    6.11170
 4900.00000  109.23820    8.93970  -59.74000    8.39660   13.76400   85.43260    -999.25    -999.25    -999.25    5.99260
 4950.00000  114.95060    8.29150  -60.46540    9.09040   14.34850   90.98240    -999.25    -999.25    -999.25    6.15390
 5000.00000   68.02150   14.57210  -67.33570   13.37420   14.39210   78.00960    -999.25    -999.25    -999.25    5.22060
 5050.00000   95.28850   10.21840  -60.60570    9.71210   14.17850   82.79750    -999.25    -999.25    -999.25    6.12510
 5100.00000  108.48750    8.99000  -61.50700    8.59450   14.23340   87.01400    -999.25    -999.25    -999.25    6.53340
 5150.00000  137.69290    7.20970  -59.76660    6.70550   13.78340   90.07290    -999.25    -999.25    -999.25    6.08830
 5200.00000  133.41980    7.39320  -59.60280    7.13130   14.50620   79.12450    -999.25    -999.25    -999.25    6.13420
 5250.00000  108.33110    8.86270  -65.33560    8.18390   14.37130   77.23040    -999.25    -999.25    -999.25    5.67880
 5300.00000  109.90530    8.96000  -67.15920    8.66340   14.37990   79.66690    -999.25    -999.25    -999.25    5.24170
 5350.00000  116.56500    8.43670  -66.97420    8.04220   14.05460   85.62240    -999.25    -999.25    -999.25    5.87370
 5400.00000  119.77360    7.57560  -63.25230    7.96330   13.55870   79.44680    -999.25    -999.25    -999.25    5.57090
 5450.00000  129.89600    7.53240  -59.78620    7.07230   12.68380   86.53310    -999.25    -999.25    -999.25    5.98470
 5500.00000  104.55560    9.39780  -60.88880    8.32800   13.15630   81.91250    -999.25    -999.25    -999.25    5.23920
 5550.00000   52.67050   19.49550  -82.00100   15.22060   11.56640   77.30390    -999.25    -999.25    -999.25    3.20280
 5600.00000   85.28320   11.20660  -67.22130    9.91910   11.52970   77.61350    -999.25    -999.25    -999.25    5.49110
 5650.00000   74.14100   12.90650  -67.47570   11.30750   12.71210   75.09380    -999.25    -999.25    -999.25    5.75330
 5700.00000  101.25530    9.80150  -62.50630    8.85240   11.68260   78.22810    -999.25    -999.25    -999.25    6.26800
 5750.00000   99.30850   10.15710  -62.90260    8.88190   12.36930   77.74830    -999.25    -999.25    -999.25    5.86100
 5800.00000  114.96730    7.94690  -63.68450    8.62360   11.96300   85.13230    -999.25    -999.25    -999.25    6.18140
 5850.00000   96.63520    9.83420  -64.57490   10.00690   12.27080   82.72710    -999.25    -999.25    -999.25    5.53790
 5900.00000   98.12490    9.82580  -64.09660   10.45020   10.66120   88.16490    -999.25    -999.25    -999.25    6.60100
 5950.00000   80.52700   12.06680  -70.72910   13.22670   10.10380   85.08230    -999.25    -999.25    -999.25    7.04780
 6000.00000   95.07670   10.43660  -68.62110   11.43240   10.73460   84.75400    -999.25    -999.25    -999.25    6.53330
 6050.00000   59.26060   17.34930  -73.26480   18.26280    9.99960   83.70710    -999.25    -999.25    -999.25    6.73240
 6100.00000   59.60350   15.56580  -71.88830   16.59680   10.29570   86.98590    -999.25    -999.25    -999.25    7.03780
 6150.00000   44.14750   24.30450  -72.40070   22.01270   10.10350   85.19160    -999.25    -999.25    -999.25    7.64200
 6200.00000  110.81990    8.56680  -61.29970    9.80250   11.64240   86.82120    -999.25    -999.25    -999.25    5.54810
 6250.00000   60.38160   17.16100  -71.69460   15.40300   11.89280   80.32220    -999.25    -999.25    -999.25    6.90500
 6300.00000  122.93480    8.10440  -66.75830    7.63590   12.67770   81.40720    -999.25    -999.25    -999.25    5.39370
 6350.00000  145.80110    6.43060  -63.83380    7.36320   12.51420   81.03160    -999.25    -999.25    -999.25    6.26100
 6400.00000   83.06480   11.26820  -72.51940   10.61870   12.75660   82.47080    -999.25    -999.25    -999.25    7.09640
 6450.00000  106.08610    8.88810  -70.68480    9.64530   12.61620   79.76900    -999.25    -999.25    -999.25    5.43370
 6500.00000  108.21600    9.22120  -66.13630    8.69580   12.17890   81.79310    -999.25    -999.25    -999.25    6.10070
 6550.00000  134.30570    6.62870  -60.12290    7.10840   12.86110   83.94670    -999.25    -999.25    -999.25    5.52380
 6600.00000  133.27930    6.96960  -60.41150    7.43990   13.64590   91.27740    -999.25    -999.25    -999.25    5.70610
 6650.00000  110.29390    7.92860  -65.47090    7.61530   12.39710   99.38830    -999.25    -999.25    -999.25    9.35330
 6700.00000  194.74110    4.76540  -60.59130    5.35890   14.26470   99.98190    -999.25    -999.25    -999.25    5.66060
 6750.00000  158.02150    6.11960  -60.33330    6.69090   12.43160   82.42630    -999.25    -999.25    -999.25    5.45720
 6800.00000   31.82130   35.10900  -79.92700   22.75240    9.06870   72.85150    -999.25    -999.25    -999.25    1.54690
 6850.00000   38.69020   27.04310  -70.55560   17.02890   11.95290   67.98370    -999.25    -999.25    -999.25    4.75470
 6900.00000   42.93570   24.49920  -72.15280   16.60560   11.54300   66.99350    -999.25    -999.25    -999.25    2.83450
 6950.00000   61.24720   15.43840  -70.90380   12.97780   12.50590   69.56570    -999.25    -999.25    -999.25    3.82740
 7000.00000   40.83780   25.07730  -71.21200   23.55870   10.41140   66.80530    -999.25    -999.25    -999.25    2.87720
 7050.00000   55.43770   18.22350  -75.66090   15.64950   11.13550   69.24970    -999.25    -999.25    -999.25    3.80130
 7100.00000   59.37880   16.57270  -72.52240   14.34860   11.04740   71.34910    -999.25    -999.25    -999.25    4.38160
 7150.00000   49.12290   19.16850  -68.12980   13.07870   12.34140   70.56510    -999.25    -999.25    -999.25    4.25130
 7200.00000   58.52340   15.60400  -73.05100   16.24810   11.28320   69.91830    -999.25    -999.25    -999.25    4.70150
 7250.00000   34.80850   35.43290  -76.10300   19.01430   13.30260  136.40420    -999.25    -999.25    -999.25    2.84870
 7300.00000   68.30570   13.74820  -88.70270   14.54530   11.76080   70.17440    -999.25    -999.25    -999.25    3.67830
 7350.00000   57.61060   15.58450  -80.25480   14.10300   11.40830   82.75750    -999.25    -999.25    -999.25    5.61830
 7400.00000   74.64230   11.54700  -71.20880   11.73400   13.88610   83.68130    -999.25    -999.25    -999.25    4.32950
 7450.00000   41.39500   25.12690  -71.33860   16.13180   11.00290   67.00420    -999.25    -999.25    -999.25    3.91450
