~Version ---------------------------------------------------
VERS.      2.0 : CWLS log ASCII Standard -VERSION 2.0
WRAP.       NO : One line per depth step
CREA. 09/27/17 : LAS Creation Date
~Well ------------------------------------------------------
STRT.FT                750.0 : START DEPTH
STOP.FT               7200.0 : STOP DEPTH
STEP.FT             50.00000 : STEP LENGTH
NULL.                -999.25 : NULL VALUE
COMP.       HUNT OIL COMPANY : COMPANY
WELL. HPC OBERLIN 8-20-38-21 : WELL
FLD .                        : FIELD
LOC .                        : LOCATION
CTRY.                 CANADA : COUNTRY
SRVC. Schlumberger of Canada : SERVICE COMPANY
DATE.            27-May-1962 : LOGDATE
PROV.                Alberta : PROVINCE
UWI .       100082003821W400 : UNIQUE WELL ID
SLAT.WGS84          52.27925 : SURFACE LATITUDE
SLON.WGS84         -112.9595 : SURFACE LONGITUDE
~Curve Information -----------------------------------------
DEPT  .FT    : Depth Curve
ACED  .US/F  : ACOUSTIC TIME FROM SONIC LOG [ADJ. TO RESISTIVITY LOG]
CALSED.IN    : CALIPER FROM SONIC LOG [ADJ. TO RESESTIVITY LOG]
CALWS .IN    : CALIPER [CALSED]
CILDED.MMHO  : CONDUCTIVITY FROM RESISTIVITY LOG
CONDWS.MMHO  : CONDUCTIVITY [1000/DRESWS]
DRESWS.OHMM  : DEEP RESISTIVITY [1000/CILDED,IF ILDED<5,ILDED]
DTWS  .US/F  : COMPRESSIONAL SONIC [ACED]
GRSED .GAPI  : GAMMA RAY FROM SONIC LOG [ADJ. TO RESISTIVITY LOG]
GRWS  .GAPI  : GAMMA RAY [GRSED]
ILDED .OHMM  : DEEP INDUCTION FROM RESISTIVITY LOG
SNED  .OHMM  : SHORT NORMAL FROM RESISTIVITY LOG
SPRED .MV    : SPONTANEOUS POTENTIAL FROM RESISTIVITY LOG
SPWS  .MV    : SPONTENEOUS POTENTIAL [BASELINE 0 MV,SPRED]
SRESWS.OHMM  : SHALLOW RESISTIVITY [SNED]
~Params ----------------------------------------------------
PD  .                     GD : PERMANENT DATUM
EPD .FT                 2640 : ELEVATION PERMANENT DATUM
LMF .                     KB : LOG MEASURED FROM
DAPD.FT                   13 : FEET ABOVE PERMANENT DATUM
DMF .                     KB : DRILLING MEASURED FROM
EKB .FT                 2652 : KELLY BUSHING
EGL .FT                 2640 : GROUND LEVEL
DATE.               05/27/62 : RUN DATE
RUN .                      1 : RUN NUMBER
DD  .FT                 7244 : DEPTH DRILLER
DL  .FT                 7239 : DEPTH LOGGER
BLI .FT                 7243 : BOTTOM LOG INTERVAL
TLI .FT                  742 : TOP LOG INTERVAL
CBD .FT                  742 : CASING BOTTOM DRILLER
CBL .FT                  740 : CASING BOTTOM LOGGER
BS  .IN                7.875 : BIT SIZE
BSD .FT                 7244 : BIT SIZE AT DEPTH
DFT .                   LIME : DRILLING FLUID TYPE
DFD .                   10.6 : DRILLING FLUID DENSITY
DFV .                     60 : DRILLING FLUID VISCOSITY
DFPH.                    8.5 : DRILLING FLUID PH
DFL .                   12.1 : DRILLING FLUID LOSS
RMS .OHMM               0.76 : RESISTIVITY MUD SAMPLE
MST .DEGF                 85 : MUD SAMPLE TEMPERATURE
RMF .OHMM                0.3 : RESISTIVITY MUD FILTRATE SAMPLE
MFST.DEGF                 74 : MUD FILTRATE SAMPLE TEMPERATURE
RMC .OHMM               0.43 : RESISTIVITY MUD CAKE
MCST.DEGF                 76 : MUD CAKE SAMPLE TEMPERATURE
TCS .HRS                 2.5 : TIME CIRCULATED STOPPED
LUN .                   3815 : LOGGING UNIT NUMBER
ENGI.               STAFFORD : RECORDING ENGINEER
WITN.                   COOK : WITNESSED BY
CLNT.                A2DTECH : CLIENT CODE
ORIG.            2" 5" PRINT : ORIGIN OF DATA
UWI .       100082003821W400 : UNIQUE WELL ID
DICO. A2D Technologies, Inc. : DIGITIZING COMPANY
~Other -----------------------------------------------------
IEL-SONIC LOG RUN
ALL CURVES VERIFIED FROM SMALL SCALE SECTION FROM TOP TO BOTTOM, 3800' TO 4700' FROM LARGE SCALE
~ASCII -----------------------------------------------------
# ...
 5650.00000   50.75800    8.25470    8.25470    2.60000    4.29410  232.93540   50.75800   18.82200   18.82200  232.93540  126.68150  -40.22250  -24.14020  126.68150
 5700.00000   65.70400    8.09380    8.09380   94.62450   98.10080   10.19360   65.70400   78.67200   78.67200   10.19360   27.25840  -24.30270   -6.42180   27.25840
 5750.00000   57.06000    7.95020    7.95020   54.64810   58.78070   17.01240   57.06000   50.86800   50.86800   17.01240   19.91170  -60.16460  -40.33760   19.91170
 5800.00000   61.68200    7.99060    7.99060   35.28680   37.47450   26.68630   61.68200   70.49400   70.49400   26.68630   29.34500  -51.75800  -29.99480   29.34500
 5850.00000   64.34400    8.13190    8.13190   62.66810   67.98330   14.70950   64.34400   74.74800   74.74800   14.70950   17.97560  -32.20820   -8.48920   17.97560
 5900.00000   67.40200    8.08630    8.08630   71.47560   73.65200   13.57790   67.40200   82.78800   82.78800   13.57790   17.55680  -50.18660  -30.00610   17.55680
 5950.00000   65.93600    8.10820    8.10820   60.42430   65.97960   15.15620   65.93600   88.83600   88.83600   15.15620   19.05010  -35.50480  -18.86280   19.05010
 6000.00000   64.61200    7.95380    7.95380   57.23120   60.03010   16.65830   64.61200   87.66000   87.66000   16.65830   20.67150  -33.49720  -20.39370   20.67150
 6050.00000   63.08400    7.85710    7.85710   55.62570   59.78900   16.73120   63.08400   74.96400   74.96400   16.73120   21.48660  -13.14410   -3.56150   21.48660
 6100.00000   60.08800    7.98290    7.98290   37.77240   41.03490   24.36950   60.08800   58.41000   58.41000   24.36950   30.24480  -14.35930   -8.33280   30.24480
 6150.00000   49.24800    7.71720    7.71720    7.29940    4.52080  221.25250   49.24800   18.92400   18.92400  221.25250  141.17980  -50.19320  -42.56010  141.17980
 6200.00000   57.19200    7.71410    7.71410    6.03640    4.00240  249.85160   57.19200   29.72400   29.72400  249.85160  140.45660  -27.25590  -16.98210  140.45660
 6250.00000   51.43200    7.18010    7.18010   19.89800   22.37660   44.68950   51.43200   18.81600   18.81600   44.68950   60.47430  -60.04560  -47.13120   60.47430
 6300.00000   48.23400    7.52770    7.52770   47.72240   54.67030   18.33030   48.23400   13.98600   13.98600   18.33030   39.95360  -80.26240  -64.72060   39.95360
 6350.00000   47.03600    7.30520    7.30520   11.12330   16.47300   60.70550   47.03600   14.48400   14.48400   60.70550   59.77890 -100.63990  -82.44420   59.77890
 6400.00000   55.76200    8.07510    8.07510   17.40340   18.87020   52.99360   55.76200   39.32400   39.32400   52.99360   50.07540  -71.14520  -50.30880   50.07540
 6450.00000   49.48000    8.03250    8.03250   11.28050   18.93550   52.81080   49.48000   15.09600   15.09600   52.81080   61.23630 -118.32670  -94.84970   61.23630
 6500.00000   52.34200    7.90260    7.90260   64.37720   72.11210   13.86730   52.34200   11.91600   11.91600   13.86730   33.82900 -171.58460 -145.46700   33.82900
 6550.00000   57.65800    8.45240    8.45240   27.62520   28.95950   34.53610   57.65800   49.29600   49.29600   34.53610   38.56090 -177.43060 -148.68550   38.56090
 6600.00000   56.51600    8.64460    8.64460   20.21930   26.91400   37.15540   56.51600   44.34000   44.34000   37.15540   33.64650 -148.51100 -117.11210   33.64650
 6650.00000   51.68000    8.32970    8.32970   21.97220   26.01410   38.80470   51.68000   20.03400   20.03400   38.80470   36.20220 -144.67200 -110.63240   36.20220
 6700.00000   49.07000    8.32110    8.32110    4.84550    5.92210  168.85970   49.07000   17.16600   17.16600  168.85970   86.30530 -143.54530 -106.86500   86.30530
 6750.00000   49.54000    8.13930    8.13930    3.97310    6.96110  143.65480   49.54000   16.38000   16.38000  143.65480   66.58540 -153.73510 -114.41420   66.58540
 6800.00000   53.43200    8.20490    8.20490   56.92850   61.81140   16.23410   53.43200   25.40400   25.40400   16.23410   29.47620 -165.32860 -123.38020   29.47620
 6850.00000   49.97200    7.99080    7.99080    6.51630    7.02500  142.34880   49.97200   20.74800   20.74800  142.34880  100.38890 -170.00540 -125.40320  100.38890
 6900.00000   50.42400    7.96780    7.96780    5.24860    5.91960  168.94300   50.42400   19.89000   19.89000  168.94300   79.57610 -123.06320  -75.82030   79.57610
 6950.00000   55.65200    7.94360    7.94360    9.20160    9.53760  104.84840   55.65200   38.86200   38.86200  104.84840   51.50340  -69.39370  -19.51020   51.50340
 7000.00000   49.16400    7.74980    7.74980    4.31760    6.79380  147.19230   49.16400   18.29400   18.29400  147.19230   82.78540 -113.48730  -60.96310   82.78540
 7050.00000   58.42000    7.78540    7.78540   39.04720   43.23340   23.21630   58.42000   70.28400   70.28400   23.21630   28.87230  -64.57040   -9.41870   28.87230
 7100.00000   63.26800    7.72390    7.72390   47.92770   50.57320   19.77330   63.26800   64.14000   64.14000   19.77330   24.20640  -68.89850   -5.84830   24.20640
 7150.00000   51.59600    7.66980    7.66980    2.84370    5.57640  179.33100   51.59600   25.41000   25.41000  179.33100  108.34970 -118.75560  -67.19640  108.34970
 7200.00000   57.35600    7.22320    7.22320   95.91450   88.21690   11.33570   57.35600   62.28000   62.28000   11.33570   19.56430  -78.81460  -46.46010   19.56430
