~Version ---------------------------------------------------
VERS.      2.0 : CWLS log ASCII Standard -VERSION 2.0
WRAP.       NO : One line per depth step
CREA. 12/01/17 : LAS Creation Date
~Well ------------------------------------------------------
STRT.FT                        700.0 : START DEPTH
STOP.FT                       7050.0 : STOP DEPTH
STEP.FT                     50.00000 : STEP LENGTH
NULL.                        -999.25 : NULL VALUE
COMP.                SUN OIL COMPANY : COMPANY
WELL. SUN CDR GOPHER HEAD 6-23-36-19 : WELL
FLD .                                : FIELD
LOC .                                : LOCATION
CTRY.                         CANADA : COUNTRY
SRVC.                        Unknown : SERVICE COMPANY
DATE.                    09-Sep-1971 : LOGDATE
PROV.                        Alberta : PROVINCE
UWI .               100062303619W400 : UNIQUE WELL ID
SLAT.WGS84                  52.10319 : SURFACE LATITUDE
SLON.WGS84                 -112.6149 : SURFACE LONGITUDE
~Curve Information -----------------------------------------
DEPT   .FT    : Depth Curve
CALNED .IN    : CALIPER FROM NEUTRON LOG [ADJ. TO RESISTIVITY LOG]
CALSED .IN    : CALIPER FROM SONIC LOG [ADJ. TO RESISTIVITY LOG]
CALWS  .IN    : CALIPER [CALSED SPL. TO CALNED @ 6918']
CONDWS .MMHO  : CONDUCTIVITY [1000/DRESWS]
DRESWS .OHMM  : DEEP RESISTIVITY [LLED]
DTED   .US/F  : DELTA-T (INTERVAL TRANSIT TIME) FROM SONIC LOG [ADJ. TO RESISTIVITY LOG]
DTWS   .US/F  : COMPRESSIONAL SONIC [DTED]
GRNED  .GAPI  : GAMMA RAY FROM GRN LOG [ADJ. TO RESISTIVITY LOG]
GRSED  .GAPI  : GAMMA RAY FROM SONIC LOG [ADJ. TO RESISTIVITY LOG]
GRWS   .GAPI  : GAMMA RAY [GRSED SPL. TO GRNED @ 6910']
LLED   .OHMM  : FOCUSED LATEROLOG RESISTIVITY FROM RESISTIVITY LOG
NEUTED .NAPI  : NEUTRON FROM NEUTRON LOG [ADJ. TO RESISTIVITY LOG]
NEUTWS .NAPI  : NEUTRON [NEUTED]
NPOLSWS.V/V   : NEUTRON POROSITY LIMESTONE [SNPLSED]
SNPLSED.V/V   : SIDEWALL NEUTRON POROSITY [LIMESTONE] FROM NEUTRON LOG [ADJ. TO RESISTIVITY LOG]
SPRED  .MV    : SPONTANEOUS POTENTIAL FROM RESISTIVITY LOG
SPWS   .MV    : SPONTANEOUS POTENTIAL [BASELINE 0 MV, SPRED*-1]
~Params ----------------------------------------------------
PD  .                     GL : PERMANENT DATUM
EPD .FT                 2870 : ELEVATION PERMANENT DATUM
LMF .                     KB : LOG MEASURED FROM
DAPD.FT                   14 : FEET ABOVE PERMANENT DATUM
DMF .                     KB : DRILLING MEASURED FROM
EKB .FT                 2884 : KELLY BUSHING
EGL .FT                 2870 : GROUND LEVEL
DATE.               09/11/71 : RUN DATE
RUN .                      2 : RUN NUMBER
DD  .FT                 7095 : DEPTH DRILLER
DL  .FT                 7092 : DEPTH LOGGER
BLI .FT                 7085 : BOTTOM LOG INTERVAL
TLI .FT                 6500 : TOP LOG INTERVAL
CS  .IN                8.625 : CASING SIZE
CBD .FT                  752 : CASING BOTTOM DRILLER
CBL .FT                  750 : CASING BOTTOM LOGGER
BS  .IN                7.875 : BIT SIZE
BSD .FT                 7095 : BIT SIZE AT DEPTH
DFT .           SALT MUD GEL : DRILLING FLUID TYPE
DFD .                   10.4 : DRILLING FLUID DENSITY
DFV .                     42 : DRILLING FLUID VISCOSITY
DFPH.                    8.5 : DRILLING FLUID PH
DFL .                      8 : DRILLING FLUID LOSS
MSS .                   CIRC : MUD SAMPLE SOURCE
RMS .OHMM               0.06 : RESISTIVITY MUD SAMPLE
MST .DEGF                 75 : MUD SAMPLE TEMPERATURE
RMF .OHMM               0.04 : RESISTIVITY MUD FILTRATE SAMPLE
MFST.DEGF                 74 : MUD FILTRATE SAMPLE TEMPERATURE
RMC .OHMM                0.1 : RESISTIVITY MUD CAKE
MCST.DEGF                 70 : MUD CAKE SAMPLE TEMPERATURE
MFSS.                   MEAS : MUD FILTRATE SAMPLE SOURCE
MCSS.                   MEAS : MUD CAKE SAMPLE SOURCE
RMB .OHMM               0.03 : RESISTIVITY MUD AT BHT
TCS .HRS                   3 : TIME CIRCULATED STOPPED
LUN .                   6077 : LOGGING UNIT NUMBER
LUL .                    R D : LOGGING UNIT LOCATION
ENGI.                MACLEAN : RECORDING ENGINEER
WITN.         STEBNE PATMORE : WITNESSED BY
CLNT.                A2DTECH : CLIENT CODE
ORIG.            2" 5" PRINT : ORIGIN OF DATA
UWI .       100062303619W400 : UNIQUE WELL ID
DICO. A2D Technologies, Inc. : DIGITIZING COMPANY
~Other -----------------------------------------------------
LL-SONIC-SNP LOG RUN
~ASCII -----------------------------------------------------
# ...
 4800.00000   10.02440    9.45210    9.45210   17.33030   57.70240   54.74710   54.74710   41.62350   30.12660   30.12660   57.70240    -999.25    -999.25   -0.01960   -0.01960  -31.63810  -20.52630
 4850.00000    8.56200    8.70660    8.70660    7.76400  128.79900   50.29440   50.29440   35.82470   25.11080   25.11080  128.79900 2438.96410 2438.96410    0.00930    0.00930  -32.53590  -20.23180
 4900.00000    8.93150    9.11970    9.11970    4.30470  232.30370   51.29430   51.29430   29.37250   20.83460   20.83460  232.30370    -999.25    -999.25   -0.00420   -0.00420  -34.20250  -19.16840
 4950.00000    8.16210    8.54050    8.54050   10.88940   91.83250   50.44770   50.44770   38.38190   25.06540   25.06540   91.83250 2367.78560 2367.78560    0.02080    0.02080  -36.29470  -17.67950
 5000.00000   15.11380   14.58540   14.58540    6.98820  143.09910   74.10610   74.10610   32.87240   18.66780   18.66780  143.09910 1263.05980 1263.05980    0.15250    0.15250  -41.29170  -13.28570
 5050.00000   12.18190   12.89120   12.89120   16.59180   60.27090   60.51630   60.51630   40.19860   27.41690   27.41690   60.27090 1324.21180 1324.21180    0.06790    0.06790  -38.17660  -17.00400
 5100.00000    8.96440    8.58650    8.58650    3.33640  299.72300   49.83820   49.83820   28.91880   17.12730   17.12730  299.72300    -999.25    -999.25    0.00580    0.00580  -40.61430  -15.16960
 5150.00000    -999.25   14.93280   14.93280    6.45480  154.92360    -999.25    -999.25   36.58840   21.94660   21.94660  154.92360    -999.25    -999.25    0.34480    0.34480  -41.73440  -14.65270
 5200.00000   15.76760   14.64820   14.64820   22.51720   44.41040    -999.25    -999.25   34.71590   24.16030   24.16030   44.41040  890.15330  890.15330    0.10740    0.10740  -42.64940  -14.34100
 5250.00000    9.23490    9.08380    9.08380    4.38290  228.15760   50.90040   50.90040   39.78780   24.18090   24.18090  228.15760    -999.25    -999.25    0.00450    0.00450  -43.92960  -13.66400
 5300.00000    8.96130    8.94070    8.94070    4.44250  225.09820   48.95700   48.95700   42.09240   29.97210   29.97210  225.09820    -999.25    -999.25    0.00690    0.00690  -44.23940  -13.95750
 5350.00000    8.83530    8.63640    8.63640    4.30970  232.03610   47.15550   47.15550   34.45130   22.32780   22.32780  232.03610    -999.25    -999.25    0.00490    0.00490  -40.54950  -18.25060
 5400.00000    8.57130    8.28350    8.28350   76.19980   13.12340   52.48180   52.48180   61.72690   41.16170   41.16170   13.12340 2055.90720 2055.90720    0.04900    0.04900  -44.74930  -14.65410
 5450.00000    8.46860    8.14970    8.14970   66.50220   15.03710   53.95070   53.95070   89.72190   66.94280   66.94280   15.03710 2145.39110 2145.39110    0.04500    0.04500  -50.77640   -9.23020
 5500.00000    8.41980    8.15630    8.15630   38.35490   26.07230   54.23690   54.23690   61.34650   43.54930   43.54930   26.07230    -999.25    -999.25    0.02290    0.02290  -56.66200   -3.94780
 5550.00000    8.57050    8.28240    8.28240   88.83600   11.25670   62.18680   62.18680  104.25260   80.22410   80.22410   11.25670 1891.79690 1891.79690    0.06290    0.06290  -58.13320   -3.46720
 5600.00000    8.57800    8.33970    8.33970   68.35040   14.63050   65.48010   65.48010  104.20100   76.18990   76.18990   14.63050 1770.21310 1770.21310    0.07620    0.07620  -57.90170   -8.60480
 5650.00000    8.79080    8.38780    8.38780  116.59360    8.57680   65.99470   65.99470  144.56290  102.62020  102.62020    8.57680 1802.06740 1802.06740    0.06940    0.06940  -59.33190  -12.08080
 5700.00000    8.62620    8.43080    8.43080  120.86200    8.27390   65.15910   65.15910  133.10950   95.79650   95.79650    8.27390 1793.33420 1793.33420    0.07240    0.07240  -61.06180  -15.25710
 5750.00000    8.59160    8.28540    8.28540   91.09960   10.97700   62.35960   62.35960   98.82530   67.90320   67.90320   10.97700 1900.95350 1900.95350    0.06490    0.06490  -74.56360   -6.66150
 5800.00000    8.85860    8.76700    8.76700  139.42330    7.17240   71.20880   71.20880  148.90500  107.83990  107.83990    7.17240 1505.94850 1505.94850    0.09920    0.09920  -84.69440   -1.43680
 5850.00000    8.66250    8.66800    8.66800  137.85690    7.25390   71.55320   71.55320  137.47240  101.08590  101.08590    7.25390 1536.25770 1536.25770    0.09800    0.09800  -74.34120  -10.38800
 5900.00000    8.34600    8.18360    8.18360   27.48870   36.37860   53.68490   53.68490   58.35130   40.56490   40.56490   36.37860    -999.25    -999.25    0.02540    0.02540  -73.16260   -6.49700
 5950.00000    8.39430    8.22040    8.22040   27.68120   36.12560   50.24820   50.24820   40.73140   27.10880   27.10880   36.12560    -999.25    -999.25    0.01920    0.01920  -68.29830   -8.55540
 6000.00000    8.41060    8.28870    8.28870    7.49540  133.41490   51.12960   51.12960   47.01070   35.64460   35.64460  133.41490    -999.25    -999.25    0.02230    0.02230  -61.29710  -14.19800
 6050.00000    8.45850    8.21270    8.21270   35.44210   28.21500   64.14760   64.14760   92.87690   69.81350   69.81350   28.21500 1936.56190 1936.56190    0.05960    0.05960  -57.37350  -16.76300
 6100.00000    8.38210    8.13810    8.13810   14.79520   67.58960   55.85480   55.85480   55.58680   44.27290   44.27290   67.58960 2394.03980 2394.03980    0.03010    0.03010  -50.07550  -22.70250
 6150.00000    8.36960    8.18970    8.18970   16.59780   60.24910   50.79160   50.79160   34.77430   22.26920   22.26920   60.24910    -999.25    -999.25    0.02450    0.02450  -48.88250  -22.53690
 6200.00000    7.83700    8.35700    8.35700    8.86020  112.86460   48.69810   48.69810   32.49730   21.51150   21.51150  112.86460    -999.25    -999.25    0.02170    0.02170  -48.55050  -21.51030
 6250.00000    8.40730    8.39500    8.39500   21.01270   47.59030   56.64220   56.64220   60.55440   39.44930   39.44930   47.59030 2446.73220 2446.73220    0.02160    0.02160  -61.94950   -6.75280
 6300.00000    7.99520    8.29360    8.29360    5.29850  188.73400   47.15840   47.15840   31.72950   20.09070   20.09070  188.73400    -999.25    -999.25    0.02340    0.02340  -53.47310  -13.87060
 6350.00000    8.01910    8.44150    8.44150   19.79760   50.51130   49.91290   49.91290   40.99880   25.14230   25.14230   50.51130    -999.25    -999.25    0.01840    0.01840  -46.21280  -19.77230
 6400.00000    9.61010    8.75470    8.75470   17.40460   57.45620   51.85070   51.85070   58.11670   35.91520   35.91520   57.45620    -999.25    -999.25    0.00480    0.00480  -41.21580  -23.41080
 6450.00000    8.25320    8.41260    8.41260  143.89520    6.94950   53.52240   53.52240    8.28080   17.39100   17.39100    6.94950 1884.10330 1884.10330    0.06460    0.06460  -51.08190  -12.18610
 6500.00000    9.01900    8.86640    8.86640  152.55530    6.55500   53.41260   53.41260   11.82190   17.67720   17.67720    6.55500 1927.98690 1927.98690    0.03940    0.03940  -39.25390  -22.65550
 6550.00000    7.94920    8.21470    8.21470    5.13590  194.70730   49.80040   49.80040   26.05950   32.47770   32.47770  194.70730    -999.25    -999.25    0.00250    0.00250  -37.61520  -22.93570
 6600.00000    8.95710    8.26940    8.26940    5.35350  186.79480   49.10210   49.10210   15.80360   18.04490   18.04490  186.79480    -999.25    -999.25   -0.00170   -0.00170  -33.35240  -25.83990
 6650.00000    9.51980    9.03540    9.03540   22.72900   43.99660   51.73210   51.73210   26.68980   30.50610   30.50610   43.99660 1626.13150 1626.13150    0.06550    0.06550  -38.63130  -19.20240
 6700.00000    7.93680    8.14140    8.14140    6.14150  162.82580   49.73490   49.73490   20.25570   27.42580   27.42580  162.82580    -999.25    -999.25    0.01220    0.01220  -51.69460   -4.78060
 6750.00000    7.97190    8.00650    8.00650    9.83280  101.70060   50.15520   50.15520   24.31660   28.01470   28.01470  101.70060    -999.25    -999.25    0.01230    0.01230  -44.39270  -10.72390
 6800.00000    9.17190    8.90160    8.90160   22.45890   44.52570   49.85410   49.85410   19.84670   24.08600   24.08600   44.52570 2436.83760 2436.83760    0.01020    0.01020  -47.23020   -6.52780
