~Version ---------------------------------------------------
VERS. 2.0 : CWLS log ASCII Standard -VERSION 2.0
WRAP. YES : MULTIPLE LINES PER DEPTH STEP
~Well ------------------------------------------------------
STRT.M                    600.0 : START DEPTH
STOP.M                   3350.0 : STOP DEPTH
STEP.M                 50.00000 : STEP LENGTH
NULL.                   -999.25 : NULL VALUE
COMP. GULF CANADA RESOURCES INC : COMPANY
WELL.    GULF STURLS 4-12-69-26 : WELL
FLD .                           : FIELD
LOC .                           : LOCATION
CTRY.                    CANADA : COUNTRY
SRVC.    Schlumberger of Canada : SERVICE COMPANY
DATE.               20-Feb-1982 : LOGDATE
PROV.                   Alberta : PROVINCE
UWI .          100041206926W500 : UNIQUE WELL ID
SLAT.WGS84             54.95583 : SURFACE LATITUDE
SLON.WGS84            -117.8332 : SURFACE LONGITUDE
~Curve Information -----------------------------------------
DEPT    .M      : DEPTH METERS
CALDED  .MM     : CALIPER FROM CNFD LOG, DEPTH ADJUSTED WITH [GRRED]
CALSED  .MM     : CALIPER FROM SONIC LOG, DEPTH ADJUSTED WITH [GRRED]
CALWS   .MM     : CALIPER [CALDED]
CONDWS  .MMHO   : CONDUCTIVITY [1000/DRESWS]
DCORWS  .KG/M3  : DENSITY CORRECTION [DRHOED]
DENWS   .KG/M3  : BULK DENSITY [RHOBED]
DPHILSED.V/V    : DENSITY POROSITY [M=2.71 F=1.0] FROM CNFD LOG, DEPTH ADJUSTED WITH [GRRED]
DPHISSED.V/V    : DENSITY POROSITY [M=2.65 F=1.0] FROM CNFD LOG, DEPTH ADJUSTED WITH [GRRED]
DPOLSWS .V/V    : DENSITY POROSITY LIMESTONE [CALCULATED FROM DENWS]
DRESWS  .OHMM   : DEEP RESISTIVITY [ILDED]
DRHOED  .KG/M3  : DENSITY CORRECTION FROM CNFD LOG, DEPTH ADJUSTED WITH [GRRED]
DTED    .US/M   : DELTA TIME FROM SONIC LOG, DEPTH ADJUSTED WITH [GRRED]
DTWS    .US/M   : DELTA TIME [DTED]
GRDED   .GAPI   : GAMMA RAY FROM CNFD LOG, DEPTH ADJUSTED WITH [GRRED]
GRRED   .GAPI   : GAMMA RAY FROM RESISTIVITY LOG
GRSED   .GAPI   : GAMMA RAY FROM SONIC LOG, DEPTH ADJUSTED WITH [GRRED]
GRWS    .GAPI   : GAMMA RAY [GRRED], SPLICED WITH [GRSED] FROM 563-597
ILDED   .OHMM   : INDUCTION LOG DEEP RESISTIVITY
ILMED   .OHMM   : INDUCTION LOG MEDIUM RESISTIVITY
MRESWS  .OHMM   : MEDIUM RESISTIVITY [ILMED]
NPHILSED.V/V    : NEUTRON POROSITY LIMESTONE FROM CNFD LOG, DEPTH ADJUSTED WITH [GRRED]
NPHISSED.V/V    : NEUTRON POROSITY SANDSTONE FROM CNFD LOG, DEPTH ADJUSTED WITH [GRRED]
NPOLSWS .V/V    : NEUTRON POROSITY LIMESTONE [NPHILSED], SPLICED WITH CALCULATED FROM NPHISSED [563-1787]
RHOBED  .KG/M3  : BULK DENSITY FROM CNFD LOG, DEPTH ADJUSTED WITH [GRRED]
SFLUED  .OHMM   : SPHERICALLY FOCUSED LOG RESISTIVITY
SPRED   .MV     : SPONTANEOUS POTENTIAL FROM RESISTIVITY LOG
SPWS    .MV     : SPONTANEOUS POTENTIAL [BASELINE 0 MV] [SPRED]
SRESWS  .OHMM   : SHALLOW RESISTIVITY [SFLUED]
TENDED  .N      : TENSION FROM CNFD LOG, DEPTH ADJUSTED WITH [GRRED]
TENRED  .N      : TENSION FROM RESISTIVITY LOG
TENSED  .N      : TENSION FROM SONIC LOG, DEPTH ADJUSTED WITH [GRRED]
~Params ----------------------------------------------------
PD  .                         GL : PERMANENT DATUM
EPD .M                       740 : ELEVATION PERMANENT DATUM
LMF .                         KB : LOG MEASURED FROM
DAPD.M                      6.55 : FEET ABOVE PERMANENT DATUM
DMF .                         KB : DRILLING MEASURED FROM
EKB .M                    746.55 : KELLY BUSHING
EDF .M                    746.15 : DRILLING FLOOR
EGL .M                       740 : GROUND LEVEL
DATE.                   02/20/82 : RUN DATE
RUN .                          1 : RUN NUMBER
DD  .M                      3373 : DEPTH DRILLER
DL  .M                      3373 : DEPTH LOGGER
BLI .M                      3371 : BOTTOM LOG INTERVAL
TLI .M                       610 : TOP LOG INTERVAL
CS  .MM                      244 : CASING SIZE
CBD .M                       610 : CASING BOTTOM DRILLER
CBL .M                       610 : CASING BOTTOM LOGGER
BS  .MM                      222 : BIT SIZE
BSD .M                      3373 : BIT SIZE AT DEPTH
DFT .                   GEL CHEM : DRILLING FLUID TYPE
DFD .                       1140 : DRILLING FLUID DENSITY
DFV .                         69 : DRILLING FLUID VISCOSITY
DFPH.                         10 : DRILLING FLUID PH
DFL .                        7.4 : DRILLING FLUID LOSS
MSS .                   FLOWLINE : MUD SAMPLE SOURCE
RMS .OHMM                   1.49 : RESISTIVITY MUD SAMPLE
MST .DEGC                   22.7 : MUD SAMPLE TEMPERATURE
RMF .OHMM                   1.38 : RESISTIVITY MUD FILTRATE SAMPLE
MFST.DEGC                   18.3 : MUD FILTRATE SAMPLE TEMPERATURE
RMC .OHMM                  0.437 : RESISTIVITY MUD CAKE
MCST.DEGC                    104 : MUD CAKE SAMPLE TEMPERATURE
MFSS.                      PRESS : MUD FILTRATE SAMPLE SOURCE
MCSS.                      PRESS : MUD CAKE SAMPLE SOURCE
RMB .OHMM                  0.525 : RESISTIVITY MUD AT BHT
TCS .HRS                    1230 : TIME CIRCULATED STOPPED
TLAB.HRS                    1930 : TIME LOGGER AT BOTTOM
LUN .                       8155 : LOGGING UNIT NUMBER
LUL .                         GP : LOGGING UNIT LOCATION
ENGI.                      JONES : RECORDING ENGINEER
WITN.                      ZADEH : WITNESSED BY
CLNT.                    A2DTECH : CLIENT CODE
ORIG. 6.5"/100M 16.5"/100M PRINT : ORIGIN OF DATA
UWI .           100041206926W500 : UNIQUE WELL ID
DICO.     A2D Technologies, Inc. : DIGITIZING COMPANY
~Other -----------------------------------------------------
~ASCII -----------------------------------------------------
# ...
 1750.00000  229.06340  227.42420  229.06340  143.31580   66.20000 2378.79980    -999.25    0.16470    0.19370    6.97760   66.20000  256.85510  256.85510   44.71930   50.95250   39.54300   50.95250    6.97760    9.01380    9.01380    -999.25    0.23150    0.18770 2378.79980   15.17720  -45.68780  -59.94380   15.17720 10490.86040 9236.91310 9994.11040
 1800.00000  251.63400  243.15560  251.63400    9.84960   -3.80000 2185.00000    0.30280    -999.25    0.30700  101.52660   -3.80000  351.45360  351.45360  299.78740  276.22140  292.09320  276.22140  101.52660  192.12660  192.12660    0.38560    -999.25    0.38560 2185.00000  672.24570    1.69760  -13.36060  672.24570 10896.55760 9389.74410 10372.55570
 1850.00000  287.89450  243.73810  287.89450  296.75350   39.10000 2513.90010    0.11430    -999.25    0.11470    3.36980   39.10000  232.66370  232.66370   89.99860  100.71800   88.73550  100.71800    3.36980    4.42390    4.42390    0.15980    -999.25    0.15980 2513.90010   10.56170  -41.50220  -57.36260   10.56170 11054.68160 9701.89650 12543.22560
 1900.00000  285.05730  249.14970  285.05730  119.55860   20.80000 2630.80000    0.04800    -999.25    0.04630    8.36410   20.80000  224.62690  224.62690   99.09180  101.08360   98.76440  101.08360    8.36410    9.62400    9.62400    0.10300    -999.25    0.10300 2630.80000   12.52670   -3.67340  -20.33600   12.52670 11256.83200 9991.96390 12929.44340
 1950.00000  275.36740  250.84700  275.36740   76.35040   16.60000 2606.89990    0.06170    -999.25    0.06030   13.09750   16.60000  212.62520  212.62520   90.27670   86.51500   87.55910   86.51500   13.09750   13.41250   13.41250    0.08450    -999.25    0.08450 2606.89990   16.71280  -10.84920  -28.31400   16.71280 11747.00590 10162.12890 12233.10060
 2000.00000  235.59680  250.42310  235.59680   47.76600   23.80000 2558.70020    0.08470    -999.25    0.08850   20.93540   23.80000  201.25650  201.25650   39.21300   28.73130   34.44400   28.73130   20.93540   31.83250   31.83250    0.12570    -999.25    0.12570 2558.70020   67.18400  -51.44780  -68.97900   67.18400 11920.58010 10389.17290 9386.81450
 2050.00000  213.92080  253.63790  213.92080  372.68930   64.50000 2522.09990    0.11180    -999.25    0.10990    2.68320   64.50000  208.57320  208.57320   37.94580   37.51220   33.27560   37.51220    2.68320    4.15640    4.15640    0.17150    -999.25    0.17150 2522.09990   14.70810  -92.94070 -109.56300   14.70810 11749.71480 10612.72270 7468.36670
 2100.00000  233.25580  258.81930  233.25580   14.28750   21.70000 2763.30000   -0.03320    -999.25   -0.03120   69.99110   21.70000  172.01280  172.01280   62.36650   56.55460   55.11970   56.55460   69.99110   99.38880   99.38880    0.04800    -999.25    0.04800 2763.30000  116.46120  -17.02150  -32.73480  116.46120 12275.84670 10796.90530 9494.12210
 2150.00000  243.54700  259.71550  243.54700  198.44420    4.70000 2670.20020    0.02190    -999.25    0.02330    5.03920    4.70000  206.14610  206.14610   76.68010   76.44430   74.73750   76.44430    5.03920    5.21970    5.21970    0.16300    -999.25    0.16300 2670.20020    6.88390  -32.70810  -47.51250    6.88390 12444.74020 11056.84960 9766.86520
 2200.00000  243.76160  261.57380  243.76160  164.39260   20.30000 2727.60010   -0.00640    -999.25   -0.01030    6.08300   20.30000  180.86750  180.86750   29.94320   27.42850   24.11760   27.42850    6.08300    8.20920    8.20920    0.03870    -999.25    0.03870 2727.60010   40.27850  -20.94480  -34.84020   40.27850 12577.60640 11240.54490 10338.37300
 2250.00000  255.74470  265.00360  255.74470   15.71700    4.30000 2679.50000    0.02170    -999.25    0.01780   63.62550    4.30000  167.16650  167.16650   15.55010   16.84910   16.00280   16.84910   63.62550   91.47560   91.47560    0.00640    -999.25    0.00640 2679.50000  109.16710  -69.17550  -82.16200  109.16710 13049.88480 11405.46970 10190.45210
 2300.00000  258.88440  266.35480  258.88440   81.56340   18.40000 2711.10010    0.00520    -999.25   -0.00060   12.26040   18.40000  166.01800  166.01800   11.49140   13.93200    9.86410   13.93200   12.26040   15.90310   15.90310    0.00910    -999.25    0.00910 2711.10010  144.09270  -69.98390  -82.06150  144.09270 13229.98830 11622.48630 10849.57030
 2350.00000  269.91660  270.33650  269.91660   12.87410   36.90000 2643.30000    0.04870    -999.25    0.03900   77.67510   36.90000  175.89900  175.89900   30.32930   33.49400   24.06230   33.49400   77.67510   98.37200   98.37200    0.02960    -999.25    0.02960 2643.30000   89.13940  -59.23950  -70.29130   89.13940 13458.10640 11878.74020 11473.48050
 2400.00000  347.76280  272.30390  347.76280  183.79310  251.00000 2504.10010    0.13810    -999.25    0.12040    5.44090  251.00000  241.40320  241.40320  124.40450  128.52390  116.75720  128.52390    5.44090    5.78780    5.78780    0.19320    -999.25    0.19320 2504.10010    8.05990  -13.43580  -23.17020    8.05990 14007.28710 12129.42680 13167.43360
 2450.00000  319.23700  274.67970  319.23700   49.68750   99.10000 2676.89990    0.02190    -999.25    0.01940   20.12580   99.10000  187.78770  187.78770   45.74630   44.18300   41.40740   44.18300   20.12580   22.65050   22.65050    0.02720    -999.25    0.02720 2676.89990   35.60820  -15.19450  -23.61160   35.60820 13961.82620 12267.35640 12045.47460
 2500.00000  252.15640  276.82910  252.15640   22.86690    7.80000 2675.50000    0.01800    -999.25    0.02020   43.73130    7.80000  183.96330  183.96330   39.97140   41.81960   37.67710   41.81960   43.73130   52.16290   52.16290    0.01890    -999.25    0.01890 2675.50000   63.82540  -17.41280  -24.51250   63.82540 13929.94920 12473.19530 9939.96480
 2550.00000  273.18310  278.94050  273.18310   56.78500    1.90000 2677.80000    0.01650    -999.25    0.01880   17.61030    1.90000  204.78510  204.78510   62.70770   65.53920   56.48130   65.53920   17.61030   18.69530   18.69530    0.06800    -999.25    0.06800 2677.80000   22.45360  -37.02520  -42.80750   22.45360 14028.91020 12719.94630 12102.68750
 2600.00000  248.46180  280.99580  248.46180   66.10300   26.20000 2493.50000    0.14360    -999.25    0.12660   15.12790   26.20000  247.82950  247.82950  217.68120  201.54430  204.01360  201.54430   15.12790   16.58700   16.58700    0.26410    -999.25    0.26410 2493.50000   30.37910  -33.90410  -38.36900   30.37910 14377.54880 12906.12990 9830.08010
 2650.00000  299.75980  278.85390  299.75980    1.60070  249.40000 2703.59990    0.00680    -999.25    0.00370  624.73800  249.40000  161.09360  161.09360   14.41920   16.59430   13.63540   16.59430  624.73800  803.41850  803.41850   -0.00660    -999.25   -0.00660 2703.59990 1822.21200 -212.93830 -216.08590 1822.21200 14687.74900 13118.83110 10046.45800
 2700.00000  291.73710  286.32680  291.73710    3.49120  249.50000 2663.80000    0.02530    -999.25    0.02700  286.43720  249.50000  164.13580  164.13580   11.16170   15.06540   15.42990   15.06540  286.43720  334.66760  334.66760   -0.00130    -999.25   -0.00130 2663.80000  454.46760 -267.74070 -269.57090  454.46760 14868.45700 13335.00590 9788.97750
 2750.00000  307.79670  283.51850  307.79670    0.75730  251.20000 2624.59990    0.04780    -999.25    0.04990 1320.45460  251.20000  166.54550  166.54550   14.13280   12.27830   14.31910   12.27830 1320.45460  413.37660  413.37660   -0.00110    -999.25   -0.00110 2624.59990 1362.30240 -222.01590 -222.52870 1362.30240 14994.25390 13490.51370 9553.92580
 2800.00000  314.53190  289.25680  314.53190    2.80570  219.90000 2620.50000    0.05280    -999.25    0.05230  356.41300  219.90000  165.06980  165.06980   12.76390   10.37470   13.22890   10.37470  356.41300 1033.78230 1033.78230   -0.00190    -999.25   -0.00190 2620.50000 1792.31030 -248.02710 -247.22250 1792.31030 15206.94820 13716.06840 9315.83300
 2850.00000  245.24650  288.24220  245.24650   37.15390   50.60000 2633.80000    0.04570    -999.25    0.04460   26.91510   50.60000  178.40090  178.40090   16.50180   13.82600   17.21560   13.82600   26.91510   33.56990   33.56990    0.02200    -999.25    0.02200 2633.80000   76.50780 -203.00080 -200.87890   76.50780 15276.04000 13956.81640 8414.73240
