~Version ---------------------------------------------------
VERS.      2.0 : CWLS log ASCII Standard -VERSION 2.0
WRAP.       NO : One line per depth step
CREA. 11/15/17 : LAS Creation Date
~Well ------------------------------------------------------
STRT.FT                        950.0 : START DEPTH
STOP.FT                       9400.0 : STOP DEPTH
STEP.FT                     50.00000 : STEP LENGTH
NULL.                        -999.25 : NULL VALUE
COMP. CANADIAN PACIFIC OIL & GAS LTD : COMPANY
WELL.       CPOG OBERLIN 10-15-38-21 : WELL
FLD .                                : FIELD
LOC .                                : LOCATION
CTRY.                         CANADA : COUNTRY
SRVC.                        Unknown : SERVICE COMPANY
DATE.                    13-Apr-1967 : LOGDATE
PROV.                        Alberta : PROVINCE
UWI .               100101503821W400 : UNIQUE WELL ID
SLAT.WGS84                  52.26833 : SURFACE LATITUDE
SLON.WGS84                 -112.9183 : SURFACE LONGITUDE
~Curve Information -----------------------------------------
DEPT   .FT    : Depth Curve
CALDED .IN    : CALIPER FROM DENSITY LOG
CALED  .IN    : CALIPER FROM CALIPER LOG
CALWS  .IN    : CALIPER [CALED SPL. TO CALED @ 4501']
CONDWS .MMHO  : CONDUCTIVITY [1000/DRESWS]
DCORED .G/C3  : DENSITY CORRECTION [DRHOED]
DCORWS .G/C3  : DENSITY CORRECTION [DCORED]
DENWS  .G/C3  : FORMATION BULK DENSITY [RHOBED]
DPOLSWS.V/V   : DENSITY POROSITY LIMESTONE [CALC ROM DENWS, M=2.71, F=1.00]
DRESWS .OHMM  : DEEP RESISTIVITY [ILDED]
DRHOED .G/C3  : DENSITY CORRECTION FROM DENSITY LOG
DTED   .US/F  : DELTA TIME FROM SONIC LOG [ADJ. TO RESISTIVITY LOG]
DTWS   .US/F  : COMPRESSIONAL SONIC [DTED]
GRNED  .GAPI  : GAMMA RAY FROM NEUTRON GAMMA RAY LOG [ADJ. TO RESISTIVITY LOG]
GRSED  .GAPI  : GAMMA RAY FROM SONIC LOG [ADJ. TO RESISTIVITY LOG]
GRWS   .GAPI  : GAMMA RAY [GRSED]
ILDED  .OHMM  : DEEP INDUCTION FROM RESISTIVITY LOG
ILMED  .OHMM  : INDUCTION MEDIUM FROM RESISTIVITY LOG
LL8ED  .OHMM  : LATEROLOG-8 FROM RESISTIVITY LOG
MRESWS .OHMM  : MEDIUM RESISTIVITY [ILMED]
NEUTED .NAPI  : NEUTRON FROM NEUTRON GAMMA RAY LOG [ADJ. TO RESISTIVITY LOG]
NEUTWS .NAPI  : NEUTRON [NEUTED]
RHOBED .G/C3  : BULK DENSITY FROM DENSITY LOG
SPRED  .MV    : SPONTANEOUS POTENTIAL FROM RESISTIVITY
SPWS   .MV    : SPONTANEOUS POTENTIAL [SPRED]
SRESWS .OHMM  : SHALLOW RESISTIVITY [LL8ED]
~Params ----------------------------------------------------
PD  .                     GL : PERMANENT DATUM
EPD .FT               2675.8 : ELEVATION PERMANENT DATUM
LMF .                     KB : LOG MEASURED FROM
DAPD.FT                   13 : FEET ABOVE PERMANENT DATUM
DMF .                     KB : DRILLING MEASURED FROM
EKB .FT               2688.8 : KELLY BUSHING
EGL .FT               2675.8 : GROUND LEVEL
DATE.               04/13/67 : RUN DATE
RUN .                      1 : RUN NUMBER
DD  .FT                 9418 : DEPTH DRILLER
DL  .FT                 9417 : DEPTH LOGGER
BLI .FT                 9413 : BOTTOM LOG INTERVAL
TLI .FT                  920 : TOP LOG INTERVAL
CBD .FT                  920 : CASING BOTTOM DRILLER
CBL .FT                  918 : CASING BOTTOM LOGGER
BS  .IN                 8.75 : BIT SIZE
BSD .FT                 9417 : BIT SIZE AT DEPTH
DFT .            CAUSTIC GEL : DRILLING FLUID TYPE
DFD .                   10.4 : DRILLING FLUID DENSITY
DFV .                     68 : DRILLING FLUID VISCOSITY
DFPH.                   10.5 : DRILLING FLUID PH
DFL .                    9.6 : DRILLING FLUID LOSS
MSS .               FLOWLINE : MUD SAMPLE SOURCE
RMS .OHMM              0.397 : RESISTIVITY MUD SAMPLE
MST .DEGF                 62 : MUD SAMPLE TEMPERATURE
RMF .OHMM              0.211 : RESISTIVITY MUD FILTRATE SAMPLE
MFST.DEGF                 76 : MUD FILTRATE SAMPLE TEMPERATURE
RMB .OHMM              0.094 : RESISTIVITY MUD AT BHT
TCS .HRS                   3 : TIME CIRCULATED STOPPED
LUN .                   7014 : LOGGING UNIT NUMBER
LUL .                  STETT : LOGGING UNIT LOCATION
ENGI.                  YOUNG : RECORDING ENGINEER
WITN.                KOZBIAL : WITNESSED BY
CLNT.                A2DTECH : CLIENT CODE
ORIG.            2" 5" PRINT : ORIGIN OF DATA
UWI .       100101503821W400 : UNIQUE WELL ID
DICO. A2D Technologies, Inc. : DIGITIZING COMPANY
~Other -----------------------------------------------------
~ASCII -----------------------------------------------------
# ...
 7950.00000   11.56480    -999.25   11.56480   28.77970    0.18310    0.18310    2.44390    0.15560   34.74670    0.18310   61.31520   61.31520    -999.25   87.16840   87.16840   34.74670   19.58190   17.05160   19.58190    -999.25    -999.25    2.44390  -61.85160   -5.28870   17.05160
 8000.00000   12.00670    -999.25   12.00670   56.07770    0.07120    0.07120    2.52920    0.10570   17.83240    0.07120   59.38280   59.38280    -999.25   67.11060   67.11060   17.83240   12.58950   31.42990   12.58950    -999.25    -999.25    2.52920  -63.97940   -8.64900   31.42990
 8050.00000   11.02540    -999.25   11.02540   27.82540    0.01780    0.01780    2.56400    0.08540   36.59830    0.01780   57.85480   57.85480    -999.25   75.12760   75.12760   36.59830   15.79400  166.84550   15.79400    -999.25    -999.25    2.56400  -67.91680  -13.81890  166.84550
 8100.00000   11.33020    -999.25   11.33020   56.78980    0.17590    0.17590    2.33860    0.21720   17.60880    0.17590   67.74570   67.74570    -999.25   95.76950   95.76950   17.60880   12.51430   15.36520   12.51430    -999.25    -999.25    2.33860  -63.48280  -10.62550   15.36520
 8150.00000   11.62710    -999.25   11.62710  105.83940    0.02740    0.02740    2.36750    0.20030    9.49100    0.02740   68.04890   68.04890    -999.25   90.17140   90.17140    9.49100    4.92600    8.38490    4.92600    -999.25    -999.25    2.36750  -78.43120  -26.80630    8.38490
 8200.00000   15.00000    -999.25   15.00000  249.38900    0.09850    0.09850    2.30230    0.23840    4.00980    0.09850   77.13840   77.13840    -999.25   85.20960   85.20960    4.00980    2.16950    4.60260    2.16950    -999.25    -999.25    2.30230  -72.07480  -21.69050    4.60260
 8250.00000   13.72410    -999.25   13.72410  227.40190    0.15150    0.15150    2.29470    0.24290    4.39750    0.15150   78.82100   78.82100    -999.25   98.21830   98.21830    4.39750    3.59730    6.07130    3.59730    -999.25    -999.25    2.29470  -61.26520  -12.11340    6.07130
 8300.00000   15.00000    -999.25   15.00000  130.50200    0.02480    0.02480    1.45500    0.73390    7.68250    0.02480   81.55690   81.55690    -999.25   77.62200   77.62200    7.68250    1.60680    4.32770    1.60680    -999.25    -999.25    1.45500  -65.22860  -17.30930    4.32770
 8350.00000   15.00000    -999.25   15.00000   87.31640    0.16370    0.16370    2.38970    0.18730   11.45260    0.16370   77.29320   77.29320    -999.25   54.10530   54.10530   11.45260    4.59670   10.25660    4.59670    -999.25    -999.25    2.38970  -61.71120  -13.63190   10.25660
 8400.00000   14.32790    -999.25   14.32790  171.94510    0.20010    0.20010    2.19510    0.30110    5.81670    0.20010   59.16510   59.16510    -999.25   49.15590   49.15590    5.81670   14.24280   40.70160   14.24280    -999.25    -999.25    2.19510  -70.31280  -21.76280   40.70160
 8450.00000   15.00000    -999.25   15.00000   57.17620    0.15870    0.15870    2.19080    0.30360   17.48980    0.15870   69.74160   69.74160    -999.25   62.19150   62.19150   17.48980    3.36180   12.02760    3.36180    -999.25    -999.25    2.19080  -65.18730  -16.16360   12.02760
 8500.00000   15.00000    -999.25   15.00000  270.51890    0.01560    0.01560    1.43480    0.74570    3.69660    0.01560   69.50500   69.50500    -999.25   68.94950   68.94950    3.69660    1.19500    3.27200    1.19500    -999.25    -999.25    1.43480  -71.65880  -22.16440    3.27200
 8550.00000   15.00000    -999.25   15.00000   91.09820    0.16090    0.16090    2.13960    0.33360   11.04780    0.16090   64.13980   64.13980    -999.25   50.09420   50.09420   11.04780    6.37770   12.43060    6.37770    -999.25    -999.25    2.13960  -68.66510  -18.70010   12.43060
 8600.00000   15.00000    -999.25   15.00000  105.91870    0.04070    0.04070    1.55530    0.67530    9.44120    0.04070   75.05700   75.05700    -999.25   67.02570   67.02570    9.44120    2.87340    5.65520    2.87340    -999.25    -999.25    1.55530  -73.64860  -23.20990    5.65520
 8650.00000   15.00000    -999.25   15.00000  120.49260    0.15040    0.15040    2.22800    0.28190    8.30910    0.15040   76.76740   76.76740    -999.25   70.73770   70.73770    8.30910    3.02590    6.14350    3.02590    -999.25    -999.25    2.22800  -59.58240   -8.67300    6.14350
 8700.00000   14.85100    -999.25   14.85100  145.34040    0.22100    0.22100    2.36220    0.20340    6.88040    0.22100   76.07400   76.07400    -999.25   88.01180   88.01180    6.88040    3.67840    8.79920    3.67840    -999.25    -999.25    2.36220  -70.14000  -18.75690    8.79920
 8750.00000   12.42220    -999.25   12.42220  158.45600    0.03120    0.03120    2.63970    0.04110    6.31090    0.03120   73.15610   73.15610    -999.25  130.18330  130.18330    6.31090    5.98840    8.64020    5.98840    -999.25    -999.25    2.63970  -84.23860  -32.38480    8.64020
 8800.00000   15.03080    -999.25   15.03080  168.23610    0.17080    0.17080    2.35660    0.20670    5.95460    0.17080   78.31890   78.31890    -999.25   92.35670   92.35670    5.95460    5.42680   11.42030    5.42680    -999.25    -999.25    2.35660  -77.03370  -24.70930   11.42030
 8850.00000   13.22210    -999.25   13.22210   86.19500    0.21520    0.21520    2.47800    0.13570   11.60160    0.21520   66.61750   66.61750    -999.25   85.25060   85.25060   11.60160    9.98210   25.52690    9.98210    -999.25    -999.25    2.47800  -73.45960  -19.90040   25.52690
 8900.00000   10.82210    -999.25   10.82210   53.97870    0.04310    0.04310    2.65810    0.03040   18.54540    0.04310   63.07500   63.07500    -999.25  145.23010  145.23010   18.54540   13.82780   27.17340   13.82780    -999.25    -999.25    2.65810  -75.08200  -19.44530   27.17340
 8950.00000   10.24310    -999.25   10.24310  182.32870    0.02590    0.02590    2.61820    0.05370    5.48460    0.02590   62.39540   62.39540    -999.25  121.02630  121.02630    5.48460    5.93750   14.70920    5.93750    -999.25    -999.25    2.61820 -117.04920  -59.32140   14.70920
 9000.00000    9.41770    -999.25    9.41770  200.32050    0.00500    0.00500    2.55090    0.09300    4.99200    0.00500   64.91280   64.91280    -999.25   61.93790   61.93790    4.99200    5.14550   11.82350    5.14550    -999.25    -999.25    2.55090 -130.51710  -70.71190   11.82350
 9050.00000    9.96990    -999.25    9.96990  214.99710    0.05820    0.05820    2.52250    0.10960    4.65120    0.05820   66.46720   66.46720    -999.25   36.37390   36.37390    4.65120    5.49910   13.23400    5.49910    -999.25    -999.25    2.52250 -138.30300  -76.42030   13.23400
 9100.00000   10.01740    -999.25   10.01740  153.28720    0.01770    0.01770    2.56280    0.08610    6.52370    0.01770   61.40100   61.40100    -999.25   44.20110   44.20110    6.52370    6.89130   12.13770    6.89130    -999.25    -999.25    2.56280 -128.37940  -64.40560   12.13770
 9150.00000    8.49360    -999.25    8.49360  556.20630    0.11180    0.11180    2.44190    0.15680    1.79800    0.11180   70.13940   70.13940    -999.25   30.09540   30.09540    1.79800    2.83040    5.48850    2.83040    -999.25    -999.25    2.44190 -124.79500  -58.74380    5.48850
 9200.00000    9.30020    -999.25    9.30020    6.13110    0.04250    0.04250    2.65970    0.02940  163.10270    0.04250   52.81730   52.81730    -999.25  107.53370  107.53370  163.10270 2422.72310 1448.08010 2422.72310    -999.25    -999.25    2.65970  -79.73330  -11.59100 1448.08010
 9250.00000    9.03700    -999.25    9.03700    0.33330    0.00480    0.00480    2.73600   -0.01520 3000.00000    0.00480   49.71300   49.71300    -999.25  134.26330  134.26330 3000.00000 2823.12330 3000.00000 2823.12330    -999.25    -999.25    2.73600  -81.29720  -11.07750 3000.00000
 9300.00000    8.96210    -999.25    8.96210    0.33330    0.01810    0.01810    2.66280    0.02760 3000.00000    0.01810   48.67170   48.67170    -999.25  154.92870  154.92870 3000.00000 2862.62170 3000.00000 2862.62170    -999.25    -999.25    2.66280  -91.90220  -21.42280 3000.00000
