~Version ---------------------------------------------------
VERS.      2.0 : CWLS log ASCII Standard -VERSION 2.0
WRAP.       NO : One line per depth step
CREA. 11/20/17 : LAS Creation Date
~Well ------------------------------------------------------
STRT.FT                300.0 : START DEPTH
STOP.FT               8300.0 : STOP DEPTH
STEP.FT             50.00000 : STEP LENGTH
NULL.                -999.25 : NULL VALUE
COMP.   IMPERIAL OIL LIMITED : COMPANY
WELL. IMP FREEMAN 10-31-63-7 : WELL
FLD .                        : FIELD
LOC .                        : LOCATION
CTRY.                 CANADA : COUNTRY
SRVC. Schlumberger of Canada : SERVICE COMPANY
DATE.            16-Oct-1958 : LOGDATE
PROV.                Alberta : PROVINCE
UWI .       100103106307W500 : UNIQUE WELL ID
SLAT.WGS84          54.49585 : SURFACE LATITUDE
SLON.WGS84         -115.0433 : SURFACE LONGITUDE
~Curve Information -----------------------------------------
DEPT  .FT     : Depth Curve
CALWS .IN     : CALIPER [MCALED]
CILDED.MMHO   : CONDUCTIVITY FROM RESISTIVITY LOG
CONDWS.MMHO   : CONDUCTIVITY [1000/DRESWS]
DRESWS.OHMM   : DEEP RESISTIVITY [1000/CILDED IF ILDED <=6.5, ILDED]
GRNED .UR/HR  : GAMMA RAY FROM GRN LOG [ADJ.TO RESISTIVITY LOG]
GRWS  .GAPI   : GAMMA RAY [GRNED*15]
ILDED .OHMM   : DEEP INDUCTION FROM RESISTIVITY LOG
MCALED.IN     : MICRO CALIPER FROM MICRO LOG [ADJ.TO RESISTIVITY LOG]
NEUTED.SNU    : NEUTRON FROM GRN LOG [ADJ.TO RESISTIVITY LOG]
NEUTWS.SNU    : NEUTRON [NEUTED]
SNED  .OHMM   : SHORT NORMAL 16" FROM RESISTIVITY LOG
SPRED .MV     : SPONTANEOUS POTENTIAL FROM RESISTIVITY LOG
SPWS  .MV     : SPONTANEOUS POTENTIAL [BASELINE 0 MV, SPRED]
SRESWS.OHMM   : SHALLOW RESISTIVITY [SNED]
~Params ----------------------------------------------------
LMF .                     KB : LOG MEASURED FROM
DMF .                     KB : DRILLING MEASURED FROM
EKB .FT                 2612 : KELLY BUSHING
DATE.               10/16/58 : RUN DATE
RUN .                      1 : RUN NUMBER
TCS .HRS                   4 : TIME CIRCULATED STOPPED
ENGI.                  GOETZ : RECORDING ENGINEER
WITN.                 WILSON : WITNESSED BY
CLNT.                A2DTECH : CLIENT CODE
ORIG.            2" 5" PRINT : ORIGIN OF DATA
UWI .       100103106307W500 : UNIQUE WELL ID
DICO. A2D Technologies, Inc. : DIGITIZING COMPANY
~Other -----------------------------------------------------
IEL-GRN-ML LOG RUN.
STUCK IN HOLE ON FIRST ATTEMPT, SURFACE SP DISTURBANCE.
GRNED, NEUTED DIG IN 2" SCALE @ TOP TO 6700'
GRNED MULTIPLED WITH 15 AS PER SPEC. (TYPE T (SCINTILLATION)
NEUTRON UNITS KEEPT AS 100 STU AS MENTIONED IN PRINT
~ASCII -----------------------------------------------------
# ...
 5200.00000    9.33820   12.25150   10.40380   96.11870    0.67860   10.17900   96.11870    9.33820    7.29020    7.29020   59.50140  -56.63300  -43.96400   59.50140
 5250.00000    8.67410   39.63360   39.80450   25.12280    0.65330    9.79950   25.12280    8.67410    6.03250    6.03250   30.95990  -73.34900  -59.91370   30.95990
 5300.00000    8.82580   26.00370   27.58660   36.25730    0.69240   10.38600   36.25730    8.82580    6.00300    6.00300   40.36920  -78.07730  -63.87960   40.36920
 5350.00000    9.04980  209.99230  209.99230    4.76210    0.66570    9.98550    6.25700    9.04980    3.30950    3.30950   21.17600  -83.39560  -68.42770   21.17600
 5400.00000    9.47050    4.81790    4.43260  225.60040    0.67280   10.09200  225.60040    9.47050    8.54960    8.54960   76.99340  -52.83270  -37.09850   76.99340
 5450.00000    9.29340  272.93980  272.93980    3.66380    1.46260   21.93900    4.89300    9.29340    5.59830    5.59830    5.78850  -64.67280  -48.17240    5.78850
 5500.00000    8.44400    7.19540    8.60280  116.24130    0.82010   12.30150  116.24130    8.44400    4.87940    4.87940   62.26610  -79.63940  -62.37280   62.26610
 5550.00000    9.11270   54.50040   53.15440   18.81820    0.73890   11.08350   18.81820    9.11270    4.09700    4.09700   32.30280  -88.41320  -70.38410   32.30280
 5600.00000    8.98810   69.11200   74.82230   13.36500    0.88920   13.33800   13.36500    8.98810    4.48050    4.48050   21.33980  -85.94800  -67.14870   21.33980
 5650.00000    9.11160   59.27790   63.46350   15.75710    1.22030   18.30450   15.75710    9.11160    7.61400    7.61400   17.65230  -51.84640  -32.28080   17.65230
 5700.00000    9.30680  116.01800  107.40100    9.31090    1.23380   18.50700    9.31090    9.30680    6.64870    6.64870   12.36710  -43.14010  -22.80820   12.36710
 5750.00000    -999.25  161.59410  147.07400    6.79930    1.36960   20.54400    6.79930    -999.25    3.86890    3.86890    7.40800  -41.78050  -20.68230    7.40800
 5800.00000    -999.25  207.10730  207.10730    4.82850    1.60440   24.06600    5.45370    -999.25    3.32930    3.32930    6.04900  -41.04370  -19.18310    6.04900
 5850.00000    -999.25  493.43920  493.43920    2.02660    1.45360   21.80400    2.88660    -999.25    1.81750    1.81750    3.13420  -36.93190  -14.30110    3.13420
 5900.00000    -999.25   72.63030   77.22540   12.94910    1.39160   20.87400   12.94910    -999.25    4.95650    4.95650   15.36480  -50.56230  -27.16520   15.36480
 5950.00000    -999.25   42.82570   44.03330   22.71010    1.06570   15.98550   22.71010    -999.25    9.08900    9.08900   19.96830  -47.16360  -23.00030   19.96830
 6000.00000    -999.25  249.19400  249.19400    4.01290    1.60840   24.12600    4.77050    -999.25    2.15840    2.15840    5.29520  -40.12870  -15.19900    5.29520
 6050.00000    -999.25  304.01770  304.01770    3.28930    1.32350   19.85250    4.03040    -999.25    2.03380    2.03380    4.38690  -29.35510   -3.66300    4.38690
 6100.00000    -999.25  324.18390  324.18390    3.08470    1.54060   23.10900    4.14000    -999.25    2.24270    2.24270    4.51790  -29.22810   -3.90730    4.51790
 6150.00000    -999.25  247.92840  247.92840    4.03340    1.32700   19.90500    4.90690    -999.25    1.93580    1.93580    5.28850  -31.54420   -7.53250    5.28850
 6200.00000    -999.25  333.51100  333.51100    2.99840    1.40510   21.07650    3.87400    -999.25    1.85200    1.85200    4.29460  -26.54890   -3.84630    4.29460
 6250.00000    -999.25  242.29770  242.29770    4.12720    1.69970   25.49550    5.04930    -999.25    1.97890    1.97890    5.40640  -33.21130   -7.00590    5.40640
 6300.00000    -999.25  310.09610  310.09610    3.22480    1.65800   24.87000    4.25260    -999.25    2.21510    2.21510    4.94680  -35.75540   -5.86520    4.94680
 6350.00000    -999.25   87.64160   89.04560   11.23020    1.27200   19.08000   11.23020    -999.25    4.39330    4.39330   14.01030  -33.44650   -2.38900   14.01030
 6400.00000    -999.25   91.87480   93.37330   10.70970    1.36280   20.44200   10.70970    -999.25    5.28150    5.28150   13.83380  -35.74010   -5.13130   13.83380
 6450.00000    -999.25   79.73430   85.56080   11.68760    1.22840   18.42600   11.68760    -999.25    5.68980    5.68980   12.93710  -33.39360   -3.34760   12.93710
 6500.00000    -999.25  169.12520  151.37980    6.60590    1.65370   24.80550    6.60590    -999.25    2.48420    2.48420    7.51490  -35.41850   -5.93530    7.51490
 6550.00000    -999.25  133.76590  128.28530    7.80560    1.56100   23.41500    7.80560    -999.25    2.64770    2.64770    8.72430  -34.23170   -5.30860    8.72430
 6600.00000    -999.25   17.30360   16.25200   61.53100    0.85780   12.86700   61.53100    -999.25    3.72010    3.72010   35.91430  -32.51760   -4.16010   35.91430
 6650.00000    -999.25   77.33770   79.98530   12.50230    1.27060   19.05900   12.50230    -999.25    5.85540    5.85540   15.58230  -33.39910   -5.60450   15.58230
 6700.00000    -999.25   98.87690   99.84720   10.01530    1.17840   17.67600   10.01530    -999.25    3.56400    3.56400   11.35860  -33.67530   -6.44360   11.35860
 6750.00000    -999.25  115.87190  109.83460    9.10460    1.36280   20.44200    9.10460    -999.25    3.44760    3.44760    9.73370  -25.39600   -0.24750    9.73370
 6800.00000   11.29690  124.91280  116.22830    8.60510    1.49720   22.45800    8.60510   11.29690    1.31630    1.31630    6.54620  -33.17000  -10.51980    6.54620
 6850.00000   10.94840  189.36580  189.36580    5.28080    1.62740   24.41100    6.10070   10.94840    1.46030    1.46030    6.82140  -29.58090   -6.93070    6.82140
 6900.00000    9.34840   51.62780   56.15580   17.80760    1.16970   17.54550   17.80760    9.34840    2.44590    2.44590   21.12610  -31.29720   -8.64700   21.12610
 6950.00000    9.54840  111.56170  106.42370    9.39640    1.28150   19.22250    9.39640    9.54840    2.28480    2.28480   11.54050  -35.29910  -12.64890   11.54050
 7000.00000    9.30730  106.43320  102.33950    9.77140    1.30660   19.59900    9.77140    9.30730    2.76610    2.76610   11.67190  -35.85010  -13.19990   11.67190
 7050.00000    9.42010   35.79850   33.28310   30.07780    1.00440   15.06600   30.07780    9.42010    2.93990    2.93990   23.87210  -35.67000  -13.01970   23.87210
 7100.00000    9.23880   84.90920   86.88250   11.50980    1.12650   16.89750   11.50980    9.23880    2.90810    2.90810   13.26550  -26.16730   -3.51710   13.26550
 7150.00000    9.11930   12.13800   11.64850   85.84770    0.78990   11.84850   85.84770    9.11930    5.49050    5.49050   38.62580  -29.46250   -6.81230   38.62580
 7200.00000    9.16940   18.61470   16.54740   60.43240    0.79810   11.97150   60.43240    9.16940    9.07920    9.07920   32.08700  -28.73720   -6.08700   32.08700
 7250.00000    9.25390   37.11890   24.65600   40.55810    0.90430   13.56450   40.55810    9.25390    8.29390    8.29390   29.81500  -29.94680   -7.29650   29.81500
 7300.00000    9.34500    4.88000    3.21570  310.97150    0.66250    9.93750  310.97150    9.34500    4.11340    4.11340   64.44150  -29.67660   -7.02640   64.44150
 7350.00000    9.36400   13.77970   12.18690   82.05530    0.79630   11.94450   82.05530    9.36400    5.36080    5.36080   47.98460  -25.34180   -2.69150   47.98460
 7400.00000    9.48200   10.36330   10.37330   96.40090    0.70940   10.64100   96.40090    9.48200    7.52720    7.52720   46.26550  -25.96750   -3.31730   46.26550
 7450.00000    9.38990   51.45620   50.36410   19.85540    1.50970   22.64550   19.85540    9.38990    4.36640    4.36640   23.69660  -27.93370   -3.39550   23.69660
 7500.00000    9.36420  138.13810  114.42300    8.73950    1.77940   26.69100    8.73950    9.36420    3.25790    3.25790   14.05960  -42.82160   -9.29340   14.05960
 7550.00000    9.25820  219.99990  219.99990    4.57210    1.88470   28.27050    5.21910    9.25820    2.98580    2.98580    7.20000  -46.17120  -15.85070    7.20000
 7600.00000    9.22900   98.21130   97.90000   10.21450    1.31730   19.75950   10.21450    9.22900    4.12880    4.12880   14.54590  -33.05890   -7.50420   14.54590
