~Version ---------------------------------------------------
VERS.      2.0 : CWLS log ASCII Standard -VERSION 2.0
WRAP.       NO : One line per depth step
CREA. 10/24/17 : LAS Creation Date
~Well ------------------------------------------------------
STRT.FT                        1200.0 : START DEPTH
STOP.FT                       11700.0 : STOP DEPTH
STEP.FT                      50.00000 : STEP LENGTH
NULL.                         -999.25 : NULL VALUE
COMP.            MOBIL OIL CANADA LTD : COMPANY
WELL. MOBIL ICG MARSH HEAD 11-3-60-20 : WELL
FLD .                                 : FIELD
LOC .                                 : LOCATION
CTRY.                          CANADA : COUNTRY
SRVC.                    Schlumberger : SERVICE COMPANY
DATE.                     05-Jan-1976 : LOGDATE
PROV.                         Alberta : PROVINCE
UWI .                100110306020W500 : UNIQUE WELL ID
SLAT.WGS84                   54.15991 : SURFACE LATITUDE
SLON.WGS84                  -116.9171 : SURFACE LONGITUDE
~Curve Information -----------------------------------------
DEPT    .FT    : Depth Curve
CALDED  .IN    : CALIPER FROM DENSITY LOG [ADJ. TO RESISTIVITY LOG]
CALSED  .IN    : CALIPER FROM SONIC LOG [ADJ. TO RESISTIVITY LOG]
CALWS   .IN    : CALIPER [CALDED SPL. TO CALSED FROM 2516'-2535']
CONDWS  .MMHO  : CONDUCTIVITY [1000/DRESWS]
DCORWS  .G/C3  : DENSITY CORRECTION [DRHOED]
DENWS   .G/C3  : FORMATION BULK DENSITY [RHOBED]
DPHILSED.V/V   : DENSITY POROSITY LIMESTONE  FROM DENSITY LOG [ADJ. TO RESISTIVITY LOG]
DPOLSWS .V/V   : DENSITY POROSITY LIMESTONE [CALC FROM DENWS,M=2.71, F=1.00]
DRESWS  .OHMM  : DEEP RESISTIVITY [ILDED]
DRHOED  .G/C3  : DENSITY CORRECTION FROM DENSITY LOG [ADJ. TO RESISTIVITY LOG]
DTED    .US/F  : DELTA TIME FROM SONIC LOG [ADJ. TO RESISTIVITY LOG]
DTWS    .US/F  : COMPRESSIONAL SONIC [DTED]
GRDED   .GAPI  : GAMMA RAY FROM DENSITY LOG [ADJ. TO RESISTIVITY LOG]
GRSED   .GAPI  : GAMMA RAY FROM SONIC LOG [ADJ. TO RESISTIVITY LOG]
GRWS    .GAPI  : GAMMA RAY [GRDED SPL. TO GRSED FROM 2507'-2550']
ILDED   .OHMM  : DEEP INDUCTION RESISTIVITY FROM RESISTIVITY LOG
ILMED   .OHMM  : MEDIUM INDUCTION RESISTIVITY FROM RESISTIVITY LOG
LL8ED   .OHMM  : 8 INCH LATEROLOG RESISTIVITY FROM RESISTIVITY LOG
MRESWS  .OHMM  : MEDIUM RESISTIVITY [ILMED]
NPHILSED.V/V   : NEUTRON POROSITY LIMESTONE FROM DENSITY LOG [ADJ. TO RESISTIVITY LOG]
NPOLSWS .V/V   : NEUTRON POROSITY LIMESTONE [NPHILSED]
RHOBED  .G/C3  : BULK DENSITY FROM DENSITY LOG [ADJ. TO RESISTIVITY LOG]
SPRED   .MV    : SPONTANEOUS POTENTIAL FROM RESISTIVITY LOG
SPWS    .MV    : SPONTANEOUS POTENTIAL [BASELINE 0 MV, SPRED]
SRESWS  .OHMM  : SHALLOW RESISTIVITY [LL8ED]
~Params ----------------------------------------------------
PD  .                     GL : PERMANENT DATUM
EPD .FT               3132.5 : ELEVATION PERMANENT DATUM
LMF .                     KB : LOG MEASURED FROM
DAPD.FT                 14.5 : FEET ABOVE PERMANENT DATUM
EKB .FT                 3147 : KELLY BUSHING
EGL .FT               3132.5 : GROUND LEVEL
DATE.               01/05/76 : RUN DATE
RUN .                      1 : RUN NUMBER
DD  .FT                11725 : DEPTH DRILLER
DL  .FT                11730 : DEPTH LOGGER
BLI .FT                11724 : BOTTOM LOG INTERVAL
TLI .FT                 1203 : TOP LOG INTERVAL
CBD .FT                 1203 : CASING BOTTOM DRILLER
CBL .FT                 1203 : CASING BOTTOM LOGGER
BS  .IN                 8.75 : BIT SIZE
BSD .FT                11725 : BIT SIZE AT DEPTH
DFT .                    GEL : DRILLING FLUID TYPE
DFD .                    9.6 : DRILLING FLUID DENSITY
DFV .                    110 : DRILLING FLUID VISCOSITY
DFPH.                   10.5 : DRILLING FLUID PH
DFL .                    9.8 : DRILLING FLUID LOSS
MSS .               FLOWLINE : MUD SAMPLE SOURCE
RMS .OHMM               2.42 : RESISTIVITY MUD SAMPLE
MST .DEGF                 74 : MUD SAMPLE TEMPERATURE
RMF .OHMM               1.63 : RESISTIVITY MUD FILTRATE SAMPLE
MFST.DEGF                 74 : MUD FILTRATE SAMPLE TEMPERATURE
RMB .OHMM               0.67 : RESISTIVITY MUD AT BHT
TCS .HRS                   3 : TIME CIRCULATED STOPPED
LUN .                   7658 : LOGGING UNIT NUMBER
LUL .                     RD : LOGGING UNIT LOCATION
ENGI.              DODSWORTH : RECORDING ENGINEER
WITN.   OLINYK LINDENSCHMIDT : WITNESSED BY
CLNT.                A2DTECH : CLIENT CODE
ORIG.            2" 5" PRINT : ORIGIN OF DATA
UWI .       100110306020W500 : UNIQUE WELL ID
DICO. A2D Technologies, Inc. : DIGITIZING COMPANY
~Other -----------------------------------------------------
DIL-LL-CNFD-BHC LOG RUN
CNFD DATA MISSING AROUND 25256' (MAY BE DUE TO LOG SPLICING)
~ASCII -----------------------------------------------------
 1200.00000    -999.25    -999.25    -999.25    -999.25    -999.25    -999.25    -999.25    -999.25    -999.25    -999.25    -999.25    -999.25   35.58340   39.04760   35.58340    -999.25    -999.25    -999.25    -999.25    0.39150    0.39150    -999.25    -999.25    -999.25    -999.25
 1250.00000   11.21960   10.68680   11.21960   86.84020    0.05160    2.35080    0.21380    0.21010   11.51540    0.05160   89.87340   89.87340   54.12370   58.69660   54.12370   11.51540    9.77470   10.22980    9.77470    0.22530    0.22530    2.35080 -131.80810   -6.22240   10.22980
 1300.00000   14.35160   12.40260   14.35160  183.77490    0.10950    1.74290    0.45000    0.56560    5.44740    0.10950  117.76690  117.76690   84.52940   84.97950   84.52940    5.44740    4.40350   11.03930    4.40350    0.42620    0.42620    1.74290 -131.42360   -3.04440   11.03930
 1350.00000   12.71690   14.03610   12.71690  226.26480    0.11790    1.78230    0.44970    0.54250    4.41960    0.11790  126.71960  126.71960   66.51330   77.27610   66.51330    4.41960    3.55490    5.77390    3.55490    0.43430    0.43430    1.78230 -133.80350   -5.10970    5.77390
 1400.00000   11.87900    9.74820   11.87900  139.73120    0.16580    2.22080    0.28970    0.28610    7.15660    0.16580   97.24570   97.24570   67.00770   67.09470   67.00770    7.15660    5.55000    5.89160    5.55000    0.26690    0.26690    2.22080 -134.39690   -5.39010    5.89160
 1450.00000   11.65780   10.22550   11.65780  134.71460    0.24000    2.23290    0.27870    0.27900    7.42310    0.24000   93.17740   93.17740   78.47930   75.35190   78.47930    7.42310    6.23300    6.70650    6.23300    0.26060    0.26060    2.23290 -134.24680   -4.92690    6.70650
 1500.00000   13.55760   13.10540   13.55760  349.65030    0.07740    1.72680    0.45000    0.57500    2.86000    0.07740  114.96650  114.96650   90.57000   94.73230   90.57000    2.86000    2.31370    2.96110    2.31370    0.43140    0.43140    1.72680 -133.44100   -3.96150    2.96110
 1550.00000   10.29010    9.58190   10.29010   93.26510    0.05020    2.31010    0.23550    0.23390   10.72700    0.05020   90.31030   90.31030   55.26300   56.99290   55.26300   10.72700   10.11540    9.86840   10.11540    0.24780    0.24780    2.31010 -132.19460   -2.71510    9.86840
 1600.00000   10.10740    9.78950   10.10740   51.17680    0.01070    2.20550    0.29760    0.29500   19.54010    0.01070   91.95450   91.95450   44.80300   50.17880   44.80300   19.54010   14.98290   13.92250   14.98290    0.28430    0.28430    2.20550 -136.54610   -7.06660   13.92250
 1650.00000   10.68030   10.07530   10.68030  117.93980    0.13640    2.28270    0.25380    0.24990    8.47890    0.13640   95.84560   95.84560   76.07620   77.54680   76.07620    8.47890    6.48100    6.85990    6.48100    0.26560    0.26560    2.28270 -132.27710   -2.79760    6.85990
 1700.00000   11.31520   12.14370   11.31520  210.77040    0.02110    1.67000    0.45000    0.60820    4.74450    0.02110  145.24790  145.24790   69.88400   65.55740   69.88400    4.74450    3.60830    5.92740    3.60830    0.45110    0.45110    1.67000 -131.99210   -2.51260    5.92740
 1750.00000   12.56100   11.15760   12.56100  154.12360    0.12120    1.98090    0.43790    0.42640    6.48830    0.12120   96.63230   96.63230   90.43990   89.48080   90.43990    6.48830    5.35720    6.87380    5.35720    0.28040    0.28040    1.98090 -133.40160   -3.92210    6.87380
 1800.00000   11.87980    9.67640   11.87980  141.30050    0.15770    2.05980    0.38710    0.38020    7.07740    0.15770   98.11470   98.11470   90.61110   92.70320   90.61110    7.07740    5.82580    7.89180    5.82580    0.27370    0.27370    2.05980 -133.52060   -4.37230    7.89180
 1850.00000   10.02590    9.57200   10.02590   85.55340    0.00300    2.45710    0.14980    0.14790   11.68860    0.00300   68.06790   68.06790   66.91880   66.07360   66.91880   11.68860   13.78310   20.10360   13.78310    0.11320    0.11320    2.45710 -132.42450   -3.74180   20.10360
 1900.00000   10.50550    9.68770   10.50550   79.77280    0.01340    2.39400    0.18900    0.18480   12.53560    0.01340   76.86710   76.86710   52.25540   58.22590   52.25540   12.53560   12.20650   13.46260   12.20650    0.19870    0.19870    2.39400 -131.15690   -2.93750   13.46260
 1950.00000   15.10330   10.00810   15.10330  180.28410    0.16410    1.95030    0.44560    0.44430    5.54680    0.16410   95.73010   95.73010   78.60940   77.19240   78.60940    5.54680    4.56440    5.05380    4.56440    0.29120    0.29120    1.95030 -131.99620   -4.24000    5.05380
 2000.00000   10.29000    9.81190   10.29000   73.67890    0.03820    2.41710    0.17240    0.17130   13.57240    0.03820   76.75010   76.75010   64.88570   60.67770   64.88570   13.57240   12.92590   15.24090   12.92590    0.17750    0.17750    2.41710 -130.02350   -2.73050   15.24090
 2050.00000   12.10920   10.10390   12.10920  266.28580    0.10680    2.16400    0.31560    0.31930    3.75590    0.10680  100.53810  100.53810   95.54680   84.41860   95.54680    3.75590    3.23610    3.91140    3.23610    0.28980    0.28980    2.16400 -129.33860   -2.50660    3.91140
 2100.00000   13.32540   10.46910   13.32540  235.42710    0.08400    2.01610    0.41000    0.40580    4.24760    0.08400  111.88360  111.88360   86.22900   77.95960   86.22900    4.24760    3.40270    4.26600    3.40270    0.33470    0.33470    2.01610 -129.66710   -3.30060    4.26600
 2150.00000   12.96550   11.26690   12.96550  140.82330    0.12450    2.05100    0.39390    0.38540    7.10110    0.12450   93.25010   93.25010   73.34000   68.54470   73.34000    7.10110    5.77280    5.98080    5.77280    0.27670    0.27670    2.05100 -128.72570   -2.82250    5.98080
 2200.00000   12.49600   12.18010   12.49600  210.05310    0.15410    1.99140    0.41710    0.42020    4.76070    0.15410  103.30390  103.30390   81.07840   81.06520   81.07840    4.76070    4.07480    5.86220    4.07480    0.34130    0.34130    1.99140 -129.22790   -3.78790    5.86220
 2250.00000   13.01080   11.96610   13.01080  211.40760    0.10360    2.12690    0.34470    0.34100    4.73020    0.10360   94.85970   94.85970   90.18700   92.86680   90.18700    4.73020    4.18310    5.08790    4.18310    0.28410    0.28410    2.12690 -129.96000   -4.98320    5.08790
 2300.00000   11.09390   10.43600   11.09390   63.05770    0.00690    2.36730    0.20140    0.20040   15.86000    0.00690   81.93450   81.93450   65.10580   59.56200   65.10580   15.86000   12.82480   15.32590   12.82480    0.19560    0.19560    2.36730 -131.63700   -7.12120   15.32590
 2350.00000   11.64870   11.48080   11.64870  262.96410    0.01890    2.00170    0.44700    0.41420    3.80280    0.01890  136.53740  136.53740   94.48490   92.45640   94.48490    3.80280    2.90580    3.67750    2.90580    0.42040    0.42040    2.00170 -126.27600   -2.22570    3.67750
 2400.00000   12.04100   11.91930   12.04100  181.82480    0.10710    1.82990    0.45000    0.51470    5.49980    0.10710   93.35890   93.35890   76.83220   77.69520   76.83220    5.49980    4.58730    5.14020    4.58730    0.29510    0.29510    1.82990 -125.72940   -2.09490    5.14020
 2450.00000   13.05580   14.05800   13.05580  249.17150    0.09230    1.75990    0.44960    0.55560    4.01330    0.09230  107.19230  107.19230   76.73960   70.69820   76.73960    4.01330    3.23180    3.69600    3.23180    0.35930    0.35930    1.75990 -126.59330   -2.47380    3.69600
 2500.00000   13.79720   14.96540   13.79720  193.39740    0.08580    1.73570    0.45000    0.56980    5.17070    0.08580   90.89180   90.89180   72.27330   78.76150   72.27330    5.17070    4.11830    4.87000    4.11830    0.35910    0.35910    1.73570 -128.20650   -3.60190    4.87000
 2550.00000   11.58570   13.07900   11.58570  197.76310    0.14340    1.91660    0.43730    0.46400    5.05940    0.14340   97.74320   97.74320   70.30720   72.46470   72.46470    5.05940    4.29870    4.71000    4.29870    0.34860    0.34860    1.91660 -129.39660   -4.30930    4.71000
