~Version ---------------------------------------------------
VERS.      2.0 : CWLS log ASCII Standard -VERSION 2.0
WRAP.       NO : One line per depth step
CREA. 11/07/17 : LAS Creation Date
~Well ------------------------------------------------------
STRT.FT                        300.0 : START DEPTH
STOP.FT                       5950.0 : STOP DEPTH
STEP.FT                     50.00000 : STEP LENGTH
NULL.                        -999.25 : NULL VALUE
COMP.                   PETRO-CANADA : COMPANY
WELL. PACIFIC ET AL NIPISI 4-26-80-8 : WELL
FLD .                                : FIELD
LOC .                                : LOCATION
CTRY.                         CANADA : COUNTRY
SRVC.                   Schlumberger : SERVICE COMPANY
DATE.                    05-Jan-1966 : LOGDATE
PROV.                        Alberta : PROVINCE
UWI .               100042608008W500 : UNIQUE WELL ID
SLAT.WGS84             55.9581377259 : SURFACE LATITUDE
SLON.WGS84           -115.1456120509 : SURFACE LONGITUDE
~Curve Information -----------------------------------------
DEPT  .FT    : Depth Curve
CALWS .IN    : CALIPER [MCALED]
CILDED.MMHO  : CONDUCTIVITY FROM IEL LOG
CONDWS.MMHO  : CONDUCTIVITY [1000/DRESWS]
DRESWS.OHMM  : DEEP RESISTIVITY [ILDED] IF ILDED<5;1000/CILDED;ELSE ILDED
DTED  .US/F  : DELTA TIME FROM SONIC LOG
DTWS  .US/F  : DELTA TIME [DTED]
GRSED .GAPI  : GAMMA RAY FROM SONIC LOG
GRWS  .GAPI  : GAMMA RAY [GRSED]
ILDED .OHMM  : INDUCTION LOG DEEP RESISTIVITY
MCALED.IN    : CALIPER FROM MICROLOG
SNED  .OHMM  : 16 INCH SHORT NORMAL RESISTIVITY FROM IEL LOG
SPRED .MV    : SPONTANEOUS POTENTIAL FROM IEL LOG
SPWS  .MV    : SPONTANEOUS POTENTIAL [BASELINE 0 MV] [SPRED]
SRESWS.OHMM  : SHALLOW RESISTIVITY [SNED]
~Params ----------------------------------------------------
PD  .                     GL : PERMANENT DATUM
EPD .FT               2165.8 : ELEVATION PERMANENT DATUM
LMF .                     KB : LOG MEASURED FROM
DAPD.FT                 12.2 : FEET ABOVE PERMANENT DATUM
EKB .FT                 2178 : KELLY BUSHING
EGL .FT               2165.8 : GROUND LEVEL
DATE.               01/05/66 : RUN DATE
RUN .                      1 : RUN NUMBER
DD  .FT                 5980 : DEPTH DRILLER
DL  .FT                 5979 : DEPTH LOGGER
BLI .FT                 5978 : BOTTOM LOG INTERVAL
TLI .FT                  628 : TOP LOG INTERVAL
CBD .FT                  626 : CASING BOTTOM DRILLER
CBL .FT                  628 : CASING BOTTOM LOGGER
BS  .IN                7.875 : BIT SIZE
BSD .FT                 5980 : BIT SIZE AT DEPTH
DFT .                    GEL : DRILLING FLUID TYPE
DFD .                   10.2 : DRILLING FLUID DENSITY
DFV .                    115 : DRILLING FLUID VISCOSITY
DFPH.                     10 : DRILLING FLUID PH
DFL .                      8 : DRILLING FLUID LOSS
RMS .OHMM              0.643 : RESISTIVITY MUD SAMPLE
MST .DEGF                 36 : MUD SAMPLE TEMPERATURE
RMF .OHMM              0.588 : RESISTIVITY MUD FILTRATE SAMPLE
MFST.DEGF                 40 : MUD FILTRATE SAMPLE TEMPERATURE
RMC .OHMM               1.02 : RESISTIVITY MUD CAKE
MCST.DEGF                 41 : MUD CAKE SAMPLE TEMPERATURE
RMB .OHMM              0.301 : RESISTIVITY MUD AT BHT
TCS .HRS                   3 : TIME CIRCULATED STOPPED
LUN .                   3705 : LOGGING UNIT NUMBER
LUL .                    EDM : LOGGING UNIT LOCATION
ENGI.                  BERRY : RECORDING ENGINEER
WITN.                 CHETIN : WITNESSED BY
CLNT.                A2DTECH : CLIENT CODE
ORIG.            2" 5" PRINT : ORIGIN OF DATA
UWI .       100042608008W500 : UNIQUE WELL ID
DICO. A2D Technologies, Inc. : DIGITIZING COMPANY
~Other -----------------------------------------------------
~ASCII -----------------------------------------------------
# ...
 2750.00000    8.71080   24.04670   23.32100   42.88000   53.75350   53.75350   15.02530   15.02530   42.88000    8.71080   36.57680  -62.65850  -22.77150   36.57680
 2800.00000    9.21720   17.81850   22.32810   44.78670   54.37060   54.37060   15.91920   15.91920   44.78670    9.21720   44.14140  -74.59820  -32.40100   44.14140
 2850.00000    8.76010   20.92440   26.38420   37.90360   57.35660   57.35660   13.66650   13.66650   37.90360    8.76010   39.04520  -73.66390  -29.13320   39.04520
 2900.00000    8.56250   27.26870   31.41600   31.83530   60.08010   60.08010   15.45650   15.45650   31.83530    8.56250   46.13590  -75.74110  -28.88840   46.13590
 2950.00000    8.44010   51.67350   52.60470   19.00970   58.74700   58.74700   17.24170   17.24170   19.00970    8.44010   35.39670  -75.78220  -26.59610   35.39670
 3000.00000    8.58150    5.24070   10.55150   94.79100   48.93660   48.93660   13.67530   13.67530   94.79100    8.58150   53.75080  -60.96530   -9.46890   53.75080
 3050.00000    8.79820   78.90600   78.90420   12.67360   60.79580   60.79580   15.63310   15.63310   12.67360    8.79820   26.41920  -79.48650  -25.67980   26.41920
 3100.00000    8.48830   11.01330   16.19340   61.76290   53.68260   53.68260   13.02590   13.02590   61.76290    8.48830   44.07040  -62.76670   -6.62650   44.07040
 3150.00000    8.84100   13.61010   19.78500   50.55840   54.97880   54.97880   11.94190   11.94190   50.55840    8.84100   39.54160  -68.67180  -12.85810   39.54160
 3200.00000    8.71340   20.53170   21.56660   46.36790   52.49550   52.49550   12.13550   12.13550   46.36790    8.71340   44.33630  -65.66280  -10.52300   44.33630
 3250.00000    8.89490   14.59000   17.19630   58.15200   55.57680   55.57680   11.96120   11.96120   58.15200    8.89490   43.68190  -66.75670  -12.28410   43.68190
 3300.00000    8.72280    6.11000   12.29530   81.33170   50.26520   50.26520    9.33830    9.33830   81.33170    8.72280   54.96120  -58.79210   -4.98670   54.96120
 3350.00000    8.58370   12.84730   16.17980   61.80640   52.15510   52.15510   12.60290   12.60290   61.80640    8.58370   57.90090  -63.84790  -10.71630   57.90090
 3400.00000    9.25270    8.10550   16.34350   61.29880   50.79930   50.79930   14.66000   14.66000   61.29880    9.25270   43.54590  -59.76720   -7.30620   43.54590
 3450.00000    9.19710   57.56930   57.56320   17.37220   50.37740   50.37740   12.94420   12.94420   17.37220    9.19710   31.88110  -66.18620  -14.39910   31.88110
 3500.00000    9.14230   20.42370   22.07580   45.29840   52.30440   52.30440   12.23620   12.23620   45.29840    9.14230   41.36200  -75.25450  -24.13460   41.36200
 3550.00000   12.50990  261.98410  261.98410    3.81700  101.85020  101.85020   66.37500   66.37500    3.18220   12.50990    4.39440  -53.81670   -3.36400    4.39440
 3600.00000    8.20550   32.33590   31.70230   31.54440   49.09330   49.09330   15.10710   15.10710   31.54440    8.20550   47.14800  -77.72310  -27.42780   47.14800
 3650.00000    8.77050   45.61210   50.35570   19.87430   51.96520   51.96520   20.62520   20.62520   19.87430    8.77050   25.42700  -69.64690  -19.48110   25.42700
 3700.00000    8.27530   28.01250   34.38080   29.08600   50.55250   50.55250   12.08960   12.08960   29.08600    8.27530   27.47240  -66.47850  -16.44300   27.47240
 3750.00000    8.11750   19.64540   21.98980   45.69830   48.42390   48.42390   12.02110   12.02110   45.69830    8.11750   38.60870  -65.84720  -15.94070   38.60870
 3800.00000    8.48240   19.32570   26.64980   37.52380   50.04390   50.04390   11.17530   11.17530   37.52380    8.48240   46.26230  -77.23560  -27.45800   46.26230
 3850.00000    7.96100  138.09160  112.73310    8.91920   55.45180   55.45180   32.78460   32.78460    8.91920    7.96100   26.31550  -92.89860  -43.25120   26.31550
 3900.00000    8.09370   56.43950   56.75250   17.62080   53.99080   53.99080   19.14560   19.14560   17.62080    8.09370   28.36620  -77.57170  -28.05390   28.36620
 3950.00000   10.80810  205.53770  205.53770    4.86530   90.12950   90.12950   58.53030   58.53030    4.81010   10.80810    7.34590  -52.91130   -3.52380    7.34590
 4000.00000   11.75360  226.83330  226.83330    4.40900   84.10150   84.10150   59.76400   59.76400    3.76290   11.75360    5.01710  -51.28960   -2.03110    5.01710
 4050.00000   13.71500  300.31270  300.31270    3.32990   99.75080   99.75080   66.54910   66.54910    2.73870   13.71500    3.88020  -55.71710   -6.58760    3.88020
 4100.00000   12.08660  262.70780  262.70780    3.80720   89.90910   89.90910   60.06510   60.06510    2.97690   12.08660    4.64690  -54.70100   -5.70180    4.64690
 4150.00000    8.78190  168.16600  179.35940    5.57590   70.66430   70.66430   49.65920   49.65920    5.57590    8.78190    7.27410  -54.98830   -6.11860    7.27410
 4200.00000    9.84180  233.78840  233.78840    4.27740   82.94410   82.94410   57.79240   57.79240    3.63130    9.84180    6.63480  -54.67070   -5.93130    6.63480
 4250.00000    8.88780   81.30060   85.77430   11.66920   71.89850   71.89850   57.52010   57.52010   11.66920    8.88780    9.32600  -52.05070   -3.46060    9.32600
 4300.00000    9.64660  238.48200  238.48200    4.19320  100.91680  100.91680   55.72670   55.72670    3.07780    9.64660    5.01880  -59.09330  -10.84630    5.01880
 4350.00000    9.03760  121.51660  120.25760    8.31550   74.86110   74.86110   62.04820   62.04820    8.31550    9.03760   10.74940  -59.84000  -11.93950   10.74940
 4400.00000    8.54340   61.62770   65.63350   15.23630   63.48000   63.48000   34.65360   34.65360   15.23630    8.54340   16.75060  -61.62810  -14.07220   16.75060
 4450.00000    9.15530  139.22350  131.89830    7.58160   76.73710   76.73710   46.55070   46.55070    7.58160    9.15530    9.01720  -57.60010  -10.39060    9.01720
 4500.00000    8.29290   49.51260   55.29080   18.08910   56.92930   56.92930   18.86920   18.86920   18.08910    8.29290   19.25560  -68.53870  -21.67230   19.25560
 4550.00000    8.52270   95.56350   98.56100   10.14600   65.59680   65.59680   37.55730   37.55730   10.14600    8.52270   11.89770  -53.19790   -6.67440   11.89770
 4600.00000    8.38120   86.27640   89.79000   11.13780   65.83250   65.83250   37.36360   37.36360   11.13780    8.38120   12.85280  -53.70700   -7.52990   12.85280
 4650.00000    8.44810  135.47760  138.14840    7.23940   71.59310   71.59310   56.84530   56.84530    7.23940    8.44810    9.09350  -51.40380   -5.57150    9.09350
 4700.00000    8.73130  170.10180  174.00690    5.74690   76.23130   76.23130   52.68670   52.68670    5.74690    8.73130    7.79890  -48.75960   -3.27370    7.79890
 4750.00000   14.68100  379.08970  379.08970    2.63790  103.62670  103.62670   80.94360   80.94360    2.25010   14.68100    3.44420  -56.31200  -11.16900    3.44420
 4800.00000   12.12090  232.00820  232.00820    4.31020   78.98120   78.98120   78.76830   78.76830    3.43210   12.12090    5.08200  -52.03630   -7.23630    5.08200
 4850.00000    8.52080  208.10080  178.06220    5.66790   82.80240   82.80240   82.80710   82.80710    5.66790    8.52080    7.62740  -48.48180   -4.02830    7.62740
 4900.00000   12.30850  314.86470  314.86470    3.17600   98.27600   98.27600   73.16910   73.16910    2.65420   12.30850    4.11630  -56.51900  -13.05570    4.11630
 4950.00000   10.13020  299.32060  299.32060    3.34090   92.49820   92.49820   74.12180   74.12180    2.75130   10.13020    4.67530  -52.33720   -9.91410    4.67530
 5000.00000   10.47920  197.55650  197.55650    5.06260   76.01160   76.01160   56.49900   56.49900    4.46620   10.47920    5.97000  -52.33430  -10.94120    5.97000
 5050.00000    8.16230   93.48750   94.68800   10.56100   63.23010   63.23010   36.66230   36.66230   10.56100    8.16230   12.97080  -44.47910   -4.11590   12.97080
 5100.00000    8.05900   61.20810   60.88380   16.45860   61.88830   61.88830   40.48180   40.48180   16.45860    8.05900   16.42260  -42.81610   -3.49320   16.42260
 5150.00000    8.26920  126.34170  128.68490    7.78940   67.89420   67.89420   37.33040   37.33040    7.78940    8.26920   10.55380  -42.59580   -4.30800   10.55380
