~Version ---------------------------------------------------
VERS.      2.0 : CWLS log ASCII Standard -VERSION 2.0
WRAP.       NO : One line per depth step
CREA. 12/01/17 : LAS Creation Date
~Well ------------------------------------------------------
STRT.FT                              950.0 : START DEPTH
STOP.FT                             9000.0 : STOP DEPTH
STEP.FT                           50.00000 : STEP LENGTH
NULL.                              -999.25 : NULL VALUE
COMP.             CANADIAN KEWANEE LIMITED : COMPANY
WELL. KEWANEE MULE CREEK SMOKY 10-12-71-21 : WELL
FLD .                                      : FIELD
LOC .                                      : LOCATION
CTRY.                               CANADA : COUNTRY
SRVC.                         Schlumberger : SERVICE COMPANY
DATE.                          09-Sep-1964 : LOGDATE
PROV.                              Alberta : PROVINCE
UWI .                     100101207121W500 : UNIQUE WELL ID
SLAT.WGS84                        55.13667 : SURFACE LATITUDE
SLON.WGS84                       -117.0866 : SURFACE LONGITUDE
~Curve Information -----------------------------------------
DEPT  .FT    : Depth Curve
CALWS .IN    : CALIPER [MCALED]
CILDED.MMHO  : CONDUCTIVITY FROM RESISTIVITY LOG
CONDWS.MMHO  : CONDUCTIVITY [1000/DRESWS]
DRESWS.OHMM  : DEEP RESISTIVITY [1000/CILDED IF ILDED < 5, ILDED]
DTED  .US/F  : DELTA-T FROM SONIC LOG [ADJ. TO RESISTIVITY LOG]
DTWS  .US/F  : COMPRESSIONAL SONIC [DTED]
GRSED .GAPI  : GAMMA RAY FROM SONIC LOG
GRWS  .GAPI  : GAMMA RAY [GRSED]
ILDED .OHMM  : DEEP INDUCTION FROM RESISTIVITY LOG
MCALED.IN    : MLT CALIPER FROM ML LOG
SNED  .OHMM  : SHORT NORMAL FROM RESISTIVITY LOG
SPRED .MV    : SPONTANEOUS POTENTIAL FROM RESISTIVITY LOG
SPWS  .MV    : SPONTANEOUS POTENTIAL [BASELINE 0 MV, SPRED]
SRESWS.OHMM  : SHALLOW RESISTIVITY [SNED]
~Params ----------------------------------------------------
LMF .                     CM : LOG MEASURED FROM
DATE.               09/09/64 : RUN DATE
RUN .                      1 : RUN NUMBER
DD  .FT                 9050 : DEPTH DRILLER
DL  .FT                 9048 : DEPTH LOGGER
BLI .FT                 9047 : BOTTOM LOG INTERVAL
TLI .FT                  933 : TOP LOG INTERVAL
CBD .FT                  932 : CASING BOTTOM DRILLER
CBL .FT                  933 : CASING BOTTOM LOGGER
BS  .IN                7.875 : BIT SIZE
BSD .FT                 9050 : BIT SIZE AT DEPTH
DFT .                    GEL : DRILLING FLUID TYPE
DFD .                     10 : DRILLING FLUID DENSITY
DFV .                    110 : DRILLING FLUID VISCOSITY
DFPH.                    9.5 : DRILLING FLUID PH
DFL .                    4.1 : DRILLING FLUID LOSS
RMS .OHMM                  2 : RESISTIVITY MUD SAMPLE
MST .DEGF                 60 : MUD SAMPLE TEMPERATURE
RMF .OHMM                1.8 : RESISTIVITY MUD FILTRATE SAMPLE
MFST.DEGF                 64 : MUD FILTRATE SAMPLE TEMPERATURE
RMC .OHMM                2.1 : RESISTIVITY MUD CAKE
MCST.DEGF                 64 : MUD CAKE SAMPLE TEMPERATURE
TCS .HRS                 2.5 : TIME CIRCULATED STOPPED
LUN .                   3534 : LOGGING UNIT NUMBER
LUL .                     VV : LOGGING UNIT LOCATION
ENGI.               CHENOSKY : RECORDING ENGINEER
WITN.        DANIELS ZUEHLHE : WITNESSED BY
CLNT.                A2DTECH : CLIENT CODE
ORIG.            2" 5" PRINT : ORIGIN OF DATA
UWI .       100101207121W500 : UNIQUE WELL ID
DICO. A2D Technologies, Inc. : DIGITIZING COMPANY
~Other -----------------------------------------------------
IEL-BHC LOG RUN
~ASCII -----------------------------------------------------
# ...
 3400.00000    7.56410  290.98900  290.98900    3.43660    -999.25    -999.25    -999.25    -999.25    2.91370    7.56410    9.00540  -79.39790  -40.46010    9.00540
 3450.00000    8.60930  222.74180  222.74180    4.48960    -999.25    -999.25    -999.25    -999.25    4.08090    8.60930    6.08010  -47.39240   -8.45460    6.08010
 3500.00000    7.70760  447.87820  447.87820    2.23270    -999.25    -999.25    -999.25    -999.25    1.40120    7.70760   12.63790 -114.07350  -75.13570   12.63790
 3550.00000    7.89310  259.58710  259.58710    3.85230    -999.25    -999.25    -999.25    -999.25    3.43070    7.89310   22.18430 -106.02670  -67.08890   22.18430
 3600.00000    9.36640  283.79600  283.79600    3.52370    -999.25    -999.25    -999.25    -999.25    3.20010    9.36640    6.10720  -46.84480   -7.90700    6.10720
 3650.00000    8.01990  349.84700  349.84700    2.85840    -999.25    -999.25    -999.25    -999.25    2.27870    8.01990   11.08850  -92.71390  -53.77610   11.08850
 3700.00000    9.01090  228.82500  228.82500    4.37020    -999.25    -999.25    -999.25    -999.25    4.17220    9.01090    5.51540  -42.22920   -3.29140    5.51540
 3750.00000    8.47510  228.02510  228.02510    4.38550    -999.25    -999.25    -999.25    -999.25    4.24880    8.47510   11.17190  -79.31550  -40.37770   11.17190
 3800.00000    7.96680  388.03180  388.03180    2.57710    -999.25    -999.25    -999.25    -999.25    2.26790    7.96680   11.75820 -102.91280  -63.97500   11.75820
 3850.00000    8.50160  246.01170  246.01170    4.06480    -999.25    -999.25    -999.25    -999.25    3.88280    8.50160    8.07240  -67.06330  -28.12550    8.07240
 3900.00000    8.81310  164.01570  164.01570    6.09700    -999.25    -999.25    -999.25    -999.25    5.38530    8.81310    7.79700  -42.28470   -3.34690    7.79700
 3950.00000   11.16860  242.44260  242.44260    4.12630    -999.25    -999.25    -999.25    -999.25    3.31210   11.16860    5.43550  -41.73320   -2.79550    5.43550
 4000.00000    9.33320  104.00670  104.48560    9.57070    -999.25    -999.25    -999.25    -999.25    9.57070    9.33320   14.15630  -47.57820   -8.45170   14.15630
 4050.00000    9.31850   98.78070  100.67450    9.93300    -999.25    -999.25    -999.25    -999.25    9.93300    9.31850   14.31960  -47.63700   -8.36880   14.31960
 4100.00000    8.54990   83.27600   82.20640   12.16450    -999.25    -999.25    -999.25    -999.25   12.16450    8.54990   17.66320  -47.56440   -8.15450   17.66320
 4150.00000    9.72650  105.69180  106.34680    9.40320    -999.25    -999.25    -999.25    -999.25    9.40320    9.72650   13.51260  -42.94660   -4.43470   13.51260
 4200.00000    7.71890  179.33320  179.33320    5.57690    -999.25    -999.25    -999.25    -999.25    4.80160    7.71890   32.71390 -108.84070  -72.93590   32.71390
 4250.00000   10.81540  118.06970  118.06970    8.46960    -999.25    -999.25    -999.25    -999.25    9.27650   10.81540   10.53200  -46.67110  -13.34740   10.53200
 4300.00000    8.79780   44.97660   38.73240   25.81820    -999.25    -999.25    -999.25    -999.25   25.81820    8.79780   39.03550  -32.91030   -2.13330   39.03550
 4350.00000    8.30830    9.49060    9.49060  105.36740    -999.25    -999.25    -999.25    -999.25  175.25320    8.30830  236.63580  -33.52020   -4.85000  236.63580
 4400.00000    8.03840  210.52520  210.52520    4.75000    -999.25    -999.25    -999.25    -999.25    4.92360    8.03840   17.75940  -90.73190  -63.86970   17.75940
 4450.00000   12.12580  222.86860  222.86860    4.49000    -999.25    -999.25    -999.25    -999.25    3.94560   12.12580    5.38770  -54.64630  -29.60120    5.38770
 4500.00000    8.06920  477.05080  477.05080    2.09620    -999.25    -999.25    -999.25    -999.25    1.16410    8.06920   14.44420 -112.67040  -89.42430   14.44420
 4550.00000    8.75930  322.53850  322.53850    3.10040    -999.25    -999.25    -999.25    -999.25    2.41830    8.75930   16.91640 -125.12330 -103.68520   16.91640
 4600.00000    9.00660  354.10060  354.10060    2.82410    -999.25    -999.25    -999.25    -999.25    2.06800    9.00660   14.69060  -73.25240  -53.62230   14.69060
 4650.00000    8.02890  158.74510  172.12300    5.80980    -999.25    -999.25    -999.25    -999.25    5.80980    8.02890   23.84880 -102.81770  -84.99570   23.84880
 4700.00000    7.62860  998.23260  998.23260    1.00180    -999.25    -999.25    -999.25    -999.25    0.17480    7.62860   18.97710 -145.63250 -127.53620   18.97710
 4750.00000    8.30530  298.36820  298.36820    3.35160    -999.25    -999.25    -999.25    -999.25    2.83600    8.30530   11.71060  -66.52480  -47.35730   11.71060
 4800.00000    8.61560 1228.60470 1228.60470    0.81390    -999.25    -999.25    -999.25    -999.25    0.13500    8.61560    5.64780  -86.11960  -65.87560    5.64780
 4850.00000    8.24500  419.11100  419.11100    2.38600    -999.25    -999.25    -999.25    -999.25    1.52120    8.24500   22.45800 -114.03880  -92.71820   22.45800
 4900.00000    7.93580  159.98650  159.98650    6.25050    -999.25    -999.25    -999.25    -999.25    5.94160    7.93580   52.12290 -143.42000 -121.02290   52.12290
 4950.00000    8.31250  502.16460  502.16470    1.99630    -999.25    -999.25    -999.25    -999.25    1.01540    8.31250    7.75840  -72.46650  -48.98750    7.75840
 5000.00000    7.49400  481.12340  481.12340    2.07850    -999.25    -999.25    -999.25    -999.25    1.13420    7.49400   29.37490 -135.67130 -111.12100   29.37490
 5050.00000    7.77950  309.29690  309.29690    3.23310    -999.25    -999.25    -999.25    -999.25    2.77340    7.77950   29.90350 -122.41950  -96.79270   29.90350
 5100.00000    8.34070  322.25800  322.25800    3.10310    -999.25    -999.25    -999.25    -999.25    3.60050    8.34070   57.09130 -126.85680 -100.15340   57.09130
 5150.00000    8.35460  453.56570  453.56570    2.20480    -999.25    -999.25    -999.25    -999.25    1.43970    8.35460   13.30590 -106.83330  -79.05340   13.30590
 5200.00000    8.30620   30.98380   26.07750   38.34740    -999.25    -999.25    -999.25    -999.25   38.34740    8.30620   47.62360  -38.45520  -10.02660   47.62360
 5250.00000    9.52950   85.35700   81.99880   12.19530    -999.25    -999.25    -999.25    -999.25   12.19530    9.52950   20.38140  -44.76010  -15.96880   20.38140
 5300.00000    8.58600  202.04350  202.04350    4.94940    -999.25    -999.25    -999.25    -999.25    4.45840    8.58600   37.27400 -144.66420 -115.50850   37.27400
 5350.00000    8.32560  335.58950  335.58950    2.97980    -999.25    -999.25    -999.25    -999.25    2.30740    8.32560   29.56480 -163.83910 -134.31890   29.56480
 5400.00000    9.36420  271.68030  271.68030    3.68080    -999.25    -999.25   43.09220   43.09220    3.37440    9.36420    7.64330 -111.95470  -82.07010    7.64330
 5450.00000    8.84930  135.02470  141.15260    7.09160   66.50770   66.50770   43.35010   43.35010    7.09160    8.84930   15.87980  -80.88860  -50.63770   15.87980
 5500.00000    8.80280   59.60130   54.42210   18.37490   57.29060   57.29060   31.71170   31.71170   18.37490    8.80280   45.26250  -80.69740  -50.08380   45.26250
 5550.00000    8.44570  174.36330  172.08740    5.81100   61.54490   61.54490   21.87060   21.87060    5.81100    8.44570   56.58630 -196.16890 -165.19090   56.58630
 5600.00000    8.87950  107.90320  106.58820    9.38190   60.47180   60.47180   22.26610   22.26610    9.38190    8.87950   77.84080 -201.37450 -170.03200   77.84080
 5650.00000    8.52400  120.82060  119.46430    8.37070   57.69090   57.69090   20.17640   20.17640    8.37070    8.52400   85.12580 -195.57550 -163.86850   85.12580
 5700.00000    9.00690   64.62780   61.26370   16.32650   58.54590   58.54590   16.27880   16.27880   16.32650    9.00690   63.53860 -145.51090 -113.43770   63.53860
 5750.00000   10.12860  220.04640  220.04640    4.54450   69.58410   69.58410   63.78730   63.78730    4.13600   10.12860    7.31080  -62.87800  -30.44210    7.31080
 5800.00000    9.85170  233.68820  233.68820    4.27920   74.20840   74.20840   70.70590   70.70590    3.81720    9.85170    6.71610  -71.48840  -38.68810    6.71610
