~Version ---------------------------------------------------
VERS.      2.0 : CWLS log ASCII Standard -VERSION 2.0
WRAP.       NO : One line per depth step
CREA. 09/12/14 : LAS Creation Date
~Well ------------------------------------------------------
STRT.M                        300.0 : START DEPTH
STOP.M                       3000.0 : STOP DEPTH
STEP.M                     50.00000 : STEP LENGTH
NULL.                       -999.25 : NULL VALUE
COMP.       SUN OIL COMPANY LIMITED : COMPANY
WELL. SUN ET AL STURGEON 6-30-72-23 : WELL
FLD .                               : FIELD
LOC .                               : LOCATION
CTRY.                        CANADA : COUNTRY
SRVC.                       Unknown : SERVICE COMPANY
DATE.                   17-Dec-1978 : LOGDATE
PROV.                       Alberta : PROVINCE
UWI .              100063007223W500 : UNIQUE WELL ID
SLAT.WGS84                 55.26268 : SURFACE LATITUDE
SLON.WGS84                -117.5304 : SURFACE LONGITUDE
~Curve Information -----------------------------------------
DEPT    .M      : DEPTH METER
CALSED  .MM     : CALIPER FROM SONIC LOG [ADJ. TO RESISTIVITY LOG]
CALWS   .MM     : CALIPER [CALSED SPL. TO CALXDED @ 3020M]
CALXDED .MM     : CALIPER X FROM DENSITY LOG  [ADJ. TO RESISTIVITY LOG]
CALYDED .MM     : CALIPER Y FROM DENSITY LOG  [ADJ. TO RESISTIVITY LOG]
CONDWS  .MMHO   : CONDUCTIVITY [1000/DRESWS]
CORRED  .KG/M3  : DENSITY CORRECTION FROM DENSITY LOG  [ADJ. TO RESISTIVITY LOG]
DCORWS  .KG/M3  : DENSITY COREECTION [CORRED]
DENWS   .KG/M3  : FORMATION BULK DESITY [CALC. FROM DPOLSWS]
DPHILSED.V/V    : DENSITY POROSITY LIMESTONE [M=2710, F=1000] FROM DENSITY LOG  [ADJ. TO RESISTIVITY LOG]
DPHISSED.V/V    : DENSITY POROSITY SANDSTONE [M=2650, F=1000] FROM DENSITY LOG  [ADJ. TO RESISTIVITY LOG]
DPOLSWS .V/V    : DENSITY POROSITY LIMESTONE [DPHISSED CONVERTED TO LIMESTONE MATRIX,M=2710,F=1000 SPL. TO DPHILSED @ 1712.1M]
DRESWS  .OHMM   : DEEP RESISTIVITY [ILDED]
DTED    .US/M   : DELTA TIME FROM SONIC LOG  [ADJ. TO RESISTIVITY LOG]
DTWS    .US/M   : COMPRESSIONAL SONIC [DTED]
GRDED   .GAPI   : GAMMA RAY FROM DENSITY LOG  [ADJ. TO RESISTIVITY LOG]
GRRED   .GAPI   : GAMMA RAY FROM RESISTIVITY LOG
GRSED   .GAPI   : GAMMA RAY FROM SONIC LOG  [ADJ. TO RESISTIVITY LOG]
GRWS    .GAPI   : GAMMA RAY [GRSED SPL. TO GRRED @ 311M]
ILDED   .OHMM   : DEEP INDUCTION LOG RESISTIVITY FROM RESISTIVITY LOG
ILMED   .OHMM   : MEDIUM INDUCTION LOG  RESISTIVITY FROM RESISTIVITY LOG
LLED    .OHMM   : LATEROLOG RESISTIVITY FROM RESISTIVITY LOG
MRESWS  .OHMM   : MEDIUM RESISTIVITY [ILMED]
NPHILSED.V/V    : NEUTRON POROSITY LIMESTONE FROM DENSITY LOG  [ADJ. TO RESISTIVITY LOG]
NPHISSED.V/V    : NEUTRON POROSITY SANDSTONE FROM DENSITY LOG  [ADJ. TO RESISTIVITY LOG]
NPOLSWS .V/V    : NEUTRON POROSITY LIMESTONE [NPHISSED MATRIX CONVERSION FOR LIMESTONE, SPL. TO NPHILSED @ 1670 M]
RHOBED  .KG/M3  : BULK DENSITY FROM DENSITY LOG  [ADJ. TO RESISTIVITY LOG]
SPRED   .MV     : SPONTANEOUS POTENTIAL FROM RESISTIVITY LOG
SPWS    .MV     : SPONTANEOUS POTENTIAL [BASELINE 0 MV, SPRED]
SRESWS  .OHMM   : SHALLOW RESISTIVITY [LLED]
~Params ----------------------------------------------------
PD  .                         GL : PERMANENT DATUM
EPD .M                     778.5 : ELEVATION PERMANENT DATUM
LMF .                         KB : LOG MEASURED FROM
DAPD.M                       7.1 : FEET ABOVE PERMANENT DATUM
EKB .M                     785.6 : KELLY BUSHING
EGL .M                     778.5 : GROUND LEVEL
DATE.                   12/27/78 : RUN DATE
RUN .                          1 : RUN NUMBER
DD  .M                      3025 : DEPTH DRILLER
DL  .M                    3026.5 : DEPTH LOGGER
BLI .M                      3026 : BOTTOM LOG INTERVAL
TLI .M                       312 : TOP LOG INTERVAL
CBD .M                       312 : CASING BOTTOM DRILLER
CBL .M                       312 : CASING BOTTOM LOGGER
BS  .MM                      222 : BIT SIZE
BSD .M                      3025 : BIT SIZE AT DEPTH
DFT .                        GEL : DRILLING FLUID TYPE
DFD .                       1142 : DRILLING FLUID DENSITY
DFV .                        125 : DRILLING FLUID VISCOSITY
DFPH.                         10 : DRILLING FLUID PH
DFL .                          7 : DRILLING FLUID LOSS
RMS .OHMM                    3.8 : RESISTIVITY MUD SAMPLE
MST .DEGC                     17 : MUD SAMPLE TEMPERATURE
RMF .OHMM                    2.2 : RESISTIVITY MUD FILTRATE SAMPLE
MFST.DEGC                     16 : MUD FILTRATE SAMPLE TEMPERATURE
RMC .OHMM                    1.4 : RESISTIVITY MUD CAKE
MCST.DEGC                     10 : MUD CAKE SAMPLE TEMPERATURE
RMB .OHMM                    1.3 : RESISTIVITY MUD AT BHT
TCS .HRS                       8 : TIME CIRCULATED STOPPED
LUN .                         53 : LOGGING UNIT NUMBER
LUL .                   EDMONTON : LOGGING UNIT LOCATION
ENGI.        JOHNSON FITZSIMMONS : RECORDING ENGINEER
WITN.       WILLIAMSON GLADSTONE : WITNESSED BY
CLNT.                    A2DTECH : CLIENT CODE
ORIG. 6.5"/100M 16.5"/100M PRINT : ORIGIN OF DATA
UWI .           100063007223W500 : UNIQUE WELL ID
DICO.     A2D Technologies, Inc. : DIGITIZING COMPANY
~Other -----------------------------------------------------
DIL-LL-CDL-SDL-BHC LOG RUN
RHOBED, CORRED VARIFED FROM 2" SCALE SECTION
SP BASELINE QUESTIONALBLE
NEUTRON MATRIX CONVERSION FOR LIMESTONE USING COMPUTALOG (SNL)
GRSED DELETED FROM 2922-2940, 2941-2959, 2992-3003 M DUE TO TIGHT FORMATION AS PER PRINT'S MENTION.
~ASCII -----------------------------------------------------
# ...
 1550.00000  210.52760  210.52760  215.15410  222.92240  382.13150  315.11370  315.11370 2473.94500    -999.25    0.10670    0.13800    2.61690  255.73450  255.73450   57.09010   84.31890   76.02740   84.31890    2.61690    4.38840    6.68270    4.38840    -999.25    0.23770    0.20930 2470.15800  -91.00810  -38.56710    6.68270
 1600.00000  204.04440  204.04440  211.88260  212.67500  859.62350  205.69160  205.69160 2470.48000    -999.25    0.10880    0.14010    1.16330  251.66580  251.66580   37.72820   60.44510   50.32480   60.44510    1.16330    2.16620    6.04820    2.16620    -999.25    0.26200    0.23360 2467.02150 -117.82750  -58.96410    6.04820
 1650.00000  198.62470  198.62470  206.30180  208.24010  478.85840  260.03920  260.03920 2517.83500    -999.25    0.08010    0.11240    2.08830  215.99250  215.99250   32.14710   35.05230   44.73280   35.05230    2.08830    3.63240    9.43480    3.63240    -999.25    0.21190    0.18250 2482.63350 -122.43380  -61.91630    9.43480
 1700.00000  218.29130  218.29130  244.90760  228.75700  395.44450   72.95170   72.95170 2598.19000    0.07230    0.03140    0.06540    2.52880  212.19060  212.19060   25.55510   41.04850   33.93090   41.04850    2.52880    3.02560    8.79670    3.02560    0.19170    0.16160    0.19170 2581.75020 -109.78170  -52.61300    8.79670
 1750.00000  211.43720  211.43720  224.58280  212.63690 1129.30550  172.01110  172.01110 2635.78600    0.04340    -999.25    0.04340    0.88550  212.76450  212.76450   23.99840   43.27690   40.25650   43.27690    0.88550    1.51120    6.84280    1.51120    0.11250    -999.25    0.11250 2618.56350 -125.95580  -72.13580    6.84280
 1800.00000  207.38060  207.38060  221.74960  210.55170  279.32960  215.11900  215.11900 2550.11500    0.09350    -999.25    0.09350    3.58000  200.61950  200.61950   16.00700   24.87650   28.85890   24.87650    3.58000    6.77660   16.09330    6.77660    0.13360    -999.25    0.13360 2545.46240 -138.92430  -86.94360   16.09330
 1850.00000  226.53350  226.53350  230.87520  219.88690  742.39050   83.97500   83.97500 2766.77200   -0.03320    -999.25   -0.03320    1.34700  200.26490  200.26490   15.27170   23.92150   49.44820   23.92150    1.34700    2.36890   15.01850    2.36890    0.05280    -999.25    0.05280 2781.86230 -138.10280  -84.63300   15.01850
 1900.00000  265.86500  265.86500  267.33030  254.78990  131.34050   96.21120   96.21120 2338.58800    0.21720    -999.25    0.21720    7.61380  251.26950  251.26950   47.78550   59.46870   55.76020   59.46870    7.61380    8.70310   10.13220    8.70310    0.32860    -999.25    0.32860 2339.58020  -75.28940  -21.46790   10.13220
 1950.00000  220.61050  220.61050  237.20000  228.44770  770.89120  214.48580  214.48580 2596.79800    0.06620    -999.25    0.06620    1.29720  221.74150  221.74150   22.94270   34.39320   43.00560   34.39320    1.29720    1.82270    8.08320    1.82270    0.14610    -999.25    0.14610 2591.20900  -92.64100  -40.79780    8.08320
 2000.00000  248.65780  248.65780  254.63400  242.28330  115.53480   42.20910   42.20910 2700.76600    0.00540    -999.25    0.00540    8.65540  176.34660  176.34660   16.85660   23.57930   44.87030   23.57930    8.65540   11.63510   19.95070   11.63510    0.04220    -999.25    0.04220 2702.78910 -110.72040  -63.52670   19.95070
 2050.00000  274.91770  274.91770  280.42460  295.60400  650.61810  112.80460  112.80460 2604.15100    0.06190    -999.25    0.06190    1.53700  232.40080  232.40080   43.87260   51.80100   43.62600   51.80100    1.53700    1.72730    6.62420    1.72730    0.16840    -999.25    0.16840 2603.35250  -73.98310  -33.75140    6.62420
 2100.00000  275.77920  275.77920  271.64500  253.31200  146.52010    7.29000    7.29000 2408.01400    0.17660    -999.25    0.17660    6.82500  197.50610  197.50610   32.35760   39.57470   27.60940   39.57470    6.82500    7.92040   12.96870    7.92040    0.03630    -999.25    0.03630 2395.16460  -51.43140  -13.94560   12.96870
 2150.00000  234.31390  234.31390  240.35570  241.45310   62.62250   13.68790   13.68790 2680.58800    0.01720    -999.25    0.01720   15.96870  190.40920  190.40920   29.55330   38.79660   35.30540   38.79660   15.96870   19.82140   20.35900   19.82140    0.03600    -999.25    0.03600 2677.79440  -61.83180  -24.08870   20.35900
 2200.00000  236.91960  236.91960  241.93020  233.38650   83.65400   23.35900   23.35900 2698.71400    0.00660    -999.25    0.00660   11.95400  198.40540  198.40540   29.47610   36.60330   38.08000   36.60330   11.95400   14.62290   15.23510   14.62290    0.04720    -999.25    0.04720 2692.58500  -43.73580   -6.11010   15.23510
 2250.00000  326.72160  326.72160  270.34890  335.23490  273.35850  196.93030  196.93030 2527.03000    0.10700    -999.25    0.10700    3.65820  253.73570  253.73570   51.97810   71.76100   79.22450   71.76100    3.65820    4.48430    6.89460    4.48430    0.20660    -999.25    0.20660 2524.16370  -47.24870  -10.48080    6.89460
 2300.00000  249.21800  249.21800  255.94350  229.46560   20.98470   16.16640   16.16640 2695.46500    0.00850    -999.25    0.00850   47.65380  165.89700  165.89700   11.15740   16.18050   43.00230   16.18050   47.65380   63.20570  142.80040   63.20570    0.01990    -999.25    0.01990 2692.82150 -151.54990 -114.13340  142.80040
 2350.00000  251.24680  251.24680  277.36470  226.12120   19.09000  201.79320  201.79320 2725.04800   -0.00880    -999.25   -0.00880   52.38340  162.01150  162.01150    7.78580   14.03360   73.69890   14.03360   52.38340   68.48930  178.42610   68.48930    0.01240    -999.25    0.01240 2723.62110 -141.26450 -101.79130  178.42610
 2400.00000  249.51700  249.51700  257.29810  233.30910   23.23900   15.62220   15.62220 2696.32000    0.00800    -999.25    0.00800   43.03120  166.92640  166.92640    7.76440   11.73140   60.51780   11.73140   43.03120   53.83050   98.82440   53.83050    0.00500    -999.25    0.00500 2695.34030 -117.55670  -76.02680   98.82440
 2450.00000  253.45100  253.45100  258.95590  233.70750   19.54880   54.04980   54.04980 2734.96600   -0.01460    -999.25   -0.01460   51.15410  164.36860  164.36860    8.24890   15.14510   67.75670   15.14510   51.15410   63.53660  179.13370   63.53660    0.00470    -999.25    0.00470 2728.43380  -91.98700  -48.40030  179.13370
 2500.00000  211.51170  211.51170  213.10610  211.66010   93.06130  249.97110  249.97110 2593.89100    0.06790    -999.25    0.06790   10.74560  178.33150  178.33150   12.50070   16.05430   53.00860   16.05430   10.74560   19.03770   52.91030   19.03770    0.09330    -999.25    0.09330 2594.56350 -140.50440  -94.86100   52.91030
 2550.00000  250.37210  250.37210  245.47280  232.75950  103.78180   30.49470   30.49470 2676.65500    0.01950    -999.25    0.01950    9.63560  165.15400  165.15400   16.72630   23.19600   35.79520   23.19600    9.63560   12.85440   28.19510   12.85440    0.07530    -999.25    0.07530 2676.60280 -145.92180  -98.22170   28.19510
 2600.00000  250.61440  250.61440  243.93680  229.68900   70.43490   15.85200   15.85200 2680.24600    0.01740    -999.25    0.01740   14.19750  193.31680  193.31680   36.85110   41.14030   41.66390   41.14030   14.19750   16.08460   20.54700   16.08460    0.04110    -999.25    0.04110 2681.21240  -73.77090  -24.01410   20.54700
 2650.00000  257.15010  257.15010  249.63730  247.62720  108.53290   15.59370   15.59370 2680.07500    0.01750    -999.25    0.01750    9.21380  201.44510  201.44510   39.60760   43.18790   36.96020   43.18790    9.21380   11.71280   12.84290   11.71280    0.04170    -999.25    0.04170 2683.97290  -53.82850   -1.41970   12.84290
 2700.00000  250.59820  250.59820  236.29530  228.86470  235.66560   23.47280   23.47280 2649.63700    0.03530    -999.25    0.03530    4.24330  232.54830  232.54830   60.68170   62.11460   61.97690   62.11460    4.24330    5.21360    9.10390    5.21360    0.12190    -999.25    0.12190 2648.71070  -62.61490   -6.44170    9.10390
 2750.00000  372.59900  372.59900  372.27690  359.35320  290.38530  217.14080  217.14080 2567.38600    0.08340    -999.25    0.08340    3.44370  252.48360  252.48360   58.86960   63.70090   65.68770   63.70090    3.44370    3.79670    5.66460    3.79670    0.19160    -999.25    0.19160 2569.26120  -92.96410  -28.37690    5.66460
