~Version ---------------------------------------------------
VERS.      2.0 : CWLS log ASCII Standard -VERSION 2.0
WRAP.       NO : One line per depth step
CREA. 08/01/17 : LAS Creation Date
~Well ------------------------------------------------------
STRT.FT                          300.0 : START DEPTH
STOP.FT                        13100.0 : STOP DEPTH
STEP.FT                       50.00000 : STEP LENGTH
NULL.                          -999.25 : NULL VALUE
COMP.      ANADARKO CANADA CORPORATION : COMPANY
WELL.      NORCEN ET AL FERR 9-23-40-9 : WELL
FLD .                               WC : FIELD
LOC .                                  : LOCATION
CTRY.                           CANADA : COUNTRY
SRVC. Schlumberger Well Surveying Corp : SERVICE COMPANY
DATE.                      17-Jun-1956 : LOGDATE
PROV.                          Alberta : PROVINCE
UWI .                 102092304009W500 : UNIQUE WELL ID
SLAT.WGS84                    52.45946 : SURFACE LATITUDE
SLON.WGS84                   -115.1788 : SURFACE LONGITUDE
~Curve Information -----------------------------------------
DEPT  .FT     : Depth Curve
CALWS .IN     : CALIPER [MCALED]
CONDWS.MMHO   : CONDUCTIVITY [1000/DRESWS]
DRESWS.OHMM   : DEEP RESISTIVITY [LNED]
GRNED .UR/HR  : GAMMA RAY FROM NEUTRON LOG
GRWS  .GAPI   : GAMMA RAY [GRNED WAS RESCALED FROM 0-15 UR/HR TO 0-150 PSEUDO API UNIT]
LNED  .OHMM   : 64 INCH LONG NORMAL RESISTIVITY FROM EL
LT18ED.OHMM   : LATERAL 18'8" FROM EL
MCALED.IN     : CALIPER FROM MICRO LOG
MINVED.OHMM   : MICROINVERSE RESISTIVITY FROM MICROLOG
MNORED.OHMM   : MICRONORMAL RESISTIVITY FROM MICROLOG
NEUTED.CU     : NEUTRON FROM GAMMA RAY NEUTRON LOG
NEUTWS.CU     : NEUTRON[NEUTED]
SNED  .OHMM   : 16 INCH SHORT NORMAL RESISTIVITY FROM EL
SPMED .MV     : SPONTANEOUS POTENTIAL FROM MICROLOG
SPRED .MV     : SPONTANEOUS POTENTIAL FROM RESISTIVITY LOG
SPWS  .MV     : SPONTANEOUS POTENTIAL [BASELINE 0 MV] [SPRED]
SRESWS.OHMM   : SHALLOW RESISTIVITY [SNED]
~Params ----------------------------------------------------
LMF .                     KB : LOG MEASURED FROM
DMF .                     KB : DRILLING MEASURED FROM
EGL .FT                 3455 : GROUND LEVEL
DATE.               06/17/56 : RUN DATE
RUN .                      5 : RUN NUMBER
DD  .FT                13102 : DEPTH DRILLER
DL  .FT                13103 : DEPTH LOGGER
BLI .FT                13100 : BOTTOM LOG INTERVAL
TLI .FT                11000 : TOP LOG INTERVAL
BS  .IN                    9 : BIT SIZE
BSD .FT                13102 : BIT SIZE AT DEPTH
DFT .              LIME BASE : DRILLING FLUID TYPE
DFD .                   10.9 : DRILLING FLUID DENSITY
DFV .                     98 : DRILLING FLUID VISCOSITY
DFPH.                     13 : DRILLING FLUID PH
DFL .                    4.4 : DRILLING FLUID LOSS
MSS .            CIRCULATION : MUD SAMPLE SOURCE
RMS .OHMM               0.46 : RESISTIVITY MUD SAMPLE
MST .DEGF                 61 : MUD SAMPLE TEMPERATURE
RMF .OHMM               0.21 : RESISTIVITY MUD FILTRATE SAMPLE
MFST.DEGF                 79 : MUD FILTRATE SAMPLE TEMPERATURE
RMC .OHMM               0.74 : RESISTIVITY MUD CAKE
MCST.DEGF                 68 : MUD CAKE SAMPLE TEMPERATURE
TLAB.HRS                   3 : TIME LOGGER AT BOTTOM
LUN .                   1729 : LOGGING UNIT NUMBER
LUL .                     RD : LOGGING UNIT LOCATION
ENGI.                BOSWELL : RECORDING ENGINEER
WITN.                 DUNCAN : WITNESSED BY
CLNT.                A2DTECH : CLIENT CODE
ORIG.       1" 5" 25" PRINT0 : ORIGIN OF DATA
UWI .       102092304009W500 : UNIQUE WELL ID
DICO. A2D Technologies, Inc. : DIGITIZING COMPANY
~Other -----------------------------------------------------
~ASCII -----------------------------------------------------
# ...
 4400.00000    9.38130  106.22030    9.41440    6.66250   66.62500    9.41440   18.50530    9.38130   18.46780   15.65730  134.12910  134.12910   10.67570    -999.25  -21.81110   -4.34910   10.67570
 4450.00000   10.03320   78.44490   12.74780    7.75640   77.56400   12.74780    6.20220   10.03320    2.39980    2.39750  186.56480  186.56480    7.85710    -999.25  -21.53180   -3.90830    7.85710
 4500.00000    -999.25  108.29310    9.23420    7.98720   79.87200    9.23420    5.29680    -999.25    -999.25    -999.25  241.27180  241.27180    4.90990    -999.25  -22.31930   -4.53430    4.90990
 4550.00000    -999.25   99.10700   10.09010    7.73080   77.30800   10.09010   25.88630    -999.25    -999.25    -999.25  210.09970  210.09970   18.93940    -999.25  -24.93980   -6.99330   18.93940
 4600.00000    9.71270   97.55430   10.25070    7.33330   73.33300   10.25070    7.10760    9.71270    2.74680    2.22150  128.11280  128.11280    7.19190    -999.25  -21.95780   -3.84980    7.19190
 4650.00000   10.48610  151.02090    6.62160    8.09880   80.98800    6.62160   39.93330   10.48610    2.12860    2.15510  147.75560  147.75560    6.74770    -999.25  -23.85070   -5.58130    6.74770
 4700.00000    -999.25   79.09700   12.64270    7.55130   75.51300   12.64270    9.91800    -999.25    -999.25    -999.25  124.67110  124.67110   11.46340    -999.25  -22.47380   -4.04290   11.46340
 4750.00000    -999.25   65.87530   15.18020    6.53750   65.37500   15.18020   17.48390    -999.25    -999.25    -999.25  140.50810  140.50810   12.29730    -999.25  -25.24540   -6.65300   12.29730
 4800.00000    -999.25   99.99600   10.00040    7.48720   74.87200   10.00040    7.65090    -999.25    -999.25    -999.25  162.89190  162.89190    8.57570    -999.25  -24.06410   -5.31020    8.57570
 4850.00000    -999.25  146.05360    6.84680    8.23460   82.34600    6.84680   11.30280    -999.25    -999.25    -999.25  124.06480  124.06480    5.51160    -999.25  -26.29520   -7.37980    5.51160
 4900.00000    -999.25   54.10230   18.48350    7.92310   79.23100   18.48350   15.61870    -999.25    -999.25    -999.25  188.09460  188.09460   25.04500    -999.25  -28.32760   -9.25080   25.04500
 4950.00000    -999.25  115.22460    8.67870    7.91030   79.10300    8.67870    8.51860    -999.25    -999.25    -999.25  193.89030  193.89030    7.42680    -999.25  -24.84940   -5.61110    7.42680
 5000.00000    -999.25   68.65770   14.56500    7.67950   76.79500   14.56500    8.63140    -999.25    -999.25    -999.25  180.17460  180.17460   11.74010    -999.25  -23.77810   -4.37830   11.74010
 5050.00000    -999.25   62.51600   15.99590    7.24360   72.43600   15.99590   14.32380    -999.25    -999.25    -999.25  138.02990  138.02990   15.73870    -999.25  -26.19440   -6.63310   15.73870
 5100.00000    -999.25   67.55520   14.80270    6.85000   68.50000   14.80270   16.08520    -999.25    -999.25    -999.25  103.00740  103.00740   16.35070    -999.25  -24.89170   -5.16890   16.35070
 5150.00000    -999.25  138.41020    7.22490    7.06410   70.64100    7.22490    8.27220    -999.25    -999.25    -999.25  129.05240  129.05240    5.70940    -999.25  -28.44140   -8.55720    5.70940
 5200.00000    9.96270  100.16230    9.98380    8.87650   88.76500    9.98380    7.67820    9.96270    4.47910    4.42910  167.70570  167.70570   12.72380    -999.25  -27.10230   -7.05660   12.72380
 5250.00000   10.60540   58.59840   17.06530    4.67900   46.79000   17.06530   17.93570   10.60540    2.07700    3.81450  356.60850  356.60850   13.08650    -999.25  -26.72850   -6.52130   13.08650
 5300.00000    9.15310   60.38760   16.55970    4.95060   49.50600   16.55970   12.36180    9.15310    4.96670    5.26070  336.03490  336.03490   18.49100    -999.25  -28.71900   -8.35030   18.49100
 5350.00000    9.26810   52.01720   19.22440    4.71610   47.16100   19.22440   10.43680    9.26810   11.95240   16.97530  259.08440  259.08440   18.40810    -999.25  -32.08680  -11.55660   18.40810
 5400.00000    9.68370  103.06940    9.70220    6.00000   60.00000    9.70220   12.13550    9.68370    3.26900    1.24740  201.18150  201.18150    5.69980    -999.25  -27.39010   -6.69850    5.69980
 5450.00000    9.67540   58.78000   17.01260    5.32500   53.25000   17.01260   17.37860    9.67540    3.05230    4.57370  193.13320  193.13320   12.72630    -999.25  -24.72730   -3.87420   12.72630
 5500.00000    8.94280   23.03950   43.40370    4.92590   49.25900   43.40370   44.95480    8.94280   29.52950   32.77550  336.85340  336.85340   56.32260    -999.25  -42.80260  -21.78800   56.32260
 5550.00000    9.51240   42.00900   23.80440    5.82500   58.25000   23.80440   18.50420    9.51240    8.60140   15.33380  152.53530  152.53530   31.72380    -999.25  -27.81820   -6.64210   31.72380
 5600.00000    9.88250   65.43260   15.28290    5.85000   58.50000   15.28290   23.18880    9.88250    7.49830    6.69450  171.44640  171.44640   14.34350    -999.25  -26.88220   -5.54460   14.34350
 5650.00000   10.38040   71.48370   13.98920    6.38750   63.87500   13.98920   18.23730   10.38040    4.15460    4.62180  140.89780  140.89780   14.09170    -999.25  -27.14380   -5.64470   14.09170
 5700.00000    9.11150   10.80980   92.50900    5.16250   51.62500   92.50900   72.03360    9.11150   39.19990   39.26970  222.67180  222.67180  100.94380    -999.25  -43.82270  -22.16220  100.94380
 5750.00000    8.40060   14.29680   69.94580    4.82720   48.27200   69.94580   32.95600    8.40060    4.77170    7.97240  291.09520  291.09520   59.11550    -999.25  -70.93950  -49.11750   59.11550
 5800.00000    9.88250   28.49110   35.09870    3.54430   35.44300   35.09870   12.33270    9.88250   11.54530   14.98670  323.56610  323.56610   30.89770    -999.25  -44.31490  -22.33140   30.89770
 5850.00000    9.81020   60.01750   16.66180    4.84810   48.48100   16.66180   16.42490    9.81020    2.51630    3.32300  324.49740  324.49740   12.25560    -999.25  -27.50120   -5.35620   12.25560
 5900.00000   11.71190   71.65070   13.95660    6.15850   61.58500   13.95660   17.66570   11.71190    3.95870    4.88390  202.18300  202.18300   16.03800    -999.25  -26.94860   -4.64210   16.03800
 5950.00000    9.43770   75.95210   13.16620    6.50000   65.00000   13.16620   10.60670    9.43770    3.84700    4.10370  275.21790  275.21790   10.39680    -999.25  -26.18180   -3.71390   10.39680
 6000.00000    9.00900   70.34920   14.21480    5.97500   59.75000   14.21480   11.88970    9.00900    3.23890    3.30830  411.58160  411.58160   12.35330    -999.25  -25.45450   -2.82510   12.35330
 6050.00000    9.06250   69.58550   14.37080    6.09760   60.97600   14.37080   29.14160    9.06250    2.79940    3.77830  311.95520  311.95520   16.13590    -999.25  -25.87700   -3.08610   16.13590
 6100.00000    9.95930   70.36310   14.21200    6.12200   61.22000   14.21200   21.85730    9.95930    4.53330    4.75450  369.27460  369.27460   22.62830    -999.25  -28.82900   -5.87660   22.62830
 6150.00000    9.64760   67.71810   14.76710    6.13420   61.34200   14.76710   20.07410    9.64760    3.70850    3.71200  203.61520  203.61520   11.78910    -999.25  -26.51060   -3.39670   11.78910
 6200.00000    9.23190   79.04080   12.65170    4.16460   41.64600   12.65170  108.43330    9.23190   18.89530   36.71650  546.69990  546.69990   26.12820    -999.25  -28.21820   -4.94290   26.12820
 6250.00000    9.79220   80.01920   12.49700    6.21950   62.19500   12.49700   16.21990    9.79220    8.32600    4.82680  123.26330  123.26330   13.19550    -999.25  -27.09040   -3.65360   13.19550
 6300.00000    -999.25   85.23410   11.73240    6.15000   61.50000   11.73240   13.32830    -999.25    -999.25    -999.25   76.68330   76.68330   10.47320    -999.25  -31.33300   -7.73470   10.47320
 6350.00000    -999.25   75.64980   13.21880    6.96250   69.62500   13.21880   13.87080    -999.25    -999.25    -999.25  111.90770  111.90770   14.34830    -999.25  -28.16270   -4.40290   14.34830
 6400.00000    -999.25   70.23560   14.23780    7.58970   75.89700   14.23780   13.08310    -999.25    -999.25    -999.25  105.34750  105.34750   13.70760    -999.25  -30.90430   -6.98370   13.70760
