~Version ---------------------------------------------------
VERS.      2.0 : CWLS log ASCII Standard -VERSION 2.0
WRAP.       NO : One line per depth step
CREA. 09/22/17 : LAS Creation Date
~Well ------------------------------------------------------
STRT.FT                            1200.0 : START DEPTH
STOP.FT                           11700.0 : STOP DEPTH
STEP.FT                          50.00000 : STEP LENGTH
NULL.                             -999.25 : NULL VALUE
COMP.        PAN AMERICAN PETROLEUM CORP. : COMPANY
WELL. PAN AM FINA G-1 KAYBOBS 10-19-58-18 : WELL
FLD .                                  WC : FIELD
LOC .                                     : LOCATION
CTRY.                              CANADA : COUNTRY
SRVC.                        Schlumberger : SERVICE COMPANY
DATE.                         16-Apr-1969 : LOGDATE
PROV.                             Alberta : PROVINCE
UWI .                    100101905818W500 : UNIQUE WELL ID
SLAT.WGS84                       54.03118 : SURFACE LATITUDE
SLON.WGS84                      -116.6587 : SURFACE LONGITUDE
~Curve Information -----------------------------------------
DEPT    .FT    : Depth Curve
CALDED  .IN    : CALIPER FROM DENSITY LOG [DEP. ADJ. TO RESIS. LOG]
CALNED  .IN    : CALIPER FROM SNP LOG [DEP. ADJ. TO RESIS. LOG]
CALSED  .IN    : CALIPER FROM SONIC LOG
CALWS   .IN    : CALIPER [1200' CALSED 10727' CALDED]
CONDWS  .MMHO  : CONDUCTIVITY [1000/DRESWS]
DCORED  .G/C3  : DENSITY CORRECTION FROM DENSITY LOG [DEP. ADJ. TO RESIS. LOG]
DCORWS  .G/C3  : DENSITY CORRECTION [DCORED]
DENWS   .G/C3  : BULK DENSITY [M=2.71, F=1.00] [RHOBED]
DPHILSED.V/V   : DENSITY POROSITY [M=2.71, F=1.00] FROM DENSITY LOG [DEP. ADJ. TO RESIS. LOG]
DPOLSWS .V/V   : DENSITY POROSITY [M=2.71, F=1.00] [DPHILSED]
DRESWS  .OHMM  : DEEP RESISTIVITY [ILDED]
DTED    .US/F  : DELTA TIME FROM SONIC LOG
DTWS    .US/F  : DELTA TIME [DTED]
GRNED   .GAPI  : GAMMA RAY FROM SNP LOG [DEP. ADJ. TO RESIS. LOG]
GRSED   .GAPI  : GAMMA RAY FROM SONIC LOG
GRWS    .GAPI  : GAMMA RAY [1178' GRSED 11700' GRNED]
ILDED   .OHMM  : INDUCTION LOG DEEP RESISTIVITY
ILMED   .OHMM  : INDUCTION LOG MEDIUM RESISTIVITY
LL8ED   .OHMM  : 8 INCH LATEROLOG RESISTIVITY
MRESWS  .OHMM  : MEDIUM RESISTIVITY [ILMED]
NPOLSWS .V/V   : NEUTRON POROSITY LIMESTONE [SNPLSED]
RHOBED  .G/C3  : BULK DENSITY FROM DENSITY LOG [DEP. ADJ. TO RESIS. LOG]
SNPLSED .V/V   : SIDEWALL NEUTRON POROSITY [LIMESTONE] [DEP. ADJ. TO RESIS. LOG]
SPRED   .MV    : SPONTANEOUS POTENTIAL FROM RESISTIVITY LOG
SPWS    .MV    : SPONTANEOUS POTENTIAL [BASELINE 0 MV] [SPRED]
SRESWS  .OHMM  : SHALLOW RESISTIVITY [LL8ED]
~Params ----------------------------------------------------
PD  .                     GL : PERMANENT DATUM
EPD .FT                 3475 : ELEVATION PERMANENT DATUM
LMF .                     KB : LOG MEASURED FROM
DAPD.FT                   12 : FEET ABOVE PERMANENT DATUM
EKB .FT                 3487 : KELLY BUSHING
EGL .FT                 3475 : GROUND LEVEL
DATE.               04/16/69 : RUN DATE
RUN .                      1 : RUN NUMBER
DD  .FT                11735 : DEPTH DRILLER
DL  .FT                11734 : DEPTH LOGGER
BLI .FT                11729 : BOTTOM LOG INTERVAL
TLI .FT                 1202 : TOP LOG INTERVAL
CBD .FT                 1202 : CASING BOTTOM DRILLER
CBL .FT                 1202 : CASING BOTTOM LOGGER
BS  .IN                 8.75 : BIT SIZE
BSD .FT                11735 : BIT SIZE AT DEPTH
DFT .              GEL BENEX : DRILLING FLUID TYPE
DFD .                    9.3 : DRILLING FLUID DENSITY
DFV .                     90 : DRILLING FLUID VISCOSITY
DFPH.                    8.0 : DRILLING FLUID PH
DFL .                   11.2 : DRILLING FLUID LOSS
RMS .OHMM               2.37 : RESISTIVITY MUD SAMPLE
MST .DEGF                 67 : MUD SAMPLE TEMPERATURE
RMF .OHMM               1.81 : RESISTIVITY MUD FILTRATE SAMPLE
MFST.DEGF                 66 : MUD FILTRATE SAMPLE TEMPERATURE
RMC .OHMM               2.83 : RESISTIVITY MUD CAKE
MCST.DEGF                 68 : MUD CAKE SAMPLE TEMPERATURE
RMB .OHMM               0.62 : RESISTIVITY MUD AT BHT
TCS .HRS                   2 : TIME CIRCULATED STOPPED
LUN .                   7502 : LOGGING UNIT NUMBER
LUL .                    EDM : LOGGING UNIT LOCATION
ENGI.               ARMENTAN : RECORDING ENGINEER
WITN.                   CHUK : WITNESSED BY
CLNT.                A2DTECH : CLIENT CODE
ORIG.            2" 5" PRINT : ORIGIN OF DATA
UWI .       100101905818W500 : UNIQUE WELL ID
DICO. A2D Technologies, Inc. : DIGITIZING COMPANY
~Other -----------------------------------------------------
~ASCII -----------------------------------------------------
# ...
 5250.00000    -999.25    -999.25   11.90210   11.90210  127.07930    -999.25    -999.25    -999.25    -999.25    -999.25    7.86910   82.93490   82.93490    -999.25   83.06910   83.06910    7.86910    7.69450    8.57380    7.69450    -999.25    -999.25    -999.25  109.83070   -3.81630    8.57380
 5300.00000    -999.25    -999.25   12.02060   12.02060  126.54390    -999.25    -999.25    -999.25    -999.25    -999.25    7.90240   81.21400   81.21400    -999.25   89.39210   89.39210    7.90240    7.66160    8.34700    7.66160    -999.25    -999.25    -999.25  107.02900   -6.56110    8.34700
 5350.00000    -999.25    -999.25   11.29700   11.29700   98.50570    -999.25    -999.25    -999.25    -999.25    -999.25   10.15170   78.22410   78.22410    -999.25   80.67090   80.67090   10.15170   10.39120   10.86130   10.39120    -999.25    -999.25    -999.25  104.93690   -8.59590   10.86130
 5400.00000    -999.25    -999.25   11.88870   11.88870  130.66190    -999.25    -999.25    -999.25    -999.25    -999.25    7.65400   80.97250   80.97250    -999.25   84.69330   84.69330    7.65400    7.47920    8.50190    7.47920    -999.25    -999.25    -999.25  105.25050   -8.22540    8.50190
 5450.00000    -999.25    -999.25   11.83130   11.83130  119.91410    -999.25    -999.25    -999.25    -999.25    -999.25    8.33930   86.01430   86.01430    -999.25   99.28920   99.28920    8.33930    7.91360    8.64490    7.91360    -999.25    -999.25    -999.25  105.02470   -8.39390    8.64490
 5500.00000    -999.25    -999.25   12.14240   12.14240  130.94660    -999.25    -999.25    -999.25    -999.25    -999.25    7.63670   85.76660   85.76660    -999.25   86.91210   86.91210    7.63670    7.44030    7.91600    7.44030    -999.25    -999.25    -999.25  105.24110   -8.12060    7.91600
 5550.00000    -999.25    -999.25   11.92360   11.92360  113.61910    -999.25    -999.25    -999.25    -999.25    -999.25    8.80170   80.04620   80.04620    -999.25   81.43640   81.43640    8.80170    8.63980    9.36530    8.63980    -999.25    -999.25    -999.25  105.60730   -7.69740    9.36530
 5600.00000    -999.25    -999.25   10.96170   10.96170   62.03550    -999.25    -999.25    -999.25    -999.25    -999.25   16.11980   75.34450   75.34450    -999.25   53.00040   53.00040   16.11980   16.55630   21.78730   16.55630    -999.25    -999.25    -999.25   92.97050  -20.27690   21.78730
 5650.00000    -999.25    -999.25   11.33070   11.33070   73.94510    -999.25    -999.25    -999.25    -999.25    -999.25   13.52430   74.86410   74.86410    -999.25   82.40600   82.40600   13.52430   13.85750   14.31530   13.85750    -999.25    -999.25    -999.25   95.47500  -17.71550   14.31530
 5700.00000    -999.25    -999.25   11.27870   11.27870   95.92050    -999.25    -999.25    -999.25    -999.25    -999.25   10.42530   76.85790   76.85790    -999.25   85.56060   85.56060   10.42530   10.67520   11.87880   10.67520    -999.25    -999.25    -999.25  100.77600  -12.35720   11.87880
 5750.00000    -999.25    -999.25   11.32330   11.32330  105.10270    -999.25    -999.25    -999.25    -999.25    -999.25    9.51450   80.36040   80.36040    -999.25   82.10080   82.10080    9.51450    9.74330   10.10250    9.74330    -999.25    -999.25    -999.25   97.13050  -15.94580   10.10250
 5800.00000    -999.25    -999.25   11.76220   11.76220  107.22370    -999.25    -999.25    -999.25    -999.25    -999.25    9.32630   81.07900   81.07900    -999.25   92.86010   92.86010    9.32630    9.54570   10.13540    9.54570    -999.25    -999.25    -999.25   98.68510  -14.33430   10.13540
 5850.00000    -999.25    -999.25   11.78150   11.78150  122.41400    -999.25    -999.25    -999.25    -999.25    -999.25    8.16900   89.60600   89.60600    -999.25   97.03290   97.03290    8.16900    7.86570    8.62720    7.86570    -999.25    -999.25    -999.25   95.44340  -17.51870    8.62720
 5900.00000    -999.25    -999.25   12.15930   12.15930  116.84790    -999.25    -999.25    -999.25    -999.25    -999.25    8.55850   85.96090   85.96090    -999.25   93.50480   93.50480    8.55850    8.33320    9.33180    8.33320    -999.25    -999.25    -999.25   99.61250  -13.29270    9.33180
 5950.00000    -999.25    -999.25   11.69580   11.69580  130.65580    -999.25    -999.25    -999.25    -999.25    -999.25    7.65370   92.04750   92.04750    -999.25   99.09930   99.09930    7.65370    7.48980    9.09660    7.48980    -999.25    -999.25    -999.25  100.10050  -12.74740    9.09660
 6000.00000    -999.25    -999.25   11.20900   11.20900   98.52800    -999.25    -999.25    -999.25    -999.25    -999.25   10.14940   87.44640   87.44640    -999.25  111.82190  111.82190   10.14940   10.38780   12.89790   10.38780    -999.25    -999.25    -999.25   94.09580  -18.69520   12.89790
 6050.00000    -999.25    -999.25   11.26810   11.26810  104.10830    -999.25    -999.25    -999.25    -999.25    -999.25    9.60540   86.06280   86.06280    -999.25   98.02350   98.02350    9.60540   10.01880   12.41930   10.01880    -999.25    -999.25    -999.25  101.66700  -11.06710   12.41930
 6100.00000    -999.25    -999.25   10.93510   10.93510   53.37770    -999.25    -999.25    -999.25    -999.25    -999.25   18.73440   85.67670   85.67670    -999.25  110.91440  110.91440   18.73440   20.76110   25.25070   20.76110    -999.25    -999.25    -999.25   95.53940  -17.13740   25.25070
 6150.00000    -999.25    -999.25   11.14240   11.14240   86.18820    -999.25    -999.25    -999.25    -999.25    -999.25   11.60290   89.48660   89.48660    -999.25  105.87220  105.87220   11.60290   12.34290   15.53630   12.34290    -999.25    -999.25    -999.25   97.05270  -15.56720   15.53630
 6200.00000    -999.25    -999.25   11.13810   11.13810   76.42460    -999.25    -999.25    -999.25    -999.25    -999.25   13.08480   90.14490   90.14490    -999.25  101.76530  101.76530   13.08480   13.71210   18.96040   13.71210    -999.25    -999.25    -999.25   97.52000  -15.04260   18.96040
 6250.00000    -999.25    -999.25   11.33370   11.33370  107.33760    -999.25    -999.25    -999.25    -999.25    -999.25    9.31640   89.63230   89.63230    -999.25   90.77450   90.77450    9.31640    9.12960   11.85160    9.12960    -999.25    -999.25    -999.25   98.62070  -13.88500   11.85160
 6300.00000    -999.25    -999.25   11.04170   11.04170   76.35500    -999.25    -999.25    -999.25    -999.25    -999.25   13.09690   99.72230   99.72230    -999.25  138.16850  138.16850   13.09690   12.79480   16.61010   12.79480    -999.25    -999.25    -999.25   95.91960  -16.52920   16.61010
 6350.00000    -999.25    -999.25   11.18410   11.18410  129.21400    -999.25    -999.25    -999.25    -999.25    -999.25    7.73910   80.75450   80.75450    -999.25   79.82560   79.82560    7.73910    7.92660    9.12020    7.92660    -999.25    -999.25    -999.25   92.98320  -19.40830    9.12020
 6400.00000    -999.25    -999.25   11.63020   11.63020  156.47680    -999.25    -999.25    -999.25    -999.25    -999.25    6.39090   88.96930   88.96930    -999.25   88.20670   88.20670    6.39090    6.63500    7.57650    6.63500    -999.25    -999.25    -999.25  100.68210  -11.65250    7.57650
 6450.00000    -999.25    -999.25   10.60950   10.60950   95.77350    -999.25    -999.25    -999.25    -999.25    -999.25   10.44130   79.68680   79.68680    -999.25   88.47380   88.47380   10.44130   11.35010   13.49600   11.35010    -999.25    -999.25    -999.25   93.46990  -18.80740   13.49600
 6500.00000    -999.25    -999.25   10.78090   10.78090  128.76970    -999.25    -999.25    -999.25    -999.25    -999.25    7.76580   74.84960   74.84960    -999.25   84.27310   84.27310    7.76580    8.57260   10.55330    8.57260    -999.25    -999.25    -999.25   92.60980  -19.61060   10.55330
 6550.00000    -999.25    -999.25   10.86970   10.86970  132.22970    -999.25    -999.25    -999.25    -999.25    -999.25    7.56260   82.22030   82.22030    -999.25   88.15060   88.15060    7.56260    7.74060    8.87240    7.74060    -999.25    -999.25    -999.25  102.63760   -9.52580    8.87240
