~Version ---------------------------------------------------
VERS.      2.0 : CWLS log ASCII Standard -VERSION 2.0
WRAP.       NO : One line per depth step
CREA. 11/17/17 : LAS Creation Date
~Well ------------------------------------------------------
STRT.FT                              950.0 : START DEPTH
STOP.FT                             9900.0 : STOP DEPTH
STEP.FT                           50.00000 : STEP LENGTH
NULL.                              -999.25 : NULL VALUE
COMP.        HUDSON'S BAY OIL & GAS CO LTD : COMPANY
WELL. HB QUINTANA UNION GIROUX 10-25-66-20 : WELL
FLD .                                      : FIELD
LOC .                                      : LOCATION
CTRY.                               CANADA : COUNTRY
SRVC.                         Schlumberger : SERVICE COMPANY
DATE.                          21-Feb-1973 : LOGDATE
PROV.                              Alberta : PROVINCE
UWI .                     100102506620W500 : UNIQUE WELL ID
SLAT.WGS84                        54.74426 : SURFACE LATITUDE
SLON.WGS84                       -116.8814 : SURFACE LONGITUDE
~Curve Information -----------------------------------------
DEPT  .FT    : Depth Curve
CALSED.IN    : CALIPER FROM SONIC LOG [ADJ. TO RESISTIVITY LOG]
CALWS .IN    : CALIPER [CALSED]
CILDED.MMHO  : DEEP INDUCTION CONDUCTIVITY FROM RESISTIVITY LOG
CONDWS.MMHO  : CONDUCTIVITY [1000/DRESWS]
DRESWS.OHMM  : DEEP RESISTIVITY [ILDED]
DTED  .US/F  : DELTA-T FROM SONIC LOG [ADJ. TO RESISTIVITY LOG]
DTWS  .US/F  : COMPRESSIONAL SONIC [DTED]
GRSED .GAPI  : GAMMA RAY FROM SONIC LOG [ADJ. TO RESISTIVITY LOG]
GRWS  .GAPI  : GAMMA RAY [GRSED]
ILDED .OHMM  : DEEP INDUCTION RESISTIVITY FROM RESISTIVITY LOG
ILMED .OHMM  : MEDIUM INDUCTION RESISTIVITY FROM RESISTIVITY LOG
LL8ED .OHMM  : LATEROLOG 8 FROM RESISTIVITY LOG
MRESWS.OHMM  : MEDIUM RESISTIVITY [ILMED]
SPRED .MV    : SPONTANEOUS POTENTIAL FROM RESISTIVITY LOG
SPWS  .MV    : SPONTANEOUS POTENTIAL [BASELINE 0 MV,SPRED]
SRESWS.OHMM  : SHALLOW RESISTIVITY [LL8ED]
~Params ----------------------------------------------------
PD  .                     GL : PERMANENT DATUM
EPD .FT                 2603 : ELEVATION PERMANENT DATUM
LMF .                     KB : LOG MEASURED FROM
DAPD.FT                   15 : FEET ABOVE PERMANENT DATUM
EKB .FT                 2618 : KELLY BUSHING
EGL .FT                 2603 : GROUND LEVEL
DATE.               02/21/73 : RUN DATE
RUN .                      1 : RUN NUMBER
DD  .FT                 9904 : DEPTH DRILLER
DL  .FT                 9905 : DEPTH LOGGER
BLI .FT                 9902 : BOTTOM LOG INTERVAL
TLI .FT                  994 : TOP LOG INTERVAL
CBD .FT                  993 : CASING BOTTOM DRILLER
CBL .FT                  994 : CASING BOTTOM LOGGER
BS  .IN                 8.75 : BIT SIZE
BSD .FT                 9904 : BIT SIZE AT DEPTH
DFT .                    GEL : DRILLING FLUID TYPE
DFD .                    9.4 : DRILLING FLUID DENSITY
DFV .                    310 : DRILLING FLUID VISCOSITY
DFPH.                   10.5 : DRILLING FLUID PH
DFL .                    7.2 : DRILLING FLUID LOSS
MSS .             CIRCULATED : MUD SAMPLE SOURCE
RMS .OHMM               1.85 : RESISTIVITY MUD SAMPLE
MST .DEGF                 58 : MUD SAMPLE TEMPERATURE
RMF .OHMM               1.56 : RESISTIVITY MUD FILTRATE SAMPLE
MFST.DEGF                 68 : MUD FILTRATE SAMPLE TEMPERATURE
RMC .OHMM                1.5 : RESISTIVITY MUD CAKE
MCST.DEGF                 58 : MUD CAKE SAMPLE TEMPERATURE
RMB .OHMM               0.56 : RESISTIVITY MUD AT BHT
TCS .HRS                   3 : TIME CIRCULATED STOPPED
LUN .                   7667 : LOGGING UNIT NUMBER
LUL .                  LLOYD : LOGGING UNIT LOCATION
ENGI.                  LEWIS : RECORDING ENGINEER
WITN.                 HARRIS : WITNESSED BY
CLNT.                A2DTECH : CLIENT CODE
ORIG.            2" 5" PRINT : ORIGIN OF DATA
UWI .       100102506620W500 : UNIQUE WELL ID
DICO. A2D Technologies, Inc. : DIGITIZING COMPANY
~Other -----------------------------------------------------
DILL-BCS LOG RUN
ALL DATA FROM TOP TO 4000' FROM  2" SECTION
~ASCII -----------------------------------------------------
  950.00000    -999.25    -999.25    -999.25    -999.25    -999.25    -999.25    -999.25   69.25530   69.25530    -999.25    -999.25    -999.25    -999.25    -999.25    -999.25    -999.25
 1000.00000    9.63050    9.63050  428.77940  870.32200    1.14900  159.97660  159.97660   80.23740   80.23740    1.14900    -999.25    3.43290    -999.25 -346.51460   -4.46890    3.43290
 1050.00000    9.47290    9.47290  254.52930  326.97700    3.06050  121.73720  121.73720   94.22060   94.22060    3.06050    -999.25    3.29140    -999.25 -351.62360   -2.46760    3.29140
 1100.00000    8.90570    8.90570  364.70040  510.07400    1.96050  123.49990  123.49990   93.50460   93.50460    1.96050    -999.25    2.55540    -999.25 -352.01520   -3.14900    2.55540
 1150.00000    8.65240    8.65240   89.35810  104.89110    9.53370   94.63610   94.63610   75.04630   75.04630    9.53370    -999.25    9.87240    -999.25 -359.32070  -10.74290    9.87240
 1200.00000    8.91740    8.91740  236.56750  322.08190    3.10480  119.24380  119.24380   76.57310   76.57310    3.10480    -999.25    3.32440    -999.25 -350.64980   -2.36040    3.32440
 1250.00000    8.74110    8.74110  424.88020  694.34800    1.44020  130.21070  130.21070   87.92230   87.92230    1.44020    -999.25    2.20300    -999.25 -350.40140   -2.40040    2.20300
 1300.00000    9.27680    9.27680  275.34620  382.84070    2.61530  125.87200  125.87200   75.28570   75.28570    2.61530    -999.25    2.97930    -999.25 -349.47160   -1.75750    2.97930
 1350.00000    9.07350    9.07350  263.96880  346.47630    2.88620  117.66160  117.66160   78.61420   78.61420    2.88620    -999.25    2.98840    -999.25 -350.05250   -2.62820    2.98840
 1400.00000    9.68020    9.68020  327.62200  452.32500    2.21080  130.72100  130.72100   82.18950   82.18950    2.21080    -999.25    2.68580    -999.25 -348.20100   -1.06510    2.68580
 1450.00000    8.77230    8.77230  139.80560  164.66060    6.07310  110.31220  110.31220   75.06080   75.06080    6.07310    -999.25    6.58650    -999.25 -356.16970   -9.32220    6.58650
 1500.00000    9.27640    9.27640  285.44180  345.80540    2.89180  119.79800  119.79800   72.11570   72.11570    2.89180    -999.25    3.67860    -999.25 -348.59680   -2.10060    3.67860
 1550.00000    8.97110    8.97110  241.70260  282.73760    3.65070  104.81090  104.81090   79.79510   79.79510    3.65070    -999.25    4.71080    -999.25 -349.83370   -3.81400    4.71080
 1600.00000    9.45810    9.45810  229.28460  309.81810    3.22770  112.90580  112.90580   74.33030   74.33030    3.22770    -999.25    3.82650    -999.25 -348.06550   -2.52720    3.82650
 1650.00000    9.26070    9.26070  189.62470  235.53240    4.24570  109.82820  109.82820   58.80190   58.80190    4.24570    -999.25    5.10170    -999.25 -351.14900   -6.08970    5.10170
 1700.00000    9.57220    9.57220  293.50480  422.79720    2.36520  120.44500  120.44500   60.42120   60.42120    2.36520    -999.25    3.14360    -999.25 -346.41700   -1.83670    3.14360
 1750.00000    9.06730    9.06730  115.05880  135.86220    7.36040  102.42950  102.42950   55.08740   55.08740    7.36040    -999.25    7.82000    -999.25 -346.63610   -2.53470    7.82000
 1800.00000    8.88320    8.88320  197.49120  249.72850    4.02110  106.65950  106.65950   66.82260   66.82260    4.02110    -999.25    4.59480    -999.25 -346.33310   -2.78530    4.59480
 1850.00000    8.85010    8.85010  100.51690  112.93690    8.85450  109.70680  109.70680   56.73930   56.73930    8.85450    -999.25    8.34800    -999.25 -346.10390   -3.65660    8.34800
 1900.00000    9.41100    9.41100  284.89420  404.15470    2.47430  130.43600  130.43600   68.49820   68.49820    2.47430    -999.25    3.33880    -999.25 -344.46730   -3.11500    3.33880
 1950.00000    9.56660    9.56660  277.59770  378.45820    2.64230  124.09960  124.09960   65.61640   65.61640    2.64230    -999.25    3.34400    -999.25 -345.26110   -5.00380    3.34400
 2000.00000    9.65890    9.65890  231.53830  306.19430    3.26590  109.23830  109.23830   62.65850   62.65850    3.26590    -999.25    3.80780    -999.25 -343.97410   -4.81190    3.80780
 2050.00000    9.71980    9.71980  310.97170  431.94330    2.31520  116.96030  116.96030   77.55950   77.55950    2.31520    -999.25    2.98760    -999.25 -342.91920   -4.84650    2.98760
 2100.00000    9.34400    9.34400   58.13430   65.89090   15.17660   71.81640   71.81640   50.64050   50.64050   15.17660    -999.25   21.81110    -999.25 -343.98370   -6.79370   21.81110
 2150.00000    9.47870    9.47870  156.43470  203.07040    4.92440   94.57020   94.57020   63.61340   63.61340    4.92440    -999.25    5.81210    -999.25 -340.43000   -3.52840    5.81210
 2200.00000    9.24360    9.24360  294.67370  387.14670    2.58300  114.33650  114.33650   77.20530   77.20530    2.58300    -999.25    3.24760    -999.25 -338.56600   -1.85000    3.24760
 2250.00000    9.92260    9.92260  296.87010  401.04270    2.49350  123.59040  123.59040   73.38790   73.38790    2.49350    -999.25    3.92410    -999.25 -343.32630   -2.24350    3.92410
 2300.00000    9.26010    9.26010  251.12760  321.51610    3.11030  116.30980  116.30980   63.30000   63.30000    3.11030    -999.25    4.10610    -999.25 -346.47020   -5.36620    4.10610
 2350.00000    9.49290    9.49290  312.84200  439.34800    2.27610  119.28490  119.28490   71.51400   71.51400    2.27610    -999.25    3.32450    -999.25 -343.86530   -2.73980    3.32450
 2400.00000    9.75560    9.75560  245.76390  304.80370    3.28080  108.12420  108.12420   75.67850   75.67850    3.28080    -999.25    4.18090    -999.25 -344.32080   -3.17390    4.18090
 2450.00000   10.04020   10.04020  187.52220  231.64230    4.31700  102.81530  102.81530   65.75670   65.75670    4.31700    -999.25    4.84950    -999.25 -344.59950   -3.43130    4.84950
 2500.00000   11.92280   11.92280  175.30650  210.76150    4.74470  104.37840  104.37840   97.89500   97.89500    4.74470    -999.25    5.64730    -999.25 -346.66790   -5.47830    5.64730
 2550.00000   11.35260   11.35260  180.17000  211.07470    4.73780  105.71740  105.71740  105.39990  105.39990    4.73780    -999.25    5.56550    -999.25 -346.47650   -5.26570    5.56550
 2600.00000   11.81590   11.81590  165.48350  195.58750    5.11280  117.00950  117.00950  117.89150  117.89150    5.11280    -999.25    6.48940    -999.25 -345.96900   -4.73670    6.48940
 2650.00000   10.24740   10.24740  141.19070  167.20730    5.98060  108.34890  108.34890  132.74510  132.74510    5.98060    -999.25    8.61580    -999.25 -343.36420   -2.25610    8.61580
 2700.00000   10.23150   10.23150  156.42520  182.82540    5.46970  106.85700  106.85700  102.67840  102.67840    5.46970    -999.25    7.33190    -999.25 -344.14140   -3.32170    7.33190
 2750.00000   10.34770   10.34770  176.24220  204.92640    4.87980  109.71500  109.71500   94.62570   94.62570    4.87980    -999.25    5.39930    -999.25 -344.93150   -4.40010    5.39930
 2800.00000   11.67820   11.67820  160.44000  185.48480    5.39170  110.05970  110.05970   84.57950   84.57950    5.39170    -999.25    5.78510    -999.25 -341.89680   -1.65240    5.78510
 2850.00000   11.66350   11.66350  174.08750  207.13370    4.82780  128.60230  128.60230   88.52800   88.52800    4.82780    -999.25    5.61220    -999.25 -343.71650   -2.39070    5.61220
 2900.00000   10.78870   10.78870  130.87000  149.24260    6.70050  102.91820  102.91820   95.44020   95.44020    6.70050    -999.25    7.75970    -999.25 -346.85470   -2.50130    7.75970
 2950.00000   10.92640   10.92640  178.02900  203.69920    4.90920  112.70580  112.70580   97.06140   97.06140    4.90920    -999.25    5.45240    -999.25 -347.81670   -4.31940    5.45240
 3000.00000   10.10870   10.10870  139.87840  169.88020    5.88650   96.29740   96.29740   99.68920   99.68920    5.88650    -999.25    6.31280    -999.25 -348.41510   -5.77380    6.31280
 3050.00000    9.97750    9.97750  155.88970  174.21780    5.74000  100.70430  100.70430   97.40140   97.40140    5.74000    -999.25    6.07640    -999.25 -347.81260   -6.02310    6.07640
