~Version ---------------------------------------------------
VERS.      2.0 : CWLS log ASCII Standard -VERSION 2.0
WRAP.       NO : One line per depth step
CREA. 09/21/17 : LAS Creation Date
~Well ------------------------------------------------------
STRT.FT                           650.0 : START DEPTH
STOP.FT                          7250.0 : STOP DEPTH
STEP.FT                        50.00000 : STEP LENGTH
NULL.                           -999.25 : NULL VALUE
COMP.          BP CANADA ENERGY COMPANY : COMPANY
WELL. MIC MAC CALSTAN MCKEE 11-36-32-20 : WELL
FLD .                                   : FIELD
LOC .                                   : LOCATION
CTRY.                            CANADA : COUNTRY
SRVC.            Schlumberger of Canada : SERVICE COMPANY
DATE.                       21-Feb-1958 : LOGDATE
PROV.                           Alberta : PROVINCE
UWI .                  100113603220W400 : UNIQUE WELL ID
SLAT.WGS84                     51.78864 : SURFACE LATITUDE
SLON.WGS84                    -112.7113 : SURFACE LONGITUDE
~Curve Information -----------------------------------------
DEPT  .FT         : Depth Curve
CALWS .IN         : CALIPER [MCALED]
CONDWS.MMHO       : CONDUCTIVITY [1000/DRESWS]
DRESWS.OHMM       : DEEP RESISTIVITY [LNED SPL. TO LLED @ 4920']
GRNED .UgRa-Eq/T  : GAMMA RAY FROM GRN LOG
GRWS  .GAPI       : GAMMA RAY [GRNED*16.5 TO CONVERT UgRa-Eq/T TO GAPI]
LLED  .OHMM       : LATEROLOG RESISTIVITY FROM LATEROLOG
LNED  .OHMM       : LONG NORMAL RESISTIVITY FROM EL LOG
LT18ED.OHMM       : 18' LATARAL LOG RESISTIVITY FROM EL LOG
MCALED.IN         : CALIPER FROM MICROLOG
NEUTED.CPS        : NEUTRON FROM GRN LOG
NEUTWS.CPS        : NEUTRON [NEUTED]
SNED  .OHMM       : 16 INCH SHORT NORMAL RESISTIVITY FROM EL LOG
SPRED .MV         : SPONTANEOUS POTENTIAL FROM RESISTIVITY LOG
SPWS  .MV         : SPONTANEOUS POTENTIAL [BASELINE 0 MV, SPRED]
SRESWS.OHMM       : SHALLOW RESISTIVITY [SNED]
~Params ----------------------------------------------------
LMF .                     KB : LOG MEASURED FROM
DMF .                     KB : DRILLING MEASURED FROM
EKB .FT                 2808 : KELLY BUSHING
EGL .FT                 2796 : GROUND LEVEL
DATE.               02/21/58 : RUN DATE
RUN .                      1 : RUN NUMBER
DD  .FT                 7280 : DEPTH DRILLER
DL  .FT                 7281 : DEPTH LOGGER
BLI .FT                 7277 : BOTTOM LOG INTERVAL
TLI .FT                 4925 : TOP LOG INTERVAL
CBD .FT                  609 : CASING BOTTOM DRILLER
CBL .FT                  608 : CASING BOTTOM LOGGER
BS  .IN                    9 : BIT SIZE
BSD .FT                 7280 : BIT SIZE AT DEPTH
DFT .              SALT BASE : DRILLING FLUID TYPE
DFD .                   11.4 : DRILLING FLUID DENSITY
DFV .                     78 : DRILLING FLUID VISCOSITY
DFPH.                   10.0 : DRILLING FLUID PH
DFL .                      4 : DRILLING FLUID LOSS
TCS .HRS                   2 : TIME CIRCULATED STOPPED
LUN .                   2714 : LOGGING UNIT NUMBER
LUL .                    STE : LOGGING UNIT LOCATION
ENGI.               MCALPINE : RECORDING ENGINEER
WITN.                WOODMAN : WITNESSED BY
CLNT.                A2DTECH : CLIENT CODE
ORIG.            2" 5" PRINT : ORIGIN OF DATA
UWI .       100113603220W400 : UNIQUE WELL ID
DICO. A2D Technologies, Inc. : DIGITIZING COMPANY
~Other -----------------------------------------------------
~ASCII -----------------------------------------------------
# ...
 2950.00000   10.50830  165.20050    6.05330    -999.25    -999.25    -999.25    6.05330    7.43280   10.50830    -999.25    -999.25    6.80040  -23.98150   -1.94830    6.80040
 3000.00000    9.91260  120.92630    8.26950    -999.25    -999.25    -999.25    8.26950    9.08940    9.91260    -999.25    -999.25    9.05730  -23.67600   -2.81210    9.05730
 3050.00000   10.42990  114.59480    8.72640    -999.25    -999.25    -999.25    8.72640    8.67900   10.42990    -999.25    -999.25   11.20640  -27.56710   -6.01260   11.20640
 3100.00000    9.80610  119.12080    8.39480    -999.25    -999.25    -999.25    8.39480    9.59190    9.80610    -999.25    -999.25    9.63240  -27.83980   -5.22410    9.63240
 3150.00000   10.60220  106.23490    9.41310    -999.25    -999.25    -999.25    9.41310    8.00270   10.60220    -999.25    -999.25   11.56590  -26.37520   -2.70510   11.56590
 3200.00000   10.51540  116.46770    8.58660    -999.25    -999.25    -999.25    8.58660    9.56710   10.51540    -999.25    -999.25   10.55800  -26.24320   -1.54180   10.55800
 3250.00000   10.45990  111.82930    8.94220    -999.25    -999.25    -999.25    8.94220   10.27940   10.45990    -999.25    -999.25   10.21510  -29.32420   -3.94790   10.21510
 3300.00000    9.78780  117.55720    8.50650    -999.25    -999.25    -999.25    8.50650    8.56990    9.78780    -999.25    -999.25    9.56500  -29.93440   -3.88310    9.56500
 3350.00000   10.39410  110.27800    9.06840    -999.25    -999.25    -999.25    9.06840    9.52860   10.39410    -999.25    -999.25   10.45360  -31.19100   -4.46030   10.45360
 3400.00000   11.28270  131.25250    7.61890    -999.25    -999.25    -999.25    7.61890    7.28840   11.28270    -999.25    -999.25    9.35760  -28.85550   -1.44990    9.35760
 3450.00000   10.15620  118.55920    8.43510    -999.25    -999.25    -999.25    8.43510    7.30240   10.15620    -999.25    -999.25   10.47940  -29.97090   -1.88590   10.47940
 3500.00000    9.38470   93.20190   10.72940    -999.25    -999.25    -999.25   10.72940    9.13320    9.38470    -999.25    -999.25   13.21820  -30.54790   -1.42820   13.21820
 3550.00000    9.32780   80.32640   12.44920    -999.25    -999.25    -999.25   12.44920    9.92780    9.32780    -999.25    -999.25   16.05760  -33.78000   -2.78440   16.05760
 3600.00000   11.93090  126.71390    7.89180    -999.25    -999.25    -999.25    7.89180    7.37220   11.93090    -999.25    -999.25    9.56550  -36.11230   -3.60440    9.56550
 3650.00000    9.43770   96.16680   10.39860    -999.25    -999.25    -999.25   10.39860    9.17040    9.43770    -999.25    -999.25   15.18700  -33.60070   -1.50160   15.18700
 3700.00000   10.25160  229.22820    4.36350    -999.25    -999.25    -999.25    4.36350    3.82310   10.25160    -999.25    -999.25    3.94300  -32.57030   -0.88280    3.94300
 3750.00000    9.40960  120.18800    8.32030    -999.25    -999.25    -999.25    8.32030    7.10960    9.40960    -999.25    -999.25   15.99220  -33.75370   -2.47510   15.99220
 3800.00000   11.35220  296.62150    3.37130    -999.25    -999.25    -999.25    3.37130    3.31350   11.35220    -999.25    -999.25    4.49580  -33.06060   -2.19090    4.49580
 3850.00000   11.43500  354.79940    2.81860    -999.25    -999.25    -999.25    2.81860    3.00160   11.43500    -999.25    -999.25    3.96900  -32.77880   -2.32060    3.96900
 3900.00000    9.65980  166.42530    6.00870    -999.25    -999.25    -999.25    6.00870    5.54490    9.65980    -999.25    -999.25    8.18570  -32.86850   -2.86840    8.18570
 3950.00000    8.73480   90.20930   11.08560    -999.25    -999.25    -999.25   11.08560    8.93970    8.73480    -999.25    -999.25   17.81530  -56.74590  -27.15220   17.81530
 4000.00000    9.80150  168.51760    5.93410    -999.25    -999.25    -999.25    5.93410    8.99890    9.80150    -999.25    -999.25    9.24670  -31.35290   -2.08110    9.24670
 4050.00000   10.59050  454.97980    2.19790    -999.25    -999.25    -999.25    2.19790    3.40310   10.59050    -999.25    -999.25    3.13660  -29.86590   -1.66480    3.13660
 4100.00000   10.65510  527.88610    1.89430    -999.25    -999.25    -999.25    1.89430    1.68630   10.65510    -999.25    -999.25    2.61900  -28.73730   -1.61400    2.61900
 4150.00000    9.20320   14.75670   67.76580    -999.25    -999.25    -999.25   67.76580   17.14440    9.20320    -999.25    -999.25   63.68460  -30.14170   -4.26770   63.68460
 4200.00000   10.14530   77.75040   12.86190    -999.25    -999.25    -999.25   12.86190   33.68120   10.14530    -999.25    -999.25   19.88470  -28.06380   -3.60050   19.88470
 4250.00000    9.70160   48.88470   20.45630    -999.25    -999.25    -999.25   20.45630   12.09670    9.70160    -999.25    -999.25   18.60570  -28.54840   -5.48670   18.60570
 4300.00000   10.19680   31.45900   31.78740    -999.25    -999.25    -999.25   31.78740   43.17270   10.19680    -999.25    -999.25   64.23570  -29.17950   -7.51940   64.23570
 4350.00000    9.80490   52.93280   18.89850    -999.25    -999.25    -999.25   18.89850   13.00670    9.80490    -999.25    -999.25   14.49810  -24.24060   -3.99130   14.49810
 4400.00000   10.37850  182.47840    5.48010    -999.25    -999.25    -999.25    5.48010    4.10430   10.37850    -999.25    -999.25    5.54180  -20.53800   -1.69020    5.54180
 4450.00000    9.38010  289.10060    3.46180    -999.25    -999.25    -999.25    3.46180    4.57180    9.38010    -999.25    -999.25    8.36320  -26.22960   -8.86220    8.36320
 4500.00000   10.34620  126.01920    7.93530    -999.25    -999.25    -999.25    7.93530    6.51560   10.34620    -999.25    -999.25    8.37320  -23.78020   -7.48380    8.37320
 4550.00000    9.06830   15.20280   65.77740    -999.25    -999.25    -999.25   65.77740   10.14600    9.06830    -999.25    -999.25   73.67050  -18.82240   -3.53370   73.67050
 4600.00000    9.14200   18.74340   53.62540    -999.25    -999.25    -999.25   53.62540   12.60460    9.14200    -999.25    -999.25   55.79320  -22.66730   -7.96810   55.79320
 4650.00000    9.08390    6.93980  144.09630    -999.25    -999.25    -999.25  144.09630  310.45040    9.08390    -999.25    -999.25  105.48440  -35.04070  -20.03120  105.48440
 4700.00000    9.05830    6.19820  161.39830    -999.25    -999.25    -999.25  161.39830  129.29310    9.05830    -999.25    -999.25  112.95140  -36.56770  -21.24590  112.95140
 4750.00000    9.08510    2.16150  462.63730    -999.25    -999.25  233.36060  462.63730   92.42610    9.08510    -999.25    -999.25  208.69080  -60.55940  -44.92740  208.69080
 4800.00000    9.12310   59.40180   16.83450    5.71160   94.24140   23.48140   16.83450   29.44140    9.12310  339.26360  339.26360   16.51100  -17.32390   -1.65850   16.51100
 4850.00000    9.11590   97.95580   10.20870    6.34590  104.70650   17.47300   10.20870    8.81250    9.11590  318.30960  318.30960   13.08590  -16.75190   -2.09810   13.08590
 4900.00000    9.04500   76.40410   13.08830    9.38230  154.80800   20.02060   13.08830    8.41260    9.04500  303.89810  303.89810   17.16130  -14.83210   -1.16940   17.16130
 4950.00000    9.88960   13.35320   74.89720    2.98670   49.28140   74.89720    -999.25    -999.25    9.88960  431.46900  431.46900    -999.25  -11.57880   -8.09540    -999.25
 5000.00000    9.87490    4.03660  247.73080    1.59330   26.28940  247.73080    -999.25    -999.25    9.87490  512.56070  512.56070    -999.25    4.92500   -5.26380    -999.25
 5050.00000    9.87950    5.08290  196.73620    1.38760   22.89540  196.73620    -999.25    -999.25    9.87950  430.84540  430.84540    -999.25  -14.44840  -27.99140    -999.25
 5100.00000    9.82450    3.95230  253.02580    1.45740   24.04710  253.02580    -999.25    -999.25    9.82450  396.53770  396.53770    -999.25  -39.29030  -56.20970    -999.25
 5150.00000    9.79060    1.76050  568.00490    1.11800   18.44700  568.00490    -999.25    -999.25    9.79060  459.89100  459.89100    -999.25  -21.06320  -41.33680    -999.25
 5200.00000    9.88480    6.00540  167.45360    1.59190   26.26640  167.45360    -999.25    -999.25    9.88480  464.20040  464.20040    -999.25  -43.88630  -67.53630    -999.25
