~Version ---------------------------------------------------
VERS.      2.0 : CWLS log ASCII Standard -VERSION 2.0
WRAP.       NO : One line per depth step
CREA. 08/02/17 : LAS Creation Date
~Well ------------------------------------------------------
STRT.FT                        300.0 : START DEPTH
STOP.FT                      10200.0 : STOP DEPTH
STEP.FT                     50.00000 : STEP LENGTH
NULL.                        -999.25 : NULL VALUE
COMP.           IMPERIAL OIL LIMITED : COMPANY
WELL. IMPERIAL GOOSE RIVER 2-1-67-19 : WELL
FLD .                                : FIELD
LOC .                                : LOCATION
CTRY.                         CANADA : COUNTRY
SRVC.                   Schlumberger : SERVICE COMPANY
DATE.                    10-Mar-1960 : LOGDATE
PROV.                        Alberta : PROVINCE
UWI .               100020106719W500 : UNIQUE WELL ID
SLAT.WGS84                  54.76551 : SURFACE LATITUDE
SLON.WGS84                 -116.7556 : SURFACE LONGITUDE
~Curve Information -----------------------------------------
DEPT  .FT         : Depth Curve
CALWS .IN         : CALIPER [MCALED]
CILDED.MMHO       : DEEP INDUCTION CONDUCTIVITY FROM IEL LOG
CONDWS.MMHO       : CONDUCTIVITY [1000/DRESWS]
DRESWS.OHMM       : DEEP RESISTIVITY [CALCULATED FROM 1000/CONDWS, IF ILDED<1, ILDED]
DTED  .US/F       : DELTA-T (INTERVAL TRANSIT TIME) FROM SONIC LOG
DTWS  .US/F       : COMPRESSIONAL  SONIC [DTED]
GRSED .UgRa-Eq/T  : GAMMA RAY FROM SONIC LOG
GRWS  .GAPI       : GAMMA RAY [GRSED*16.50]
ILDED .OHMM       : DEEP INDUCTION FROM IEL LOG
MCALED.IN         : MICROLOG CALIPER FROM MLL LOG
SNED  .OHMM       : SHORT NORMAL INDUCTION FROM IEL LOG
SPRED .MV         : SPONTANEOUS POTENTIAL FROM IEL LOG
SPWS  .MV         : SPONTANEOUS POTENTIAL [BASELINE 0 MV, SPRED]
SRESWS.OHMM       : SHALLOW RESISTIVITY [SNED]
~Params ----------------------------------------------------
LMF .                     KB : LOG MEASURED FROM
DMF .                     KB : DRILLING MEASURED FROM
EKB .FT                 2467 : KELLY BUSHING
DATE.               03/10/60 : RUN DATE
RUN .                      1 : RUN NUMBER
DD  .FT                10228 : DEPTH DRILLER
DL  .FT                10340 : DEPTH LOGGER
BLI .FT                10335 : BOTTOM LOG INTERVAL
TLI .FT                  983 : TOP LOG INTERVAL
CBD .FT                  983 : CASING BOTTOM DRILLER
CBL .FT                  983 : CASING BOTTOM LOGGER
BS  .IN                    9 : BIT SIZE
BSD .FT                10228 : BIT SIZE AT DEPTH
DFT .                    GEL : DRILLING FLUID TYPE
DFD .                   10.1 : DRILLING FLUID DENSITY
DFV .                    150 : DRILLING FLUID VISCOSITY
DFPH.                    9.5 : DRILLING FLUID PH
DFL .                   10.2 : DRILLING FLUID LOSS
MSS .               FILTRATE : MUD SAMPLE SOURCE
RMS .OHMM                1.6 : RESISTIVITY MUD SAMPLE
MST .DEGF                 60 : MUD SAMPLE TEMPERATURE
RMF .OHMM               0.94 : RESISTIVITY MUD FILTRATE SAMPLE
MFST.DEGF                 72 : MUD FILTRATE SAMPLE TEMPERATURE
RMC .OHMM                1.4 : RESISTIVITY MUD CAKE
MCST.DEGF                 58 : MUD CAKE SAMPLE TEMPERATURE
RMB .OHMM               0.43 : RESISTIVITY MUD AT BHT
TCS .HRS                 500 : TIME CIRCULATED STOPPED
LUN .                   1511 : LOGGING UNIT NUMBER
LUL .                     DC : LOGGING UNIT LOCATION
ENGI.             RICHARDSON : RECORDING ENGINEER
WITN.                FLEWITT : WITNESSED BY
CLNT.                A2DTECH : CLIENT CODE
ORIG.            2" 5" PRINT : ORIGIN OF DATA
UWI .       100020106719W500 : UNIQUE WELL ID
DICO. A2D Technologies, Inc. : DIGITIZING COMPANY
~Other -----------------------------------------------------
~ASCII -----------------------------------------------------
  300.00000    -999.25    -999.25    -999.25    -999.25    -999.25    -999.25    3.58910   59.22020    -999.25    -999.25    -999.25    -999.25    -999.25    -999.25
  350.00000    -999.25    -999.25    -999.25    -999.25    -999.25    -999.25    3.67490   60.63580    -999.25    -999.25    -999.25    -999.25    -999.25    -999.25
  400.00000    -999.25    -999.25    -999.25    -999.25    -999.25    -999.25    2.82020   46.53330    -999.25    -999.25    -999.25    -999.25    -999.25    -999.25
  450.00000    -999.25    -999.25    -999.25    -999.25    -999.25    -999.25    3.06540   50.57910    -999.25    -999.25    -999.25    -999.25    -999.25    -999.25
  500.00000    -999.25    -999.25    -999.25    -999.25    -999.25    -999.25    3.71560   61.30740    -999.25    -999.25    -999.25    -999.25    -999.25    -999.25
  550.00000    -999.25    -999.25    -999.25    -999.25    -999.25    -999.25    3.94350   65.06770    -999.25    -999.25    -999.25    -999.25    -999.25    -999.25
  600.00000    -999.25    -999.25    -999.25    -999.25    -999.25    -999.25    3.96590   65.43730    -999.25    -999.25    -999.25    -999.25    -999.25    -999.25
  650.00000    -999.25    -999.25    -999.25    -999.25    -999.25    -999.25    3.76180   62.06970    -999.25    -999.25    -999.25    -999.25    -999.25    -999.25
  700.00000    -999.25    -999.25    -999.25    -999.25    -999.25    -999.25    3.04410   50.22760    -999.25    -999.25    -999.25    -999.25    -999.25    -999.25
  750.00000    -999.25    -999.25    -999.25    -999.25    -999.25    -999.25    3.25350   53.68270    -999.25    -999.25    -999.25    -999.25    -999.25    -999.25
  800.00000    -999.25    -999.25    -999.25    -999.25    -999.25    -999.25    3.49710   57.70220    -999.25    -999.25    -999.25    -999.25    -999.25    -999.25
  850.00000    -999.25    -999.25    -999.25    -999.25    -999.25    -999.25    3.81110   62.88320    -999.25    -999.25    -999.25    -999.25    -999.25    -999.25
  900.00000    -999.25    -999.25    -999.25    -999.25    -999.25    -999.25    4.13450   68.21930    -999.25    -999.25    -999.25    -999.25    -999.25    -999.25
  950.00000    -999.25    -999.25    -999.25    -999.25    -999.25    -999.25    3.45050   56.93330    -999.25    -999.25    -999.25    -999.25    -999.25    -999.25
 1000.00000    -999.25  205.52420  241.56920    4.13960  108.87250  108.87250    5.30830   87.58700    4.13960    -999.25    6.72980 -145.75340  -86.26620    6.72980
 1050.00000    -999.25  179.28520  201.22340    4.96960  111.69970  111.69970    4.20610   69.40060    4.96960    -999.25    7.53740 -169.78970 -110.30250    7.53740
 1100.00000    -999.25  227.69930  263.72000    3.79190  117.98170  117.98170    5.72280   94.42620    3.79190    -999.25    6.13070 -166.96900  -96.56880    6.13070
 1150.00000    -999.25  184.33720  197.02490    5.07550  115.32200  115.32200    4.97820   82.14030    5.07550    -999.25    7.77820 -153.21750  -67.00130    7.77820
 1200.00000    -999.25  341.68180  475.03680    2.10510  112.49450  112.49450    5.10590   84.24730    2.10510    -999.25    4.73200 -146.83320  -44.80110    4.73200
 1250.00000    -999.25  198.59260  231.39040    4.32170  111.38150  111.38150    5.06700   83.60550    4.32170    -999.25    7.01410 -143.72120  -25.87310    7.01410
 1300.00000    -999.25   56.82770   63.37020   15.78030   81.88690   81.88690    3.89230   64.22290   15.78030    -999.25   18.29240 -142.94660  -15.82900   18.29240
 1350.00000    -999.25  133.17170  143.89730    6.94940  119.82080  119.82080    4.10040   67.65660    6.94940    -999.25   10.50410 -145.96380  -18.99710   10.50410
 1400.00000    -999.25  453.86630  723.11810    1.38290  119.79140  119.79140    4.58640   75.67560    1.38290    -999.25    4.01140 -136.46730   -9.65160    4.01140
 1450.00000    -999.25  225.62900  217.66100    4.59430  125.05470  125.05470    4.03460   66.57090    4.59430    -999.25    6.79320 -140.41560  -13.75080    6.79320
 1500.00000    -999.25  349.88100  470.43330    2.12570  124.24690  124.24690    4.67900   77.20350    2.12570    -999.25    5.09040 -134.74670   -8.23290    5.09040
 1550.00000    -999.25  350.30390  486.35770    2.05610  111.01610  111.01610    5.70780   94.17870    2.05610    -999.25    4.62730 -133.59560   -7.23270    4.62730
 1600.00000    -999.25  367.39070  508.36260    1.96710  130.85090  130.85090    5.16740   85.26210    1.96710    -999.25    4.87550 -131.88830   -5.67640    4.87550
 1650.00000    -999.25  339.21670  456.68360    2.18970  130.29280  130.29280    5.09860   84.12690    2.18970    -999.25    4.70270 -132.42040   -6.35940    4.70270
 1700.00000    -999.25  174.52330  195.36210    5.11870  110.99370  110.99370    3.63170   59.92300    5.11870    -999.25    8.07710 -133.83480   -7.92480    8.07710
 1750.00000    -999.25  295.57490  382.99500    2.61100  107.26450  107.26450    4.06270   67.03460    2.61100    -999.25    5.83350 -136.17930  -10.42020    5.83350
 1800.00000    -999.25  171.60090  186.58460    5.35950   99.16300   99.16300    4.54260   74.95290    5.35950    -999.25    8.27860 -133.27250   -7.66440    8.27860
 1850.00000    -999.25  201.72420  234.34020    4.26730  110.30700  110.30700    4.21440   69.53760    4.26730    -999.25    6.71290 -131.34060   -5.88340    6.71290
 1900.00000    -999.25  201.34200  240.73760    4.15390  102.98350  102.98350    4.17550   68.89580    4.15390    -999.25    7.14840 -132.37440   -7.06820    7.14840
 1950.00000    -999.25  122.16110  128.37960    7.78940  116.02530  116.02530    3.82570   63.12400    7.78940    -999.25   11.01140 -143.68240  -18.52710   11.01140
 2000.00000    -999.25  371.08560  552.76100    1.80910  139.93450  139.93450    4.71590   77.81240    1.80910    -999.25    5.07400 -131.82620   -6.82190    5.07400
 2050.00000    -999.25   79.75200   75.53950   13.23810   70.69510   70.69510    3.17920   52.45680   13.23810    -999.25   16.34340 -136.32580  -11.47240   16.34340
 2100.00000    -999.25  360.05790  537.89470    1.85910  115.48420  115.48420    4.98540   82.25910    1.85910    -999.25    4.52930 -131.45470   -6.75230    4.52930
 2150.00000    -999.25  301.45450  405.92650    2.46350  109.05420  109.05420    4.35070   71.78650    2.46350    -999.25    5.19540 -131.26650   -6.71500    5.19540
 2200.00000    -999.25  223.36510  271.76130    3.67970  106.09780  106.09780    4.86430   80.26100    3.67970    -999.25    6.82190 -133.14040   -8.73990    6.82190
 2250.00000    -999.25  225.75450  269.36030    3.71250   98.97050   98.97050    6.96630  114.94400    3.71250    -999.25    6.85820 -135.24970  -11.00010    6.85820
 2300.00000    -999.25  223.59970  272.17550    3.67410  127.19060  127.19060    6.15710  101.59220    3.67410    -999.25    6.99970 -137.20050  -13.10190    6.99970
 2350.00000    -999.25  234.41170  281.38100    3.55390  111.03910  111.03910    6.64920  109.71180    3.55390    -999.25    7.13550 -135.74610  -11.79840    7.13550
 2400.00000    -999.25  196.63760  229.03740    4.36610  109.53650  109.53650    8.15010  134.47670    4.36610    -999.25    8.73400 -133.37190   -9.57520    8.73400
 2450.00000    -999.25  197.76930  225.93760    4.42600  108.79940  108.79940    7.52640  124.18560    4.42600    -999.25    8.12270 -134.66670  -11.02090    8.12270
 2500.00000    -999.25  212.58350  251.60400    3.97450  106.50900  106.50900    6.93510  114.42920    3.97450    -999.25    7.04120 -137.02510  -13.53030    7.04120
 2550.00000    -999.25  236.93150  280.13560    3.56970  100.96380  100.96380    6.77910  111.85510    3.56970    -999.25    6.97410 -138.53910  -15.19520    6.97410
 2600.00000    -999.25  229.33430  272.94070    3.66380  106.14020  106.14020    7.09680  117.09720    3.66380    -999.25    7.03860 -138.33850  -15.14560    7.03860
 2650.00000    -999.25  188.33340  216.48300    4.61930  104.40600  104.40600    7.07970  116.81510    4.61930    -999.25    7.88420 -132.54800   -9.50600    7.88420
 2700.00000    -999.25  186.15890  207.62400    4.81640   95.79030   95.79030    6.68640  110.32560    4.81640    -999.25    7.44390 -131.24550   -8.35450    7.44390
