~Version ---------------------------------------------------
VERS.      2.0 : CWLS log ASCII Standard -VERSION 2.0
WRAP.       NO : One line per depth step
CREA. 08/29/14 : LAS Creation Date
~Well ------------------------------------------------------
STRT.FT                          950.0 : START DEPTH
STOP.FT                         9950.0 : STOP DEPTH
STEP.FT                       50.00000 : STEP LENGTH
NULL.                          -999.25 : NULL VALUE
COMP. AMOCO CANADA PETROLEUM CO., LTD. : COMPANY
WELL.  AMOCO HBOG WINDFALL 16-29-61-16 : WELL
FLD .                                  : FIELD
LOC .                                  : LOCATION
CTRY.                           CANADA : COUNTRY
SRVC.                     Schlumberger : SERVICE COMPANY
DATE.                      22-Dec-1976 : LOGDATE
PROV.                          Alberta : PROVINCE
UWI .                 100162906116W500 : UNIQUE WELL ID
SLAT.WGS84                    54.30881 : SURFACE LATITUDE
SLON.WGS84                   -116.3532 : SURFACE LONGITUDE
~Curve Information -----------------------------------------
DEPT   .FT :   DEPTH FEET : DepthCurve
CALD   .IN                : CALIPER FROM DENSITY LOG
CALS   .IN                : CALIPER FROM SONIC LOG
DPHI_LS.V/V               : DENSITY POROSITY [M=2.71 F=1.0] FROM DENSITY LOG
DPHI_SS.V/V               : DENSITY POROSITY [M=2.65 F=1.0] FROM DENSITY LOG
DRHO   .G/C3              : DENSITY CORRECTION FROM DENSITY LOG
DT     .US/F              : DELTA TIME FROM SONIC LOG [TAKEN FROM CANA. SUBSC. LAS FILE, BELOW 6300F]
GRD    .GAPI              : GAMMA RAY FROM DENSITY LOG
GRS    .GAPI              : GAMMA RAY FROM SONIC LOG
ILD    .OHMM              : INDUCTION LOG DEEP RESISTIVITY
ILM    .OHMM              : INDUCTION LOG MEDIUM RESISTIVITY
LL8    .OHMM              : 8 INCH LATEROLOG RESISTIVITY
NPHI_LS.V/V               : NEUTRON POROSITY LIMESTONE FROM DENSITY LOG
NPHI_SS.V/V               : NEUTRON POROSITY SANDSTONE FROM DENSITY LOG
RHOB   .G/C3              : BULK DENSITY FROM DENSITY LOG
SPR    .MV                : SPONTANEOUS POTENTIAL FROM RESISTIVITY LOG
~Params ----------------------------------------------------
PD  .                     GL : PERMANENT DATUM
EPD .FT                 2851 : ELEVATION PERMANENT DATUM
LMF .                     KB : LOG MEASURED FROM
DAPD.FT                   14 : FEET ABOVE PERMANENT DATUM
DMF .                     KB : DRILLING MEASURED FROM
EKB .FT                 2875 : KELLY BUSHING
EGL .FT                 2861 : GROUND LEVEL
DATE.               12/22/76 : RUN DATE
RUN .                      1 : RUN NUMBER
DD  .FT                 9966 : DEPTH DRILLER
DL  .FT                 9964 : DEPTH LOGGER
BLI .FT                 9958 : BOTTOM LOG INTERVAL
TLI .FT                 1029 : TOP LOG INTERVAL
CBD .FT                 1030 : CASING BOTTOM DRILLER
CBL .FT                 1029 : CASING BOTTOM LOGGER
BS  .IN                 8.75 : BIT SIZE
BSD .FT                 9966 : BIT SIZE AT DEPTH
DFT .               GEL CHEM : DRILLING FLUID TYPE
DFD .                    9.3 : DRILLING FLUID DENSITY
DFV .                     70 : DRILLING FLUID VISCOSITY
DFPH.                      9 : DRILLING FLUID PH
DFL .                      9 : DRILLING FLUID LOSS
MSS .             CIRCULATED : MUD SAMPLE SOURCE
RMF .OHMM               2.16 : RESISTIVITY MUD FILTRATE SAMPLE
MFST.DEGF                 74 : MUD FILTRATE SAMPLE TEMPERATURE
RMC .OHMM               2.83 : RESISTIVITY MUD CAKE
MCST.DEGF                 68 : MUD CAKE SAMPLE TEMPERATURE
LUN .                   7772 : LOGGING UNIT NUMBER
LUL .                    EDM : LOGGING UNIT LOCATION
ENGI.                   BIGG : RECORDING ENGINEER
WITN.                  LENTZ : WITNESSED BY
CLNT.                A2DTECH : CLIENT CODE
ORIG.            2" 5" PRINT : ORIGIN OF DATA
UWI .       100162906116W500 : UNIQUE WELL ID
DICO. A2D Technologies, Inc. : DIGITIZING COMPANY
~Other -----------------------------------------------------
~ASCII -----------------------------------------------------
# ...
 5550.00000    9.71420   11.79910    -999.25    0.08480    0.01140   73.13870   59.44650   48.69700    7.82290    8.67280   19.02970    -999.25    0.42210    2.59670  -42.93000
 5600.00000    9.90150   12.30530    -999.25    0.15150    0.06300   73.42120  121.92080   77.76530   12.39100   14.15630   18.02000    -999.25    0.35810    2.30410  -20.69430
 5650.00000   10.48440   12.72800    -999.25    0.05310    0.01640   74.34010   86.21100   73.28030    9.79140   10.71810   12.62320    -999.25    0.21260    2.57020  -28.87320
 5700.00000   10.90680   13.54770    -999.25    0.10100    0.15320   78.70630   98.12120   61.06540    8.15020    9.42600   12.78190    -999.25    0.35950    2.58910  -19.99070
 5750.00000   10.34050   12.48780    -999.25    0.03380    0.06010   74.34390   93.32240   56.82740    6.47120    7.51260    9.08770    -999.25    0.25060    2.58560  -29.96160
 5800.00000   10.11760   12.41160    -999.25    0.02970    0.01950   74.03580  115.45450   70.31170    9.74610   10.51630   12.70090    -999.25    0.24380    2.60520  -12.89340
 5850.00000   10.89420   12.50200    -999.25    0.07360    0.19630   78.86420  110.87550   71.45340    3.69630    3.53420    4.74580    -999.25    0.33250    2.43340  -13.17370
 5900.00000   11.03920   13.02280    -999.25    0.05390    0.11180   83.02570   97.62770   74.50670   11.66570   13.49090   22.79040    -999.25    0.26030    2.53650  -15.00270
 5950.00000   13.60170   14.33370    -999.25    0.14870    0.17830   85.37610  103.67080   85.15750   12.13490   14.67510   32.35760    -999.25    0.35920    2.43350  -23.73360
 6000.00000    9.75380   11.65650    -999.25    0.13340    0.04400   78.30500  104.67070   31.72730   13.17480   17.31850   32.55060    -999.25    0.35870    2.35870  -74.09000
 6050.00000   10.48490   12.38240    -999.25    0.06430    0.20630   93.48430   71.07320   36.38680    9.46960   10.53810   21.62730    -999.25    0.23370    2.54750  -63.47930
 6100.00000   14.23780    -999.25    -999.25    0.23420    0.21480   84.62610  128.60110   89.07500    4.61170    4.81510    6.16310    -999.25    0.42470    2.16770  -19.16510
 6150.00000   12.52640   13.02880    -999.25    0.07060    0.26720   78.11430  117.62300   84.31720    8.57740    9.07620   12.20460    -999.25    0.26970    2.48970  -18.87590
 6200.00000   10.89120   13.42100    -999.25    0.07270    0.05010   81.41310   94.02910   72.11640   10.24000   10.80550   10.80190    -999.25    0.24640    2.58890  -24.97880
 6250.00000    9.63990   12.01590    -999.25    0.11510    0.13680   76.70840   81.96410   70.79110   12.10700   14.13720   46.14410    -999.25    0.20590    2.47810  -15.56640
 6300.00000    9.65140   11.79650    0.05320    -999.25    0.03740   80.11200   34.65560   24.48940  295.33700  201.36440  374.39060    0.07360    -999.25    2.59830  -43.82990
 6350.00000    9.95000   12.12440    0.04900    -999.25    0.05690   83.25200   99.62570   71.43960   15.82630   16.55550   22.98110    0.08830    -999.25    2.61080  -45.97310
 6400.00000    8.86300   12.36240    0.14770    -999.25    0.02000   69.64800   52.78760   38.52290    1.17930    2.11750   16.41800    0.24650    -999.25    2.42760 -151.46210
 6450.00000    8.98050   10.58110    0.06600    -999.25    0.05040   39.55200   19.16590   14.14900    8.91700   13.82730   93.82150    0.17250    -999.25    2.58060 -126.94770
 6500.00000   10.49600   12.28390    0.03490    -999.25    0.26350   58.04800   52.16730   43.60600   19.34760   23.05570   38.98240    0.07070    -999.25    2.68910  -61.76210
 6550.00000   10.10010   12.33620    0.00250    -999.25    0.01440   50.87600   55.87330   12.57830   11.59770   10.67050   26.92330    0.08030    -999.25    2.64930  -58.78750
 6600.00000   10.23640   12.19210   -0.02230    -999.25   -0.00080   55.38000   32.12340   36.10490   66.40570   75.21930  116.01280    0.00320    -999.25    2.68210  -49.87180
 6650.00000    9.75420   12.12630    0.03710    -999.25    0.07750   53.12800   12.18920    8.06730   16.00420   29.88850  169.61750    0.00560    -999.25    2.66940 -160.79360
 6700.00000    9.56390   12.04870    0.06370    -999.25    0.03940   52.08800   12.98400   12.20120   21.32820   34.09600  340.37500    0.04090    -999.25    2.61030 -184.40320
 6750.00000    9.91180   12.32280    0.01860    -999.25    0.01320   63.20800   83.29380   44.66380    8.93860   13.02410   17.00050    0.05380    -999.25    2.67470  -35.24840
 6800.00000    9.94970   12.27740    0.04350    -999.25    0.00070   64.16800   77.94830   57.37210    4.14470    4.43390    6.44850    0.16530    -999.25    2.65750  -48.80200
 6850.00000    9.84560   12.24200    0.00780    -999.25    0.01520   67.99200  114.88500   76.51120    9.17520   10.18750   12.45650    0.15670    -999.25    2.66320  -29.19990
 6900.00000   10.20880   12.28930    0.02920    -999.25   -0.00240   59.73600   42.42870   33.36220   52.99740   68.70580   99.59040    0.00830    -999.25    2.64660  -29.97660
 6950.00000   10.11870   12.25020    0.03300    -999.25    0.00540   55.24800   23.32120   15.13470  137.80930  214.11490  654.84360    0.00570    -999.25    2.64520  -50.33670
 7000.00000    9.88650   12.23620    0.05660    -999.25    0.00390   60.18400   39.33550   29.64370   53.84750   65.00100  112.06810    0.03150    -999.25    2.64050  -18.65400
 7050.00000    9.68430   12.13670    0.02520    -999.25    0.00660   45.90400   29.16620   19.90730  104.35060  130.63280  163.56370    0.00720    -999.25    2.64640  -49.84030
 7100.00000    9.68030   12.14990    0.01400    -999.25    0.01650   54.66000   25.70850   18.38760  119.39940  138.13360  149.98570    0.01580    -999.25    2.65380  -43.53850
 7150.00000    9.55560   12.13550    0.02270    -999.25    0.01970   55.66000   35.25250   28.18470  144.29530  167.68720  217.49230    0.02450    -999.25    2.68460  -30.68460
 7200.00000    9.53470   12.07930    0.04860    -999.25   -0.01260   44.59600   36.32210   24.14850   59.00930   65.05300   86.38490    0.01280    -999.25    2.64470  -19.78590
 7250.00000    9.71560   12.12010    0.02690    -999.25    0.00840   39.46800   43.54920   29.47270  294.84710  420.72350  544.68990    0.00660    -999.25    2.67790  -43.83810
 7300.00000   11.20660   12.28080    0.00520    -999.25    0.21170   44.76800   25.18080   17.04670  186.12910  470.62800  847.02370    0.00510    -999.25    2.62530  -50.83830
 7350.00000   11.85470   12.40290    0.04920    -999.25    0.23180   50.02000   18.18850   10.65010  518.71560 1506.80550  614.31460    0.00930    -999.25    2.58120  -69.82150
 7400.00000   10.22310   12.19160    0.02650    -999.25   -0.00320   42.57200   15.85390    9.51310  252.41620  273.64480  317.02560    0.00020    -999.25    2.62870 -120.85800
 7450.00000   10.43350   12.19860    0.02530    -999.25    0.03960   50.03600   22.05660   13.01250  246.75950  267.37460  306.89290   -0.00020    -999.25    2.70480  -84.96010
 7500.00000   12.20910   12.40700    0.05700    -999.25    0.17970   46.48800   22.36890    9.53600  397.03830  461.16740  535.03930   -0.00080    -999.25    2.60360 -129.48190
 7550.00000   10.54120   12.28490    0.01550    -999.25    0.00290   49.54000   10.38830    8.89630   80.85790   83.49460  104.68450    0.00510    -999.25    2.69070 -117.54340
 7600.00000    9.14340   11.87020    0.07080    -999.25    0.03980   50.67600   13.19700   12.41370   39.93450   56.87350  279.42020    0.03310    -999.25    2.60430 -149.63640
 7650.00000   11.63580   12.41670    0.21900    -999.25    0.11670   49.88800   12.67570    9.56960   25.30060   53.12210  172.55200    0.02320    -999.25    2.34240 -170.02300
 7700.00000   10.49590   12.27020   -0.00190    -999.25    0.02220   59.11200   12.03740    7.49560   38.42280   40.49230   76.51920    0.02320    -999.25    2.71070 -136.61800
 7750.00000   11.74610   12.41090    0.06630    -999.25    0.14990   49.57600   12.33090    7.88260  166.82670  189.11230  158.24470    0.00590    -999.25    2.58320 -152.29610
 7800.00000   11.78730   12.29340    0.02090    -999.25    0.12850   50.40000   11.99180    8.45120  102.13030  124.76020  114.31070    0.00170    -999.25    2.61180 -146.57520
