~Version ---------------------------------------------------
VERS. 2.0 : CWLS log ASCII Standard -VERSION 2.0
WRAP.  NO : ONE LINE PER DEPTH STEP
~Well ------------------------------------------------------
STRT.F                          1450.0 : START DEPTH
STOP.F                         11100.0 : STOP DEPTH
STEP.F                        50.00000 : STEP LENGTH
NULL.                          -999.25 : NULL VALUE
COMP. AMOCO CANADA PETROLEUM CO., LTD. : COMPANY
WELL.       AMOCO PEX TONY 10-16-64-22 : WELL
FLD .                                  : FIELD
LOC .                                  : LOCATION
CTRY.                           CANADA : COUNTRY
SRVC.           Schlumberger of Canada : SERVICE COMPANY
DATE.                      08-Apr-1978 : LOGDATE
PROV.                          Alberta : PROVINCE
UWI .                 100101606422W500 : UNIQUE WELL ID
SLAT.WGS84                    54.53914 : SURFACE LATITUDE
SLON.WGS84                   -117.2632 : SURFACE LONGITUDE
~Curve Information -----------------------------------------
DEPT   .F                 : 
GRD    .GAPI 45 310 01 00 : GAMMA RAY FROM DENSITY LOG
CALD   .IN   45 280 60 00 : CALIPER FROM DENSITY LOG
RHOB   .G/C3 45 350 01 00 : BULK DENSITY
DRHO   .G/C3 45 356 01 00 : BULK DENSITY CORRECTION
DPHI_SS.DEC  45 890 03 00 : DENSITY POROSITY SANDSTONE
NPHI_SS.DEC  42 890 03 00 : NEUTRON POROSITY SANDSTONE
GRS    .GAPI 60 310 01 00 : GAMMA RAY FROM SONIC LOG
DT     .US/F 60 500 00 00 : DELTA-T (INTERVAL TRANSIT TIME)
CALS   .IN   60 280 50 00 : CALIPER FROM SONIC LOG
NPHI_LS.DEC  42 890 01 00 : NEUTRON POROSITY LIMESTONE
DPHI_LS.DEC  45 890 10 00 : DENSITY POROSITY LIMESTONE
ILD    .OHMM 07 120 46 00 : INDUCTION DEEP RESISTIVITY
ILM    .OHMM 07 120 44 00 : INDUCTION MEDIUM RESISTIVITY
LL8    .OHMM 07 220 08 00 : LATEROLOG 8
SPR    .MV   07 010 01 00 : SPONTANEOUS POTENTIAL FROM RESISTIVITY LOG
GR     .GAPI 81 310 01 00 : GAMMA RAY
NEUT   .NAPI 35 330 01 00 : NEUTRON
~Params ----------------------------------------------------
PD  .                     GL : PERMANENT DATUM
EPD .FT               2639.4 : ELEVATION PERMANENT DATUM
LMF .                     KB : LOG MEASURED FROM
DAPD.FT                 21.4 : FEET ABOVE PERMANENT DATUM
EKB .FT               2660.8 : KELLY BUSHING
EGL .FT               2639.4 : GROUND LEVEL
DATE.               04/08/78 : RUN DATE
RUN .                      2 : RUN NUMBER
DD  .FT                11105 : DEPTH DRILLER
DL  .FT                11103 : DEPTH LOGGER
BLI .FT                11099 : BOTTOM LOG INTERVAL
TLI .FT                 6000 : TOP LOG INTERVAL
CBD .FT                 1528 : CASING BOTTOM DRILLER
CBL .FT                 1528 : CASING BOTTOM LOGGER
BS  .IN                 8.75 : BIT SIZE
BSD .FT                11105 : BIT SIZE AT DEPTH
DFT .              GEL GELEX : DRILLING FLUID TYPE
DFD .                      9 : DRILLING FLUID DENSITY
DFV .                     92 : DRILLING FLUID VISCOSITY
DFPH.                      9 : DRILLING FLUID PH
DFL .                    9.8 : DRILLING FLUID LOSS
MSS .               FLOWLINE : MUD SAMPLE SOURCE
RMS .OHMM               1.91 : RESISTIVITY MUD SAMPLE
MST .DEGF                 52 : MUD SAMPLE TEMPERATURE
RMF .OHMM               1.45 : RESISTIVITY MUD FILTRATE SAMPLE
MFST.DEGF                 60 : MUD FILTRATE SAMPLE TEMPERATURE
TCS .HRS                 2.5 : TIME CIRCULATED STOPPED
LUN .              OSU C 244 : LOGGING UNIT NUMBER
LUL .                    EDM : LOGGING UNIT LOCATION
ENGI.                   GUNN : RECORDING ENGINEER
WITN.                   WALL : WITNESSED BY
CLNT.                A2DTECH : CLIENT CODE
ORIG.            2" 5" PRINT : ORIGIN OF DATA
UWI .       100101606422W500 : UNIQUE WELL ID
DICO. A2D Technologies, Inc. : DIGITIZING COMPANY
~Other -----------------------------------------------------
~ASCII -----------------------------------------------------
# ...
 9650.00000   30.37730    8.68420    2.69720   -0.01120    -999.25    -999.25   30.04190   51.62010    9.78320    0.01020    0.00640  152.79550  148.61370  219.14790 -107.94910    -999.25    -999.25
 9700.00000   37.69060    8.70470    2.73150    0.01700    -999.25    -999.25   35.51390   53.68750    9.76860    0.02270   -0.01730   56.25360   58.96670   82.70560  -86.91970    -999.25    -999.25
 9750.00000   37.74740    8.70450    2.72570    0.01130    -999.25    -999.25   38.11220   54.35790    9.74760    0.03160   -0.01510   54.66700   56.69290   81.97900  -82.85970    -999.25    -999.25
 9800.00000   31.32180    8.65100    2.74070    0.03070    -999.25    -999.25   34.61730   54.14220    9.76610    0.02200   -0.00400   63.09770   65.48060  108.07710  -83.45210    -999.25    -999.25
 9850.00000   41.12780    8.69220    2.71610    0.00450    -999.25    -999.25   42.34530   56.41080    9.76180    0.04290   -0.00620   23.65310   25.39480   47.41350  -73.57450    -999.25    -999.25
 9900.00000   38.48410    8.69920    2.72470    0.01680    -999.25    -999.25   38.36620   57.80730    9.78810    0.05070   -0.02370   22.61510   23.77920   51.46350  -69.19510    -999.25    -999.25
 9950.00000  103.57540    9.84050    2.64650    0.20250    -999.25    -999.25   96.32950   77.02030   10.48300    0.24160    0.05170    7.16450    7.78280   12.12940  -69.45510    -999.25    -999.25
 10000.00000   69.93180    9.07670    2.67710    0.16700    -999.25    -999.25   69.78630   67.27220    9.99660    0.14720    0.03070    5.96730    6.57360    8.98890  -68.51410    -999.25    -999.25
 10050.00000  103.73850   10.67130    2.64760    0.21240    -999.25    -999.25   92.21170   76.67710   10.94370    0.24080    0.03800    4.32510    4.92400    6.55810  -66.69860    -999.25    -999.25
 10100.00000  103.96220   10.08040    2.62490    0.13870    -999.25    -999.25   95.56290   77.48010   10.53600    0.24640    0.05050    3.91560    4.31490    5.85960  -72.80490    -999.25    -999.25
 10150.00000   97.48700   10.94380    2.62970    0.19350    -999.25    -999.25   93.38810   79.74830   11.58640    0.23260    0.04300    3.75600    4.13450    5.43120  -89.24100    -999.25    -999.25
 10200.00000   75.81710    8.65410    2.71560    0.05620    -999.25    -999.25   73.95640   65.85130    9.78920    0.14510   -0.01270    8.38390    9.43800   11.92260  -84.38100    -999.25    -999.25
 10250.00000   90.13310    8.76630    2.73620    0.06860    -999.25    -999.25   89.39350   67.66870    9.81150    0.17200   -0.01340    7.30970    8.14090   11.01960  -78.34450    -999.25    -999.25
 10300.00000   82.07670    8.70510    2.71900    0.01240    -999.25    -999.25   81.29750   64.94600    9.79420    0.12720   -0.00620    9.64770   11.13400   15.78960  -67.98740    -999.25    -999.25
 10350.00000   89.14360    8.66630    2.73140    0.03620    -999.25    -999.25   87.88080   68.58060    9.71680    0.17120   -0.00430    6.89630    7.89900   10.96850  -61.67810    -999.25    -999.25
 10400.00000  108.88680    8.65880    2.72430    0.07500    -999.25    -999.25   97.71820   70.96630    9.77400    0.19550   -0.01410    6.43270    7.11480   10.12610  -60.78370    -999.25    -999.25
 10450.00000  110.42750    8.86920    2.73620    0.15440    -999.25    -999.25  101.41830   72.92550    9.73970    0.21700   -0.01000    5.68680    6.36240    8.92850  -67.53230    -999.25    -999.25
 10500.00000  126.00750    9.47020    2.67690    0.17670    -999.25    -999.25  120.19570   78.67760    9.13750    0.23380    0.00780    5.00600    5.60810    7.83970  -71.58970    -999.25    -999.25
 10550.00000  119.05220    8.54880    2.60420    0.04490    -999.25    -999.25  104.69640   74.82630    8.82660    0.16420    0.07810   42.55630   44.15980   64.70630  -49.98460    -999.25    -999.25
 10600.00000   29.63920    8.55530    2.69340    0.00430    -999.25    -999.25   33.88510   54.12700    8.90270    0.03900    0.00970   69.81720   71.50610  153.29140  -50.77010    -999.25    -999.25
 10650.00000  102.36850    8.61010    2.52270    0.00140    -999.25    -999.25  126.80990   87.37060    9.01430    0.22670    0.11560   51.54430    -999.25  247.32290  -60.24910    -999.25    -999.25
 10700.00000   45.29000    8.49550    2.70930    0.01520    -999.25    -999.25   40.96750   55.91430    8.87990    0.07040   -0.00750   70.38710   72.16210  113.52200  -41.93530    -999.25    -999.25
 10750.00000   50.58740    8.61280    2.75340    0.03840    -999.25    -999.25   45.79520   56.67810    8.91540    0.08590   -0.03080   24.24410   28.96060   37.99160  -17.02400    -999.25    -999.25
 10800.00000   27.97490    8.54910    2.71130    0.02020    -999.25    -999.25   23.86880   50.92210    8.82570    0.02130   -0.00640   78.86920  101.62490  707.79370  -27.43370    -999.25    -999.25
 10850.00000   43.45820    8.55740    2.71860    0.02210    -999.25    -999.25   41.63240   55.69690    8.87020    0.05430   -0.01030   84.44500   89.65380  113.36270  -29.95580    -999.25    -999.25
 10900.00000   24.34450    8.53510    2.75010    0.03280    -999.25    -999.25   29.08690   52.28660    8.89120    0.02450   -0.04010  274.87110    -999.25  529.36830  -43.20990    -999.25    -999.25
 10950.00000   21.04950    8.52150    2.70520    0.00510    -999.25    -999.25   24.41190   50.94950    8.16620    0.01390    0.00220  508.65190  694.88010 1246.84730  -45.95250    -999.25    -999.25
 11000.00000   31.97080    8.71570    2.70920    0.07340    -999.25    -999.25   28.86690   50.09260    8.28670    0.00920    0.00100  477.53760 1386.50900 1344.38110  -41.86110    -999.25    -999.25
 11050.00000   80.91840    8.35540    2.53740    0.07940    -999.25    -999.25   77.29990   65.97590    9.23910    0.07880    0.12320    2.26080    3.26360   14.76400 -156.15790    -999.25    -999.25
 11100.00000    -999.25    8.27870    2.62530    0.07800    -999.25    -999.25    -999.25    -999.25    9.00070    -999.25    0.06330    -999.25    -999.25    -999.25    -999.25    -999.25    -999.25
