~Version ---------------------------------------------------
VERS.      2.0 : CWLS log ASCII Standard -VERSION 2.0
WRAP.       NO : One line per depth step
CREA. 11/13/17 : LAS Creation Date
~Well ------------------------------------------------------
STRT.FT                     900.0 : START DEPTH
STOP.FT                   12300.0 : STOP DEPTH
STEP.FT                  50.00000 : STEP LENGTH
NULL.                     -999.25 : NULL VALUE
COMP.        TALISMAN ENERGY INC. : COMPANY
WELL. TRIAD C&E DEBOLT 11-11-68-3 : WELL
FLD .                          WC : FIELD
LOC .                             : LOCATION
CTRY.                      CANADA : COUNTRY
SRVC.      Schlumberger of Canada : SERVICE COMPANY
DATE.                 22-Oct-1959 : LOGDATE
PROV.                     Alberta : PROVINCE
UWI .            100111106803W600 : UNIQUE WELL ID
SLAT.WGS84          54.8741972951 : SURFACE LATITUDE
SLON.WGS84        -118.3466714855 : SURFACE LONGITUDE
~Curve Information -----------------------------------------
DEPT  .FT         : Depth Curve
CALWS .IN         : CALIPER [MCALED]
CILDED.MMHO       : CONDUCTIVITY FROM RESISTIVITY LOG
CONDWS.MMHO       : CONDUCTIVITY [1000/DRESWS]
DRESWS.OHMM       : DEEP RESISTIVITY [1000/CILDED IF 1LDED<5 ,ILDED]
GRNED .UgRa-Eq/T  : GAMMA RAY  FROM GRN LOG  [ADJ. TO RESISTIVITY]
GRWS  .GAPI       : GAMMA RAY [GRNED*16.5 TO CONVERT TO GAPI]
ILDED .OHMM       : DEEP INDUCTION FROM RESISTIVITY LOG
MCALED.IN         : CALIPER FROM MICROLOG
NEUTED.CPS        : NEUTRON FROM GRN LOG [ADJ. TO RESISTIVITY]
NEUTWS.CPS        : NEUTRON [NEUTED]
SNED  .OHMM       : SHORT NORMAL FROM RESISTIVITY LOG
SPRED .MV         : SPONTANEOUS POTENTIAL FROM RESISTIVITY LOG
SPWS  .MV         : SPONTANEOUS POTENTIAL [BASELINE 0 MV,SPRED]
SRESWS.OHMM       : SHALLOW RESISTIVITY [SNED]
~Params ----------------------------------------------------
LMF .                     KB : LOG MEASURED FROM
DMF .                     KB : DRILLING MEASURED FROM
EKB .FT                 2343 : KELLY BUSHING
DATE.               10/22/59 : RUN DATE
RUN .                      2 : RUN NUMBER
DD  .FT                12312 : DEPTH DRILLER
DL  .FT                12312 : DEPTH LOGGER
BLI .FT                12304 : BOTTOM LOG INTERVAL
TLI .FT                 7822 : TOP LOG INTERVAL
BS  .IN                    9 : BIT SIZE
BSD .FT                12312 : BIT SIZE AT DEPTH
DFT .              LIME BASE : DRILLING FLUID TYPE
DFD .                     10 : DRILLING FLUID DENSITY
DFV .                    164 : DRILLING FLUID VISCOSITY
DFPH.                   12.5 : DRILLING FLUID PH
DFL .                     12 : DRILLING FLUID LOSS
RMS .OHMM               0.72 : RESISTIVITY MUD SAMPLE
MST .DEGF                 88 : MUD SAMPLE TEMPERATURE
RMF .OHMM               0.46 : RESISTIVITY MUD FILTRATE SAMPLE
MFST.DEGF                 78 : MUD FILTRATE SAMPLE TEMPERATURE
RMC .OHMM               1.49 : RESISTIVITY MUD CAKE
MCST.DEGF                 78 : MUD CAKE SAMPLE TEMPERATURE
RMB .OHMM                0.3 : RESISTIVITY MUD AT BHT
TCS .HRS                   5 : TIME CIRCULATED STOPPED
LUN .                 1573WC : LOGGING UNIT NUMBER
ENGI.              HAUSEGGER : RECORDING ENGINEER
WITN.              HENDERSON : WITNESSED BY
CLNT.                A2DTECH : CLIENT CODE
ORIG.            2" 5" PRINT : ORIGIN OF DATA
UWI .       100111106803W600 : UNIQUE WELL ID
DICO. A2D Technologies, Inc. : DIGITIZING COMPANY
~Other -----------------------------------------------------
IEL-ML-GRN LOG RAN
ALL RESISTIVITY CURVES 2" (FROM TOP TO 2477'] ON LOG IMAGE
~ASCII -----------------------------------------------------
# ...
 3350.00000   13.93380  116.32450  108.38930    9.22600    -999.25    -999.25    9.22600   13.93380    -999.25    -999.25   10.34630  -57.33270   -1.22830   10.34630
 3400.00000   12.80290  127.09570  116.19260    8.60640    -999.25    -999.25    8.60640   12.80290    -999.25    -999.25   10.04190  -57.11800   -1.16350   10.04190
 3450.00000   12.80170  112.18630  103.54330    9.65780    -999.25    -999.25    9.65780   12.80170    -999.25    -999.25   11.39880  -56.81410   -1.00950   11.39880
 3500.00000   11.13790  109.50410   99.18370   10.08230    -999.25    -999.25   10.08230   11.13790    -999.25    -999.25   12.74860  -56.73660   -1.08190   12.74860
 3550.00000   11.55730  104.33430   98.80740   10.12070    -999.25    -999.25   10.12080   11.55730    -999.25    -999.25   12.30560  -56.99660   -1.49100   12.30560
 3600.00000   11.20540   93.72600   85.29220   11.72440    -999.25    -999.25   11.72440   11.20540    -999.25    -999.25   14.70480  -57.01600   -1.66110   14.70480
 3650.00000   11.30700   84.33890   79.65140   12.55470    -999.25    -999.25   12.55470   11.30700    -999.25    -999.25   15.08590  -57.79910   -2.59410   15.08590
 3700.00000   11.66190  105.13590   99.52430   10.04780    -999.25    -999.25   10.04780   11.66190    -999.25    -999.25   13.26730  -57.13070   -2.07560   13.26730
 3750.00000   10.73960   82.33950   74.28260   13.46210    -999.25    -999.25   13.46210   10.73960    -999.25    -999.25   19.47660  -56.09340   -1.18820   19.47660
 3800.00000   11.15610  102.72460   96.14750   10.40080    -999.25    -999.25   10.39210   11.15610    -999.25    -999.25   12.33410  -56.16650   -1.41050   12.33410
 3850.00000    9.82710  101.02370   94.09020   10.62810    -999.25    -999.25   10.62810    9.82710    -999.25    -999.25   14.03260  -55.73590   -1.13050   14.03260
 3900.00000   10.05870   98.39900   90.90910   11.00000    -999.25    -999.25   11.00000   10.05870    -999.25    -999.25   13.31380  -56.32760   -1.87210   13.31380
 3950.00000   10.34720   99.80220   92.84190   10.77100    -999.25    -999.25   10.77100   10.34720    -999.25    -999.25   11.47710  -56.83380   -2.52820   11.47710
 4000.00000   10.51410   97.04320   90.33100   11.07040    -999.25    -999.25   11.07040   10.51410    -999.25    -999.25   13.38840  -60.30520   -6.14960   13.38840
 4050.00000   11.67750  130.31780  121.80750    8.21250    -999.25    -999.25    8.16210   11.67750    -999.25    -999.25    9.47980  -55.66450   -1.65800    9.47980
 4100.00000    9.58460   72.71900   66.13280   15.12110    -999.25    -999.25   15.12110    9.58460    -999.25    -999.25   18.61780  -67.24400  -13.16150   18.61780
 4150.00000   10.37110  111.32820  106.52800    9.38720    -999.25    -999.25    9.38720   10.37110    -999.25    -999.25   10.91660  -66.71060  -12.37340   10.91660
 4200.00000    9.01140   76.12850   66.49290   15.03920    -999.25    -999.25   15.03920    9.01140    -999.25    -999.25   18.57620  -67.02140  -12.42940   18.57620
 4250.00000   11.22550  125.60770  114.46890    8.73600    -999.25    -999.25    8.73600   11.22550    -999.25    -999.25    9.74470  -61.61140   -6.76470    9.74470
 4300.00000    9.55140   55.27010   57.00090   17.56300    -999.25    -999.25   17.36840    9.55140    -999.25    -999.25   19.13970  -68.54090  -13.44080   19.13970
 4350.00000   11.08520   80.36670   76.66420   13.04390    -999.25    -999.25   13.04390   11.08520    -999.25    -999.25   15.49840  -64.71870   -9.36250   15.49840
 4400.00000   11.54740   89.37690   87.66620   11.40690    -999.25    -999.25   11.40690   11.54740    -999.25    -999.25   12.34800  -61.29780   -5.68690   12.34800
 4450.00000   11.11210  108.35820  102.74640    9.73270    -999.25    -999.25    9.73270   11.11210    -999.25    -999.25   10.82250  -60.87110   -5.00550   10.82250
 4500.00000   10.92310  113.99030  106.29700    9.40760    -999.25    -999.25    9.40760   10.92310    -999.25    -999.25   10.74020  -60.96970   -4.84930   10.74020
 4550.00000    9.99530  128.01990  120.68210    8.28840    -999.25    -999.25    8.25840    9.99530    -999.25    -999.25    9.68860  -61.29860   -4.92470    9.68860
 4600.00000   10.49600  213.71390  188.30260    5.31060    -999.25    -999.25    5.31060   10.49600    -999.25    -999.25    6.47450  -60.38670   -3.75680    6.47450
 4650.00000   11.12090  224.83290  224.83290    4.44770    -999.25    -999.25    4.99800   11.12090    -999.25    -999.25    6.31970  -59.68260   -2.79800    6.31970
 4700.00000   11.24080  316.29820  316.29820    3.16160    -999.25    -999.25    3.88960   11.24080    -999.25    -999.25    4.69650  -59.69080   -2.55140    4.69650
 4750.00000   11.87440  318.79990  318.79990    3.13680    -999.25    -999.25    3.78890   11.87440    -999.25    -999.25    4.50330  -59.49600   -2.10190    4.50330
 4800.00000   10.00690  142.28210  136.21130    7.34210    -999.25    -999.25    7.40640   10.00690    -999.25    -999.25    8.35410  -59.38810   -1.74050    8.35410
 4850.00000   10.55720  152.76820  138.13870    7.23910    -999.25    -999.25    7.23910   10.55720    -999.25    -999.25    8.68120  -59.23870   -1.33510    8.68120
 4900.00000   11.17090  163.59690  153.95270    6.49550    -999.25    -999.25    6.49550   11.17090    -999.25    -999.25    7.60660  -60.63020   -2.47190    7.60660
 4950.00000   10.55610  101.85760   98.05650   10.19820    -999.25    -999.25   10.19820   10.55610    -999.25    -999.25   13.08280  -64.77820   -6.82110   13.08280
 5000.00000    8.60870   53.54150   51.60680   19.37730    -999.25    -999.25   19.37730    8.60870    -999.25    -999.25   28.17210 -129.62770  -71.94610   28.17210
 5050.00000    8.79230   58.58530   57.04420   17.53110    -999.25    -999.25   17.63260    8.79230    -999.25    -999.25   23.62980 -113.31920  -55.91170   23.62980
 5100.00000   11.41970   94.49100   86.03410   11.62330    -999.25    -999.25   11.62330   11.41970    -999.25    -999.25   14.83750  -69.01440  -11.88370   14.83750
 5150.00000   12.25870  112.60030  109.19890    9.15760    -999.25    -999.25    9.15760   12.25870    -999.25    -999.25    9.53180  -68.86110  -12.00590    9.53180
 5200.00000   10.10360   71.94480   68.22680   14.65700    -999.25    -999.25   14.65700   10.10360    -999.25    -999.25   17.12260  -71.56340  -14.98360   17.12260
 5250.00000    9.92480   54.40340   50.60400   19.76130    -999.25    -999.25   19.76130    9.92480    -999.25    -999.25   23.16420  -72.51690  -16.21260   23.16420
 5300.00000   11.39120   78.73380   68.22850   14.69800    -999.25    -999.25   13.18800   11.39120    -999.25    -999.25   35.50360  -89.61050  -33.58030   35.50360
 5350.00000    8.91500   40.77090   39.86080   25.08730    -999.25    -999.25   25.08730    8.91500    -999.25    -999.25   29.97270 -114.19810  -58.44470   29.97270
 5400.00000    8.84680   44.10600   43.97850   22.73840    -999.25    -999.25   22.73840    8.84680    -999.25    -999.25   31.33640 -105.71170  -50.23380   31.33640
 5450.00000   15.18310   65.85200   54.70730   18.27910    -999.25    -999.25   18.27910   15.18310    -999.25    -999.25   47.55420  -69.22310  -14.02060   47.55420
 5500.00000   11.27110   63.69860   62.41960   16.02060    -999.25    -999.25   16.02060   11.27110    -999.25    -999.25   19.35750  -62.12540   -7.19830   19.35750
 5550.00000   10.19280   74.80520   74.81660   13.36640    -999.25    -999.25   13.33070   10.19280    -999.25    -999.25   16.91420  -68.42900  -13.77600   16.91420
 5600.00000   11.59890   77.65150   72.53680   13.78610    -999.25    -999.25   13.78610   11.59890    -999.25    -999.25   17.41520  -59.37880   -5.00260   17.41520
 5650.00000   10.67470   70.71620   68.42610   14.61430    -999.25    -999.25   14.61430   10.67470    -999.25    -999.25   19.56010  -63.45610   -9.35540   19.56010
 5700.00000    9.89650   47.23580   47.13090   21.21750    -999.25    -999.25   21.21750    9.89650    -999.25    -999.25   28.77530 -100.21360  -46.38840   28.77530
 5750.00000    9.39490   35.34320   33.79250   29.59240    -999.25    -999.25   29.59240    9.39490    -999.25    -999.25   38.08720 -104.32150  -50.77170   38.08720
