~Version ---------------------------------------------------
VERS.      2.0 : CWLS log ASCII Standard -VERSION 2.0
WRAP.       NO : One line per depth step
CREA. 12/29/17 : LAS Creation Date
~Well ------------------------------------------------------
STRT.FT                           500.0 : START DEPTH
STOP.FT                         10300.0 : STOP DEPTH
STEP.FT                        50.00000 : STEP LENGTH
NULL.                           -999.25 : NULL VALUE
COMP.             TIDEWATER OIL COMPANY : COMPANY
WELL. TIDEWATER GOOSE RIVER 10-26-66-19 : WELL
FLD .                                WC : FIELD
LOC .                                   : LOCATION
CTRY.                            CANADA : COUNTRY
SRVC.            Schlumberger of Canada : SERVICE COMPANY
DATE.                       04-May-1959 : LOGDATE
PROV.                           Alberta : PROVINCE
UWI .                  100102606619W500 : UNIQUE WELL ID
SLAT.WGS84                     54.74347 : SURFACE LATITUDE
SLON.WGS84                    -116.7568 : SURFACE LONGITUDE
~Curve Information -----------------------------------------
DEPT  .FT         : Depth Curve
CALWS .IN         : CALIPER [MCALED]
CILDED.MMHO       : CONDUCTIVITY FROM RESISTIVITY LOG
CONDWS.MMHO       : CONDUCTIVITY [1000/DRESWS]
DRESWS.OHMM       : DEEP RESISTIVITY [1000/CILDED IF ILDED < 4, ILDED]
GRNED .UgRa-Eq/T  : GAMMA RAY NEUTRON FROM GRN LOG
GRWS  .GAPI       : GAMMA RAY [GRNED * 16.5 TO CONVERTED TO GAPI]
ILDED .OHMM       : INDUCTION DEEP FROM RESISTIVITY LOG
LLED  .OHMM       : LATEROLOG FROM RESISTIVITY LOG
MCALED.IN         : CALIPER FROM MICROLOG
NEUTED.CPS        : NEUTRON FROM GRN LOG
NEUTWS.CPS        : NEUTRON [NEUTED]
SNED  .OHMM       : SHORT NORMAL FROM RESISTIVITY LOG
SPRED .MV         : SPONTANEOUS POTENTIAL FROM RESISTIVITY LOG
SPWS  .MV         : SPONTANEOUS POTENTIAL [BASELINE 0 MV, SPRED]
SRESWS.OHMM       : SHALLOW RESISTIVITY [SNED]
~Params ----------------------------------------------------
LMF .                     KB : LOG MEASURED FROM
DMF .                     KB : DRILLING MEASURED FROM
EKB .FT                 2543 : KELLY BUSHING
DATE.               05/04/59 : RUN DATE
RUN .                      1 : RUN NUMBER
DD  .FT                10334 : DEPTH DRILLER
DL  .FT                10328 : DEPTH LOGGER
BLI .FT                10323 : BOTTOM LOG INTERVAL
TLI .FT                 1012 : TOP LOG INTERVAL
CBD .FT                 1012 : CASING BOTTOM DRILLER
CBL .FT                 1012 : CASING BOTTOM LOGGER
BS  .IN                 8.75 : BIT SIZE
BSD .FT                10334 : BIT SIZE AT DEPTH
DFT .                    GEL : DRILLING FLUID TYPE
DFD .                   10.6 : DRILLING FLUID DENSITY
DFV .                     95 : DRILLING FLUID VISCOSITY
DFPH.                     10 : DRILLING FLUID PH
DFL .                      6 : DRILLING FLUID LOSS
RMS .OHMM                2.1 : RESISTIVITY MUD SAMPLE
MST .DEGF                 67 : MUD SAMPLE TEMPERATURE
RMF .OHMM                1.9 : RESISTIVITY MUD FILTRATE SAMPLE
MFST.DEGF                 60 : MUD FILTRATE SAMPLE TEMPERATURE
RMC .OHMM                3.0 : RESISTIVITY MUD CAKE
MCST.DEGF                 65 : MUD CAKE SAMPLE TEMPERATURE
RMB .OHMM               0.73 : RESISTIVITY MUD AT BHT
TCS .HRS                   4 : TIME CIRCULATED STOPPED
LUN .                   2781 : LOGGING UNIT NUMBER
LUL .                    SKW : LOGGING UNIT LOCATION
ENGI.                SPENCER : RECORDING ENGINEER
WITN.                 RENNIE : WITNESSED BY
CLNT.                A2DTECH : CLIENT CODE
ORIG.            2" 5" PRINT : ORIGIN OF DATA
UWI .       100102606619W500 : UNIQUE WELL ID
DICO. A2D Technologies, Inc. : DIGITIZING COMPANY
~Other -----------------------------------------------------
IEL-GRN-ML-LL LOG RAN
~ASCII -----------------------------------------------------
# ...
 5100.00000    9.38660  127.32240   95.28440   10.49490    3.47490   56.98840   10.49490    9.55790    9.38660  221.12550  221.12550   20.23850 -124.40730   -5.59270   20.23850
 5150.00000    8.78890   89.12540   86.56430   11.55210    2.00510   32.88360   11.55210   18.24000    8.78890  201.98180  201.98180   20.83280 -162.50100  -44.32730   20.83280
 5200.00000   14.81200  335.33610  335.33610    2.98210    2.66500   43.70600    2.78550    5.03840   14.81200  140.27340  140.27340    4.66560 -122.93900   -5.41040    4.66560
 5250.00000   15.56720  295.76570  295.76570    3.38110    4.08870   67.05470    3.33460    4.66890   15.56720  142.07700  142.07700    5.24940 -118.74960   -2.74010    5.24940
 5300.00000   15.62770  279.78790  279.78790    3.57410    3.57550   58.63820    3.79210    4.35190   15.62770  136.85010  136.85010    6.28910 -119.10080   -5.00370    6.28910
 5350.00000   11.63200   97.09860   74.67930   13.39060    6.84760  112.30060   13.39060   16.27340   11.63200  153.61730  153.61730   26.94360 -113.74700   -1.62070   26.94360
 5400.00000    8.86660   10.00530   10.78820   92.69390   11.53580  189.18710   92.69390  181.46680    8.86660  216.68460  216.68460   98.33400 -124.94560  -29.88840   98.33400
 5450.00000    8.82960  158.88990  149.42770    6.69220    4.86910   79.85320    6.69220   10.14140    8.82960  208.29610  208.29610   12.82120  -38.02140   -5.51750   12.82120
 5500.00000    8.38750   87.22690   89.85050   11.12960    3.39030   55.60090   11.12960   25.28480    8.38750  208.29290  208.29290   24.11570  -61.56550  -31.66860   24.11570
 5550.00000    8.26080   81.22810   79.70220   12.54670    3.07690   50.46120   12.54670   24.52760    8.26080  209.15670  209.15670   26.46340  -86.63100  -55.38100   26.46340
 5600.00000    9.16800  192.46600  191.90910    5.21080    3.59760   59.00060    5.21080   10.32770    9.16800  196.50250  196.50250   12.03500  -71.36190  -38.32800   12.03500
 5650.00000    8.11750   48.56030   52.45270   19.06480    2.38460   39.10740   19.06480  116.36970    8.11750  228.85350  228.85350   57.96210 -129.13730  -94.33100   57.96210
 5700.00000    8.77190   30.58930   33.26430   30.06230    1.27100   20.84440   30.06230   96.28680    8.77190  218.24200  218.24200   38.31370  -85.08600  -48.49570   38.31370
 5750.00000    8.10070  140.51820  113.99650    8.77220    1.62130   26.58930    8.77220   15.34060    8.10070  340.18240  340.18240   40.70230 -130.29260  -91.93000   40.70230
 5800.00000    8.15070  191.12720  209.21380    4.77980    1.79220   29.39210    4.77980  996.56640    8.15070  193.03580  193.03580   22.40020 -124.10750  -83.97250   22.40020
 5850.00000    8.99640   27.63950   28.20830   35.45050    0.81710   13.40040   35.45050  388.58150    8.99640  330.74580  330.74580   46.88350  -35.01850   -7.36540   46.88350
 5900.00000    8.91530   32.20730   34.41760   29.05490    3.54610   58.15600   29.05490  711.41610    8.91530  286.13160  286.13160   35.10490  -11.83920   -3.30440   35.10490
 5950.00000    8.92800   75.25420   72.03210   13.88270    2.01600   33.06240   13.88270   57.11600    8.92800  325.78660  325.78660   28.83870  -66.91110  -57.83520   28.83870
 6000.00000    8.90930   62.07090   54.81520   18.24310    1.60570   26.33350   18.24310   48.29590    8.90930  280.85960  280.85960   32.53040  -83.54400  -73.93050   32.53040
 6050.00000    8.78000   30.61650   33.72100   29.65510    1.63300   26.78120   29.65510   49.04320    8.78000  306.91180  306.91180   36.12070  -79.58590  -69.43480   36.12070
 6100.00000    8.88440   10.61530    8.10870  123.32460    3.15290   51.70760  123.32460  143.57800    8.88440  318.06280  318.06280   84.35540  -41.89890  -30.77670   84.35540
 6150.00000    9.13080    8.61420    9.62540  103.89150    1.04830   17.19210  103.89150  138.40230    9.13080  280.54930  280.54930   73.93450  -85.26880  -67.07350   73.93450
 6200.00000    8.91390   11.02920   10.67210   93.70220    0.91640   15.02900   93.70220  205.96470    8.91390  300.05320  300.05320   97.12660 -104.86040  -79.54550   97.12660
 6250.00000    8.88600    2.08610    2.37300  421.40590    1.46890   24.09000  421.40590  624.00430    8.88600  361.05040  361.05040  117.02680 -127.28540  -94.89740  117.02680
 6300.00000    9.14100  186.20630  190.13210    5.25950    4.04410   66.32320    5.25950   12.18510    9.14100  211.20750  211.20750    9.26320  -82.42070  -50.10380    9.26320
 6350.00000    9.15250  129.35480  137.25330    7.28580    3.53180   57.92150    7.28580    8.07280    9.15250  188.57250  188.57250   11.92450  -78.10700  -55.74950   11.92450
 6400.00000    9.08890   11.31000   12.87680   77.65920    3.06380   50.24630   77.65920   61.27890    9.08890  372.22290  372.22290   50.00900  -61.48330  -49.02020   50.00900
 6450.00000    8.92090   43.49300   41.35460   24.18110    1.65750   27.18300   24.18110   37.51280    8.92090  259.48180  259.48180   35.41410   -7.55300   -4.91380   35.41410
 6500.00000    9.02320    4.49580    4.44260  225.09090    1.98650   32.57860  225.09090  394.45890    9.02320  358.08530  358.08530  103.33060   -6.39820  -11.48310  103.33060
 6550.00000    8.93640   17.78210   18.71320   53.43810    1.54050   25.26420   53.43810  126.97170    8.93640  343.53370  343.53370   63.27610  -68.70130  -73.90570   63.27610
 6600.00000    9.29360   87.42060   68.59370   14.57860    1.60510   26.32360   14.57860   12.71150    9.29360  294.94150  294.94150   29.62850  -54.47530  -59.80010   29.62850
 6650.00000    8.93820    9.15320    9.79540  102.08920    1.59090   26.09080  102.08920  150.38190    8.93820  321.74720  321.74720   81.76290  -69.13230  -74.57680   81.76290
 6700.00000    8.93300   22.11120   22.26760   44.90820    2.95850   48.51940   44.90820   58.82060    8.93300  282.48330  282.48330   44.94410  -57.70150  -63.26640   44.94410
 6750.00000    8.83110   12.09060   11.89670   84.05670    1.93300   31.70120   84.05670  104.23530    8.83110  299.42200  299.42200   65.83800  -57.57780  -63.26230   65.83800
 6800.00000    8.84250   14.88170   14.08670   70.98900    1.75280   28.74590   70.98900  105.31230    8.84250  280.48730  280.48730   65.58190  -58.20260  -64.00670   65.58190
 6850.00000    8.82880   13.74800   12.82160   77.99320    1.91390   31.38800   77.99320  122.41950    8.82880  290.05450  290.05450   73.67710  -67.88680  -73.81120   73.67710
 6900.00000    8.81230    7.71290    7.81190  128.00960    1.19500   19.59800  128.00960  441.84660    8.81230  315.50080  315.50080  121.95190 -117.65110 -123.69510  121.95190
 6950.00000    9.59640   89.22250   93.56290   10.68800    3.91670   64.23390   10.68800   52.32930    9.59640  163.18030  163.18030   24.48930 -142.47810 -148.64250   24.48930
 7000.00000    8.78770    4.56200    5.56350  179.74440    1.32540   21.73660  179.74440   63.71990    8.78770  341.22350  341.22350  124.71430 -176.74590 -183.03000  124.71430
 7050.00000    8.82040    4.96050    6.11300  163.58470    0.98520   16.15730  163.58470   39.63300    8.82040  332.90170  332.90170  124.33780 -192.82410 -199.22780  124.33780
 7100.00000    8.75060    9.55490   10.15380   98.48530    1.06040   17.39060   98.48530   22.52420    8.75060  324.32480  324.32480  100.50310 -195.92490 -202.44900  100.50310
 7150.00000    8.74920   11.79890   10.02750   99.72620    1.12680   18.47950   99.72620   29.72280    8.74920  337.87480  337.87480  110.02900 -245.66610 -252.30970  110.02900
 7200.00000    8.74060    6.80760    5.40920  184.86990    1.23110   20.19000  184.86990   39.89980    8.74060  347.19770  347.19770  131.14270 -244.24470 -251.00870  131.14270
 7250.00000    8.96840   12.20720   10.60460   94.29910    0.88640   14.53700   94.29910   37.87310    8.96840  406.06960  406.06960  106.58400 -288.13750 -295.02110  106.58400
 7300.00000    9.45580    9.52180    7.56930  132.11290    0.92110   15.10600  132.11290   32.41770    9.45580  406.23250  406.23250  112.02340 -269.11600 -276.11930  112.02340
 7350.00000    9.37380    4.53760    3.95590  252.78610    1.19960   19.67340  252.78610   38.68060    9.37380  396.81520  396.81520  112.13860 -234.93870 -242.06240  112.13860
