~Version ---------------------------------------------------
VERS.      2.0 : CWLS log ASCII Standard -VERSION 2.0
WRAP.       NO : One line per depth step
CREA. 12/01/17 : LAS Creation Date
~Well ------------------------------------------------------
STRT.FT                           700.0 : START DEPTH
STOP.FT                          9400.0 : STOP DEPTH
STEP.FT                        50.00000 : STEP LENGTH
NULL.                           -999.25 : NULL VALUE
COMP.         ATLANTIC REFINING COMPANY : COMPANY
WELL. ATLANTIC BASELINE LAKE 6-29-59-13 : WELL
FLD .                                   : FIELD
LOC .                                   : LOCATION
CTRY.                            CANADA : COUNTRY
SRVC.            Schlumberger of Canada : SERVICE COMPANY
DATE.                       11-Jan-1962 : LOGDATE
PROV.                           Alberta : PROVINCE
UWI .                  100062905913W500 : UNIQUE WELL ID
SLAT.WGS84                     54.12799 : SURFACE LATITUDE
SLON.WGS84                    -115.9169 : SURFACE LONGITUDE
~Curve Information -----------------------------------------
DEPT  .FT         : Depth Curve
CALSED.IN         : CALIPER FROM SONIC LOG
CALWS .IN         : CALIPER [CALSED]
CILDED.MMHO       : INDUCTION DEEP CONDUCTIVITY FROM RESISTIVITY LOG
CONDWS.MMHO       : CONDUCTIVITY [1000/DRESWS]
DRESWS.OHMM       : DEEP RESISTIVITY [ CALC. FROM 1000/CILDED, IF ILDED<2, ILDED]
DT1ED .US/F       : DELTA TIME SPACING 3' PICKUP SPAN 1' FROM SONIC LOG
DTED  .US/F       : DELTA TIME SPACING 3' PICKUP SPAN 3' FROM SONIC LOG
DTWS  .US/F       : COMPRESTIONAL SONIC [DTED]
GRSED .UgRa-Eq/T  : GAMMA RAY FROM SONIC LOG
GRWS  .GAPI       : GAMMA RAY [GRSED*16.5]
ILDED .OHMM       : INDUCTION DEEP RESISTIVITY FROM RESISTIVITY LOG
SNED  .OHMM       : SHORT NORMAL RESISTIVITY FROM RESISTIVITY LOG
SPRED .MV         : SPONTANEOUS POTENTIAL FROM RESISTIVITY LOG
SPWS  .MV         : SPONTANEOUS POTENTIAL [BASELINE 0 MV, SPRED]
SRESWS.OHMM       : SHALLOW RESISTIVITY [SNED]
~Params ----------------------------------------------------
PD  .                     GL : PERMANENT DATUM
EPD .FT                 2681 : ELEVATION PERMANENT DATUM
LMF .                     KB : LOG MEASURED FROM
DAPD.FT                   13 : FEET ABOVE PERMANENT DATUM
EKB .FT                 2694 : KELLY BUSHING
EGL .FT                 2681 : GROUND LEVEL
DATE.               01/11/62 : RUN DATE
RUN .                      2 : RUN NUMBER
DD  .FT                 9422 : DEPTH DRILLER
DL  .FT                 9407 : DEPTH LOGGER
BLI .FT                 9406 : BOTTOM LOG INTERVAL
TLI .FT                 8800 : TOP LOG INTERVAL
CBD .FT                  978 : CASING BOTTOM DRILLER
BS  .IN                 8.75 : BIT SIZE
BSD .FT                 9422 : BIT SIZE AT DEPTH
DFT .           GEL OIL EMUL : DRILLING FLUID TYPE
DFD .                    9.3 : DRILLING FLUID DENSITY
DFV .                     90 : DRILLING FLUID VISCOSITY
DFPH.                    7.6 : DRILLING FLUID PH
DFL .                      7 : DRILLING FLUID LOSS
RMS .OHMM                2.5 : RESISTIVITY MUD SAMPLE
MST .DEGF                 70 : MUD SAMPLE TEMPERATURE
RMF .OHMM                1.5 : RESISTIVITY MUD FILTRATE SAMPLE
MFST.DEGF                 74 : MUD FILTRATE SAMPLE TEMPERATURE
RMC .OHMM                1.8 : RESISTIVITY MUD CAKE
MCST.DEGF                 74 : MUD CAKE SAMPLE TEMPERATURE
RMB .OHMM                1.0 : RESISTIVITY MUD AT BHT
TCS .HRS                   2 : TIME CIRCULATED STOPPED
LUN .                   1576 : LOGGING UNIT NUMBER
LUL .                     DV : LOGGING UNIT LOCATION
ENGI.                NORQUAY : RECORDING ENGINEER
WITN.                WALTERS : WITNESSED BY
CLNT.                A2DTECH : CLIENT CODE
ORIG.            2" 5" PRINT : ORIGIN OF DATA
UWI .       100062905913W500 : UNIQUE WELL ID
DICO. A2D Technologies, Inc. : DIGITIZING COMPANY
~Other -----------------------------------------------------
IEL-SONIC LOGS RUN
~ASCII -----------------------------------------------------
  700.00000    -999.25    -999.25    -999.25    -999.25    -999.25    -999.25    -999.25    -999.25    3.47990   57.41830    -999.25    -999.25    -999.25    -999.25    -999.25
  750.00000    -999.25    -999.25    -999.25    -999.25    -999.25    -999.25    -999.25    -999.25    3.14410   51.87760    -999.25    -999.25    -999.25    -999.25    -999.25
  800.00000    -999.25    -999.25    -999.25    -999.25    -999.25    -999.25    -999.25    -999.25    3.31070   54.62660    -999.25    -999.25    -999.25    -999.25    -999.25
  850.00000    -999.25    -999.25    -999.25    -999.25    -999.25    -999.25    -999.25    -999.25    3.30490   54.53090    -999.25    -999.25    -999.25    -999.25    -999.25
  900.00000    -999.25    -999.25    -999.25    -999.25    -999.25    -999.25    -999.25    -999.25    2.95870   48.81850    -999.25    -999.25    -999.25    -999.25    -999.25
  950.00000    -999.25    -999.25    -999.25    -999.25    -999.25    -999.25    -999.25    -999.25    3.51350   57.97270    -999.25    -999.25    -999.25    -999.25    -999.25
 1000.00000    9.88700    9.88700   63.88170   54.84620   18.23280    -999.25  110.42670  110.42670    3.43920   56.74680   18.23280   14.68280 -107.10050  -18.67050   14.68280
 1050.00000   10.14540   10.14540   98.00070   95.06250   10.51940    -999.25  109.28020  109.28020    3.67410   60.62270   10.51940   10.96300  -95.61490   -6.39890   10.96300
 1100.00000    9.92540    9.92540  230.34100  268.84610    3.71960    -999.25  134.05310  134.05310    6.01790   99.29530    3.71960    5.65230  -91.27900   -2.23680    5.65230
 1150.00000   10.47900   10.47900  217.41630  265.97870    3.75970    -999.25  111.82810  111.82810    5.56880   91.88520    3.75970    4.14680  -90.68810   -2.43330    4.14680
 1200.00000    9.98260    9.98260   89.17920   81.72980   12.23690    -999.25  105.37360  105.37360    3.80620   62.80310   12.23690   12.37550  -96.19160   -8.72820   12.37550
 1250.00000   10.45720   10.45720  439.18960  733.12180    1.36400    -999.25    -999.25    -999.25    5.69550   93.97580    1.47060    3.19960  -89.29070   -2.72430    3.19960
 1300.00000   10.02410   10.02410  183.41370  214.60610    4.65970    -999.25    -999.25    -999.25    6.24720  103.07880    4.65970    5.15870  -86.77630   -2.25990    5.15870
 1350.00000   10.17090   10.17090  199.66070  228.45650    4.37720    -999.25  110.33140  110.33140    4.65570   76.81910    4.37720    4.32540  -87.91280   -5.44640    4.32540
 1400.00000   10.18490   10.18490  314.69670  414.59370    2.41200    -999.25  117.50830  117.50830    4.53410   74.81260    2.41200    3.46540  -82.88410   -2.46770    3.46540
 1450.00000    9.74770    9.74770  131.34990  142.29280    7.05740    -999.25  105.73170  105.73170    3.99910   65.98520    7.05740    7.23070  -83.94580   -5.01520    7.23070
 1500.00000   10.39130   10.39130  203.77530  244.79800    4.08500    -999.25  116.36460  116.36460    5.44740   89.88210    4.08500    5.76820  -82.67270   -4.55280    5.76820
 1550.00000   11.51660   11.51660  217.38150  261.74580    3.82050    -999.25  124.12930  124.12930    4.24740   70.08210    3.82050    4.34060  -84.20050   -6.72210    4.34060
 1600.00000   11.31380   11.31380  368.25250  444.56440    2.24940    -999.25  127.24720  127.24720    5.49960   90.74340    2.07390    2.89070  -82.38730   -5.53730    2.89070
 1650.00000   11.72210   11.72210  231.95060  289.88870    3.44960    -999.25  116.24830  116.24830    5.08530   83.90740    3.44960    4.47250  -82.93700   -6.65990    4.47250
 1700.00000   10.65920   10.65920  177.16100  202.90010    4.92860    -999.25   99.96040   99.96040    5.34630   88.21400    4.92860    6.02120  -80.96050   -5.25900    6.02120
 1750.00000   11.84570   11.84570  241.59280  293.63400    3.40560    -999.25  111.82490  111.82490    6.02950   99.48680    3.40560    4.20100  -81.20900   -6.07750    4.20100
 1800.00000    9.81370    9.81370  295.96020  356.62070    2.80410    -999.25   92.29560   92.29560    4.89540   80.77410    2.80410    3.45610  -77.21650   -2.65780    3.45610
 1850.00000    6.59150    6.59150  295.26230  384.49710    2.60080    -999.25  110.76070  110.76070    5.16210   85.17470    2.60080    3.77430  -78.50080   -4.51490    3.77430
 1900.00000    9.03970    9.03970  263.70750  319.28480    3.13200    -999.25  109.03190  109.03190    5.36330   88.49450    3.13200    4.09970  -76.42240   -3.00930    4.09970
 1950.00000    9.00430    9.00430  273.21640  364.74930    2.74630    -999.25  108.19310  108.19310    5.55300   91.62450    2.74630    4.06030  -75.65130   -2.81380    4.06030
 2000.00000   10.98850   10.98850  264.24850  355.18930    2.81540    -999.25  107.72320  107.72320    4.36590   72.03740    2.81540    4.10700  -75.16920   -3.01130    4.10700
 2050.00000    9.49050    9.49050  186.34090  184.23330    5.42790    -999.25   90.31460   90.31460    4.71640   77.82060    5.42790    5.55030  -71.99260   -1.32080    5.55030
 2100.00000   10.10700   10.10700  227.46970  281.98400    3.54630    -999.25  108.53220  108.53220    4.01440   66.23760    3.54630    4.93120  -73.57390   -4.38830    4.93120
 2150.00000    8.80230    8.80230   79.33940   68.63180   14.57050    -999.25   97.81000   97.81000    4.01410   66.23270   14.57050   13.03610  -81.72660  -14.02710   13.03610
 2200.00000    9.95900    9.95900  175.96100  211.28220    4.73350    -999.25   92.85350   92.85350    5.07480   83.73420    4.73350    5.21410  -70.20270   -3.99670    5.21410
 2250.00000    8.39720    8.39720   73.84400   61.36510   16.29590    -999.25  100.87500  100.87500    3.14030   51.81490   16.29590   14.60710  -75.06440  -10.16400   14.60710
 2300.00000   10.03200   10.03200  189.69660  211.10410    4.73700    -999.25   97.33060   97.33060    4.57690   75.51890    4.73700    5.30630  -65.53780   -1.71140    5.30630
 2350.00000    9.46720    9.46720  315.60980  395.17880    2.53050    -999.25  115.06360  115.06360    4.28850   70.76020    2.53050    3.84360  -64.52440   -1.77200    3.84360
 2400.00000    8.68030    8.68030  198.20540  221.79340    4.50870    -999.25  104.18250  104.18250    3.35950   55.43180    4.50870    6.73230  -65.44970   -3.77130    6.73230
 2450.00000   10.13180   10.13180  156.99260  168.69090    5.92860    -999.25   97.25950   97.25950    4.40650   72.70640    5.92860    6.71880  -63.91730   -2.98330    6.71880
 2500.00000    9.15600    9.15600   56.66600   46.06490   21.70850    -999.25   73.78760   73.78760    2.62480   43.30920   21.70850   23.09460  -67.84570   -7.33310   23.09460
 2550.00000    9.54650    9.54650  244.66590  290.82450    3.43850    -999.25  105.49420  105.49420    4.65380   76.78770    3.43850    5.27910  -62.83160   -2.74250    5.27910
 2600.00000   10.01510   10.01510  134.33300   89.17030   11.21450    -999.25   88.51190   88.51190    3.09820   51.12030   11.21450   12.70790  -68.22840   -8.56290   12.70790
 2650.00000    9.30590    9.30590  238.06650  284.26860    3.51780    -999.25  116.42280  116.42280    4.08950   67.47670    3.51780    4.94050  -60.66940   -1.41680    4.94050
 2700.00000    8.60850    8.60850   42.59400   30.48150   32.82400    -999.25   89.61250   89.61250    2.86330   47.24450   32.82400   29.29800  -84.76270  -25.88250   29.29800
 2750.00000   10.05210   10.05210  202.64620  225.62160    4.43220    -999.25  118.76930  118.76930    4.33450   71.51930    4.43220    5.25690  -59.65980   -1.14810    5.25690
 2800.00000   12.28140   12.28140  187.26990  223.22920    4.47970    -999.25  101.68430  101.68430    4.54500   74.99250    4.47970    5.90340  -58.78540   -0.64420    5.90340
 2850.00000   10.68440   10.68440  120.28120  120.46020    8.30150    -999.25   97.08510   97.08510    3.62970   59.89010    8.30150   10.10250  -58.56670   -0.79600   10.10250
 2900.00000   10.80750   10.80750  125.98210  117.04390    8.54380    -999.25   83.08420   83.08420    4.22190   69.66130    8.54380    9.54600  -58.68240   -1.08650    9.54600
 2950.00000    8.57020    8.57020   59.16590   46.87430   21.36460    -999.25   82.43550   82.43550    3.52820   58.21610   21.36460   23.20380  -67.10780   -9.89380   23.20380
