~Version ---------------------------------------------------
VERS.      2.0 : CWLS log ASCII Standard -VERSION 2.0
WRAP.       NO : One line per depth step
CREA. 07/13/13 : LAS Creation Date
~Well ------------------------------------------------------
STRT.M                           300.0 : START DEPTH
STOP.M                          4000.0 : STOP DEPTH
STEP.M                        50.00000 : STEP LENGTH
NULL.                          -999.25 : NULL VALUE
COMP. CHEVRON CANADA RESOURCES LIMITED : COMPANY
WELL.    CHEVRON SHELL KARR 13-20-65-2 : WELL
FLD .                                  : FIELD
LOC .                                  : LOCATION
CTRY.                           CANADA : COUNTRY
SRVC.                     Schlumberger : SERVICE COMPANY
DATE.                      28-Jul-1996 : LOGDATE
PROV.                          Alberta : PROVINCE
UWI .                 100132006502W600 : UNIQUE WELL ID
SLAT.WGS84                    54.64389 : SURFACE LATITUDE
SLON.WGS84                   -118.2702 : SURFACE LONGITUDE
~Curve Information -----------------------------------------
DEPT    .M      : DEPTH METER
AHT10ED .OHMM   : 10 INCH RESISTIVITY TWO FOOT RESOLUTION FROM PEX-AIT-RXO LOG
AHT20ED .OHMM   : 20 INCH RESISTIVITY TWO FOOT RESOLUTION FROM PEX-AIT-RXO LOG
AHT30ED .OHMM   : 30 INCH RESISTIVITY TWO FOOT RESOLUTION FROM PEX-AIT-RXO LOG
AHT60ED .OHMM   : 60 INCH RESISTIVITY TWO FOOT RESOLUTION FROM PEX-AIT-RXO LOG
AHT90ED .OHMM   : 90 INCH RESISTIVITY TWO FOOT RESOLUTION FROM PEX-AIT-RXO LOG
AHTRTED .OHMM   : ARRAY INDUCTION TWO FOOT RT FROM PEX-AIT-RXO LOG
AHTRXED .OHMM   : ARRAY INDUCTION TWO FOOT RXO FROM PEX-AIT-RXO LOG
CAL2ED  .MM     : CALIPER 2 FROM CN-LDT LOG
CALDED  .MM     : CALIPER FROM CN-LDT LOG
CALWS   .MM     : CALIPER [CALSED SPL.TO CALDED @ 3909.3M]
CONDWS  .MMHO   : CONDUCTIVITY [1000/DRESWS]
DCORWS  .KG/M3  : DENSITY CORRECTION [HDRAED SPL.TO DRHOED @ 3909.7M]
DENWS   .KG/M3  : FORMATION BULK DENSITY [CALC FROM DPOLSWS, M=2710, F=1000]
DPHILSED.V/V    : DENSITY POROSITY LIMESTONE [M=2710, F=1000] FROM CN-LDT LOG
DPHZLSED.V/V    : DENSITY POROSITY LIMESTONE [M=2710, F=1000] FROM CND LOG
DPHZSSED.V/V    : DENSITY POROSITY SANDSTONE [M=2650, F=1000] FROM CND LOG
DPOLSWS .V/V    : DENSITY POROSITY LIMESTONE [DPHZSSED CONVERTED TO LS MATRIX,M=2710 F=1000 SPL.TO DPHZLSED @ 2678.9M & DPHILSED @ 3909.6M]
DRESWS  .OHMM   : DEEP RESISTIVITY [AHT90ED SPL.TO IDPHED @ 3913.9M]
DRHOED  .KG/M3  : DENSITY CORRECTION FROM CN-LDT LOG
DT1RRED .US/M   : DELTA TIME SHEAR LOWER DIPOLE RECEIVER [FROM REPEAT] FROM DIPOLE SONIC LOG
DT2ED   .US/M   : DELTA TIME SHEAR UPPER DIPOLE FROM DIPOLE SONIC LOG
DT2RED  .US/M   : DELTA TIME SHEAR RA-UPPER DIPOLE RECEIVER DIPOLE SONIC LOG
DT4PED  .US/M   : DELTA TIME COMP - P & S FROM DIPOLE SONIC LOG
DT4SED  .US/M   : DELTA TIME SHEAR WAVE P&S MODE FROM DIPOLE SONIC LOG
DTED    .US/M   : DELTA TIME FROM SONIC LOG
DTSWS   .US/M   : SHEAR SONIC [DT4SED]
DTWS    .US/M   : COMPRESSIONAL SONIC [DTED SPL.TO DT4PED @ 3909.3M]
GRDED   .GAPI   : GAMMA RAY FROM CND LOG
GRSED   .GAPI   : GAMMA RAY FROM SONIC LOG
GRWS    .GAPI   : GAMMA RAY [GRDED]
HCALSED .MM     : HRCC CALIPER CALIBRATED FROM SONIC LOG
HDED    .MM     : HOLE DIAMETER FROM SONIC LOG
HDRAED  .KG/M3  : DENSITY CORRECTION FROM CND LOG
IDPHED  .OHMM   : DEEP INDUCTION PHASOR FROM PI LOG
IMPHED  .OHMM   : MEDIUM INDUCTION PHASORFROM PI LOG
MRESWS  .OHMM   : MEDIUM RESISTIVITY [AHT30ED SPL.TO IMPHED @ 3913.9M]
NPOLSWS .V/V    : NEUTRON POROSITY LIMESTONE [NPORSSED MATRIX (SLB) CONVERSION FOR LIMESTONE, SPL.TO NPORLSED @ 2675.1M]
NPORLSED.V/V    : NEUTRON POROSITY LIMESTONE FROM CND LOG
NPORSSED.V/V    : NEUTRON POROSITY SANDSTONE FROM CND LOG
PEFED   .B/E    : PHOTOELECTRIC FACTOR FROM CN-LDT LOG
PEFWS   .B/E    : PHOTOELECTRIC FACTOR [PEFZED SPL.TO PEFED @ 3909.7M]
PEFZED  .B/E    : PHOTOELECTRIC FACTOR FROM CND LOG
RHOBED  .KG/M3  : BULK DENSITY FROM CN-LDT LOG
RHOZED  .KG/M3  : FORMATION DENSITY FROM CND LOG
RXOZED  .OHMM   : STANDARD RESOLUTION INVADED ZONE RESISTIVITY FROM PEX-AIT-RXO LOG
SPRED   .MV     : SPONTANEOUS POTENTIAL FROM PEX-AIT-RXO LOG
SPWS    .MV     : SPONTANEOUS POTENTIAL [BASELINE 0 MV, SPRED]
SRESWS  .OHMM   : SHALLOW RESISTIVITY [AHT10ED]
TENDED  .N      : TENSION FROM CND LOG
TENSED  .N      : TENSION FROM SONIC LOG
~Params ----------------------------------------------------
PD  .                                   GL : PERMANENT DATUM
EPD .M                               850.4 : ELEVATION PERMANENT DATUM
LMF .                                   KB : LOG MEASURED FROM
DAPD.M                                 6.8 : FEET ABOVE PERMANENT DATUM
DMF .                                   KB : DRILLING MEASURED FROM
EKB .M                                 857 : KELLY BUSHING
EGL .M                               850.4 : GROUND LEVEL
DATE.                             07/28/96 : RUN DATE
RUN .                                    1 : RUN NUMBER
DD  .M                                4006 : DEPTH DRILLER
DL  .M                                4002 : DEPTH LOGGER
BLI .M                              4000.2 : BOTTOM LOG INTERVAL
TLI .M                              3909.3 : TOP LOG INTERVAL
CS  .MM                              177.8 : CASING SIZE
CBD .M                                3918 : CASING BOTTOM DRILLER
CBL .M                              3909.3 : CASING BOTTOM LOGGER
BS  .MM                                152 : BIT SIZE
BSD .M                                4006 : BIT SIZE AT DEPTH
DFT .                               ENVERT : DRILLING FLUID TYPE
DFD .                                 1610 : DRILLING FLUID DENSITY
TCS .HRS                               930 : TIME CIRCULATED STOPPED
TLAB.HRS                              1700 : TIME LOGGER AT BOTTOM
LUN .                                 2028 : LOGGING UNIT NUMBER
LUL .                        GRANDE PRAIRE : LOGGING UNIT LOCATION
ENGI.                              BAILLIE : RECORDING ENGINEER
WITN.                              LILLICO : WITNESSED BY
CLNT.                              A2DTECH : CLIENT CODE
ORIG. 6.5"/100 M 16.5"/100M 33"/100M PRINT : ORIGIN OF DATA
UWI .                     100132006502W600 : UNIQUE WELL ID
DICO.               A2D Technologies, Inc. : DIGITIZING COMPANY
~Other -----------------------------------------------------
PEX-AIT-RXO-PI-CNL-LDT-DSI-BCS LOG RUN IN COMBO
RHOZED,RHOBED DIG IN SMALL SCALE
~ASCII -----------------------------------------------------
# ...
 2550.00000   28.59500   29.11150   30.01290   31.11360   31.69610   32.37780   28.15190    -999.25    -999.25  238.26650   31.54960   -2.24280 2668.97500    -999.25    -999.25   -0.01150    0.02400   31.69610    -999.25    -999.25    -999.25    -999.25    -999.25    -999.25  199.51320    -999.25  199.51320   81.53760   81.15130   81.15130  238.26650  271.47000   -2.24280    -999.25    -999.25   30.01290    0.07380    -999.25    0.11590    -999.25    3.02750    3.02750    -999.25 2666.38940   41.70200  -28.05920  -61.41660   28.59500 17040.26950 16986.22070
 2600.00000   44.09640   46.41590   47.70670   49.05570   51.96890   55.02440   45.73950    -999.25    -999.25  236.19400   19.24230   10.31040 2636.47000    -999.25    -999.25    0.00820    0.04300   51.96890    -999.25    -999.25    -999.25    -999.25    -999.25    -999.25  198.22230    -999.25  198.22230   73.49970   75.04850   75.04850  236.19400  274.08240   10.31040    -999.25    -999.25   47.70670    0.07600    -999.25    0.11820    -999.25    2.99700    2.99700    -999.25 2635.88530   63.28440  -21.93150  -45.15120   44.09640 17267.82230 17326.16410
 2650.00000   79.03910   71.29260   92.48190  128.22690  129.62540   79.37650  135.33580    -999.25    -999.25  255.51390    7.71450   18.86650 2683.66000    -999.25    -999.25   -0.02040    0.01540  129.62540    -999.25    -999.25    -999.25    -999.25    -999.25    -999.25  197.22170    -999.25  197.22170   79.18290   79.36840   79.36840  255.51390  305.53730   18.86650    -999.25    -999.25   92.48190    0.10240    -999.25    0.14490    -999.25    3.17160    3.17160    -999.25 2686.01610  135.22850  -29.01680  -43.27720   79.03910 17519.69530 17393.94730
 2700.00000   48.75640   45.48560   42.23670   39.66410   38.12880   44.99990   36.53360    -999.25    -999.25  265.27360   26.22690    4.06260 2667.42100    -999.25    0.02490   -0.00700    0.02490   38.12880    -999.25    -999.25    -999.25    -999.25    -999.25    -999.25  219.68180    -999.25  219.68180  114.94280  115.17420  115.17420  265.27360  324.75010    4.06260    -999.25    -999.25   42.23670    0.15150    0.15150    0.21170    -999.25    3.58700    3.58700    -999.25 2663.94460   42.94540  -21.93170  -36.96620   48.75640 17141.06450 17147.14840
 2750.00000   24.50380   38.28590   70.63650  145.19820  120.92720  119.37340   23.53160    -999.25    -999.25  373.46930    8.26940  255.52760 2570.12200    -999.25    0.08180    0.03870    0.08180  120.92720    -999.25    -999.25    -999.25    -999.25    -999.25    -999.25  190.01010    -999.25  190.01010   50.96400   49.37170   49.37170  373.46930  388.44360  255.52760    -999.25    -999.25   70.63650    0.05890    0.05890    0.10610    -999.25    3.95410    3.95410    -999.25 2580.13330    5.69000  -28.28000  -44.08860   24.50380 17713.45700 17672.19920
 2800.00000  308.35640  270.73520  146.91940  108.68810   98.24780  168.01680   95.38320    -999.25    -999.25  248.37410   10.17830   35.44550 2860.82200    -999.25   -0.08820    -999.25   -0.08820   98.24780    -999.25    -999.25    -999.25    -999.25    -999.25    -999.25  159.47930    -999.25  159.47930   27.54020   27.89200   27.89200  248.37410  279.00050   35.44550    -999.25    -999.25  146.91940    0.05500    0.05500    -999.25    -999.25    3.75090    3.75090    -999.25 2854.57620   81.42900  -48.05160  -64.63430  308.35640 18241.34380 18366.95510
 2850.00000    7.59840   17.14280   71.92770  304.35530  340.34810  338.61000    4.26640    -999.25    -999.25  203.21830    2.93820   63.64010 2689.30900    -999.25    0.01210    -999.25    0.01210  340.34810    -999.25    -999.25    -999.25    -999.25    -999.25    -999.25  177.01810    -999.25  177.01810   31.85420   31.70990   31.70990  203.21830  397.65230   63.64010    -999.25    -999.25   71.92770    0.08190    0.08190    -999.25    -999.25    3.53990    3.53990    -999.25 2695.75780   64.06870  -52.05510  -69.41180    7.59840 18512.10940 18484.11520
 2900.00000    5.80140   17.25530   37.89100  150.73460  165.80290  134.73400    3.35210    -999.25    -999.25  225.03330    6.03130   -6.20580 2590.81300    -999.25    0.06970    -999.25    0.06970  165.80290    -999.25    -999.25    -999.25    -999.25    -999.25    -999.25  167.13270    -999.25  167.13270   20.61020   19.89650   19.89650  225.03330  380.64590   -6.20580    -999.25    -999.25   37.89100    0.04720    0.04720    -999.25    -999.25    4.98440    4.98440    -999.25 2597.87960   49.29560  -35.42920  -53.38710    5.80140 18447.29300 18586.85550
 2950.00000    4.30690    8.69160   13.95950   13.19910   12.30310   13.53850    2.48540    -999.25    -999.25  224.18920   81.28030  116.85020 2661.60700    -999.25    0.02830    -999.25    0.02830   12.30310    -999.25    -999.25    -999.25    -999.25    -999.25    -999.25  187.03480    -999.25  187.03480   33.25690   32.64700   32.64700  224.18920  386.20660  116.85020    -999.25    -999.25   13.95950    0.09410    0.09410    -999.25    -999.25    3.82660    3.82660    -999.25 2657.37180    7.92320  -29.73830  -48.04630    4.30690 18440.08590 18395.62300
 3000.00000   15.90280   29.30790   43.88780   46.51860   49.44920   46.41330    9.20240    -999.25    -999.25  223.94700   20.22280    6.10810 2714.95900    -999.25   -0.00290    -999.25   -0.00290   49.44920    -999.25    -999.25    -999.25    -999.25    -999.25    -999.25  181.05580    -999.25  181.05580   66.40220   60.58710   60.58710  223.94700  290.85750    6.10810    -999.25    -999.25   43.88780    0.08210    0.08210    -999.25    -999.25    4.90770    4.90770    -999.25 2711.56740   66.82000    0.86440  -17.79380   15.90280 18363.21880 18348.03910
 3050.00000    8.84520   52.13820   76.33890  185.70000  188.86150  182.57360    3.16030    -999.25    -999.25  216.98440    5.29490   10.71120 2712.56500    -999.25   -0.00150    -999.25   -0.00150  188.86150    -999.25    -999.25    -999.25    -999.25    -999.25    -999.25  165.67370    -999.25  165.67370   17.41310   17.52510   17.52510  216.98440  366.12950   10.71120    -999.25    -999.25   76.33890    0.02560    0.02560    -999.25    -999.25    3.94500    3.94500    -999.25 2705.03810  100.21980  -90.97740 -109.20810    8.84520 18372.48240 18375.82810
 3100.00000    4.60080    5.70800    5.39630    5.47960    5.58560    5.34720    4.56530    -999.25    -999.25  248.69400  179.03180   54.18590 2627.40700    -999.25    0.04830    -999.25    0.04830    5.58560    -999.25    -999.25    -999.25    -999.25    -999.25    -999.25  232.91530    -999.25  232.91530   76.59770   76.78420   76.78420  248.69400  282.10310   54.18590    -999.25    -999.25    5.39630    0.24580    0.24580    -999.25    -999.25    3.88580    3.88580    -999.25 2623.31490    6.47310   -5.13460  -22.55490    4.60080 19444.16410 19454.31450
 3150.00000   25.09960   75.77600   53.43600   29.55460   25.81650   54.84910   24.49120    -999.25    -999.25  236.17190   38.73490   38.91640 2720.77300    -999.25   -0.00630    -999.25   -0.00630   25.81650    -999.25    -999.25    -999.25    -999.25    -999.25    -999.25  180.60330    -999.25  180.60330   32.11820   32.34690   32.34690  236.17190  322.50740   38.91640    -999.25    -999.25   53.43600    0.05200    0.05200    -999.25    -999.25    5.03350    5.03350    -999.25 2704.18460   37.83050  -18.88670  -35.63810   25.09960 19153.44920 19206.24410
 3200.00000   26.86420   26.39070   25.80210   25.25400   24.83600   25.04940   26.48590    -999.25    -999.25  241.24410   40.26410  -13.28320 2712.22300    -999.25   -0.00130    -999.25   -0.00130   24.83600    -999.25    -999.25    -999.25    -999.25    -999.25    -999.25  186.38180    -999.25  186.38180   31.35940   31.74160   31.74160  241.24410  265.99030  -13.28320    -999.25    -999.25   25.80210    0.05340    0.05340    -999.25    -999.25    4.35710    4.35710    -999.25 2710.22660   38.37440  -15.05470  -37.42320   26.86420 19813.92190 19726.77540
 3250.00000   28.43400   27.55000   26.51070   26.11030   25.39090   25.23250   28.93330    -999.25    -999.25  239.59130   39.38420   16.54980 2666.05300    -999.25    0.02570    -999.25    0.02570   25.39090    -999.25    -999.25    -999.25    -999.25    -999.25    -999.25  215.45980    -999.25  215.45980   67.57890   67.87140   67.87140  239.59130  260.45300   16.54980    -999.25    -999.25   26.51070    0.10960    0.10960    -999.25    -999.25    4.35800    4.35800    -999.25 2664.06350   33.83700  -25.52600  -54.00210   28.43400 19506.75590 19617.71480
