~Version ---------------------------------------------------
VERS.      2.0 : CWLS log ASCII Standard -VERSION 2.0
WRAP.       NO : One line per depth step
CREA. 12/13/17 : LAS Creation Date
~Well ------------------------------------------------------
STRT.FT                         1100.0 : START DEPTH
STOP.FT                        16100.0 : STOP DEPTH
STEP.FT                       50.00000 : STEP LENGTH
NULL.                          -999.25 : NULL VALUE
COMP. AQUITAINE COMPANY OF CANADA LTD. : COMPANY
WELL. AQUIT ET AL OWL RIVER 1-24-45-16 : WELL
FLD .                                  : FIELD
LOC .                                  : LOCATION
CTRY.                           CANADA : COUNTRY
SRVC.                     Schlumberger : SERVICE COMPANY
DATE.                      22-May-1976 : LOGDATE
PROV.                          Alberta : PROVINCE
UWI .                 100012404516W502 : UNIQUE WELL ID
SLAT.WGS84                    52.88968 : SURFACE LATITUDE
SLON.WGS84                    -116.182 : SURFACE LONGITUDE
~Curve Information -----------------------------------------
DEPT    .FT    : Depth Curve
CALDED  .IN    : CALIPER FROM DENSITY LOG [ADJ. TO DLL LOG]
CALSED  .IN    : CALIPER FROM SONIC LOG
CALWS   .IN    : CALIPER [CALSED]
CONDWS  .MMHO  : CONDUCTIVITY [1000/DRESWS]
DCORWS  .G/C3  : DENSITY CORRECTION [DRHOED]
DENWS   .G/C3  : FORMATION BULK DENSITY [CALC. FROM DPOLSWS, M=2.71, F=1.00 ASSUMED]
DPHILSED.V/V   : DENSITY POROSITY LIMESTONE [M=2.71, F=1.00 ASSUMED] FROM DENSITY LOG
DPOLSWS .V/V   : DENSITY POROSITY LIMESTONE [DPHILSED]
DRESWS  .OHMM  : DEEP RESISTIVITY [ILDED SPL. TO LLDED @ 13065']
DRHOED  .G/C3  : DENSITY CORRECTION FROM DENSITY LOG [ADJ. TO DPHILSED/ DLL LOG]
DTED    .US/F  : DELTA TIME FROM SONIC LOG
DTWS    .US/F  : COMPRESSIONAL SONIC [DTED]
GRDED   .GAPI  : GAMMA RAY FROM DENSITY LOG [ADJ. TO DLL LOG]
GRSED   .GAPI  : GAMMA RAY FROM SONIC LOG
GRWS    .GAPI  : GAMMA RAY [GRSED]
ILDED   .OHMM  : DEEP INDUCTION RESISTIVITY FROM DIL LOG
ILMED   .OHMM  : DEEP RESISTIVITY [ILDED SPL. TO LLDED @ 13065']
LL8ED   .OHMM  : LATEROLOG 8  RESISTIVITY FROM DIL LOG
LLDED   .OHMM  : DEEP LATEROLOG RESISTIVITY  FROM DLL LOG
LLSED   .OHMM  : SHALLOW  LATEROLOG RESISTIVITY FROM DLL LOG
MRESWS  .OHMM  : MEDIUM RESISTIVITY [ILMED]
NPHILSED.V/V   : NEUTRON POROSITY LIMESTONE FROM DENSITY LOG [ADJ. TO DLL LOG]
NPOLSWS .V/V   : NEUTRON POROSITY LIMESTONE [NPHILSED]
RHOBED  .G/C3  : BULK DENSITY FROM DENSITY LOG [ADJ. TO DPHILSED/DLL LOG]
SPED    .MV    : SPONTANEOUS POTENTIAL [SPR1ED SPL. TO SPRED @ 12893']
SPR1ED  .MV    : SPONTANEOUS POTENTIAL FROM DIL LOG
SPRED   .MV    : SPONTANEOUS POTENTIAL FROM DLL LOG
SPWS    .MV    : SPONTANEOUS POTENTIAL [BASELINE 0 MV, SPED]
SRESWS  .OHMM  : SHALLOW RESISTIVITY [LL8ED SPL. TO LLSED @ 12900']
~Params ----------------------------------------------------
PD  .                     GL : PERMANENT DATUM
EPD .FT                 4186 : ELEVATION PERMANENT DATUM
LMF .                     KB : LOG MEASURED FROM
DAPD.FT                   20 : FEET ABOVE PERMANENT DATUM
EKB .FT                 4206 : KELLY BUSHING
EGL .FT                 4186 : GROUND LEVEL
DATE.               22/05/76 : RUN DATE
RUN .                      4 : RUN NUMBER
DD  .FT                16151 : DEPTH DRILLER
DL  .FT                16146 : DEPTH LOGGER
BLI .FT                16144 : BOTTOM LOG INTERVAL
TLI .FT                15300 : TOP LOG INTERVAL
CBD .FT                12900 : CASING BOTTOM DRILLER
CBL .FT                12900 : CASING BOTTOM LOGGER
BS  .IN                    6 : BIT SIZE
BSD .FT                16151 : BIT SIZE AT DEPTH
DFT .                    KCL : DRILLING FLUID TYPE
DFD .                      9 : DRILLING FLUID DENSITY
DFV .                    114 : DRILLING FLUID VISCOSITY
DFPH.                     11 : DRILLING FLUID PH
DFL .                     15 : DRILLING FLUID LOSS
TCS .HRS                11.5 : TIME CIRCULATED STOPPED
LUN .              OSU C 264 : LOGGING UNIT NUMBER
LUL .                     RD : LOGGING UNIT LOCATION
ENGI.               FIGGURES : RECORDING ENGINEER
WITN.        LABADI CZERNIAK : WITNESSED BY
CLNT.                A2DTECH : CLIENT CODE
ORIG.            2" 5" PRINT : ORIGIN OF DATA
UWI .       100012404516W502 : UNIQUE WELL ID
DICO. A2D Technologies, Inc. : DIGITIZING COMPANY
~Other -----------------------------------------------------
DIL-DLL-FDC-CNL-LCS LOG RUN
RHOB & DRHO CURVES VERIFIED FROM 2" SCALE SECTION.
LCS- RUN4: PULLED TIGHT @ 12910' & 15140'
~ASCII -----------------------------------------------------
# ...
 11100.00000    -999.25    8.38720    8.38720   87.20980    -999.25    -999.25    -999.25    -999.25   11.46660    -999.25   65.24550   65.24550    -999.25   55.77390   55.77390   11.46660   12.32110   15.14230    -999.25    -999.25   12.32110    -999.25    -999.25    -999.25  -30.38030  -60.38030    -999.25  -26.96090   15.14230
 11150.00000    -999.25    8.59100    8.59100   79.64890    -999.25    -999.25    -999.25    -999.25   12.55510    -999.25   69.38450   69.38450    -999.25   82.86910   82.86910   12.55510   15.23860   20.12060    -999.25    -999.25   15.23860    -999.25    -999.25    -999.25  -29.75730  -59.75730    -999.25  -26.53420   20.12060
 11200.00000    -999.25    8.88320    8.88320  116.49170    -999.25    -999.25    -999.25    -999.25    8.58430    -999.25   73.83600   73.83600    -999.25   50.52400   50.52400    8.58430    9.34570   10.90460    -999.25    -999.25    9.34570    -999.25    -999.25    -999.25  -29.73270  -59.73270    -999.25  -26.70790   10.90460
 11250.00000    -999.25    8.44800    8.44800   50.70630    -999.25    -999.25    -999.25    -999.25   19.72140    -999.25   70.87410   70.87410    -999.25   82.01760   82.01760   19.72140   28.31740   42.60410    -999.25    -999.25   28.31740    -999.25    -999.25    -999.25  -37.87090  -67.87090    -999.25  -35.04340   42.60410
 11300.00000    -999.25    8.42300    8.42300   35.01110    -999.25    -999.25    -999.25    -999.25   28.57200    -999.25   68.48640   68.48640    -999.25   72.30390   72.30390   28.57200   33.63920   39.61730    -999.25    -999.25   33.63920    -999.25    -999.25    -999.25  -48.55020  -78.55020    -999.25  -45.91900   39.61730
 11350.00000    -999.25    8.45950    8.45950   12.00060    -999.25    -999.25    -999.25    -999.25   83.32940    -999.25   64.94260   64.94260    -999.25   30.44650   30.44650   83.32940 1396.12990   43.10800    -999.25    -999.25 1396.12990    -999.25    -999.25    -999.25  -53.34290  -83.34290    -999.25  -50.91000   43.10800
 11400.00000    -999.25    9.28080    9.28080   75.55240    -999.25    -999.25    -999.25    -999.25   13.23730    -999.25   69.48210   69.48210    -999.25   79.22760   79.22760   13.23730   11.91070   18.56280    -999.25    -999.25   11.91070    -999.25    -999.25    -999.25  -60.28160  -90.28160    -999.25  -58.04500   18.56280
 11450.00000    -999.25    8.45940    8.45940   34.96080    -999.25    -999.25    -999.25    -999.25   28.60350    -999.25   60.97500   60.97500    -999.25   63.47400   63.47400   28.60350   51.66140   62.37580    -999.25    -999.25   51.66140    -999.25    -999.25    -999.25  -66.81420  -96.81420    -999.25  -64.77590   62.37580
 11500.00000    -999.25    8.35550    8.35550   19.37600    -999.25    -999.25    -999.25    -999.25   51.61020    -999.25   66.71370   66.71370    -999.25   40.84240   40.84240   51.61020   72.39510   61.04910    -999.25    -999.25   72.39510    -999.25    -999.25    -999.25  -51.79910  -81.79910    -999.25  -49.95810   61.04910
 11550.00000    -999.25    8.43260    8.43260    9.41230    -999.25    -999.25    -999.25    -999.25  106.25350    -999.25   62.28200   62.28200    -999.25   15.13660   15.13660  106.25350   93.10600   59.59020    -999.25    -999.25   93.10600    -999.25    -999.25    -999.25  -40.72530  -70.72530    -999.25  -39.08060   59.59020
 11600.00000    -999.25    8.36950    8.36950    4.89290    -999.25    -999.25    -999.25    -999.25  204.37660    -999.25   56.70110   56.70110    -999.25   15.51340   15.51340  204.37660  418.40200  133.14850    -999.25    -999.25  418.40200    -999.25    -999.25    -999.25  -31.71370  -61.71370    -999.25  -30.26730  133.14850
 11650.00000    -999.25    9.11260    9.11260  245.37220    -999.25    -999.25    -999.25    -999.25    4.07550    -999.25   85.64110   85.64110    -999.25   95.07410   95.07410    4.07550    5.16060    8.66820    -999.25    -999.25    5.16060    -999.25    -999.25    -999.25  -41.35480  -71.35480    -999.25  -40.10470    8.66820
 11700.00000    -999.25    8.37660    8.37660   13.29220    -999.25    -999.25    -999.25    -999.25   75.23190    -999.25   58.87170   58.87170    -999.25   24.79100   24.79100   75.23190   89.06110   53.22420    -999.25    -999.25   89.06110    -999.25    -999.25    -999.25  -33.05470  -63.05470    -999.25  -32.00290   53.22420
 11750.00000    -999.25    8.00860    8.00860    0.60280    -999.25    -999.25    -999.25    -999.25 1658.92210    -999.25   52.69400   52.69400    -999.25   15.69740   15.69740 1658.92210 1733.73490  217.88030    -999.25    -999.25 1733.73490    -999.25    -999.25    -999.25  -12.11770  -42.11770    -999.25  -11.26320  217.88030
 11800.00000    -999.25    8.22710    8.22710    0.76880    -999.25    -999.25    -999.25    -999.25 1300.85220    -999.25   54.20650   54.20650    -999.25   31.44020   31.44020 1300.85220 1516.33410  185.72100    -999.25    -999.25 1516.33410    -999.25    -999.25    -999.25  -15.34630  -45.34630    -999.25  -14.68810  185.72100
 11850.00000    -999.25    8.29550    8.29550   15.29370    -999.25    -999.25    -999.25    -999.25   65.38620    -999.25   53.29900   53.29900    -999.25   15.35080   15.35080   65.38620   88.76900   79.64280    -999.25    -999.25   88.76900    -999.25    -999.25    -999.25  -30.09280  -60.09280    -999.25  -29.63290   79.64280
 11900.00000    -999.25    7.72490    7.72490   40.39390    -999.25    -999.25    -999.25    -999.25   24.75650    -999.25   55.75820   55.75820    -999.25   14.72150   14.72150   24.75650   48.48180   38.32180    -999.25    -999.25   48.48180    -999.25    -999.25    -999.25  -41.66580  -71.66580    -999.25  -41.40210   38.32180
 11950.00000    -999.25    8.18900    8.18900    9.70610    -999.25    -999.25    -999.25    -999.25  103.02760    -999.25   50.46320   50.46320    -999.25   33.86260   33.86260  103.02760  854.74220   87.99600    -999.25    -999.25  854.74220    -999.25    -999.25    -999.25   -7.37870  -37.37870    -999.25   -7.31340   87.99600
 12000.00000    -999.25    8.48600    8.48600   11.56490    -999.25    -999.25    -999.25    -999.25   86.46870    -999.25   49.82100   49.82100    -999.25   19.28120   19.28120   86.46870   76.79560  145.10800    -999.25    -999.25   76.79560    -999.25    -999.25    -999.25   -7.28630  -37.28630    -999.25  -10.24520  145.10800
 12050.00000    -999.25    8.43550    8.43550   12.73720    -999.25    -999.25    -999.25    -999.25   78.58490    -999.25   50.76010   50.76010    -999.25   30.85620   30.85620   78.58490   72.63300  102.99690    -999.25    -999.25   72.63300    -999.25    -999.25    -999.25   -0.40590  -30.40590    -999.25   -6.55340  102.99690
 12100.00000    -999.25    8.55440    8.55440    1.31610    -999.25    -999.25    -999.25    -999.25  759.81230    -999.25   52.45120   52.45120    -999.25   14.62780   14.62780  759.81230   86.22030  243.32770    -999.25    -999.25   86.22030    -999.25    -999.25    -999.25   -2.39210  -32.39210    -999.25  -11.76030  243.32770
 12150.00000    -999.25    8.40330    8.40330   42.80500    -999.25    -999.25    -999.25    -999.25   23.43320    -999.25   50.82730   50.82730    -999.25   33.56830   33.56830   23.43320   33.68180   43.05010    -999.25    -999.25   33.68180    -999.25    -999.25    -999.25   -5.86080  -35.86080    -999.25  -16.97920   43.05010
 12200.00000    -999.25    8.41890    8.41890    0.63440    -999.25    -999.25    -999.25    -999.25 1576.26320    -999.25   49.68570   49.68570    -999.25   16.51990   16.51990 1576.26320 1379.34750  123.69770    -999.25    -999.25 1379.34750    -999.25    -999.25    -999.25  -38.57930  -68.57930    -999.25  -49.25830  123.69770
 12250.00000    -999.25    8.95330    8.95330    1.16770    -999.25    -999.25    -999.25    -999.25  856.40170    -999.25   51.03030   51.03030    -999.25   11.70590   11.70590  856.40170  135.08170  114.84790    -999.25    -999.25  135.08170    -999.25    -999.25    -999.25  -12.32800  -42.32800    -999.25  -22.56990  114.84790
 12300.00000    -999.25    8.38990    8.38990    7.92540    -999.25    -999.25    -999.25    -999.25  126.18370    -999.25   49.58250   49.58250    -999.25    9.97890    9.97890  126.18370 1154.80160  104.00920    -999.25    -999.25 1154.80160    -999.25    -999.25    -999.25  -39.13640  -69.13640    -999.25  -48.94340  104.00920
