~Version ---------------------------------------------------
VERS.      2.0 : CWLS log ASCII Standard -VERSION 2.0
WRAP.       NO : One line per depth step
CREA. 12/29/17 : LAS Creation Date
~Well ------------------------------------------------------
STRT.FT                   1050.0 : START DEPTH
STOP.FT                   9900.0 : STOP DEPTH
STEP.FT                 50.00000 : STEP LENGTH
NULL.                    -999.25 : NULL VALUE
COMP.     PACIFIC PETROLEUMS LTD : COMPANY
WELL. PACIFIC KAYBOB 10-25-63-18 : WELL
FLD .                     KAYBOB : FIELD
LOC .                            : LOCATION
CTRY.                     CANADA : COUNTRY
SRVC.                 Lane Wells : SERVICE COMPANY
DATE.                15-Mar-1963 : LOGDATE
PROV.                    Alberta : PROVINCE
UWI .           100102506318W500 : UNIQUE WELL ID
SLAT.WGS84              54.48159 : SURFACE LATITUDE
SLON.WGS84             -116.5805 : SURFACE LONGITUDE
~Curve Information -----------------------------------------
DEPT  .FT    : Depth Curve
CALWS .IN    : CALIPER [MCALED]
CILDED.MMHO  : CONDUCTIVITY FROM IEL LOG
CONDWS.MMHO  : CONDUCTIVITY [1000/DRESWS]
DRESWS.OHMM  : DEEP RESISTIVITY [1000/CILDED IF ILDED<4, ILDED]
DTED  .US/F  : DELTA TIME FROM SONIC LOG
DTWS  .US/F  : COMPRESSIONAL SONIC [DTED]
GRED  .GAPI  : GAMMA RAY FROM GR LOG
GRSED .GAPI  : GAMMA RAY FROM SONIC LOG
GRWS  .GAPI  : GAMMA RAY [GRSED SPL. TO GRED @ 1395'-1770']
ILDED .OHMM  : DEEP INDUCTION FROM IEL LOG
MCALED.IN    : CALIPER FROM MINILOG
SNED  .OHMM  : 16 INCH SHORT NORMAL RESISTIVITY FROM IEL LOG
SPRED .MV    : SPONTANEOUS POTENTIAL FROM IEL LOG
SPWS  .MV    : SPONTANEOUS POTENTIAL [BASELINE 0 MV, SPRED]
SRESWS.OHMM  : SHALLOW RESISTIVITY [SNED]
~Params ----------------------------------------------------
PD  .                     GL : PERMANENT DATUM
EPD .FT                 2676 : ELEVATION PERMANENT DATUM
LMF .                     KB : LOG MEASURED FROM
DAPD.FT                   16 : FEET ABOVE PERMANENT DATUM
DMF .                     KB : DRILLING MEASURED FROM
EKB .FT                 2692 : KELLY BUSHING
EGL .FT                 2676 : GROUND LEVEL
DATE.               03/15/63 : RUN DATE
RUN .                      1 : RUN NUMBER
DD  .FT                 9920 : DEPTH DRILLER
DL  .FT                 9923 : DEPTH LOGGER
BLI .FT                 9919 : BOTTOM LOG INTERVAL
TLI .FT                  992 : TOP LOG INTERVAL
CS  .IN                 10.3 : CASING SIZE
CBD .FT                  993 : CASING BOTTOM DRILLER
CBL .FT                  992 : CASING BOTTOM LOGGER
BS  .IN                 8.75 : BIT SIZE
BSD .FT                 9920 : BIT SIZE AT DEPTH
DFT .                MUD GEL : DRILLING FLUID TYPE
DFD .                    9.8 : DRILLING FLUID DENSITY
DFV .                    120 : DRILLING FLUID VISCOSITY
DFPH.                    9.5 : DRILLING FLUID PH
DFL .                    6.8 : DRILLING FLUID LOSS
MSS .                   CIRC : MUD SAMPLE SOURCE
RMS .OHMM                2.6 : RESISTIVITY MUD SAMPLE
MST .DEGF                 50 : MUD SAMPLE TEMPERATURE
RMF .OHMM                2.4 : RESISTIVITY MUD FILTRATE SAMPLE
MFST.DEGF                 44 : MUD FILTRATE SAMPLE TEMPERATURE
RMC .OHMM                1.6 : RESISTIVITY MUD CAKE
MCST.DEGF                 58 : MUD CAKE SAMPLE TEMPERATURE
MFSS.                   MEAS : MUD FILTRATE SAMPLE SOURCE
MCSS.                   MEAS : MUD CAKE SAMPLE SOURCE
RMB .OHMM              0.715 : RESISTIVITY MUD AT BHT
TCS .HRS                   5 : TIME CIRCULATED STOPPED
LUN .                   8035 : LOGGING UNIT NUMBER
LUL .                    EDM : LOGGING UNIT LOCATION
ENGI.                  BLAND : RECORDING ENGINEER
WITN.                 CHUNTA : WITNESSED BY
CLNT.                A2DTECH : CLIENT CODE
ORIG.            2" 5" PRINT : ORIGIN OF DATA
UWI .       100102506318W500 : UNIQUE WELL ID
DICO. A2D Technologies, Inc. : DIGITIZING COMPANY
~Other -----------------------------------------------------
IEL-GR-MINILOG
~ASCII -----------------------------------------------------
# ...
 3350.00000    -999.25  102.94880  109.01560    9.17300    -999.25    -999.25    -999.25    -999.25    -999.25    9.17300    -999.25    8.12810  -57.14810   -5.28530    8.12810
 3400.00000    -999.25  108.06860  116.94130    8.55130    -999.25    -999.25    -999.25    -999.25    -999.25    8.55130    -999.25    7.87980  -58.12570   -6.10360    7.87980
 3450.00000    -999.25  107.62390  113.29900    8.82620    -999.25    -999.25    -999.25    -999.25    -999.25    8.82620    -999.25    8.21440  -57.75540   -5.57290    8.21440
 3500.00000    -999.25  109.91250  110.79720    9.02550    -999.25    -999.25    -999.25    -999.25    -999.25    9.02550    -999.25    8.28570  -58.56280   -6.22100    8.28570
 3550.00000    -999.25  120.06700  119.34030    8.37940    -999.25    -999.25    -999.25    -999.25    -999.25    8.37940    -999.25    7.23750  -58.34060   -5.83950    7.23750
 3600.00000    -999.25   98.72550  104.15150    9.60140    -999.25    -999.25    -999.25    -999.25    -999.25    9.60140    -999.25    8.78030  -57.83220   -5.17070    8.78030
 3650.00000    -999.25  123.35970  123.83440    8.07530    -999.25    -999.25    -999.25    -999.25    -999.25    8.07530    -999.25    7.34540  -57.34060   -4.51980    7.34540
 3700.00000    -999.25   94.03150   98.19040   10.18430    -999.25    -999.25    -999.25    -999.25    -999.25   10.18430    -999.25    9.44510  -56.87590   -4.09970    9.44510
 3750.00000    -999.25   89.36830   96.20290   10.39470    -999.25    -999.25    -999.25    -999.25    -999.25   10.39470    -999.25   10.04110  -56.11060   -3.77410   10.04110
 3800.00000    -999.25   82.23270   92.16080   10.85060    -999.25    -999.25    -999.25    -999.25    -999.25   10.85060    -999.25    9.15100  -56.04430   -4.14750    9.15100
 3850.00000    -999.25   83.36270   93.93550   10.64560    -999.25    -999.25    -999.25    -999.25    -999.25   10.64560    -999.25    8.98670  -55.44670   -3.99240    8.98670
 3900.00000    -999.25  105.01170  113.48160    8.81200    -999.25    -999.25    -999.25    -999.25    -999.25    8.81200    -999.25    8.07120  -54.11250   -3.09790    8.07120
 3950.00000    -999.25  118.11510  119.30330    8.38200    -999.25    -999.25    -999.25    -999.25    -999.25    8.38200    -999.25    7.64910  -52.99250   -2.38770    7.64910
 4000.00000    -999.25   96.26360   97.69920   10.23550    -999.25    -999.25    -999.25    -999.25    -999.25   10.23550    -999.25    9.62610  -52.02340   -1.74470    9.62610
 4050.00000    -999.25   89.54090  100.32100    9.96800    -999.25    -999.25    -999.25    -999.25    -999.25    9.96800    -999.25   10.35600  -51.89810   -1.94560   10.35600
 4100.00000    -999.25   82.27710   89.56160   11.16550    -999.25    -999.25    -999.25    -999.25    -999.25   11.16550    -999.25   11.84810  -51.16060   -1.53640   11.84810
 4150.00000    -999.25   77.84620   87.57260   11.41910    -999.25    -999.25    -999.25    -999.25    -999.25   11.41910    -999.25   13.77350  -50.73620   -1.43820   13.77350
 4200.00000    -999.25  109.31060  117.05900    8.54270    -999.25    -999.25    -999.25    -999.25    -999.25    8.54270    -999.25    9.21100  -51.24250   -2.27280    9.21100
 4250.00000    -999.25  128.99510  124.27450    8.04670    -999.25    -999.25    -999.25    -999.25    -999.25    8.04670    -999.25    7.31870  -52.80120   -4.15760    7.31870
 4300.00000    -999.25  141.47200  136.79520    7.31020    -999.25    -999.25    -999.25    -999.25    -999.25    7.31020    -999.25    7.44330  -51.03990   -2.72250    7.44330
 4350.00000    -999.25   84.36250   88.61160   11.28520    -999.25    -999.25    -999.25    -999.25    -999.25   11.28520    -999.25   10.48700  -52.22200   -4.23290   10.48700
 4400.00000    -999.25  129.98530  123.90500    8.07070    -999.25    -999.25    -999.25    -999.25    -999.25    8.07070    -999.25    7.35970  -51.36520   -3.70230    7.35970
 4450.00000    -999.25  111.82920  116.51350    8.58270    -999.25    -999.25    -999.25    -999.25    -999.25    8.58270    -999.25    7.98440  -51.09610   -3.76150    7.98440
 4500.00000    -999.25  125.87150  122.77770    8.14480    -999.25    -999.25    -999.25    -999.25    -999.25    8.14480    -999.25    7.71960  -51.20600   -4.19750    7.71960
 4550.00000   15.67900  153.96270  143.63480    6.96210    -999.25    -999.25    -999.25    -999.25    -999.25    6.96210   15.67900    6.33480  -49.85910   -3.17680    6.33480
 4600.00000   16.00000  156.45970  155.85550    6.41620   89.25930   89.25930    -999.25  187.78680  187.78680    6.41620   16.00000    6.76560  -49.18310   -2.82910    6.76560
 4650.00000   16.00000  328.48430  328.81760    3.04120   92.02250   92.02250    -999.25  150.90500  150.90500    3.28240   16.00000    4.08120  -47.10230   -1.07450    4.08120
 4700.00000   14.60630  255.38320  232.42300    4.30250  125.57380  125.57380    -999.25  158.77340  158.77340    4.30250   14.60630    4.69220  -47.96900   -2.34490    4.69220
 4750.00000   12.59090  154.28290  143.54200    6.96660   82.48900   82.48900    -999.25  141.96960  141.96960    6.96660   12.59090    6.53240  -48.45550   -3.23350    6.53240
 4800.00000   12.82230  160.32330  143.82490    6.95290   89.15840   89.15840    -999.25  148.00980  148.00980    6.95290   12.82230    6.22780  -49.34690   -4.52700    6.22780
 4850.00000   11.01880   31.74550   45.02820   22.20830   70.20070   70.20070    -999.25   71.17530   71.17530   22.20830   11.01880   22.00480  -72.07770  -27.66260   22.00480
 4900.00000   12.46110  390.04390  378.21480    2.64400  139.43780  139.43780    -999.25  142.80260  142.80260    3.24160   12.46110    3.79160  -49.30370   -5.29220    3.79160
 4950.00000   12.47350   27.37420   35.94790   27.81800  119.27310  119.27310    -999.25   70.50170   70.50170   27.81800   12.47350   21.46110  -51.33280   -7.77250   21.46110
 5000.00000   13.06130   75.62320   84.23820   11.87110  114.79010  114.79010    -999.25  100.50280  100.50280   11.87110   13.06130   13.45940  -53.91380  -10.80180   13.45940
 5050.00000   11.82440   92.10290   97.22900   10.28500   61.33320   61.33320    -999.25  122.36080  122.36080   10.28500   11.82440   11.48550  -47.31930   -4.65560   11.48550
 5100.00000   11.08480   78.01110   89.48150   11.17550   78.56650   78.56650    -999.25  127.71680  127.71680   11.17550   11.08480   12.08450  -47.55920   -5.34670   12.08450
 5150.00000   11.30410  106.03670   98.97460   10.10360   79.59780   79.59780    -999.25  126.52160  126.52160   10.10360   11.30410    9.06390  -47.56510   -5.80090    9.06390
 5200.00000   11.43060   76.33560   84.23610   11.87140   81.80460   81.80460    -999.25  108.37810  108.37810   11.87140   11.43060   18.99920  -59.93340  -18.62040   18.99920
 5250.00000   11.35620   74.09220   78.06950   12.80910   77.51870   77.51870    -999.25  140.98380  140.98380   12.80910   11.35620   12.97160  -40.91400   -0.04930   12.97160
 5300.00000   12.64260   76.17150   85.06290   11.75600  119.01970  119.01970    -999.25  103.98460  103.98460   11.75600   12.64260   12.46880  -47.40560   -6.98910   12.46880
 5350.00000   11.15810   91.81730   96.20470   10.39450   72.52160   72.52160    -999.25  135.54640  135.54640   10.39450   11.15810   10.84380  -39.88920    0.07600   10.84380
 5400.00000   11.04000  157.25460  152.69970    6.54880   81.57210   81.57210    -999.25   92.78190   92.78190    6.54880   11.04000   12.17820  -92.53700  -53.02000   12.17820
 5450.00000   10.02510  135.21770  129.01390    7.75110   66.79280   66.79280    -999.25   87.00900   87.00900    7.75110   10.02510   18.27530  -97.82560  -58.75980   18.27530
 5500.00000   10.24150   73.47050   80.04290   12.49330   73.77370   73.77370    -999.25  127.41720  127.41720   12.49330   10.24150   13.12110  -41.55200   -2.93450   13.12110
 5550.00000   10.31660   67.84120   75.50130   13.24480   71.53260   71.53260    -999.25  132.18330  132.18330   13.24480   10.31660   14.65440  -39.96430   -1.79510   14.65440
 5600.00000   11.29040   92.32060   97.54960   10.25120   79.76760   79.76760    -999.25  137.80890  137.80890   10.25120   11.29040   10.52330  -39.91810   -2.20010   10.52330
