~Version ---------------------------------------------------
VERS.      2.0 : CWLS log ASCII Standard -VERSION 2.0
WRAP.       NO : One line per depth step
CREA. 09/27/17 : LAS Creation Date
~Well ------------------------------------------------------
STRT.FT                750.0 : START DEPTH
STOP.FT               7200.0 : STOP DEPTH
STEP.FT             50.00000 : STEP LENGTH
NULL.                -999.25 : NULL VALUE
COMP.       HUNT OIL COMPANY : COMPANY
WELL. HPC OBERLIN 8-20-38-21 : WELL
FLD .                        : FIELD
LOC .                        : LOCATION
CTRY.                 CANADA : COUNTRY
SRVC. Schlumberger of Canada : SERVICE COMPANY
DATE.            27-May-1962 : LOGDATE
PROV.                Alberta : PROVINCE
UWI .       100082003821W400 : UNIQUE WELL ID
SLAT.WGS84          52.27925 : SURFACE LATITUDE
SLON.WGS84         -112.9595 : SURFACE LONGITUDE
~Curve Information -----------------------------------------
DEPT  .FT    : Depth Curve
ACED  .US/F  : ACOUSTIC TIME FROM SONIC LOG [ADJ. TO RESISTIVITY LOG]
CALSED.IN    : CALIPER FROM SONIC LOG [ADJ. TO RESESTIVITY LOG]
CALWS .IN    : CALIPER [CALSED]
CILDED.MMHO  : CONDUCTIVITY FROM RESISTIVITY LOG
CONDWS.MMHO  : CONDUCTIVITY [1000/DRESWS]
DRESWS.OHMM  : DEEP RESISTIVITY [1000/CILDED,IF ILDED<5,ILDED]
DTWS  .US/F  : COMPRESSIONAL SONIC [ACED]
GRSED .GAPI  : GAMMA RAY FROM SONIC LOG [ADJ. TO RESISTIVITY LOG]
GRWS  .GAPI  : GAMMA RAY [GRSED]
ILDED .OHMM  : DEEP INDUCTION FROM RESISTIVITY LOG
SNED  .OHMM  : SHORT NORMAL FROM RESISTIVITY LOG
SPRED .MV    : SPONTANEOUS POTENTIAL FROM RESISTIVITY LOG
SPWS  .MV    : SPONTENEOUS POTENTIAL [BASELINE 0 MV,SPRED]
SRESWS.OHMM  : SHALLOW RESISTIVITY [SNED]
~Params ----------------------------------------------------
PD  .                     GD : PERMANENT DATUM
EPD .FT                 2640 : ELEVATION PERMANENT DATUM
LMF .                     KB : LOG MEASURED FROM
DAPD.FT                   13 : FEET ABOVE PERMANENT DATUM
DMF .                     KB : DRILLING MEASURED FROM
EKB .FT                 2652 : KELLY BUSHING
EGL .FT                 2640 : GROUND LEVEL
DATE.               05/27/62 : RUN DATE
RUN .                      1 : RUN NUMBER
DD  .FT                 7244 : DEPTH DRILLER
DL  .FT                 7239 : DEPTH LOGGER
BLI .FT                 7243 : BOTTOM LOG INTERVAL
TLI .FT                  742 : TOP LOG INTERVAL
CBD .FT                  742 : CASING BOTTOM DRILLER
CBL .FT                  740 : CASING BOTTOM LOGGER
BS  .IN                7.875 : BIT SIZE
BSD .FT                 7244 : BIT SIZE AT DEPTH
DFT .                   LIME : DRILLING FLUID TYPE
DFD .                   10.6 : DRILLING FLUID DENSITY
DFV .                     60 : DRILLING FLUID VISCOSITY
DFPH.                    8.5 : DRILLING FLUID PH
DFL .                   12.1 : DRILLING FLUID LOSS
RMS .OHMM               0.76 : RESISTIVITY MUD SAMPLE
MST .DEGF                 85 : MUD SAMPLE TEMPERATURE
RMF .OHMM                0.3 : RESISTIVITY MUD FILTRATE SAMPLE
MFST.DEGF                 74 : MUD FILTRATE SAMPLE TEMPERATURE
RMC .OHMM               0.43 : RESISTIVITY MUD CAKE
MCST.DEGF                 76 : MUD CAKE SAMPLE TEMPERATURE
TCS .HRS                 2.5 : TIME CIRCULATED STOPPED
LUN .                   3815 : LOGGING UNIT NUMBER
ENGI.               STAFFORD : RECORDING ENGINEER
WITN.                   COOK : WITNESSED BY
CLNT.                A2DTECH : CLIENT CODE
ORIG.            2" 5" PRINT : ORIGIN OF DATA
UWI .       100082003821W400 : UNIQUE WELL ID
DICO. A2D Technologies, Inc. : DIGITIZING COMPANY
~Other -----------------------------------------------------
IEL-SONIC LOG RUN
ALL CURVES VERIFIED FROM SMALL SCALE SECTION FROM TOP TO BOTTOM, 3800' TO 4700' FROM LARGE SCALE
~ASCII -----------------------------------------------------
  750.00000    -999.25    -999.25    -999.25   20.40250    -999.25    -999.25    -999.25    -999.25    -999.25    -999.25    6.44080  -73.60630   -3.67310    6.44080
  800.00000    -999.25    -999.25    -999.25  173.85790  175.27350    5.70770    -999.25    -999.25    -999.25    5.70770    8.60930  -88.73320  -18.73370    8.60930
  850.00000    -999.25    -999.25    -999.25   51.78120   53.37230   18.73630    -999.25    -999.25    -999.25   18.73630   15.19970  -89.16180  -18.87280   15.19970
  900.00000    -999.25    -999.25    -999.25  108.65230  115.27180    8.68130    -999.25    -999.25    -999.25    8.68130    8.38470  -84.54140  -13.96420    8.38470
  950.00000    -999.25    -999.25    -999.25  149.81290  163.54300    6.11460    -999.25    -999.25    -999.25    6.11460    7.09980  -78.99850   -8.13310    7.09980
 1000.00000    -999.25    -999.25    -999.25  209.17660  209.17660    4.78060    -999.25    -999.25    -999.25    4.49910    5.90480  -76.94050   -5.78710    5.90480
 1050.00000    -999.25    -999.25    -999.25  120.91400  128.18740    7.81240    -999.25    -999.25    -999.25    7.81240    6.69280  -78.88390   -7.58070    6.69280
 1100.00000    -999.25    -999.25    -999.25  215.73060  215.73060    4.63540    -999.25    -999.25    -999.25    4.61230    5.38630  -74.92980   -3.78790    5.38630
 1150.00000    -999.25    -999.25    -999.25  288.66700  288.66700    3.46430    -999.25    -999.25    -999.25    3.81550    5.21070  -77.35170   -6.37050    5.21070
 1200.00000    -999.25    -999.25    -999.25  218.47590  218.47590    4.57720    -999.25    -999.25    -999.25    4.51060    6.33120  -77.96990   -7.14930    6.33120
 1250.00000    -999.25    -999.25    -999.25  288.10800  288.10800    3.47090    -999.25    -999.25    -999.25    3.50230    4.92550  -77.10330   -6.44330    4.92550
 1300.00000    -999.25    -999.25    -999.25  241.10770  241.10770    4.15230    -999.25    -999.25    -999.25    4.17440    5.10610  -76.80100   -6.30080    5.10610
 1350.00000    -999.25    -999.25    -999.25  137.25660  138.64240    7.21280    -999.25    -999.25    -999.25    7.21280    6.23240  -76.83290   -6.49420    6.23240
 1400.00000    -999.25    -999.25    -999.25  126.67610  130.35620    7.67390    -999.25    -999.25    -999.25    7.67390    6.10670  -77.55270   -7.37450    6.10670
 1450.00000    -999.25    -999.25    -999.25  224.88160  224.88160    4.44680    -999.25    -999.25    -999.25    4.07800    4.69310  -78.56670   -8.54910    4.69310
 1500.00000    -999.25    -999.25    -999.25  406.33070  406.33070    2.46100    -999.25    -999.25    -999.25    2.80000    3.40850  -75.69190   -5.83490    3.40850
 1550.00000    -999.25    -999.25    -999.25  173.17410  188.26400    5.31330    -999.25    -999.25    -999.25    5.31330    5.87200  -74.90700   -5.20990    5.87200
 1600.00000    -999.25    -999.25    -999.25  159.50260  147.25370    6.79100    -999.25    -999.25    -999.25    6.79100    6.17120  -73.58280   -4.03310    6.17120
 1650.00000    -999.25    -999.25    -999.25  176.07810  187.61320    5.34150    -999.25    -999.25    -999.25    5.34150    6.18460  -78.29760   -8.62980    6.18460
 1700.00000    -999.25    -999.25    -999.25  182.88240  188.91450    5.29340    -999.25    -999.25    -999.25    5.29340    5.13460  -77.45500   -7.66910    5.13460
 1750.00000    -999.25    -999.25    -999.25  227.43500  227.43500    4.39690    -999.25    -999.25    -999.25    4.51810    4.83700  -79.33930   -9.43530    4.83700
 1800.00000    -999.25    -999.25    -999.25   70.19960   70.28740   14.26320    -999.25    -999.25    -999.25   14.26320    9.41150  -82.18800  -12.16650    9.41150
 1850.00000    -999.25    -999.25    -999.25  200.11380  200.11380    4.99720    -999.25    -999.25    -999.25    4.77490    5.87420  -81.13550  -10.99530    5.87420
 1900.00000    -999.25    -999.25    -999.25  130.89420  131.35310    7.61350    -999.25    -999.25    -999.25    7.61350    5.90410  -83.40690  -13.14860    5.90410
 1950.00000    -999.25    -999.25    -999.25  152.30440  165.02470    6.05970    -999.25    -999.25    -999.25    6.05970    5.77280  -82.88920  -12.51280    5.77280
 2000.00000    -999.25    -999.25    -999.25  255.74340  255.74340    3.91020    -999.25    -999.25    -999.25    3.41690    4.51220  -79.87500   -9.38050    4.51220
 2050.00000    -999.25    -999.25    -999.25  205.91800  199.72640    5.00690    -999.25    -999.25    -999.25    5.00690    5.67950  -75.50470   -4.89260    5.67950
 2100.00000    -999.25    -999.25    -999.25  183.81870  181.65960    5.50480    -999.25    -999.25    -999.25    5.50480    5.87750  -74.02100   -3.29020    5.87750
 2150.00000    -999.25    -999.25    -999.25  222.91600  222.91610    4.49190    -999.25    -999.25    -999.25    4.50840    6.34830  -73.83660   -2.97050    6.34830
 2200.00000    -999.25    -999.25    -999.25   84.53280   83.59530   11.96240    -999.25    -999.25    -999.25   11.96240    8.87420  -76.69740   -5.58000    8.87420
 2250.00000    -999.25    -999.25    -999.25  268.43060  268.43060    3.72540    -999.25    -999.25    -999.25    3.74570    4.87090  -76.04570   -4.67710    4.87090
 2300.00000    -999.25    -999.25    -999.25  270.84370  270.84370    3.69260    -999.25    -999.25    -999.25    3.99210    4.95130  -78.09230   -6.47380    4.95130
 2350.00000    -999.25    -999.25    -999.25  221.00690  221.00690    4.52470    -999.25    -999.25    -999.25    4.72500    5.42250  -78.69590   -6.82490    5.42250
 2400.00000    -999.25    -999.25    -999.25  136.56220  138.26390    7.23260    -999.25    -999.25    -999.25    7.23260    6.16700  -82.52040  -10.39820    6.16700
 2450.00000    -999.25    -999.25    -999.25  144.94270  140.36860    7.12410    -999.25    -999.25    -999.25    7.12410    6.15890  -82.42730  -10.05380    6.15890
 2500.00000    -999.25    -999.25    -999.25  102.33980   99.06880   10.09400    -999.25    -999.25    -999.25   10.09400    8.61120  -84.44470  -11.82000    8.61120
 2550.00000    -999.25    -999.25    -999.25  123.22360  130.64210    7.65450    -999.25    -999.25    -999.25    7.65450    6.62310  -83.06750  -10.19280    6.62310
 2600.00000    -999.25    -999.25    -999.25  129.33690  129.34100    7.73150    -999.25    -999.25    -999.25    7.73150    7.01300  -81.61090   -8.48380    7.01300
 2650.00000    -999.25    -999.25    -999.25  115.95730  112.27670    8.90660    -999.25    -999.25    -999.25    8.90660    7.95120  -82.63080   -9.25240    7.95120
 2700.00000    -999.25    -999.25    -999.25  147.89930  165.23460    6.05200    -999.25    -999.25    -999.25    6.05200    7.20900  -85.63950  -12.00980    7.20900
 2750.00000    -999.25    -999.25    -999.25   56.49890   62.87610   15.90430    -999.25    -999.25    -999.25   15.90430   18.21200  -88.84700  -14.96620   18.21200
 2800.00000    -999.25    -999.25    -999.25  125.80610  131.20230    7.62270    -999.25    -999.25    -999.25    7.62270    8.81930  -83.99760   -9.86680    8.81930
 2850.00000    -999.25    -999.25    -999.25  143.93140  148.39220    6.73890    -999.25    -999.25    -999.25    6.73890    8.00010  -83.75390   -9.37060    8.00010
 2900.00000    -999.25    -999.25    -999.25  143.91960  149.86040    6.67310    -999.25    -999.25    -999.25    6.67310    7.05340  -82.69990   -8.06540    7.05340
 2950.00000    -999.25    -999.25    -999.25  147.59300  143.21110    6.98270    -999.25    -999.25    -999.25    6.98270    5.91160  -79.02350   -4.13780    5.91160
 3000.00000    -999.25    -999.25    -999.25  172.07640  181.18240    5.51930    -999.25    -999.25    -999.25    5.51930    7.10390  -78.82440   -3.80380    7.10390
 3050.00000    -999.25    -999.25    -999.25  148.14730  153.89940    6.49770    -999.25    -999.25    -999.25    6.49770    7.69240  -81.48420   -6.67650    7.69240
 3100.00000    -999.25    -999.25    -999.25  120.54540  129.55380    7.71880    -999.25    -999.25    -999.25    7.71880    8.76710  -82.02780   -7.43520    8.76710
 3150.00000    -999.25    -999.25    -999.25  148.17650  157.45370    6.35140    -999.25    -999.25    -999.25    6.35140    7.66730  -82.04700   -7.66850    7.66730
