~Version ---------------------------------------------------
VERS.      2.0 : CWLS log ASCII Standard -VERSION 2.0
WRAP.       NO : One line per depth step
CREA. 12/18/17 : LAS Creation Date
~Well ------------------------------------------------------
STRT.FT                           850.0 : START DEPTH
STOP.FT                          9400.0 : STOP DEPTH
STEP.FT                        50.00000 : STEP LENGTH
NULL.                           -999.25 : NULL VALUE
COMP.  THE BRITISH-AMERICAN OIL PROD CO : COMPANY
WELL. B.A. SWEATHOUSE CREEK 14-16-68-18 : WELL
FLD .                                   : FIELD
LOC .                                   : LOCATION
CTRY.                            CANADA : COUNTRY
SRVC.                      Schlumberger : SERVICE COMPANY
DATE.                       21-Mar-1962 : LOGDATE
PROV.                           Alberta : PROVINCE
UWI .                  100141606818W500 : UNIQUE WELL ID
SLAT.WGS84                     54.89228 : SURFACE LATITUDE
SLON.WGS84                    -116.6852 : SURFACE LONGITUDE
~Curve Information -----------------------------------------
DEPT  .FT      : Depth Curve
CILDED.MMHO    : DEEP INDUCTION CONDUCTIVITY FROM RESISTIVITY LOG
CONDWS.MMHO    : CONDUCTIVITY [1000/DRESWS]
DRESWS.OHMM    : DEEP RESISTIVITY [1000/CILDED,IF ILDED<5,ILDED]
DTED  .US/F    : DELTA-T FROM SONIC LOG
DTWS  .US/F    : COMPRESSIONAL SONIC [DTED]
GRNED .MG/TON  : GAMMA RAY FROM GRN LOG [ADJ. TO RESISTIVITY LOG]
GRSED .GAPI    : GAMMA RAY FROM SONIC LOG
GRWS  .GAPI    : GAMMA RAY [GRSED SPL. TO GRNED*16.5 (GAPI) @ 9414']
ILDED .OHMM    : DEEP INDUCTION RESISTIVITY FROM RESISTIVITY LOG
NEUTED.CPS     : NEUTRON FROM GRN LOG [ADJ. TO RESISTIVITY LOG]
NEUTWS.CPS     : NEUTRON [NEUTED]
SNED  .OHMM    : 16 INCH  SHORT NORMAL FROM RESISTIVITY LOG
SPRED .MV      : SPONTANEOUS POTENTIAL FROM RESISTIVITY LOG
SPWS  .MV      : SPONTANEOUS POTENTIAL [BASELINE 0 MV,SPRED]
SRESWS.OHMM    : SHALLOW RESISTIVITY [SNED]
~Params ----------------------------------------------------
PD  .                     GL : PERMANENT DATUM
EPD .FT               2692.3 : ELEVATION PERMANENT DATUM
LMF .                     KB : LOG MEASURED FROM
DAPD.FT                 14.7 : FEET ABOVE PERMANENT DATUM
DMF .                     KB : DRILLING MEASURED FROM
EKB .FT                 2707 : KELLY BUSHING
EGL .FT               2692.3 : GROUND LEVEL
DATE.             03/21/1962 : RUN DATE
RUN .                      1 : RUN NUMBER
DD  .FT                 9428 : DEPTH DRILLER
DL  .FT                 9434 : DEPTH LOGGER
BLI .FT                 9430 : BOTTOM LOG INTERVAL
TLI .FT                  944 : TOP LOG INTERVAL
CBD .FT                  944 : CASING BOTTOM DRILLER
CBL .FT                  944 : CASING BOTTOM LOGGER
BS  .IN                 6.25 : BIT SIZE
BSD .FT                 9428 : BIT SIZE AT DEPTH
DFT .                    GEL : DRILLING FLUID TYPE
DFD .                    9.7 : DRILLING FLUID DENSITY
DFV .                     92 : DRILLING FLUID VISCOSITY
DFPH.                    9.5 : DRILLING FLUID PH
DFL .                    6.7 : DRILLING FLUID LOSS
MSS .                    2.3 : MUD SAMPLE SOURCE
RMS .OHMM                 70 : RESISTIVITY MUD SAMPLE
MST .DEGF                1.8 : MUD SAMPLE TEMPERATURE
RMF .OHMM                 70 : RESISTIVITY MUD FILTRATE SAMPLE
MFST.DEGF                2.5 : MUD FILTRATE SAMPLE TEMPERATURE
RMC .OHMM                 68 : RESISTIVITY MUD CAKE
RMB .OHMM                0.7 : RESISTIVITY MUD AT BHT
TCS .HRS                   9 : TIME CIRCULATED STOPPED
LUN .                   1574 : LOGGING UNIT NUMBER
LUL .                    EDM : LOGGING UNIT LOCATION
ENGI.                 BENNER : RECORDING ENGINEER
WITN.           DAAE TKACHUK : WITNESSED BY
CLNT.                A2DTECH : CLIENT CODE
ORIG.            2" 5" PRINT : ORIGIN OF DATA
UWI .       100141606818W500 : UNIQUE WELL ID
DICO. A2D Technologies, Inc. : DIGITIZING COMPANY
~Other -----------------------------------------------------
IEL-BCS-GRN LOG RUN
~ASCII -----------------------------------------------------
# ...
 7750.00000   37.09480   43.05960   23.22360   59.23930   59.23930    2.16560   31.32370   31.32370   23.22360  308.51040  308.51040   31.05970  -79.36410  -32.60380   31.05970
 7800.00000    5.40580    6.07540  164.59830   54.65070   54.65070    0.71200   14.35070   14.35070  164.59830  393.29930  393.29930  139.79100 -102.60210  -56.12970  139.79100
 7850.00000   97.14760  100.82270    9.91840   64.35470   64.35470    3.16920   48.33450   48.33450    9.91840  256.33490  256.33490   14.11410  -72.56780  -26.38340   14.11410
 7900.00000  161.00690  159.39050    6.27390   77.72440   77.72440    4.30790   63.88070   63.88070    6.27390  195.74070  195.74070    9.28690  -66.11960  -19.48990    9.28690
 7950.00000   75.03450   76.15620   13.13090   63.10630   63.10630    4.29550   73.92690   73.92690   13.13090  230.09720  230.09720   12.21740  -99.31060  -19.53380   12.21740
 8000.00000  223.75060  203.27680    4.91940   82.93170   82.93170    4.52160   71.65980   71.65980    4.91940  189.60340  189.60340    5.38150 -149.41090  -34.79730    5.38150
 8050.00000  286.40110  251.07330    3.98290   86.15190   86.15190    5.34280   85.66970   85.66970    3.98290  181.87410  181.87410    4.23330 -138.54150   -4.53080    4.23330
 8100.00000  263.88610  263.88610    3.78950   85.97360   85.97360    5.14310   71.31540   71.31540    4.26520  191.60460  191.60460    4.47410 -136.97240   -8.75560    4.47410
 8150.00000  241.80150  241.80150    4.13560   86.62480   86.62480    4.67830   72.27140   72.27140    4.51660  198.47780  198.47780    4.84170 -131.01590   -8.59310    4.84170
 8200.00000  264.71720  264.71720    3.77760   84.92540   84.92540    4.84440   71.57690   71.57690    4.31230  192.43880  192.43880    4.69750 -128.36700  -11.73810    4.69750
 8250.00000  277.18720  277.18720    3.60770   91.45060   91.45060    4.71420   71.15830   71.15830    4.19020  192.33440  192.33440    4.42760 -142.88970  -29.58450    4.42760
 8300.00000  251.65740  251.65740    3.97370   84.85350   84.85350    4.90290   77.39250   77.39250    4.47300  197.75180  197.75180    5.02150 -135.03450  -23.32030    5.02150
 8350.00000   65.48540   70.28690   14.22740   74.08410   74.08410    3.80240   53.17750   53.17750   14.22740  255.38750  255.38750   20.37990 -135.24140  -25.11820   20.37990
 8400.00000   71.86250   73.87820   13.53580   66.66850   66.66850    3.80210   52.59300   52.59300   13.53580  253.39250  253.39250   16.99030 -129.87290  -21.34070   16.99030
 8450.00000  132.04580  131.29910    7.61620   83.77280   83.77280    4.57410   72.30200   72.30200    7.61620  217.27770  217.27770   10.58770 -127.64800  -20.70680   10.58770
 8500.00000  124.69460  126.78610    7.88730   73.91810   73.91810    4.92850   66.79840   66.79840    7.88730  209.32210  209.32210   11.23190 -125.82380  -20.45860   11.23190
 8550.00000  131.90930  132.90270    7.52430   69.30830   69.30830    4.44070   78.03850   78.03850    7.52430  225.47550  225.47550   10.65210 -121.20720  -15.92920   10.65210
 8600.00000  163.83070  162.51710    6.15320   77.32490   77.32490    4.28230   58.59210   58.59210    6.15320  223.85320  223.85320    9.76150 -119.05960  -13.86880    9.76150
 8650.00000  123.23340  126.87140    7.88200   78.96710   78.96710    4.32510   69.77980   69.77980    7.88200  216.61610  216.61610   11.81830 -109.01870   -3.91510   11.81830
 8700.00000  149.17110  141.88420    7.04800   68.70200   68.70200    4.47940   69.88260   69.88260    7.04800  213.93680  213.93680    9.74690 -103.59670   -8.27130    9.74690
 8750.00000  152.92880  150.01280    6.66610   74.67350   74.67350    4.66810   70.39560   70.39560    6.66610  216.39170  216.39170    9.36080  -97.46280  -12.75840    9.36080
 8800.00000  142.94920  143.75460    6.95630   76.44490   76.44490    4.63030   71.47450   71.47450    6.95630  217.97580  217.97580   10.00930 -108.43820  -34.35480   10.00930
 8850.00000   19.19800   25.15390   39.75520   72.09100   72.09100    6.03340   90.74240   90.74240   39.75520  232.53590  232.53590   56.74790  -70.69590   -6.30800   56.74790
 8900.00000   19.39720   20.47930   48.82980   78.37030   78.37030    8.91900  131.44330  131.44330   48.82980  226.28170  226.28170   36.51240  -89.44170  -27.26070   36.51240
 8950.00000   18.96010   22.41610   44.61080   71.00350   71.00350    4.14460   60.60630   60.60630   44.61080  231.82330  231.82330   65.26090  -62.82740   -2.85330   65.26090
 9000.00000   13.87330   16.36120   61.12010   53.42020   53.42020    1.79300   38.24640   38.24640   61.12010  415.87590  415.87590   69.27050  -73.64850  -15.88130   69.27050
 9050.00000   31.18980   33.68900   29.68330   54.26740   54.26740    2.19510   35.90430   35.90430   29.68330  369.20830  369.20830   44.63530  -62.29400   -6.73370   44.63530
 9100.00000    5.68980   11.17740   89.46630   52.76220   52.76220    1.63120   24.42590   24.42590   89.46630  430.16240  430.16240  143.36220  -66.33750  -12.98410  143.36220
 9150.00000   33.48170   36.32450   27.52960   58.78080   58.78080    2.81210   36.53890   36.53890   27.52960  355.22820  355.22820   41.89140  -59.65120   -8.50480   41.89140
 9200.00000   25.10980   28.68020   34.86730   57.31870   57.31870    3.05600   48.04230   48.04230   34.86730  354.78960  354.78960   50.00000  -57.32080   -8.33420   50.00000
 9250.00000   30.75790   33.65610   29.71230   58.03060   58.03060    3.43040   56.05980   56.05980   29.71230  332.63930  332.63930   44.28400  -60.01400  -14.84850   44.28400
 9300.00000    4.77860    2.00000  500.00000   51.57270   51.57270    0.78600   10.71130   10.71130  500.00000  553.59790  553.59790  344.72420 -161.83950 -120.49500  344.72420
 9350.00000    2.73770    4.12470  242.44350   49.49910   49.49910    1.77110   27.22240   27.22240  242.44350  526.64820  526.64820  282.17710  -53.80860  -16.28520  282.17710
 9400.00000  120.76460  110.97180    9.01130   63.07910   63.07910   11.04210  181.75680  181.75680    9.01130  245.29490  245.29490   27.89740  -81.62880  -46.86300   27.89740
