~Version ---------------------------------------------------
VERS.      2.0 : CWLS log ASCII Standard -VERSION 2.0
WRAP.      YES : Multiple lines per depth step
CREA. 09/25/17 : LAS Creation Date
~Well ------------------------------------------------------
STRT.FT                      300.0 : START DEPTH
STOP.FT                    12100.0 : STOP DEPTH
STEP.FT                   50.00000 : STEP LENGTH
NULL.                      -999.25 : NULL VALUE
COMP. TRANS-PRAIRIES PIPELINES LTD : COMPANY
WELL.  TPPL DEEP VALLEY 7-11-64-25 : WELL
FLD .                              : FIELD
LOC .                              : LOCATION
CTRY.                       CANADA : COUNTRY
SRVC.       Schlumberger of Canada : SERVICE COMPANY
DATE.                  16-Mar-1975 : LOGDATE
PROV.                      Alberta : PROVINCE
UWI .             100071106425W500 : UNIQUE WELL ID
SLAT.WGS84                54.52029 : SURFACE LATITUDE
SLON.WGS84               -117.6631 : SURFACE LONGITUDE
~Curve Information -----------------------------------------
DEPT    .FT    : Depth Curve
CALDED  .IN    : CALIPER FROM DENSITY LOG
CALSED  .IN    : CALIPER FROM SONIC LOG
CALWS   .IN    : CALIPER [CALSED]
CILDED  .MMHO  : CONDUCTIVITY FROM RESISTIVITY LOG
CONDWS  .MMHO  : CONDUCTIVITY [1000/DRESWS]
DCORED  .G/C3  : DENSITY CORRECTION FROM DENSITY LOG
DCORWS  .G/C3  : DENSITY CORRECTION [DCORED]
DENWS   .G/C3  : FORMATION BULK DENSITY [RHOBED]
DPHILSED.V/V   : DENSITY POROSITY LIME [M=2.71, F=1.0] FROM DENSITY LOG [ADJ. TO RHOBED]
DPHISSED.V/V   : DENSITY POROSITY SAND [M=2.65, F=1.0] FROM DENSITY LOG [ADJ. TO RHOBED]
DPOLSWS .V/V   : DENSITY POROSITY LIME [CALC. FROM DENWS, M=2.71, F=1.0]
DRESWS  .OHMM  : DEEP RESISTIVITY [1000/CILDED, IF ILDED < 1, ILDED]
DTED    .US/F  : DELTA-T FROM SONIC LOG
DTWS    .US/F  : COMPRESSIONAL SONIC [DTED]
GRDED   .GAPI  : GAMMA RAY FROM DENSITY LOG
GRWS    .GAPI  : GAMMA RAY [GRDED]
ILDED   .OHMM  : DEEP INDUCTION FROM RESISTIVITY LOG
ILMED   .OHMM  : MEDIUM INDUCTION FROM RESISTIVITY LOG
LL8ED   .OHMM  : LATEROLOG FROM RESISTIVITY LOG
MRESWS  .OHMM  : MEDIUM RESISTIVITY [ILMED]
NPHILSED.V/V   : NEUTRON POROSITY LIME FROM DENSITY LOG [ADJ. TO RHOBED]
NPHISSED.V/V   : NEUTRON POROSITY SAND FROM DENSITY LOG [ADJ. TO RHOBED]
NPOLSWS .V/V   : NEUTRON POROSITY LIME [SS MATRIX CONVERTED TO LS & SPL. TO NPHILSED @ 7950']
RHOBED  .G/C3  : BULK DENSITY FROM DENSITY LOG
SPRED   .MV    : SPONTANEOUS POTENTIAL FROM RESISTIVITY LOG
SPWS    .MV    : SPONTANEOUS POTENTIAL [BASELINE 0 MV,SPRED]
SRESWS  .OHMM  : SHALLOW RESISTIVITY [LL8ED]
~Params ----------------------------------------------------
EKB .FT                 2835 : KELLY BUSHING
EGL .FT                 2813 : GROUND LEVEL
DATE.               03/16/75 : RUN DATE
RUN .                      1 : RUN NUMBER
DD  .FT                12140 : DEPTH DRILLER
DL  .FT                12139 : DEPTH LOGGER
BLI .FT                12133 : BOTTOM LOG INTERVAL
TLI .FT                 1603 : TOP LOG INTERVAL
CBD .FT                 1603 : CASING BOTTOM DRILLER
CBL .FT                 1604 : CASING BOTTOM LOGGER
BS  .IN                  8.5 : BIT SIZE
BSD .FT                12140 : BIT SIZE AT DEPTH
DFT .               GEL CHEM : DRILLING FLUID TYPE
DFD .                    9.3 : DRILLING FLUID DENSITY
DFV .                    109 : DRILLING FLUID VISCOSITY
DFPH.                    9.5 : DRILLING FLUID PH
DFL .                    7.8 : DRILLING FLUID LOSS
MSS .               FLOWLINE : MUD SAMPLE SOURCE
RMS .OHMM               1.57 : RESISTIVITY MUD SAMPLE
MST .DEGF                 61 : MUD SAMPLE TEMPERATURE
RMF .OHMM               1.19 : RESISTIVITY MUD FILTRATE SAMPLE
MFST.DEGF                 63 : MUD FILTRATE SAMPLE TEMPERATURE
RMC .OHMM               2.57 : RESISTIVITY MUD CAKE
MCST.DEGF                 60 : MUD CAKE SAMPLE TEMPERATURE
TCS .HRS                   4 : TIME CIRCULATED STOPPED
LUN .                   7691 : LOGGING UNIT NUMBER
LUL .                    EDM : LOGGING UNIT LOCATION
ENGI.                  BORLE : RECORDING ENGINEER
WITN.                 TAYLOR : WITNESSED BY
CLNT.                A2DTECH : CLIENT CODE
ORIG.            2" 5" PRINT : ORIGIN OF DATA
UWI .       100071106425W500 : UNIQUE WELL ID
DICO. A2D Technologies, Inc. : DIGITIZING COMPANY
~Other -----------------------------------------------------
~ASCII -----------------------------------------------------
# ...
 6800.00000   10.23710    9.66670    9.66670    -999.25   58.84880   -0.50570   -0.50570    2.63250    -999.25    0.00980    0.04530   16.99270   71.05070   71.05070  104.47730  104.47730   16.99270   18.60820   24.45480   18.60820    -999.25    0.21280    0.16920    2.63250 -119.07910  -21.49380   24.45480
 6850.00000   10.30750   10.14860   10.14860    -999.25   70.80850   -0.53520   -0.53520    2.65470    -999.25   -0.00540    0.03230   14.12260   71.03070   71.03070   86.43700   86.43700   14.12260   14.61310   17.13650   14.61310    -999.25    0.23790    0.19410    2.65470 -150.72530  -53.15740   17.13650
 6900.00000    9.85700    9.72580    9.72580    -999.25   37.59070   -0.53300   -0.53300    2.61850    -999.25    0.02030    0.05350   26.60230   67.58500   67.58500   68.47890   68.47890   26.60230   29.07070   42.27180   29.07070    -999.25    0.17120    0.12820    2.61850 -125.44020  -27.88970   42.27180
 6950.00000    9.35340    9.10130    9.10130    -999.25   24.90100   -0.53860   -0.53860    2.64910    -999.25    0.01110    0.03560   40.15900   64.65180   64.65180   73.34490   73.34490   40.15900   44.06130   59.49860   44.06130    -999.25    0.16530    0.12240    2.64910 -159.89220  -62.35910   59.49860
 7000.00000    8.93260    8.83020    8.83020    -999.25   26.15920   -0.53840   -0.53840    2.57940    -999.25    0.04060    0.07640   38.22740   61.63300   61.63300   52.63660   52.63660   38.22740   42.10530   62.88780   42.10530    -999.25    0.19550    0.15210    2.57940 -153.44120  -55.92540   62.88780
 7050.00000   11.85490    8.97090    8.97090    -999.25   79.05260   -0.62290   -0.62290    2.22760    -999.25    0.26580    0.28210   12.64980   66.38130   66.38130  104.08200  104.08200   12.64980   13.92050   18.24510   13.92050    -999.25    0.39210    0.34910    2.22760 -145.41680  -47.91840   18.24510
 7100.00000    9.76180    9.17620    9.17620    -999.25   40.95660   -0.57870   -0.57870    2.64130    -999.25    0.01700    0.04020   24.41610   65.55020   65.55020   98.25720   98.25720   24.41610   26.62610   38.02510   26.62610    -999.25    0.27430    0.23030    2.64130 -139.35590  -41.87490   38.02510
 7150.00000    8.51940    8.85290    8.85290    -999.25   79.78870   -0.66030   -0.66030    2.44610    -999.25    0.13000    0.15430   12.53310   68.74370   68.74370   37.34660   37.34660   12.53310   16.13560   24.86210   16.13560    -999.25    0.22120    0.17750    2.44610 -211.62500 -114.16140   24.86210
 7200.00000    9.73630    9.43540    9.43540    -999.25   41.93430   -0.63300   -0.63300    2.57890    -999.25    0.04010    0.07670   23.84680   68.63990   68.63990   96.40540   96.40540   23.84680   25.22430   43.90200   25.22430    -999.25    0.28800    0.24400    2.57890 -160.12050  -62.67420   43.90200
 7250.00000   10.68530   10.01000   10.01000    -999.25   85.92690   -0.65100   -0.65100    2.31160    -999.25    0.22340    0.23300   11.63780   81.30990   81.30990  105.95940  105.95940   11.63780   12.61300   13.99770   12.61300    -999.25    0.29150    0.24750    2.31160 -129.96740  -32.53850   13.99770
 7300.00000   10.76210   10.42890   10.42890    -999.25  171.50600   -0.63640   -0.63640    2.21670    -999.25    0.28340    0.28850    5.83070  113.98460  113.98460   97.87970   97.87970    5.83070    5.58310    8.93530    5.58310    -999.25    0.40820    0.36550    2.21670 -129.04970  -31.63820    8.93530
 7350.00000    9.00440    8.72150    8.72150    -999.25   64.45330   -0.53750   -0.53750    2.51520    -999.25    0.10070    0.11390   15.51510   67.21780   67.21780   40.82400   40.82400   15.51510   17.88140   22.82510   17.88140    -999.25    0.25540    0.21150    2.51520 -163.57880  -66.18470   22.82510
 7400.00000   12.24310   11.80850   11.80850    -999.25  205.95630   -0.52460   -0.52460    1.68410    -999.25    0.45090    0.59990    4.85540   93.35630   93.35630   82.31980   82.31980    4.85540    4.32940    6.08800    4.32940    -999.25    0.55840    0.52170    1.68410 -121.79610  -24.41930    6.08800
 7450.00000   13.64030   14.00960   14.00960    -999.25  342.10260   -0.49430   -0.49430    1.70730    -999.25    0.45090    0.58640    2.92310  121.57000  121.57000   68.55730   68.55730    2.92310    2.44610    4.54020    2.44610    -999.25    0.57260    0.53680    1.70730 -129.71700  -32.35760    4.54020
 7500.00000    8.98760    8.83390    8.83390    -999.25    2.84350   -0.50430   -0.50430    2.40850    -999.25    0.15480    0.17630  351.67590   84.20620   84.20620  199.93850  199.93850  351.67590  272.88120 1469.14420  272.88120    -999.25    0.27810    0.23410    2.40850 -158.56170  -61.21970 1469.14420
 7550.00000    8.82670    8.52110    8.52110    -999.25   24.82550   -0.53250   -0.53250    2.62520    -999.25    0.01410    0.04960   40.28110   98.24650   98.24650  148.99970  148.99970   40.28110   42.62880  129.19450   42.62880    -999.25    0.17330    0.13030    2.62520 -169.31630  -71.99170  129.19450
 7600.00000    8.86720    8.75510    8.75510    -999.25   52.69310   -0.52190   -0.52190    2.58960    -999.25    0.03830    0.07040   18.97780   63.56930   63.56930   69.65810   69.65810   18.97780   19.95480   38.97120   19.95480    -999.25    0.13360    0.09120    2.58960 -171.18800  -73.88070   38.97120
 7650.00000    8.95280    8.55010    8.55010    -999.25   55.28650   -0.72290   -0.72290    2.69020    -999.25   -0.00760    0.01160   18.08760   63.16910   63.16910  108.81780  108.81780   18.08760   16.82570   17.82330   16.82570    -999.25    0.20780    0.16430    2.69020 -155.80720  -58.51730   17.82330
 7700.00000    8.77540    8.45720    8.45720    -999.25   56.61010   -0.54330   -0.54330    2.68690    -999.25   -0.02510    0.01350   17.66470   60.23410   60.23410   82.12800   82.12800   17.66470   20.65150   32.47320   20.65150    -999.25    0.11520    0.07310    2.68690 -172.52050  -75.24800   32.47320
 7750.00000    8.77570    8.49030    8.49030    -999.25   54.89260   -0.53800   -0.53800    2.67590    -999.25   -0.01430    0.01990   18.21740   62.16820   62.16820   94.22150   94.22150   18.21740   19.51580   25.54900   19.51580    -999.25    0.12070    0.07850    2.67590 -175.00530  -77.75020   25.54900
 7800.00000    8.81760    8.42840    8.42840    -999.25   25.97340   -0.52110   -0.52110    2.68290    -999.25   -0.03280    0.01580   38.50090   58.91280   58.91280   73.92860   73.92860   38.50090   41.81090   49.81140   41.81090    -999.25    0.09380    0.05300    2.68290 -162.31810  -65.08040   49.81140
 7850.00000    8.78170    8.44500    8.44500    -999.25   24.50580   -0.51760   -0.51760    2.69420    -999.25   -0.03190    0.00920   40.80670   61.27610   61.27610   80.52410   80.52410   40.80670   48.52840   62.79370   48.52840    -999.25    0.09360    0.05280    2.69420 -159.93200  -62.71160   62.79370
 7900.00000    8.80310    8.55300    8.55300    -999.25   28.48560   -0.50870   -0.50870    2.65720    -999.25   -0.00640    0.03090   35.10550   60.63520   60.63520   97.67300   97.67300   35.10550   36.81070   48.07470   36.81070    -999.25    0.12720    0.08490    2.65720 -149.94480  -52.74180   48.07470
 7950.00000    8.89620    8.61330    8.61330    -999.25   27.25500   -0.52150   -0.52150    2.69040    0.00610   -0.02990    0.01150   36.69050   61.55800   61.55800  114.62180  114.62180   36.69050   39.35430   51.77620   39.35430    0.13230    0.14050    0.09810    2.69040 -157.36530  -60.17970   51.77620
 8000.00000    8.67470    8.20420    8.20420    -999.25   65.18650   -0.53970   -0.53970    2.61170    0.04440    -999.25    0.04530   15.34060   59.60160   59.60160   17.42670   17.42670   15.34060   26.64440   75.45120   26.64440    0.04270    -999.25    0.04270    2.61170 -258.85390 -161.68570   75.45120
 8050.00000    8.58170    8.47150    8.47150    -999.25   50.89600   -0.50020   -0.50020    2.74190   -0.02710    -999.25   -0.01870   19.64790   51.70950   51.70950   58.67780   58.67780   19.64790   27.17590   67.04770   27.17590    0.06340    -999.25    0.06340    2.74190 -203.05960 -105.90870   67.04770
