~Version ---------------------------------------------------
VERS.      2.0 : CWLS log ASCII Standard -VERSION 2.0
WRAP.       NO : One line per depth step
CREA. 12/12/17 : LAS Creation Date
~Well ------------------------------------------------------
STRT.FT                      1200.0 : START DEPTH
STOP.FT                     11750.0 : STOP DEPTH
STEP.FT                    50.00000 : STEP LENGTH
NULL.                       -999.25 : NULL VALUE
COMP.  DEKALB PETROLEUM CORPORATION : COMPANY
WELL. DEKALB ET AL PEERS 6-32-52-14 : WELL
FLD .                               : FIELD
LOC .                               : LOCATION
CTRY.                        CANADA : COUNTRY
SRVC.                  Schlumberger : SERVICE COMPANY
DATE.                   21-Aug-1968 : LOGDATE
PROV.                       Alberta : PROVINCE
UWI .              100063205214W500 : UNIQUE WELL ID
SLAT.WGS84                 53.53109 : SURFACE LATITUDE
SLON.WGS84                -116.0318 : SURFACE LONGITUDE
~Curve Information -----------------------------------------
DEPT  .FT    : Depth Curve
CALSED.IN    : CALIPER FROM SONIC LOG
CALWS .IN    : CALIPER [CALSED]
CONDWS.MMHO  : CONDUCTIVITY [1000/DRESWS]
DRESWS.OHMM  : DEEP RESISTIVITY [ILDED]
DTED  .US/F  : DELTA-TIME FROM SONIC LOG
DTWS  .US/F  : COMPRESSIONAL SONIC [DTED]
GRSED .GAPI  : GAMMA RAY FROM SONIC LOG
GRWS  .GAPI  : GAMMA RAY [GRSED]
ILDED .OHMM  : DEEP INDUCTION RESISTIVITY FROM RESISTIVITY LOG
ILMED .OHMM  : MEDIUM INDUCTION RESISTIVITY FROM RESISTIVITY LOG
LL8ED .OHMM  : LATEROLOG 8 RESISTIVITY FROM RESISTIVITY LOG
MRESWS.OHMM  : MEDIUM RESISTIVITY [ILMED]
SPRED .MV    : SPONTANEOUS POTENTIAL FROM RESISTIVITY LOG
SPWS  .MV    : SPONTANEOUS POTENTIAL [BASELINE 0 MV, SPRED]
SRESWS.OHMM  : SHALLOW RESISTIVITY [LL8ED]
~Params ----------------------------------------------------
PD  .                     GL : PERMANENT DATUM
EPD .FT               3044.5 : ELEVATION PERMANENT DATUM
LMF .                     KB : LOG MEASURED FROM
DAPD.FT                 13.5 : FEET ABOVE PERMANENT DATUM
EKB .FT                 3058 : KELLY BUSHING
EGL .FT               3044.5 : GROUND LEVEL
DATE.               08/21/68 : RUN DATE
RUN .                      1 : RUN NUMBER
DD  .FT                11760 : DEPTH DRILLER
DL  .FT                11767 : DEPTH LOGGER
BLI .FT                11762 : BOTTOM LOG INTERVAL
TLI .FT                 1227 : TOP LOG INTERVAL
CBD .FT                 1227 : CASING BOTTOM DRILLER
CBL .FT                 1227 : CASING BOTTOM LOGGER
BS  .IN                 8.75 : BIT SIZE
BSD .FT                11760 : BIT SIZE AT DEPTH
DFT .                    GEL : DRILLING FLUID TYPE
DFD .                    9.5 : DRILLING FLUID DENSITY
DFV .                     55 : DRILLING FLUID VISCOSITY
DFPH.                    8.5 : DRILLING FLUID PH
DFL .                    8.4 : DRILLING FLUID LOSS
MSS .             CIRCULATED : MUD SAMPLE SOURCE
RMS .OHMM               2.95 : RESISTIVITY MUD SAMPLE
MST .DEGF                 59 : MUD SAMPLE TEMPERATURE
RMF .OHMM               1.86 : RESISTIVITY MUD FILTRATE SAMPLE
MFST.DEGF                 67 : MUD FILTRATE SAMPLE TEMPERATURE
RMB .OHMM               2.73 : RESISTIVITY MUD AT BHT
TCS .HRS                   4 : TIME CIRCULATED STOPPED
LUN .                   7501 : LOGGING UNIT NUMBER
LUL .                    EDM : LOGGING UNIT LOCATION
ENGI.               STUEHMER : RECORDING ENGINEER
WITN.                 MCLEOD : WITNESSED BY
CLNT.                A2DTECH : CLIENT CODE
ORIG.            2" 5" PRINT : ORIGIN OF DATA
UWI .       100063205214W500 : UNIQUE WELL ID
DICO. A2D Technologies, Inc. : DIGITIZING COMPANY
~Other -----------------------------------------------------
DILL-BCS LOG RUN
ALL DATA FROM SMALL SECTION @ TOP-6588'
~ASCII -----------------------------------------------------
 1200.00000    -999.25    -999.25    -999.25    -999.25    -999.25    -999.25   32.82590   32.82590    -999.25    -999.25    -999.25    -999.25    -999.25    -999.25    -999.25
 1250.00000   11.34070   11.34070  105.97260    9.43640   89.81140   89.81140   69.34920   69.34920    9.43640    8.20290    9.72030    8.20290 -149.15300  -10.21210    9.72030
 1300.00000   12.45520   12.45520  315.01500    3.18020  142.71710  142.71710   60.73270   60.73270    3.18020    2.74050   10.48360    2.74050 -146.88640   -4.94300   10.48360
 1350.00000   11.35820   11.35820   77.39880   12.92010   82.97310   82.97310   56.53500   56.53500   12.92010   10.40680   11.31790   10.40680 -149.07420   -6.28200   11.31790
 1400.00000   14.47110   14.47110  301.18670    3.32020  159.34320  159.34320   62.68060   62.68060    3.32020    2.52620    5.11990    2.52620 -146.38190   -2.74520    5.11990
 1450.00000   10.38680   10.38680   53.30210   18.76100   86.93100   86.93100   42.98940   42.98940   18.76100   16.00870   17.59300   16.00870 -157.75980  -13.87360   17.59300
 1500.00000   13.14060   13.14060  339.69700    2.94380  136.29460  136.29460   65.77520   65.77520    2.94380    2.43400    4.40240    2.43400 -145.34150   -1.42870    4.40240
 1550.00000   12.88080   12.88080  139.51120    7.17570  124.29700  124.29700   75.11800   75.11800    7.17570    5.90430    6.73350    5.90430 -148.04590   -4.38180    6.73350
 1600.00000   10.23080   10.23080  161.16300    6.20490   95.90500   95.90500   78.87260   78.87260    6.20490    5.25840    6.67780    5.25840 -146.50390   -3.09100    6.67780
 1650.00000   10.40690   10.40690  181.46190    5.51080   99.83030   99.83030   69.00170   69.00170    5.51080    4.78600    5.85080    4.78600 -148.99020   -5.82720    5.85080
 1700.00000    9.90000    9.90000   56.15860   17.80670   84.78230   84.78230   59.28070   59.28070   17.80670   14.78790   12.36810   14.78790 -151.77920   -8.86620   12.36810
 1750.00000   11.07550   11.07550  146.79110    6.81240   98.69490   98.69490   68.76540   68.76540    6.81240    5.15450    5.21700    5.15450 -147.61050   -4.94740    5.21700
 1800.00000   10.75110   10.75110   48.14340   20.77170   85.88660   85.88660   42.20710   42.20710   20.77170   18.40380   17.58650   18.40380 -159.54670  -16.99890   17.58650
 1850.00000   10.79360   10.79360   66.68620   14.99560   77.37280   77.37280   45.14950   45.14950   14.99560   13.40000   14.00220   13.40000 -149.67860   -7.05880   14.00220
 1900.00000   11.11340   11.11340  138.29730    7.23080   87.44100   87.44100   67.16430   67.16430    7.23080    6.18890    6.89550    6.18890 -146.67140   -3.97990    6.89550
 1950.00000   11.14030   11.14030   67.81130   14.74680   86.47190   86.47190   48.11630   48.11630   14.74680   14.32300   13.38870   14.32300 -152.99180  -10.22870   13.38870
 2000.00000   10.86130   10.86130   86.22030   11.59820   82.55290   82.55290   49.65770   49.65770   11.59820   10.54090   10.02250   10.54090 -146.89050   -4.05570   10.02250
 2050.00000   10.75620   10.75620  189.37060    5.28080  101.82270  101.82270   75.86880   75.86880    5.28080    4.52580    4.99770    4.52580 -146.30810   -3.40200    4.99770
 2100.00000   10.85570   10.85570  126.50540    7.90480   85.48480   85.48480   60.65180   60.65180    7.90480    5.89320    6.82650    5.89320 -145.75590   -2.77780    6.82650
 2150.00000   10.64240   10.64240  206.85520    4.83430   91.77820   91.77820   79.71990   79.71990    4.83430    3.90170    4.82430    3.90170 -146.23830   -3.18860    4.82430
 2200.00000   10.89250   10.89250  104.27640    9.58990   82.44430   82.44430   54.71330   54.71330    9.58990    8.40850    8.00290    8.40850 -148.57990   -5.45850    8.00290
 2250.00000   11.06350   11.06350  116.58410    8.57750   82.35930   82.35930   62.70140   62.70140    8.57750    8.12120    7.61110    8.12120 -148.27190   -5.07890    7.61110
 2300.00000   10.98460   10.98460   88.96980   11.24190   71.03780   71.03780   57.20600   57.20600   11.24190   10.88510    9.97520   10.88510 -147.48150   -4.66260    9.97520
 2350.00000   11.93060   11.93060  259.59190    3.85220  107.32570  107.32570   73.00910   73.00910    3.85220    3.19640    3.51910    3.19640 -143.51360   -1.32780    3.51910
 2400.00000   10.42490   10.42490   84.40740   11.84730   74.20750   74.20750   65.55370   65.55370   11.84730   10.15320   11.10770   10.15320 -147.09850   -5.54260   11.10770
 2450.00000   11.18980   11.18980  169.69290    5.89300   95.65300   95.65300   69.27120   69.27120    5.89300    5.31750    6.48920    5.31750 -143.06040   -2.49660    6.48920
 2500.00000   10.71110   10.71110   80.83750   12.37050   78.62190   78.62190   64.92740   64.92740   12.37050    9.31500   10.50780    9.31500 -152.15010  -13.05010   10.50780
 2550.00000   10.44540   10.44540   50.58340   19.77160   79.96130   79.96130   52.32870   52.32870   19.77160   17.85850   17.12100   17.85850 -152.95430  -14.60150   17.12100
 2600.00000   10.47630   10.47630   44.89200   22.27570   74.88180   74.88180   46.64300   46.64300   22.27570   19.73890   19.92020   19.73890 -160.22320  -22.57730   19.92020
 2650.00000   10.99020   10.99020   95.17560   10.50690   78.34050   78.34050   47.70440   47.70440   10.50690    8.44010    9.24120    8.44010 -145.70800   -8.12950    9.24120
 2700.00000   14.07780   14.07780  232.88310    4.29400  130.47520  130.47520   66.93230   66.93230    4.29400    3.79810    4.56020    3.79810 -139.52480   -2.01360    4.56020
 2750.00000   11.43290   11.43290  258.59170    3.86710   96.04410   96.04410   67.79230   67.79230    3.86710    3.19640    3.60170    3.19640 -139.73190   -2.58020    3.60170
 2800.00000   11.72540   11.72540  180.47420    5.54190   99.53190   99.53190   67.42450   67.42450    5.54190    4.55460    5.24830    4.55460 -140.29700   -3.57120    5.24830
 2850.00000   11.68100   11.68100  181.21190    5.51840   90.27270   90.27270   77.68420   77.68420    5.51840    4.93320    5.26150    4.93320 -140.15500   -3.85920    5.26150
 2900.00000   11.66800   11.66800  236.92190    4.22080   96.93830   96.93830   73.34120   73.34120    4.22080    3.66740    4.04720    3.66740 -138.85840   -2.99060    4.04720
 2950.00000   12.14790   12.14790  198.23960    5.04440   90.43200   90.43200   74.70420   74.70420    5.04440    4.57730    4.72920    4.57730 -139.12950   -3.68960    4.72920
 3000.00000   11.90470   11.90470   94.41980   10.59100   76.25470   76.25470   63.38960   63.38960   10.59100    9.64430   10.07800    9.64430 -140.62340   -5.61150   10.07800
 3050.00000   11.36360   11.36360  161.82650    6.18000   86.65920   86.65920   71.17220   71.17220    6.18000    5.12750    5.85740    5.12750 -137.32290   -2.73680    5.85740
 3100.00000   11.23980   11.23980  173.49060    5.76400   91.42440   91.42440   71.08690   71.08690    5.76400    5.31420    5.54900    5.31420 -138.25060   -3.88630    5.54900
 3150.00000   10.88010   10.88010   72.31230   13.82890   77.69580   77.69580   54.80520   54.80520   13.82890   12.56580   12.50060   12.56580 -140.20110   -6.04390   12.50060
 3200.00000   11.96910   11.96910  118.04700    8.47120   84.72360   84.72360   76.80620   76.80620    8.47120    7.91520    7.80340    7.91520 -138.76670   -4.81670    7.80340
 3250.00000   11.61500   11.61500  165.08730    6.05740   85.03380   85.03380   74.20690   74.20690    6.05740    5.41270    5.68390    5.41270 -137.17440   -3.43160    5.68390
 3300.00000   12.18080   12.18080  200.53820    4.99560   87.22320   87.22320   78.31420   78.31420    4.99560    4.24730    6.49910    4.24730 -135.55370   -2.01700    6.49910
 3350.00000   11.02180   11.02180   56.15990   17.80630   76.75840   76.75840   54.26630   54.26630   17.80630   15.17870   16.48130   15.17870 -138.19650   -4.86800   16.48130
 3400.00000   11.97030   11.97030   92.46420   10.81500  113.26630  113.26630   68.60770   68.60770   10.81500    8.23020    9.30650    8.23020 -136.21680   -3.09550    9.30650
 3450.00000   10.51090   10.51090   65.79900   15.19780   79.33710   79.33710   47.58540   47.58540   15.19780   13.10790   11.72030   13.10790 -140.33630   -7.42210   11.72030
