~Version ---------------------------------------------------
VERS.      2.0 : CWLS log ASCII Standard -VERSION 2.0
WRAP.       NO : One line per depth step
CREA. 11/16/17 : LAS Creation Date
~Well ------------------------------------------------------
STRT.FT                       1100.0 : START DEPTH
STOP.FT                      10650.0 : STOP DEPTH
STEP.FT                     50.00000 : STEP LENGTH
NULL.                        -999.25 : NULL VALUE
COMP.           PETROFINA CANADA LTD : COMPANY
WELL. FINA AMOCO HB PASSCK 10-6-61-1 : WELL
FLD .                             WC : FIELD
LOC .                                : LOCATION
CTRY.                         CANADA : COUNTRY
SRVC.                   Schlumberger : SERVICE COMPANY
DATE.                    16-Nov-1976 : LOGDATE
PROV.                        Alberta : PROVINCE
UWI .               100100606117W500 : UNIQUE WELL ID
SLAT.WGS84                  54.24964 : SURFACE LATITUDE
SLON.WGS84                 -116.5333 : SURFACE LONGITUDE
~Curve Information -----------------------------------------
DEPT    .FT    : Depth Curve
CALDED  .IN    : CALIPER FROM DENSITY LOG
CALSED  .IN    : CALIPER FROM SONIC LOG [ADJ. TO GRDED]
CALWS   .IN    : CALIPER [CALSED SPL. TO CALDED @ 2270']
CILDED  .MMHO  : CONDUCTIVITY FROM RESISTIVITY LOG
CONDWS  .MMHO  : CONDUCTIVITY [1000/DRESWS]
DCORED  .G/C3  : DENSITY CORRECTION FROM DENSITY LOG
DCORWS  .G/C3  : DENSITY CORRECTION [DCORED]
DENWS   .G/C3  : FORMATION BULK DENSITY [RHOBED]
DPHILSED.V/V   : DENSITY POROSITY LIMESTONE [M=2.71, F=1.00] FROM DENSITY LOG [ADJ. TO RHOBED]
DPHISSED.V/V   : DENSITY POROSITY SANDSTONE [M=2.65, F=1.00] FROM DENSITY LOG [ADJ. TO RHOBED]
DPOLSWS .V/V   : DENSITY POROSITY LIMESTONE [CALC FROM DENWS, M=2.71, F=1.00]
DRESWS  .OHMM  : DEEP RESISTIVITY [1000/CILDED IF ILDED<=1.9, ILDED & SPL. TO ILDED @ 2250']
DTED    .US/F  : DELTA TIME FROM SONIC LOG [ADJ. TO GRDED]
DTWS    .US/F  : COMPRESSIONAL SONIC [DTED]
GRDED   .GAPI  : GAMMA RAY FROM DENSITY LOG
GRSED   .GAPI  : GAMMA RAY FROM SONIC LOG [ADJ. TO GRDED]
GRWS    .GAPI  : GAMMA RAY [GRSED SPL. TO GRDED @ 2276']
ILDED   .OHMM  : DEEP INDUCTION RESISTIVITY FROM RESISTIVITY LOG
ILMED   .OHMM  : MEDIUM INDUCTION RESISTIVITY FROM RESISTIVITY LOG
LL8ED   .OHMM  : 8 INCH LATEROLOG RESISTIVITY FROM RESISTIVITY LOG
MRESWS  .OHMM  : MEDIUM RESISTIVITY [ILMED]
NPHILSED.V/V   : NEUTRON POROSITY LIMESTONE FROM DENSITY LOG [ADJ. TO RHOBED]
NPHISSED.V/V   : NEUTRON POROSITY SANDSTONE FROM DENSITY LOG [ADJ. TO RHOBED]
NPOLSWS .V/V   : NEUTRON POROSITY LIMESTONE [SS CONVERTED TO  LS & SPL. TO NPHILSED @ 6854.5']
RHOBED  .G/C3  : BULK DENSITY FROM DENSITY LOG
SPRED   .MV    : SPONTANEOUS POTENTIAL FROM RESISTIVITY LOG
SPWS    .MV    : SPONTANEOUS POTENTIAL [BASELINE 0 MV, SPRED]
SRESWS  .OHMM  : SHALLOW RESISTIVITY [LL8ED]
~Params ----------------------------------------------------
PD  .                     GL : PERMANENT DATUM
EPD .FT                 3080 : ELEVATION PERMANENT DATUM
LMF .                     KB : LOG MEASURED FROM
DAPD.FT                   16 : FEET ABOVE PERMANENT DATUM
EKB .FT                 3096 : KELLY BUSHING
EGL .FT                 3080 : GROUND LEVEL
DATE.               11/16/76 : RUN DATE
RUN .                      2 : RUN NUMBER
DD  .FT                10680 : DEPTH DRILLER
DL  .FT                10679 : DEPTH LOGGER
BLI .FT                10673 : BOTTOM LOG INTERVAL
TLI .FT                 7468 : TOP LOG INTERVAL
CBD .FT                 1102 : CASING BOTTOM DRILLER
CBL .FT                 1102 : CASING BOTTOM LOGGER
BS  .IN                 8.75 : BIT SIZE
BSD .FT                10680 : BIT SIZE AT DEPTH
DFT .                    GEL : DRILLING FLUID TYPE
DFD .                    9.2 : DRILLING FLUID DENSITY
DFV .                     94 : DRILLING FLUID VISCOSITY
DFPH.                     10 : DRILLING FLUID PH
DFL .                    8.2 : DRILLING FLUID LOSS
MSS .               FLOWLINE : MUD SAMPLE SOURCE
RMS .OHMM               1.57 : RESISTIVITY MUD SAMPLE
MST .DEGF                 65 : MUD SAMPLE TEMPERATURE
RMF .OHMM               1.76 : RESISTIVITY MUD FILTRATE SAMPLE
MFST.DEGF                 68 : MUD FILTRATE SAMPLE TEMPERATURE
TCS .HRS                 2.5 : TIME CIRCULATED STOPPED
LUN .                   7800 : LOGGING UNIT NUMBER
LUL .                    EDM : LOGGING UNIT LOCATION
ENGI.     ROBELLI LEDUG BIGG : RECORDING ENGINEER
WITN.                CHARLES : WITNESSED BY
CLNT.                A2DTECH : CLIENT CODE
ORIG.            2" 5" PRINT : ORIGIN OF DATA
UWI .       100100606117W500 : UNIQUE WELL ID
DICO. A2D Technologies, Inc. : DIGITIZING COMPANY
~Other -----------------------------------------------------
~ASCII -----------------------------------------------------
# ...
 6100.00000   11.47210   10.11850   11.47210    -999.25   93.42740    0.00110    0.00110    2.41140    -999.25    0.12160    0.17460   10.70350   79.09070   79.09070   54.25050   61.99020   54.25050   10.70350   12.01010   12.20560   12.01010    -999.25    0.24890    0.20500    2.41140   -8.02030   -8.26980   12.20560
 6150.00000    9.79970    9.65450    9.79970    -999.25   79.55270    0.04130    0.04130    2.57710    -999.25    0.04920    0.07770   12.57110   70.67720   70.67720   63.62260   69.20110   63.62260   12.57110   12.15050   14.07530   12.15050    -999.25    0.19090    0.14760    2.57710  -15.97820  -16.57280   14.07530
 6200.00000    9.92740    9.70960    9.92740    -999.25   90.33990    0.06630    0.06630    2.63220    -999.25    0.00960    0.04550   11.06930   72.09090   72.09090   59.90020   63.02510   59.90020   11.06930   11.56300   14.28210   11.56300    -999.25    0.20700    0.16350    2.63220  -14.42150  -15.58460   14.28210
 6250.00000    9.60110    9.52540    9.60110    -999.25   70.28350    0.01290    0.01290    2.59530    -999.25    0.03750    0.06710   14.22920   72.72260   72.72260   85.14650   91.41230   85.14650   14.22920   14.67250   23.28570   14.67250    -999.25    0.23530    0.19150    2.59530   -5.94930   -7.67730   23.28570
 6300.00000   10.35690    9.46350   10.35690    -999.25  102.89590    0.04200    0.04200    2.49140    -999.25    0.10090    0.12780    9.71860   74.87610   74.87610   57.50970   64.25490   57.50970    9.71860    9.98300   11.37700    9.98300    -999.25    0.21760    0.17400    2.49140  -15.12930  -17.42210   11.37700
 6350.00000    9.43300    9.37220    9.43300    -999.25   99.57180   -0.00000   -0.00000    2.57640    -999.25    0.03810    0.07810   10.04300   71.39680   71.39680   52.48820   57.84220   52.48820   10.04300    9.65880   13.16880    9.65880    -999.25    0.22970    0.18590    2.57640  -11.03400  -13.89540   13.16880
 6400.00000    9.48780    9.29760    9.48780    -999.25   82.17270    0.05100    0.05100    2.66410    -999.25   -0.00680    0.02680   12.19890   70.64790   70.64790   77.79400   84.72090   77.79400   12.19890   11.53860   13.66380   11.53860    -999.25    0.23800    0.19420    2.66410   -2.42900   -5.85530   13.66380
 6450.00000    9.80580    9.42010    9.80580    -999.25   94.18860    0.04390    0.04390    2.66040    -999.25    0.00120    0.02900   10.61700   71.00310   71.00310   76.88820   86.11200   76.88820   10.61700   11.22320   13.69520   11.22320    -999.25    0.23070    0.18690    2.66040    2.85710   -1.13770   13.69520
 6500.00000    9.68120    9.26290    9.68120    -999.25   88.84150    0.02690    0.02690    2.64880    -999.25    0.00160    0.03570   11.26310   72.57020   72.57020   93.30830  101.00520   93.30830   11.26310   11.63580   15.75510   11.63580    -999.25    0.22990    0.18610    2.64880    2.73150   -1.82810   15.75510
 6550.00000    9.25200    9.02860    9.25200    -999.25   68.54680    0.04690    0.04690    2.53050    -999.25    0.07910    0.10500   14.59050   71.64170   71.64170   44.05680   47.26520   44.05680   14.59050   15.04790   24.78190   15.04790    -999.25    0.15390    0.11120    2.53050  -33.59310  -38.66040   24.78190
 6600.00000    9.55940    9.36810    9.55940    -999.25   65.66890    0.01460    0.01460    2.62440    -999.25    0.01420    0.05010   15.22790   68.13630   68.13630   94.57100  111.13350   94.57100   15.22790   16.57780   23.09510   16.57780    -999.25    0.20170    0.15820    2.62440    1.80460   -3.68300   23.09510
 6650.00000   10.14560    9.52140   10.14560    -999.25   46.84520    0.23690    0.23690    2.47530    -999.25    0.10600    0.13730   21.35420   71.24770   71.24770   75.91860   78.86950   75.91860   21.35420   24.26600   46.82840   24.26600    -999.25    0.20090    0.15740    2.47530   -0.42320   -6.39830   46.82840
 6700.00000   11.70340   10.31890   11.70340    -999.25  176.70650    0.24620    0.24620    2.43500    -999.25    0.13050    0.16080    5.65910   89.67550   89.67550  100.07650  120.08450  100.07650    5.65910    5.57440    8.05300    5.57440    -999.25    0.40820    0.36550    2.43500    3.06060   -4.04720    8.05300
 6750.00000   11.14650    9.80800   11.14650    -999.25  154.84730    0.20160    0.20160    2.46570    -999.25    0.12810    0.14290    6.45860   77.89140   77.89140   90.59500   97.52230   90.59500    6.45860    6.62270    9.70600    6.62270    -999.25    0.30770    0.26370    2.46570    8.28560   -3.41660    9.70600
 6800.00000   12.47390   10.64620   12.47390    -999.25  217.74460    0.20130    0.20130    2.42450    -999.25    0.13900    0.16700    4.59390   94.53830   94.53830   94.26210  103.97780   94.26210    4.59390    4.79510    6.70370    4.79510    -999.25    0.38730    0.34420    2.42450   14.41360   -5.54040    6.70370
 6850.00000   10.55880    9.96850   10.55880    -999.25  100.56520    0.15140    0.15140    2.45640    -999.25    0.11480    0.14830    9.94380   99.79890   99.79890  113.22990  119.29940  113.22990    9.94380   10.70090   13.22860   10.70090    -999.25    0.39130    0.34830    2.45640   19.40200   -3.55590   13.22860
 6900.00000    9.16700    8.92800    9.16700    -999.25    6.16790    0.08370    0.08370    2.64710    0.03630    -999.25    0.03680  167.04920   59.55160   59.55160   70.70460  101.03140   70.70460  167.04920  218.82210  654.05390  218.82210    0.07980    -999.25    0.07980    2.64710    7.51640  -16.24280  654.05390
 6950.00000    9.22410    8.97460    9.22410    -999.25   40.90210    0.05290    0.05290    2.59440    0.06280    -999.25    0.06760   24.44860   65.50830   65.50830   71.90740   75.48990   71.90740   24.44860   25.63030   33.37470   25.63030    0.04790    -999.25    0.04790    2.59440  -14.80300  -34.30570   33.37470
 7000.00000    9.24330    8.78510    9.24330    -999.25   44.46580    0.05580    0.05580    2.61780    0.05710    -999.25    0.05390   22.50070   65.00590   65.00590   67.40550   70.12640   67.40550   22.50070   23.91300   27.80550   23.91300    0.05640    -999.25    0.05640    2.61780  -13.49970  -28.77370   27.80550
 7050.00000    9.25210    9.09190    9.25210    -999.25   94.33640    0.01820    0.01820    2.62690    0.05270    -999.25    0.04860   10.60110   63.14100   63.14100   78.98920   84.14740   78.98920   10.60110   10.97610   14.22760   10.97610    0.08210    -999.25    0.08210    2.62690   -1.98080  -15.58330   14.22760
 7100.00000    9.09550    8.94920    9.09550    -999.25  207.37420    0.09660    0.09660    2.75040   -0.02360    -999.25   -0.02360    4.82220   51.31370   51.31370   51.63740   51.23520   51.63740    4.82220    5.38360   29.22040    5.38360    0.07720    -999.25    0.07720    2.75040  -27.50520  -43.96530   29.22040
 7150.00000    9.26220    8.96330    9.26220    -999.25  239.49130    0.05530    0.05530    2.71290    0.00580    -999.25   -0.00170    4.23430   66.94000   66.94000   49.95770   55.66700   49.95770    4.23430    4.43170    7.59550    4.43170    0.16190    -999.25    0.16190    2.71290  -15.40220  -34.70120    7.59550
 7200.00000    8.95410    8.84260    8.95410    -999.25   70.83710    0.06610    0.06610    2.74200   -0.01310    -999.25   -0.01870   14.11690   58.73370   58.73370   33.88940   34.08820   33.88940   14.11690   11.01670   58.75130   11.01670    0.10040    -999.25    0.10040    2.74200   -7.18980  -29.34640   58.75130
 7250.00000    8.90690    8.83080    8.90690    -999.25   35.25930    0.03130    0.03130    2.78580   -0.03900    -999.25   -0.04430   29.41720   54.35390   54.35390   35.79640   40.34870   35.79640   29.41720   48.06270  208.89480   48.06270    0.05960    -999.25    0.05960    2.78580    2.13280  -24.53680  208.89480
 7300.00000    8.87680    8.94430    8.87680    -999.25    0.65330    0.01730    0.01730    2.98130   -0.15880    -999.25   -0.15870 1530.78110   51.49160   51.49160    6.62540    6.77240    6.62540 1530.78110 1574.94430 1638.68580 1574.94430   -0.00790    -999.25   -0.00790    2.98130  -31.15340  -58.28780 1638.68580
