~Version ---------------------------------------------------
VERS.      2.0 : CWLS log ASCII Standard -VERSION 2.0
WRAP.       NO : One line per depth step
CREA. 09/04/14 : LAS Creation Date
~Well ------------------------------------------------------
STRT.FT                  300.0 : START DEPTH
STOP.FT                10400.0 : STOP DEPTH
STEP.FT               50.00000 : STEP LENGTH
NULL.                  -999.25 : NULL VALUE
COMP.    J M HUBER CORPORATION : COMPANY
WELL. HUBER ROSEVEAR 6-5-55-14 : WELL
FLD .                       WC : FIELD
LOC .                          : LOCATION
CTRY.                   CANADA : COUNTRY
SRVC.             Schlumberger : SERVICE COMPANY
DATE.              04-Sep-1976 : LOGDATE
PROV.                  Alberta : PROVINCE
UWI .         100060505514W500 : UNIQUE WELL ID
SLAT.WGS84            53.72293 : SURFACE LATITUDE
SLON.WGS84           -116.0453 : SURFACE LONGITUDE
~Curve Information -----------------------------------------
DEPT   .FT    : Depth Curve
CALD   .IN    : CALIPER FROM DENSITY LOG
CALR   .IN    : CALIPER FROM RESISTIVITY
CALS   .IN    : CALIPER FROM SONIC LOG
DCOR   .G/C3  : DENSITY CORRECTION
DPHI_LS.DEC   : DENSITY POROSITY LIMESTONE
DPHI_SS.DEC   : DENSITY POROSITY SANDSTONE
DT     .US/F  : INTERVAL TRANSIT TIME
GRD    .GAPI  : GAMMA RAY FROM DENSITY LOG
GRS    .GAPI  : GAMMA RAY FROM SONIC LOG
LLD    .OHMM  : LATEROLOG DEEP
LLS    .OHMM  : LATEROLOG SHALLOW
NPHI_LS.DEC   : NEUTRON POROSITY LIMESTONE
NPHI_SS.DEC   : NEUTRON POROSITY SANDSTONE
RHOB   .G/C3  : BULK DENSITY
SPR    .MV    : SPONTANEOUS POTENTIAL FROM RES.
~Params ----------------------------------------------------
PD  .                     GL : PERMANENT DATUM
EPD .FT                 2650 : ELEVATION PERMANENT DATUM
LMF .                     KB : LOG MEASURED FROM
DAPD.FT                   16 : FEET ABOVE PERMANENT DATUM
EKB .FT                 2666 : KELLY BUSHING
EGL .FT                 2650 : GROUND LEVEL
DATE.               09/04/76 : RUN DATE
RUN .                      2 : RUN NUMBER
DD  .FT                10450 : DEPTH DRILLER
DL  .FT                10450 : DEPTH LOGGER
BLI .FT                10448 : BOTTOM LOG INTERVAL
TLI .FT                 8400 : TOP LOG INTERVAL
CBD .FT                 1105 : CASING BOTTOM DRILLER
BS  .IN                 8.75 : BIT SIZE
BSD .FT                10450 : BIT SIZE AT DEPTH
DFT .               GEL CHEM : DRILLING FLUID TYPE
DFD .                    9.6 : DRILLING FLUID DENSITY
DFV .                     82 : DRILLING FLUID VISCOSITY
DFPH.                     11 : DRILLING FLUID PH
DFL .                     15 : DRILLING FLUID LOSS
RMS .OHMM               0.28 : RESISTIVITY MUD SAMPLE
MST .DEGF                 62 : MUD SAMPLE TEMPERATURE
RMF .OHMM               0.23 : RESISTIVITY MUD FILTRATE SAMPLE
MFST.DEGF                 62 : MUD FILTRATE SAMPLE TEMPERATURE
RMB .OHMM               0.11 : RESISTIVITY MUD AT BHT
TCS .HRS                   1 : TIME CIRCULATED STOPPED
LUN .                   7730 : LOGGING UNIT NUMBER
LUL .                    EDM : LOGGING UNIT LOCATION
ENGI.         PIMM MACDONALD : RECORDING ENGINEER
WITN.                 TAYLOR : WITNESSED BY
CLNT.                A2DTECH : CLIENT CODE
ORIG.               5" PRINT : ORIGIN OF DATA
UWI .       100060505514W500 : UNIQUE WELL ID
DICO. A2D Technologies, Inc. : DIGITIZING COMPANY
~Other -----------------------------------------------------
~ASCII -----------------------------------------------------
# ...
 2600.00000   11.79240    9.74760   10.68770    0.13720    -999.25    0.32160  105.29550  134.22290  142.71860    2.92380    2.71530    -999.25    0.39630    2.06650  -45.01200
 2650.00000   10.96130    9.18450   10.82740    0.08150    -999.25    0.18070   88.98410  115.72390  107.51800    4.93000    4.22570    -999.25    0.30810    2.35430  -38.72380
 2700.00000   13.64540    9.74500   11.20330    0.18800    -999.25    0.23300  102.89100  111.46760  105.86470    9.18380    7.82320    -999.25    0.32320    2.21400  -27.95410
 2750.00000   14.70020    9.32960   10.94810    0.20600    -999.25    0.24640   91.49800  104.68630  115.30330    5.91000    5.36740    -999.25    0.31360    2.28290  -13.47860
 2800.00000   13.97370    9.46580   10.81300    0.21210    -999.25    0.26680   98.75510  104.51860  105.27550    5.48980    4.74160    -999.25    0.37370    2.28530  -18.31460
 2850.00000   12.10240    9.77900   11.56290    0.09250    -999.25    0.14230   78.78200   72.69540   75.72670    2.71370    2.58030    -999.25    0.28860    2.44070  -26.74170
 2900.00000   12.05240    9.77880   11.38070    0.08510    -999.25    0.08550   73.49010   63.83500   58.91990   10.37840    9.44860    -999.25    0.21060    2.51980  -26.61730
 2950.00000   12.23350    9.24220   11.45530    0.15950    -999.25    0.12590   81.13100  100.15980  101.90120    6.44220    5.84200    -999.25    0.29470    2.46300  -25.43010
 3000.00000   14.19270    9.59840   11.44070    0.15650    -999.25    0.16940   81.65430   84.40260   92.43850    5.33890    4.85060    -999.25    0.34020    2.46580  -12.29670
 3050.00000   15.01200    8.53740   11.52580    0.18650    -999.25    0.27050   83.64840   91.24260   92.67180    5.12910    4.66280    -999.25    0.37810    2.31400  -14.39030
 3100.00000   11.61310    9.68660   11.12740    0.09320    -999.25    0.10860   77.05730   77.49290   83.54380    9.98190    7.38700    -999.25    0.27980    2.47740  -32.18240
 3150.00000   10.94490    9.43000   10.89190    0.09510    -999.25    0.06920   84.86410   78.82890   85.26980    8.39190    7.76150    -999.25    0.31130    2.54250  -42.35460
 3200.00000   11.88020    9.98620   11.21130    0.11560    -999.25    0.25450   78.42570   74.67590   73.10690    2.89650    2.72220    -999.25    0.40940    2.30470  -37.43650
 3250.00000   11.00030   10.12320   10.83160    0.06020    -999.25    0.14430   82.52170   65.32660   77.84940    7.27880    6.19090    -999.25    0.32440    2.40630  -49.42220
 3300.00000   11.25350    9.84160   11.26450    0.06440    -999.25    0.19080   84.20180   65.81300   67.48630   11.99870   10.63840    -999.25    0.30960    2.33890  -46.31270
 3350.00000   12.19320    9.36470   11.06780    0.05420    -999.25    0.26820   90.36320   76.05330   91.42430    5.69150    5.15160    -999.25    0.41280    2.30080  -53.41670
 3400.00000   15.29990    9.31170   11.20580    0.11380    -999.25    0.40270   96.18470   78.36610   78.49940    6.40270    5.31740    -999.25    0.36470    1.86250  -52.32920
 3450.00000   11.35680    9.02210   10.88650    0.09920    -999.25    0.12130   79.98840   73.15680   75.21920    5.40120    4.83170    -999.25    0.41310    2.49430  -51.24720
 3500.00000    9.74320   10.58240    9.65080    0.04420    -999.25    0.23140   86.10780   58.71250   62.90300   14.61390   10.78610    -999.25    0.34110    2.27050  -55.93410
 3550.00000   12.60070    9.61940   10.95780    0.17240    -999.25    0.24540   81.44860   68.21320   77.71630    5.84000    5.40120    -999.25    0.32600    2.34000  -48.93520
 3600.00000   10.84550    9.42680   10.98070    0.08240    -999.25    0.15560   80.49100   72.08030   76.41780    7.58700    6.43820    -999.25    0.31820    2.42190  -50.41620
 3650.00000   10.81740    9.04500   10.75070    0.07360    -999.25    0.15320   81.08710   58.92340   63.30370   29.01800   22.96320    -999.25    0.27480    2.34540  -54.64890
 3700.00000   11.73590    9.45630   10.78850    0.16580    -999.25    0.17070   80.58980   76.61020   74.41940    8.80980    7.09470    -999.25    0.36200    2.47890  -52.70060
 3750.00000   11.80900    8.91390   10.87640    0.16450    -999.25    0.22410   86.90050   76.62700   87.47770   18.17830   15.57030    -999.25    0.36200    2.21270  -52.02580
 3800.00000   10.62390    9.66810   10.79740    0.06900    -999.25    0.12630   77.56020   54.22200   59.16800   14.27150   10.67020    -999.25    0.29990    2.44020  -49.34330
 3850.00000   11.06020    9.34380   10.78470    0.09480    -999.25    0.10450   78.59810   65.58720   80.79680   12.96240   11.09410    -999.25    0.37230    2.48110  -52.27250
 3900.00000   11.53200    9.13260   10.98810    0.13700    -999.25    0.13090   84.61200   75.27440   94.29870    8.96130    8.36260    -999.25    0.35770    2.46980  -54.15080
 3950.00000   12.96490    9.15360   11.24960    -999.25    -999.25    0.19680   89.16360   47.66260  105.68420    7.78360    7.50030    -999.25    0.14910    -999.25  -53.41190
 4000.00000    -999.25    9.26000   11.47280    -999.25    -999.25    -999.25   85.18820    -999.25  130.03350    8.28230    7.88400    -999.25    -999.25    -999.25  -53.78580
 4050.00000    -999.25    9.23970   11.25100    -999.25    -999.25    -999.25   84.29340    -999.25  121.08610    9.94740    9.28080    -999.25    -999.25    -999.25  -53.18860
 4100.00000    -999.25    9.08450   10.79650    -999.25    -999.25    -999.25   80.23440    -999.25  125.44220   10.57890   10.11770    -999.25    -999.25    -999.25  -55.27450
 4150.00000    -999.25    9.11650   10.93570    -999.25    -999.25    -999.25   82.33850    -999.25  132.04310   11.88770   12.42180    -999.25    -999.25    -999.25  -50.83300
 4200.00000    -999.25    9.15330   11.11570    -999.25    -999.25    -999.25   87.15960    -999.25  129.31350    9.92100   10.39530    -999.25    -999.25    -999.25  -52.38400
 4250.00000    -999.25    9.24190   10.65280    -999.25    -999.25    -999.25   92.32500    -999.25  164.35390   12.24780   13.48040    -999.25    -999.25    -999.25  -52.63390
 4300.00000    -999.25    9.03400   10.65730    -999.25    -999.25    -999.25   85.92230    -999.25  155.96630   16.75340   18.32830    -999.25    -999.25    -999.25  -55.56470
 4350.00000    -999.25    9.02450   10.83370    -999.25    -999.25    -999.25   87.69600    -999.25  134.11450   10.37710   11.11890    -999.25    -999.25    -999.25  -55.37300
 4400.00000    -999.25    9.22380   10.79820    -999.25    -999.25    -999.25   82.59990    -999.25  115.00570   10.24120    9.36730    -999.25    -999.25    -999.25  -55.61130
 4450.00000    -999.25    9.65570   10.91540    -999.25    -999.25    -999.25   83.31110    -999.25  127.16650    9.81830   10.52420    -999.25    -999.25    -999.25  -55.74380
 4500.00000    -999.25    9.41920   10.74880    -999.25    -999.25    -999.25   77.01280    -999.25  112.06760   11.97570   12.62170    -999.25    -999.25    -999.25  -52.39390
 4550.00000    -999.25    9.37620   11.46410    -999.25    -999.25    -999.25   79.17130    -999.25  120.20120   10.51730   11.07960    -999.25    -999.25    -999.25  -49.46200
 4600.00000    -999.25    9.59200   11.32900    -999.25    -999.25    -999.25   79.61700    -999.25  124.04350    8.88890    9.30070    -999.25    -999.25    -999.25  -47.80850
 4650.00000    -999.25    9.65860   11.39500    -999.25    -999.25    -999.25   84.62860    -999.25  133.11070    9.20700    9.71170    -999.25    -999.25    -999.25  -45.42020
 4700.00000   12.71430    9.66660   11.23790    0.19770    -999.25    0.32870   83.28330  118.19300  127.35900    8.98720    9.44330    -999.25    0.30660    2.04420  -45.57320
 4750.00000   13.64980    9.78780   11.44540    0.13550    -999.25    0.40130   85.40780  127.54800  126.88820    6.92430    7.38550    -999.25    0.36010    1.91210  -48.75800
 4800.00000   12.31070    9.79770   10.81450    0.16850    -999.25    0.35290   81.77470  123.18320  132.90760    9.95910   10.59170    -999.25    0.27840    2.02150  -52.88670
 4850.00000   11.49430    9.84640   10.36800    0.10020    -999.25    0.43960   40.30960  117.08680  141.51500   10.49030   10.08510    -999.25    0.31940    1.90440  -55.77080
