~Version ---------------------------------------------------
VERS. 2.0 : CWLS log ASCII Standard -VERSION 2.0
WRAP.  NO : One line per depth step
~Well ------------------------------------------------------
STRT.M                        350.0 : START DEPTH
STOP.M                       3350.0 : STOP DEPTH
STEP.M                     50.00000 : STEP LENGTH
NULL.                       -999.25 : NULL VALUE
COMP.    CANADIAN SUPERIOR OIL LTD. : COMPANY
WELL. CDN-SUP ANTE CREEK 6-36-66-25 : WELL
FLD .                            WC : FIELD
LOC .                               : LOCATION
CTRY.                        CANADA : COUNTRY
SRVC.                  Schlumberger : SERVICE COMPANY
DATE.                   17-Mar-1981 : LOGDATE
PROV.                       Alberta : PROVINCE
UWI .              100063606625W500 : UNIQUE WELL ID
SLAT.WGS84                 54.75338 : SURFACE LATITUDE
SLON.WGS84                 -117.647 : SURFACE LONGITUDE
~Curve Information -----------------------------------------
DEPT   .M      : 
CALD   .MM     : CALIPER FROM DENSITY LOG
CALS   .MM     : CALIPER FROM BHC/GR LOG
CORR   .KG/M3  : DENSITY CORRECTION FROM FDC/CNL LOG
DPHI_LS.DEC    : DENSITY POROSITY LIMESTONE FROM FDC/CNL LOG
DPHI_SS.DEC    : DENSITY POROSITY SANDSTONE FROM FDC/CNL LOG
DT     .US/M   : DELTA-T (INTERVAL TRANSIT TIME) FROM BHC/GR LOG
GRD    .GAPI   : GAMMA RAY FROM FDC/CNL LOG
GRR    .GAPI   : GAMMA RAY FROM DISFL LOG
ILD    .OHMM   : INDUCTION DEEP RESISTIVITY FROM DISFL LOG
ILM    .OHMM   : INDUCTION MEDIUM RESISTIVITY FROM DISFL LOG
NPHI_LS.DEC    : NEUTRON POROSITY LIMESTONE FROM FDC/CNL LOG
NPHI_SS.DEC    : NEUTRON POROSITY SANDSTONE FROM FDC/CNL LOG
RHOB   .KG/M3  : BULK DENSITY FROM FDC/CNL LOG
SFL    .OHMM   : SPHERICALLY FOCUSED LOG FROM DISFL LOG
SPR    .MV     : SPONTANEOUS POTENTIAL FROM DISFL LOG
~Params ----------------------------------------------------
PD  .                         GL : PERMANENT DATUM
EPD .M                     741.3 : ELEVATION PERMANENT DATUM
LMF .                         KB : LOG MEASURED FROM
DAPD.M                      7.65 : FEET ABOVE PERMANENT DATUM
DMF .                         KB : DRILLING MEASURED FROM
EKB .M                    748.95 : KELLY BUSHING
EGL .M                     741.3 : GROUND LEVEL
DATE.                   03/17/81 : RUN DATE
RUN .                          1 : RUN NUMBER
DD  .M                    3390.7 : DEPTH DRILLER
DL  .M                    3390.3 : DEPTH LOGGER
BLI .M                    3389.3 : BOTTOM LOG INTERVAL
TLI .M                       361 : TOP LOG INTERVAL
CS  .MM                      244 : CASING SIZE
CBD .M                       361 : CASING BOTTOM DRILLER
CBL .M                       361 : CASING BOTTOM LOGGER
BS  .MM                      222 : BIT SIZE
BSD .M                    3390.7 : BIT SIZE AT DEPTH
DFT .                  GEL BENEX : DRILLING FLUID TYPE
DFD .                       1165 : DRILLING FLUID DENSITY
DFV .                         77 : DRILLING FLUID VISCOSITY
DFPH.                         10 : DRILLING FLUID PH
DFL .                        6.8 : DRILLING FLUID LOSS
MSS .                CIRCULATION : MUD SAMPLE SOURCE
RMS .OHMM                   1.58 : RESISTIVITY MUD SAMPLE
MST .DEGC                   14.4 : MUD SAMPLE TEMPERATURE
RMF .OHMM                   1.43 : RESISTIVITY MUD FILTRATE SAMPLE
MFST.DEGC                   18.3 : MUD FILTRATE SAMPLE TEMPERATURE
MFSS.                      PRESS : MUD FILTRATE SAMPLE SOURCE
MCSS.                       MEAS : MUD CAKE SAMPLE SOURCE
RMB .OHMM                   0.57 : RESISTIVITY MUD AT BHT
TCS .HRS                    1600 : TIME CIRCULATED STOPPED
TLAB.HRS                    1630 : TIME LOGGER AT BOTTOM
LUN .                       8218 : LOGGING UNIT NUMBER
LUL .                      EDSON : LOGGING UNIT LOCATION
ENGI.                     DOWNIE : RECORDING ENGINEER
WITN.           TIMMINS PODULSKY : WITNESSED BY
CLNT.                    A2DTECH : CLIENT CODE
ORIG. 6.5"/100M 16.5"/100M PRINT : ORIGIN OF DATA
UWI .           100063606625W500 : UNIQUE WELL ID
DICO.     A2D Technologies, Inc. : DIGITIZING COMPANY
~Other -----------------------------------------------------
~ASCII -----------------------------------------------------
  350.00000    -999.25    -999.25    -999.25    -999.25    -999.25    -999.25    -999.25   52.24640    -999.25    -999.25    -999.25    -999.25    -999.25    -999.25    -999.25
  400.00000  395.99840  268.01110   -2.01840    -999.25    0.70270  371.78560   71.35210   67.69590    3.66110    3.11050    -999.25    0.47860 1499.79050    2.92780  -87.22040
  450.00000  344.09050  252.49560   -4.59930    -999.25    0.68120  403.08980   77.23490   67.01620    3.51010    2.99140    -999.25    0.46640 1547.38940    2.82650  -88.43420
  500.00000  296.37010  252.86490  127.27830    -999.25    0.18460  353.41660   68.99580   67.94520    6.52880    5.36790    -999.25    0.39390 2342.60450    4.90060  -88.29520
  550.00000  305.61150  249.33100   21.40090    -999.25    0.19070  333.19470   63.97180   64.31950    5.42440    4.86130    -999.25    0.36260 2329.22460    4.78500  -89.16580
  600.00000  260.07610  248.29710   69.79490    -999.25    0.08030  271.73230   40.02560   43.01330   12.32660   11.19010    -999.25    0.16830 2515.62130   13.77360  -91.40350
  650.00000  247.08990  233.31040   29.20000    -999.25    0.15660  293.47870   53.66370   48.07940    9.99880    9.42410    -999.25    0.34110 2370.63870    8.76980  -92.60370
  700.00000  223.24900  224.75360   23.72600    -999.25    0.22340  319.17650   46.82460   43.49920   11.82970   10.73320    -999.25    0.35440 2326.11890    8.13660  -99.10090
  750.00000  301.03380  247.04780   34.52880    -999.25    0.13020  317.41890   62.36850   58.47820    7.55550    6.99990    -999.25    0.32050 2432.58940    6.76760  -93.06220
  800.00000  338.77210  265.80190   48.32060    -999.25    0.20460  314.37290   93.54000   81.86020    9.21550    7.50850    -999.25    0.36600 2321.87500    6.97360  -94.44170
  850.00000  333.28780  279.40230   57.55890    -999.25    0.07180  306.79950  105.37240  104.40780   10.19920    9.23800    -999.25    0.32160 2527.70800    9.84590  -94.38600
  900.00000  328.01090  257.98730   51.03530    -999.25    0.42590  330.04820   82.79090   71.95080   10.85150    9.01910    -999.25    0.41710 1901.76560    7.98660  -99.11900
  950.00000  278.13710  237.96590  104.80450    -999.25    0.33870  259.62380   93.04940   89.58460    8.10590    6.77630    -999.25    0.44170 2004.29220    6.61840  -96.23190
 1000.00000  306.29700  251.53700  142.51030    -999.25    0.08920  272.07920   94.09540   86.35510   13.28790   12.96310    -999.25    0.28270 2501.53860   12.10190  -97.27040
 1050.00000  337.29970  255.21230   63.81180    -999.25    0.09710  300.18950  107.83030  116.56090    8.87900    7.90850    -999.25    0.32330 2489.35080    7.60080  -96.66590
 1100.00000  303.83590  248.79140   35.23800    -999.25    0.10650  324.59090  121.84340  115.04010   10.53580   10.12970    -999.25    0.38250 2473.63330   11.91040  -94.94140
 1150.00000  265.32290  246.67370   38.85420    -999.25    0.10300  317.69110  114.16470  101.38360   10.33650    9.75210    -999.25    0.37410 2477.80710   10.79090  -96.00560
 1200.00000  248.36330  244.29620  110.96910    -999.25    0.12030  269.98600   91.78280   83.94820    9.93330    9.44210    -999.25    0.24950 2462.73100   10.20680  -95.64070
 1250.00000  237.87010  241.03880   59.25330    -999.25    0.07140  284.61450  105.00920  101.79620    8.09580    7.79830    -999.25    0.34950 2529.38160    7.51210  -94.09180
 1300.00000  244.55000  247.47980   77.47020    -999.25    0.08120  290.71100  103.28500   97.00860    6.46310    6.30110    -999.25    0.32440 2529.46660    5.77380  -93.72400
 1350.00000  353.52810  253.94140   56.65760    -999.25    0.10460  338.33740  203.57530  190.44400    4.42120    4.20010    -999.25    0.39310 2498.72800    4.97380  -91.80310
 1400.00000  425.69960  237.12350   64.75930    -999.25    0.12060  315.94310  105.68540   96.92430    3.53480    3.45310    -999.25    0.35340 2453.73070    3.28820  -91.09270
 1450.00000  278.89360  275.15140   86.44170    -999.25    0.10080  254.05480   58.75840   51.21210   13.92000   14.20150    -999.25    0.20960 2522.02150   14.63220 -107.64060
 1500.00000  285.67780  269.28840   28.75650    -999.25    0.12220  255.66520   50.79180   44.67830   15.48270   15.07200    -999.25    0.24990 2451.10160   14.62200 -128.23010
 1550.00000  274.19130  270.39110   16.48700    -999.25    0.08860  248.31630   54.24310   49.48700   14.76470   14.13420    -999.25    0.26130 2497.86250   18.83180 -100.52050
 1600.00000  242.25530  237.35640   86.03240    -999.25    0.14030  252.39430   29.70140   28.12880   15.04910   17.75530    -999.25    0.20530 2404.55400   18.42040 -147.24940
 1650.00000  269.37790  247.86210   83.91800    -999.25    0.10780  237.20570   58.59100   57.23850    9.64070   12.96430    -999.25    0.22900 2471.73680   17.83590 -135.64320
 1700.00000  293.04280  274.54300   54.72890    -999.25    0.08490  243.07660   69.61900   65.66990   10.66640   12.13530    -999.25    0.23010 2504.73580   14.87280 -104.91210
 1750.00000  228.23290  230.73590   78.71530    -999.25    0.12290  245.89010   31.05040   29.06790    9.08350   12.03790    -999.25    0.21470 2463.56050   15.55380 -152.90730
 1800.00000  281.50250  285.01730   22.44900    -999.25    0.47370  306.80490   91.97590   90.49790   17.49290   14.93910    -999.25    0.58540 2092.86600   25.90720  -68.80730
 1850.00000  278.13750  283.64180   18.03160    -999.25    0.02910  220.39740   65.88690   66.32440   24.47230   22.28240    -999.25    0.18980 2606.35030   21.42190  -75.47950
 1900.00000  304.28870  311.38080  124.21450    -999.25    0.34880  285.22530   83.55500   80.98630    4.30270    3.98720    -999.25    0.47630 2097.90650    4.78950  -66.24500
 1950.00000  255.49480  246.84750   51.28400    -999.25    0.10870  227.10830   72.57100   69.13080   35.79010   34.40880    -999.25    0.20830 2474.62080   41.28300   34.50330
 2000.00000  256.48010  260.40740   22.50510    -999.25   -0.01570  190.06630   56.92520   50.65590   19.28920   19.68780    0.05670    -999.25 2679.39530   21.32870   35.92330
 2050.00000  270.56120  269.60260   17.08760    0.03720    -999.25  205.81640   85.98720   86.08870   27.07090   28.15340    0.08160    -999.25 2639.84890   33.63060  -16.43860
 2100.00000  231.54850  228.72770   47.17440    0.08300    -999.25  217.84170   27.10110   22.81820    4.59170    7.25220    0.14770    -999.25 2567.73730   18.06570 -165.81970
 2150.00000  245.82140  247.12430   20.71660   -0.04190    -999.25  164.32410   37.67650   21.53350  292.36570  178.51980    0.02560    -999.25 2783.48730  567.36910  -72.88570
 2200.00000  266.65940  255.81360    3.41360   -0.09040    -999.25  179.52480   17.24050   24.41670    8.41070    8.72840    0.01910    -999.25 2863.35500   18.83830  -90.15370
 2250.00000  261.37620  255.90900   75.53680    0.02360    -999.25  167.98280   15.03760   12.27760   56.98980   72.91240    0.01180    -999.25 2669.72020  353.19860 -167.66980
 2300.00000  285.46940  261.63370  185.86750    0.16100    -999.25  218.80220   72.55960   77.14470   11.70740   10.31170    0.18960    -999.25 2419.45480   13.09190    -999.25
 2350.00000  258.19420  255.07550   -1.52780   -0.01120    -999.25  160.30940   24.46890   15.12770   74.65710   89.95940    0.02310    -999.25 2729.24460 1279.04310    -999.25
 2400.00000  302.12460  256.41210  173.47730    0.01620    -999.25  163.81530   15.25540   11.88320  952.34660  393.84880    0.03170    -999.25 2681.05710  695.79470    -999.25
 2450.00000  259.46250  263.42720   21.07790    0.01120    -999.25  199.37310   66.96400   62.32760    4.35910    5.86270    0.08640    -999.25 2692.22270   13.52970    -999.25
 2500.00000  237.57210  244.88240    7.50420    0.00740    -999.25  172.69860   28.03020   26.05280  136.66280  108.29830    0.01160    -999.25 2694.75830  158.12340    -999.25
 2550.00000  285.82840  283.18500   21.16600    0.01480    -999.25  205.99570   70.57320   65.42850   16.97090   17.42020    0.10080    -999.25 2684.75020   19.51190    -999.25
 2600.00000  250.53430  248.00580   21.01590    0.00340    -999.25  196.61500   51.31010   43.04510   29.20940   30.37500    0.05400    -999.25 2703.84790   39.68900    -999.25
