~Version ---------------------------------------------------
VERS.      2.0 : CWLS log ASCII Standard -VERSION 2.0
WRAP.       NO : One line per depth step
CREA. 08/27/14 : LAS Creation Date
~Well ------------------------------------------------------
STRT.FT                          1000.0 : START DEPTH
STOP.FT                          9700.0 : STOP DEPTH
STEP.FT                        50.00000 : STEP LENGTH
NULL.                           -999.25 : NULL VALUE
COMP.                      GUYER OIL CO : COMPANY
WELL. GUYER ET AL SAKWATAMAU 2-15-63-15 : WELL
FLD .                                WC : FIELD
LOC .                                   : LOCATION
CTRY.                            CANADA : COUNTRY
SRVC.                      Schlumberger : SERVICE COMPANY
DATE.                       13-Nov-1969 : LOGDATE
PROV.                           Alberta : PROVINCE
UWI .                  100021506315W500 : UNIQUE WELL ID
SLAT.WGS84                     54.44702 : SURFACE LATITUDE
SLON.WGS84                     -116.175 : SURFACE LONGITUDE
~Curve Information -----------------------------------------
DEPT   .FT    : Depth Curve
CALN   .IN    : CALIPER FROM SNP LOG
CALS   .IN    : CALIPER FROM SONIC LOG
DT     .US/F  : DELTA TIME FROM SONIC LOG
GRS    .GAPI  : GAMMA RAY FROM SONIC LOG
ILD    .OHMM  : DEEP INDUCTION RESISTIVITY FROM RESISTIVITY LOG
ILM    .OHMM  : MEDIUM INDUCTION RESISTIVITY FROM RESISTIVITY LOG
LL8    .OHMM  : LATEROLOG-8 RESISTIVITY FROM RESISTIVITY LOG
SNP_LS .DEC   : SIDEWALL NEUTRON POROSITY LIMESTONE FROM SNP LOG
SPHI_LS.DEC   : SONIC POROSITY LIMESTONE [DTM=47.6, DTF=189] FROM SONIC LOG
SPHI_SS.DEC   : SONIC POROSITY SANDSTONE [DTM=55.6, DTF=189] FROM SONIC LOG
SPR    .MV    : SPONTANEOUS POTENTIAL FROM RESISTIVITY LOG
~Params ----------------------------------------------------
PD  .                     GL : PERMANENT DATUM
EPD .FT                 3072 : ELEVATION PERMANENT DATUM
LMF .                     KB : LOG MEASURED FROM
DAPD.FT                   13 : FEET ABOVE PERMANENT DATUM
EKB .FT                 3085 : KELLY BUSHING
EGL .FT                 3072 : GROUND LEVEL
DATE.               11/13/69 : RUN DATE
RUN .                      1 : RUN NUMBER
DD  .FT                 9704 : DEPTH DRILLER
DL  .FT                 9705 : DEPTH LOGGER
BLI .FT                 9701 : BOTTOM LOG INTERVAL
TLI .FT                 1005 : TOP LOG INTERVAL
CBD .FT                 1005 : CASING BOTTOM DRILLER
CBL .FT                 1005 : CASING BOTTOM LOGGER
BS  .IN                7.875 : BIT SIZE
BSD .FT                 9704 : BIT SIZE AT DEPTH
DFT .                    GEL : DRILLING FLUID TYPE
DFD .                    9.1 : DRILLING FLUID DENSITY
DFV .                     70 : DRILLING FLUID VISCOSITY
DFPH.                    8.5 : DRILLING FLUID PH
DFL .                      9 : DRILLING FLUID LOSS
MSS .                DRILLER : MUD SAMPLE SOURCE
RMS .OHMM               2.61 : RESISTIVITY MUD SAMPLE
MST .DEGF                 74 : MUD SAMPLE TEMPERATURE
RMF .OHMM               2.12 : RESISTIVITY MUD FILTRATE SAMPLE
MFST.DEGF                 75 : MUD FILTRATE SAMPLE TEMPERATURE
RMC .OHMM               2.91 : RESISTIVITY MUD CAKE
MCST.DEGF                 75 : MUD CAKE SAMPLE TEMPERATURE
TCS .HRS                   6 : TIME CIRCULATED STOPPED
LUN .                   7501 : LOGGING UNIT NUMBER
LUL .                    EDM : LOGGING UNIT LOCATION
ENGI.                 EDGSON : RECORDING ENGINEER
WITN.              ZASEYBIDA : WITNESSED BY
CLNT.                A2DTECH : CLIENT CODE
ORIG.            2" 5" PRINT : ORIGIN OF DATA
UWI .       100021506315W500 : UNIQUE WELL ID
DICO. A2D Technologies, Inc. : DIGITIZING COMPANY
~Other -----------------------------------------------------
~ASCII -----------------------------------------------------
# ...
 7100.00000   10.52820    9.67830   50.92570   11.58910  400.39270  202.21700  153.31610    0.00000    0.02190    -999.25  -86.85460
 7150.00000    9.77280    9.25000   49.79150   11.14770  933.75100  371.93310  335.80930    0.01050    0.01330    -999.25  -91.35400
 7200.00000   10.71920    9.25470   49.94990   12.62120 1378.38460 1336.23800 1270.66780    0.00450    0.01530    -999.25  -90.01580
 7250.00000    9.87670    9.27530   50.44900   10.44000   59.98980   75.29290  273.85710    0.01030    0.01920    -999.25 -115.88600
 7300.00000    8.80780    8.74440   52.88980   10.80800   36.40390   63.45470  347.65570    0.04910    0.03680    -999.25 -147.14800
 7350.00000    9.80610    9.30830   51.11170    9.81640   46.46390   60.52950  291.90060    0.03430    0.02170    -999.25 -111.31610
 7400.00000    9.72990    9.11720   48.74860   13.86660    -999.25 1306.29110 1254.92160   -0.00230    0.00740    -999.25  -88.59450
 7450.00000    9.56690    9.09830   49.12290   12.87970    -999.25  501.68360  314.83940   -0.00330    0.00920    -999.25  -85.42120
 7500.00000    9.76050    9.37160   49.58550   10.75530  153.46750  119.47000  111.94210    0.00160    0.01200    -999.25  -86.87000
 7550.00000    8.71800    8.28640   53.85170   12.02540   48.12160   98.64820  401.30640    0.05060    0.04180    -999.25 -132.64720
 7600.00000    8.93120    8.20990   53.12250   15.31470   29.30210   45.39360  406.70940    0.04640    0.04340    -999.25 -148.28220
 7650.00000    8.79960    8.54720   47.90570   17.94240   48.40660   76.66630  240.52160    0.05060    0.00540    -999.25 -184.07320
 7700.00000    9.32190    8.91930   48.55110   11.74620  310.43470  397.33590 1272.06520   -0.00250    0.00650    -999.25 -109.74940
 7750.00000    9.01520    9.02780   51.92690   15.78930   25.07970   25.84210   55.94840    0.04120    0.02800    -999.25 -113.68180
 7800.00000    9.68660    9.39730   46.81650   14.64810  139.46970  218.80870  549.17080    0.05740   -0.00770    -999.25 -156.11000
 7850.00000   10.81910    9.23860   52.33870   17.15600   49.60010   44.10480   48.70970    0.06120    0.03360    -999.25 -127.66050
 7900.00000    8.75980    8.56300   50.33560   26.54050  187.39230  200.32310  304.79380    0.00600    0.01820    -999.25  -78.03660
 7950.00000    8.81370    8.69360   52.02160   26.23110  141.92910  134.70400  126.17180    0.01200    0.02960    -999.25  -53.87320
 8000.00000    -999.25    9.06880   54.58540   30.73540   80.79110   82.58160   89.47260    -999.25    0.04800    -999.25  -46.17460
 8050.00000    -999.25    8.47590   55.95050   47.57870   63.93770   66.85280   70.70180    -999.25    0.05590    -999.25  -71.42160
 8100.00000    -999.25    8.57940   57.09910   64.99400   38.62000   40.70980   42.12020    -999.25    0.06540    -999.25  -54.33520
 8150.00000    -999.25    8.87200   57.14970   48.79120   42.07710   43.69160   52.64500    -999.25    0.06580    -999.25  -50.04000
 8200.00000    -999.25    9.83010   57.05550   35.28750   33.12040   33.84950   41.83950    -999.25    0.06510    -999.25  -48.70910
 8250.00000    -999.25    8.97540   56.10880   33.36190   35.95960   38.22460   47.33290    -999.25    0.05850    -999.25  -51.55770
 8300.00000    -999.25    9.16030   61.41070   50.24450   14.04700   15.21370   18.46730    -999.25    0.09670    -999.25  -51.53280
 8350.00000    -999.25    9.09410   62.64130   53.33610   14.22140   15.34440   17.60170    -999.25    0.10470    -999.25  -50.30330
 8400.00000    -999.25    8.93490   71.26930   76.32610   50.30600   59.82330   66.59610    -999.25    0.16700    -999.25  -47.37390
 8450.00000    -999.25    9.59330   60.46070   66.64420   20.94460   22.26740   23.77670    -999.25    0.09480    -999.25  -53.32710
 8500.00000    -999.25    8.78900   60.77470   40.28470   14.22700   15.96250   19.34290    -999.25    0.09050    -999.25  -41.30540
 8550.00000    -999.25   10.67500   74.14030   68.05790    8.46440    9.21760   10.79340    -999.25    0.18550    -999.25  -46.73280
 8600.00000    -999.25   11.12150   80.69080   73.72070    7.02910    7.48930    9.42930    -999.25    0.22760    -999.25  -53.19120
 8650.00000    -999.25    9.23840   65.93860   60.29670   10.26750   10.98830   12.28970    -999.25    0.12800    -999.25  -46.56130
 8700.00000    -999.25    9.38780   66.33540   71.36500   10.49020   11.47700   14.34790    -999.25    0.13310    -999.25  -41.38240
 8750.00000    -999.25    8.75670   66.39320   66.97700   10.52750   11.30270   15.02470    -999.25    0.13230    -999.25  -40.06790
 8800.00000    -999.25    8.94040   70.85600   95.03000    8.58920    9.29550   11.13460    -999.25    0.16210    -999.25  -39.71010
 8850.00000    -999.25    8.62340   72.40960   94.91180    9.11330   10.24510   13.24660    -999.25    0.17190    -999.25  -36.38900
 8900.00000    -999.25    9.51250   74.60700   87.60610    7.80200    8.23470    9.37660    -999.25    0.18750    -999.25  -40.60270
 8950.00000    -999.25    9.84560   74.01870   86.31450    6.19400    6.82400    8.12600    -999.25    0.18670    -999.25  -41.43020
 9000.00000    -999.25    9.84510   79.29310   93.63720    6.77680    7.33490    9.46430    -999.25    0.21770    -999.25  -35.29690
 9050.00000    -999.25    8.05350   78.39440   99.02700    -999.25    -999.25    -999.25    -999.25    0.21220    -999.25  -22.73920
 9100.00000    -999.25    8.09960   58.13600   47.38610   37.19450   39.86660   46.98800    -999.25    0.07310    -999.25  -26.69510
 9150.00000    -999.25    8.18140   81.73310  100.06890   71.69790   78.20210  171.26040    -999.25    0.23790    -999.25  -18.34990
 9200.00000    -999.25    8.10550   68.07510  104.02590   12.10090   13.83170   20.94510    -999.25    0.14480    -999.25  -24.27420
 9250.00000    8.18450    8.07350   64.04620   75.54350   15.88520   17.42940   22.18660    0.07050    0.11480    -999.25  -22.76880
 9300.00000    8.18180    7.97160   55.35520   25.65850  120.19180  146.57970  166.84330    0.02120    0.04330    -999.25  -28.19480
 9350.00000    8.01930    7.96100   49.96960    8.55890  126.16300  107.09480  334.14340    0.01100    0.01500    -999.25 -167.31830
 9400.00000    8.09300    7.96530   49.88250    8.28440   43.75940   36.79280  115.04300    0.00800    0.01470    -999.25 -149.65460
 9450.00000    8.02730    7.96390   49.01090   15.09220    -999.25    -999.25    -999.25    0.00670    0.00790    -999.25 -119.04640
 9500.00000    8.02860    7.95500   48.88570   12.31220    -999.25    -999.25 1447.59050    0.00560    0.00790    -999.25  -97.02950
 9550.00000    8.05170    7.95430   49.62000   12.02340    -999.25    -999.25 1452.72620    0.00480    0.01270    -999.25  -95.15170
 9600.00000    7.99210    7.80370   49.27220   16.31260 1530.84690    -999.25 1434.38120   -0.00010    0.01020    -999.25 -103.06460
 9650.00000    7.40690    7.44700   66.96780   93.76800    0.76120    0.93540    5.22090    0.12590    0.13630    -999.25 -177.34360
 9700.00000    7.72710    7.84450   79.61720    0.65760   55.69210   77.97840  123.60400    0.05310    0.08720    -999.25  -79.98020
