~Version ---------------------------------------------------
VERS. 2.0 : CWLS log ASCII Standard -VERSION 2.0
WRAP.  NO : ONE LINE PER DEPTH STEP
~Well ------------------------------------------------------
STRT.F                  1500.0 : START DEPTH
STOP.F                 10050.0 : STOP DEPTH
STEP.F                50.00000 : STEP LENGTH
NULL.                  -999.25 : NULL VALUE
COMP.     CHEVRON STANDARD LTD : COMPANY
WELL. CHEVRON PEMBINA 6-3-51-7 : WELL
FLD .                          : FIELD
LOC .                          : LOCATION
CTRY.                   CANADA : COUNTRY
SRVC.             Schlumberger : SERVICE COMPANY
DATE.              05-Jul-1978 : LOGDATE
PROV.                  Alberta : PROVINCE
UWI .         100060305107W500 : UNIQUE WELL ID
SLAT.WGS84            53.37366 : SURFACE LATITUDE
SLON.WGS84           -114.9508 : SURFACE LONGITUDE
~Curve Information -----------------------------------------
DEPT   .F    0   1   0  0 : 1 MEASURED DEPTH
GRD    .GAPI 45 310 01 00 : GAMMA RAY FROM DENSITY LOG
RHOB   .G/C3 45 350 01 00 : BULK DENSITY
DCOR   .G/C3 45 356 01 00 : DENSITY CORRECTION
TEND   .LB   45 635 00 00 : TENSION FROM DENSITY LOG
NPHI_SS.DEC  42 890 03 00 : NEUTRON POROSITY SANDSTONE
CALD   .IN   45 280 60 00 : CALIPER FROM DENSITY LOG
DPHI_SS.DEC  45 890 12 00 : DENSITY POROSITY SANDSTONE
NPHI_LS.DEC  42 890 01 00 : NEUTRON POROSITY LIMESTONE
DPHI_LS.DEC  45 890 10 00 : DENSITY POROSITY LIMESTONE
GRS    .GAPI 60 310 01 00 : GAMMA RAY FROM SONIC LOG
DT     .US/F 60 500 00 00 : DELTA-T (INTERVAL TRANSIT TIME)
CALS   .IN   60 280 50 00 : CALIPER FROM SONIC LOG
TENS   .LB   60 635 00 00 : TENSION FROM SONIC LOG
SPR    .MV   07 010 01 00 : SPONTANEOUS POTENTIAL FROM RESISTIVITY LOG
ILD    .OHMM 07 120 46 00 : INDUCTION DEEP RESISTIVITY
ILM    .OHMM 07 120 44 00 : INDUCTION MEDIUM RESISTIVITY
SFL    .OHMM 07 220 01 00 : SPHERICALLY FOCUSED LOG
~Params ----------------------------------------------------
PD  .                     GL : PERMANENT DATUM
EPD .FT               2688.6 : ELEVATION PERMANENT DATUM
LMF .                     KB : LOG MEASURED FROM
DAPD.FT                 17.4 : FEET ABOVE PERMANENT DATUM
EKB .FT                 2706 : KELLY BUSHING
EGL .FT               2688.6 : GROUND LEVEL
DATE.                0705/78 : RUN DATE
RUN .                      1 : RUN NUMBER
DD  .FT              3066.28 : DEPTH DRILLER
DL  .FT              3065.67 : DEPTH LOGGER
BLI .FT              3064.76 : BOTTOM LOG INTERVAL
TLI .FT               473.96 : TOP LOG INTERVAL
CBD .FT               473.96 : CASING BOTTOM DRILLER
CBL .FT               472.44 : CASING BOTTOM LOGGER
BS  .IN                 8.75 : BIT SIZE
BSD .FT              3066.28 : BIT SIZE AT DEPTH
DFT .                    GEL : DRILLING FLUID TYPE
DFD .                    110 : DRILLING FLUID DENSITY
DFV .                     75 : DRILLING FLUID VISCOSITY
DFPH.                    9.5 : DRILLING FLUID PH
MSS .            CIRCULATION : MUD SAMPLE SOURCE
RMS .OHMM               0.33 : RESISTIVITY MUD SAMPLE
MST .DEGF                 58 : MUD SAMPLE TEMPERATURE
RMF .OHMM               0.14 : RESISTIVITY MUD FILTRATE SAMPLE
MFST.DEGF                 68 : MUD FILTRATE SAMPLE TEMPERATURE
RMC .OHMM               0.15 : RESISTIVITY MUD CAKE
MCST.DEGF                 68 : MUD CAKE SAMPLE TEMPERATURE
TCS .HRS                   8 : TIME CIRCULATED STOPPED
LUN .                   7738 : LOGGING UNIT NUMBER
LUL .                    EDM : LOGGING UNIT LOCATION
ENGI.                ALVAREZ : RECORDING ENGINEER
WITN.                SPRAGUE : WITNESSED BY
CLNT.                A2DTECH : CLIENT CODE
ORIG.            2" 5" PRINT : ORIGIN OF DATA
UWI .       100060305107W500 : UNIQUE WELL ID
DICO. A2D Technologies, Inc. : DIGITIZING COMPANY
~Other -----------------------------------------------------
~ASCII -----------------------------------------------------
# ...
 7650.00000   67.09670    2.59920    0.02140 8209.95120    -999.25    9.56670    -999.25    0.13700    0.04760   72.81220   62.43530    8.36690 8645.35550  -20.08470   14.90670   16.63040   22.06040
 7700.00000   87.21200    2.68020   -0.03290 8150.96880    -999.25    9.56960    -999.25    0.15830    0.02750   92.10070   64.35370    8.40510 8714.65620  -20.93450   13.15870   13.85350   16.59850
 7750.00000   73.64950    2.43700    0.10570 7901.63040    -999.25   10.60460    -999.25    0.11210    0.15340   70.68600   63.74600    8.64090 8578.80180  -27.51490   10.56890   11.04530   12.22510
 7800.00000   85.38460    2.47650   -0.01490 8008.25780    -999.25   10.02820    -999.25    0.20240    0.12810   85.82170   70.17080    8.43770 8434.40430  -25.53500    8.56860    9.80000   11.00030
 7850.00000   74.01750    2.31630    0.08960 8059.70510    -999.25   12.17950    -999.25    0.21040    0.23230   78.90570   69.92140    8.70310 8831.68360  -31.72280    8.10850    8.77990   10.21370
 7900.00000   72.25170    2.23630    0.08870 7643.70310    -999.25   12.06100    -999.25    0.22050    0.28680   82.59130   71.67030    9.25770 8289.17680  -34.55740    7.34280    8.09300    8.71590
 7950.00000   85.02450    2.36730    0.07030 7925.49170    -999.25   12.89560    -999.25    0.23190    0.17430   91.19780   73.53750    9.43690 8431.91890  -31.03410    7.05800    7.52700    8.43660
 8000.00000   79.22340    2.26750    0.05280 7960.07710    -999.25   12.11060    -999.25    0.27810    0.24570   90.20640   74.25360    9.39940 8375.93360  -34.59540    5.22680    5.59340    6.66330
 8050.00000   78.59740    2.34540    0.10600 7428.99120    -999.25   10.35360    -999.25    0.19070    0.18980   82.44860   69.35910    8.50970 7962.39450  -31.35170    7.95630    9.06350   10.77720
 8100.00000   78.63750    2.29980    0.06460 10142.81540    -999.25   13.72320    -999.25    0.25380    0.19900   81.08720   74.52720   10.51450 7994.35600  -28.07420    5.82380    6.11380    6.91170
 8150.00000   71.51840    2.33080    0.07320 9839.44530    -999.25    9.85960    -999.25    0.21130    0.21960   76.08090   69.60000    8.55240 7723.73000  -26.22140    7.13570    7.64570    9.35760
 8200.00000   78.63670    2.42260    0.02430 9923.27540    -999.25   13.24260    -999.25    0.24370    0.15740   78.26170   76.15740   10.65570 8137.45800  -28.38300    5.12780    5.47570    6.36620
 8250.00000   81.08250    2.43680    0.00340 9516.86820    -999.25   13.30620    -999.25    0.24280    0.14870   84.00140   77.80220   10.74090 7969.64060  -28.09060    4.87960    5.22260    5.98220
 8300.00000   79.65020    2.41020    0.05820 9556.26270    -999.25   13.12570    -999.25    0.23000    0.18010   78.33410   74.12320   10.40270 9536.52050  -21.08180    6.14760    6.60000    7.49830
 8350.00000   62.25210    2.67470   -0.03300 9220.77250    -999.25    8.91800    -999.25    0.11540    0.01870   69.07420   64.38860    8.14520 9237.30960  -18.85220   16.39200   17.44020   21.16910
 8400.00000   54.10220    2.58270   -0.03980 9160.13280    -999.25    8.84020    -999.25    0.17120    0.11110   72.60400   64.45310    7.83580 9296.07810  -17.56050   50.89420   62.30220   99.07860
 8450.00000   53.17000    2.63170   -0.05370 9180.36330    -999.25    8.74090    -999.25    0.14160    0.05050   62.91600   63.57840    7.97700 9130.80370   -9.11620   12.94080   13.89030   15.92240
 8500.00000   78.43760    1.95430    0.03470 9049.27830    -999.25   10.78800    -999.25    0.30650    0.43480   76.71200   81.89910    9.72880 9342.01950  -27.28070    3.66350    3.92580    4.30920
 8550.00000   82.94230    2.17970    0.03130 9203.03910    -999.25   12.55510    -999.25    0.33630    0.31330   84.31460   81.31300   10.63950 9313.94040  -16.15190    3.93820    4.20500    5.08200
 8600.00000   90.07900    2.36550    0.00640 9022.65720    -999.25   12.08970    -999.25    0.26150    0.19350   96.74770   84.25980   10.51830 9119.58500  -15.47740    3.56820    3.87660    4.50880
 8650.00000   43.91710    2.65400   -0.03070 8637.02730    -999.25    8.82990    -999.25    0.08790    0.03400   41.96630   58.04410    8.06850 8854.02440   -8.28450   19.98450   22.52230   26.09560
 8700.00000   55.70400    2.52850   -0.01970 8418.20310    -999.25    9.22620    -999.25    0.10540    0.08180   56.16900   62.77620    8.48920 8651.46680  -12.42580    8.61960    9.73280   14.51880
 8750.00000   52.46390    2.66310   -0.05550 8360.70800    -999.25    9.07870    -999.25    0.13000    0.03160   53.10250   63.32280    8.22570 8468.78810    4.56420    8.89890    9.97370   11.65360
 8800.00000   27.30460    2.66440   -0.04720 8446.08890    -999.25    8.98220    -999.25    0.05130    0.01700   30.94210   52.15220    8.13370 8364.06930   -2.57500   36.67820   45.28310   40.64240
 8850.00000   38.49870    2.66240   -0.05450 8266.05180    -999.25    8.96790    -999.25    0.05910    0.01040   37.85020   58.61160    8.21010 8255.88090   -0.46290   18.70880   19.96800   22.10310
 8900.00000   20.25990    2.68960   -0.03770 8321.00200    -999.25    8.95140    -999.25    0.01830    0.01230   21.86170   52.24970    8.18200 8226.23050   -7.57700   85.38370  118.54550  154.74310
 8950.00000   39.69000    2.63880   -0.05310 8215.71970    -999.25    8.87840    -999.25    0.06560    0.05480   39.79360   57.60320    8.11800 7992.76030   -7.96940   20.54750   21.71540   26.24070
 9000.00000   52.17190    2.55620    0.00560 8223.12600    -999.25    9.28420    -999.25    0.15520    0.08880   53.19460   61.49260    8.22930 7932.48190  -13.40640   15.20570   16.62690   18.81950
 9050.00000   54.97770    2.66100   -0.05080 7829.24120    -999.25    9.05410    -999.25    0.10630    0.01910   58.93260   59.50150    8.34510 7845.37260   -8.72130   13.10860   14.88380   16.06880
 9100.00000   32.04020    2.64040   -0.05340 7885.50240    -999.25    8.94580    -999.25    0.04200    0.03910   30.20500   53.67850    8.26380 7927.07670  -15.12890   47.65730   56.44100   60.82140
 9150.00000   27.75170    2.67340   -0.04280 7813.79390    -999.25    8.96430    -999.25    0.03170    0.01990   26.34160   52.24360    8.29390 7723.26070  -15.28320   63.00730   71.13360  117.76990
 9200.00000   35.93730    2.66910   -0.05310 7835.77290    -999.25    8.85770    -999.25    0.03890    0.02550   34.70870   52.80880    8.27380 7631.21440  -16.12780   93.66640   97.85920  117.43810
 9250.00000   91.78360    2.64170   -0.04680 7913.79590    -999.25    9.19510    -999.25    0.13660    0.04150   99.50480   62.67440    8.42230 7630.09910  -26.88120    6.53180    8.13460    9.17990
 9300.00000   81.66520    2.61580   -0.05570 7656.29830    -999.25    8.83140    -999.25    0.17110    0.06910   97.05160   61.82810    8.34770 7519.22610  -31.18840    4.30070    5.56720   21.08580
 9350.00000  109.10130    2.60720   -0.05520 7627.42920    -999.25    8.83090    -999.25    0.15860    0.04660  105.12180   60.94650    8.33990 7460.39990  -25.58460   12.42580   15.17400   20.94740
 9400.00000  101.32150    2.70890   -0.04700 7447.91700    -999.25    8.72780    -999.25    0.17830   -0.00230  111.50970   62.11710    8.34960 7300.15820  -18.09010   14.87270   17.04110   18.17400
 9450.00000  122.05140    2.54260   -0.02710 7407.08690    -999.25    9.24520    -999.25    0.22330    0.19190  132.61560   61.31220    8.74630 7278.38770  -20.56250   15.90970   18.18540   19.47740
 9500.00000   95.89370    2.36570    0.00090 7418.92580    -999.25    9.24570    -999.25    0.18110    0.27050   98.66590   61.96490    8.78550 7361.03080   -6.34210   24.55950   31.57700   32.93660
 9550.00000   36.06070    2.66270   -0.04240 7547.07080    -999.25    9.06700    -999.25    0.08880    0.02900   39.86130   51.21280    8.41770 7136.41460  -81.79780   11.17890   12.64700   10.29580
 9600.00000   75.72570    2.67150   -0.03850 7559.54250    -999.25    8.57810    -999.25    0.16770    0.02850   83.82240   54.98730    8.28640 7051.39600  -13.64660   12.06170   13.67480   14.85880
 9650.00000   49.87890    2.69110   -0.05210 7470.33350    -999.25    8.25560    -999.25    0.13570    0.01480   52.18570   53.36360    8.18110 7204.21920  -35.02420   13.01620   14.98890   14.87450
