~Version ---------------------------------------------------
VERS. 2.0 : CWLS log ASCII Standard -VERSION 2.0
WRAP.  NO : ONE LINE PER DEPTH STEP
~Well ------------------------------------------------------
STRT.F                           300.0 : START DEPTH
STOP.F                          9800.0 : STOP DEPTH
STEP.F                        50.00000 : STEP LENGTH
NULL.                          -999.25 : NULL VALUE
COMP.        CANADIAN GULF OIL COMPANY : COMPANY
WELL.              CGOC  IOSEGUN 15-28 : WELL
FLD .                                  : FIELD
LOC .                                  : LOCATION
CTRY.                           CANADA : COUNTRY
SRVC. Schlumberger Well Surveying Corp : SERVICE COMPANY
DATE.                      08-Aug-1954 : LOGDATE
PROV.                          Alberta : PROVINCE
UWI .                 100152806721W500 : UNIQUE WELL ID
SLAT.WGS84                    54.83244 : SURFACE LATITUDE
SLON.WGS84                   -117.1373 : SURFACE LONGITUDE
~Curve Information -----------------------------------------
DEPT  .F                 : 
SPR   .MV   99 010 00 00 : SELF POTENTIAL
LN    .OHMM 01 060 63 00 : LONG NORMAL 64"
LT18  .OHMM 01 070 18 00 : LATERAL 18'
SN    .OHMM 01 041 16 00 : SHORT NORMAL 16"
NEUT  .NAPI 35 330 22 00 : NEUTRON
GRN   .GAPI              : GAMMA RAY NEUTRON
NEUT_1.NAPI 35 330 30 00 : NEUTRON
GRN_1 .GAPI              : UNFILTERED GAMMA
~Params ----------------------------------------------------
LMF .                     KB : LOG MEASURED FROM
DMF .                     KB : DRILLING MEASURED FROM
EKB .FT                 2318 : KELLY BUSHING
DATE.               08/08/54 : RUN DATE
RUN .                      2 : RUN NUMBER
DD  .FT                 9832 : DEPTH DRILLER
DL  .FT                 9832 : DEPTH LOGGER
BLI .FT                 9832 : BOTTOM LOG INTERVAL
TLI .FT                 9667 : TOP LOG INTERVAL
CBD .FT                  597 : CASING BOTTOM DRILLER
CBL .FT                  597 : CASING BOTTOM LOGGER
BS  .IN                    9 : BIT SIZE
BSD .FT                 9832 : BIT SIZE AT DEPTH
DFT .                AQUAGEL : DRILLING FLUID TYPE
DFD .                   10.5 : DRILLING FLUID DENSITY
DFV .                    250 : DRILLING FLUID VISCOSITY
DFPH.                     10 : DRILLING FLUID PH
DFL .                    5.2 : DRILLING FLUID LOSS
MSS .               FLOWLINE : MUD SAMPLE SOURCE
RMS .OHMM                2.0 : RESISTIVITY MUD SAMPLE
MST .DEGF                 59 : MUD SAMPLE TEMPERATURE
RMB .OHMM                0.7 : RESISTIVITY MUD AT BHT
TCS .HRS                   2 : TIME CIRCULATED STOPPED
LUN .                    770 : LOGGING UNIT NUMBER
LUL .                     PR : LOGGING UNIT LOCATION
ENGI.                 CARSON : RECORDING ENGINEER
WITN.              SCHOMAKER : WITNESSED BY
CLNT.                A2DTECH : CLIENT CODE
ORIG.            2" 5" PRINT : ORIGIN OF DATA
UWI .       100152806721W500 : UNIQUE WELL ID
DICO. A2D Technologies, Inc. : DIGITIZING COMPANY
~Other -----------------------------------------------------
~ASCII -----------------------------------------------------
# ...
 4300.00000 -122.04540   12.33260    8.24470   18.27000  272.73950   46.49860    -999.25    -999.25
 4350.00000  -73.45120   12.13890   13.66770   10.40550  217.36060   43.82000    -999.25    -999.25
 4400.00000  -73.48630   10.36350    4.00310    7.71810  338.51340   26.68730    -999.25    -999.25
 4450.00000  -73.36450   16.17890   11.66350   13.20300  271.02700   33.97050    -999.25    -999.25
 4500.00000  -85.37550   12.87010   29.69180   15.41980  241.67440   50.84680    -999.25    -999.25
 4550.00000  -76.46770    9.17270   17.46810   11.81060  295.87690   34.54220    -999.25    -999.25
 4600.00000 -145.08130   12.47820    6.66460   18.69030  325.85190   28.52910    -999.25    -999.25
 4650.00000  -81.22820   10.14860    7.35780   10.62350  259.23370   44.56210    -999.25    -999.25
 4700.00000 -142.63330   11.78780    6.44810   18.47020  341.31030   29.28220    -999.25    -999.25
 4750.00000 -110.30460   15.48310    9.89130   21.15000  257.77930   42.14730    -999.25    -999.25
 4800.00000  -95.93640   12.89190   15.54880   20.04020  208.69420   42.70130    -999.25    -999.25
 4850.00000  -73.60100    7.85850    9.98210    8.89020  229.34300   57.65390    -999.25    -999.25
 4900.00000  -72.64500   11.25820    7.52360   10.82590  384.55000   38.23110    -999.25    -999.25
 4950.00000 -146.13090   21.97420   10.13700   25.73900  374.62630   42.82830    -999.25    -999.25
 5000.00000 -125.14740   34.33620   14.83050   30.51650  563.34360   25.25160    -999.25    -999.25
 5050.00000  -80.11530   32.71920   77.14240   29.66520  340.44050   20.85970    -999.25    -999.25
 5100.00000  -80.54990    6.39000    5.36190    5.31950  115.47560   43.34930    -999.25    -999.25
 5150.00000  -79.52860    5.10800    5.76670    4.38010  142.33420   35.43940    -999.25    -999.25
 5200.00000  -75.28090    5.64680    5.05310    5.25030   97.91330   45.10580    -999.25    -999.25
 5250.00000 -106.03510   10.42480    5.04670    9.96920  206.80590   59.93710    -999.25    -999.25
 5300.00000 -108.59390  151.00740   81.94970   65.17430  201.85800  127.26060    -999.25    -999.25
 5350.00000 -133.22760  796.27620  830.00860  216.66830  316.10020  149.92390    -999.25    -999.25
 5400.00000 -171.93340   18.01890   13.10170   24.83350  365.04440   29.74870    -999.25    -999.25
 5450.00000 -166.56240   17.51390    7.33210   21.93800  345.17030   40.57240    -999.25    -999.25
 5500.00000 -175.67920   22.36920   11.31410   24.50140  352.92420   24.11140    -999.25    -999.25
 5550.00000 -132.95370   12.20220    9.12510   15.05590  330.57640   26.66580    -999.25    -999.25
 5600.00000 -131.37070   15.15990   10.13700   15.38500  510.65130   29.07670    -999.25    -999.25
 5650.00000 -163.45560   16.02940   10.70550   24.19880  504.81750   40.67660    -999.25    -999.25
 5700.00000 -250.49260   67.09470   12.98280   47.01960  483.99840   26.98980    -999.25    -999.25
 5750.00000 -164.09140   53.87420   10.04960   39.87520  664.33280   18.72450    -999.25    -999.25
 5800.00000 -171.60580   54.80310   49.82960   32.14080  602.12200   24.25020    -999.25    -999.25
 5850.00000 -229.13740  361.71270  543.14530  130.21740  586.90670   17.56730    -999.25    -999.25
 5900.00000 -190.73250   82.03310  771.39650   47.97360  593.24540   22.19820    -999.25    -999.25
 5950.00000 -234.73070  532.74440  263.76910  195.73190  603.70750   14.10150    -999.25    -999.25
 6000.00000 -228.12430   53.01510   46.43150   41.05030  439.28980   13.36990    -999.25    -999.25
 6050.00000 -253.93400  101.64720  104.47990   79.29040  469.03990    9.83600    -999.25    -999.25
 6100.00000 -269.49880   30.41370   17.59230   34.67820  425.85800   55.16450    -999.25    -999.25
 6150.00000 -164.65550   43.34470   99.32260   27.85720  469.65240   18.91830    -999.25    -999.25
 6200.00000 -127.91200   96.61460   49.71220   54.83940  563.71440   24.39890    -999.25    -999.25
 6250.00000 -211.24860   20.55110  136.87720   24.46260  265.02950   31.24270    -999.25    -999.25
 6300.00000 -171.12300   29.33150   30.06150   22.15580  604.96780   19.98750    -999.25    -999.25
 6350.00000 -169.73700   56.68950   15.64680   34.26350  662.19760   20.07210    -999.25    -999.25
 6400.00000 -160.01200   28.30970   21.56130   32.36970  615.81050   34.81230    -999.25    -999.25
 6450.00000 -256.31920  285.02160  641.72360  116.01220  609.44460   19.74030    -999.25    -999.25
 6500.00000 -261.71220  247.05280  211.18000  115.00450  679.22750   16.10210    -999.25    -999.25
 6550.00000 -233.82550  446.07330  858.09560  144.96590  664.21670   14.02820    -999.25    -999.25
 6600.00000 -116.93710   14.12230   78.05640    8.84050  408.97460   69.11470    -999.25    -999.25
 6650.00000 -131.46890   10.30390    5.60610   12.27390  361.34290   60.98220    -999.25    -999.25
 6700.00000 -126.77580   24.85620   16.68620   32.41600  468.60430   27.49210    -999.25    -999.25
 6750.00000  -90.19670   17.73900    5.59020   12.20220  415.79100   29.59960    -999.25    -999.25
 6800.00000 -105.56420   69.72130   99.40590   38.34330  565.99100    8.60780    -999.25    -999.25
 6850.00000 -110.47130   52.89390   68.33840   30.93270  446.41520   31.01760    -999.25    -999.25
 6900.00000 -114.59730   71.52700   59.98270   38.99650  534.50290   16.29490    -999.25    -999.25
 6950.00000 -118.32550  133.38270  155.19090   67.20010  545.14410   20.68250    -999.25    -999.25
 7000.00000 -132.82540  139.78760  201.19890   62.15510  609.83120   13.70210    -999.25    -999.25
 7050.00000 -131.86990  188.97170  284.95820   74.90180  601.27590   13.92650    -999.25    -999.25
 7100.00000 -132.96730   94.10620  129.71530   54.33060  558.22810   25.71920    -999.25    -999.25
 7150.00000 -126.87650   89.06870   71.52660   46.30160  606.43230    9.40810    -999.25    -999.25
 7200.00000 -113.51580   93.23870  157.82510   49.37470  324.56950   39.73690    -999.25    -999.25
 7250.00000 -137.54970  246.31750  359.07800   94.68060  587.97030   12.93190    -999.25    -999.25
 7300.00000 -106.00640   43.12380   47.91730   27.75510  448.02500  102.33000    -999.25    -999.25
 7350.00000 -179.06560  512.63560  977.49290  138.91500  600.48710   10.58410    -999.25    -999.25
 7400.00000 -175.25470  359.61750  575.59090  116.13220  694.13210    8.33950    -999.25    -999.25
 7450.00000 -164.47470  317.88000 1038.41210   95.48710  723.62810   10.82280    -999.25    -999.25
 7500.00000 -211.59400  308.16550  736.16260   99.62810  721.60820    4.18630    -999.25    -999.25
 7550.00000 -198.90040  207.15920  364.94730   77.17910  737.80500    5.57040    -999.25    -999.25
 7600.00000 -273.19620  363.98560  516.71770  132.85220  569.53590    6.61660    -999.25    -999.25
 7650.00000 -275.34640  154.61880  962.83800   62.78290  469.65420    6.10040    -999.25    -999.25
 7700.00000 -284.39600  339.79700  357.21020  130.93790  693.47830    7.55460    -999.25    -999.25
 7750.00000 -255.33360  376.54080  658.29940  129.79830  673.16130    5.77950    -999.25    -999.25
 7800.00000 -239.90480  319.03930  554.62450  119.68910  761.10030   12.87540    -999.25    -999.25
 7850.00000 -269.64380   49.00630   94.22820   35.05440  561.44560   16.32250    -999.25    -999.25
 7900.00000 -263.86480  148.83840  168.11060   72.23160  507.89380   15.89540    -999.25    -999.25
 7950.00000 -260.21360   28.91340   21.08510   30.07230  428.50090   17.07710    -999.25    -999.25
 8000.00000 -258.54330   74.23270   17.47350   50.47470  542.25590   14.59560    -999.25    -999.25
 8050.00000 -250.10340  243.89130  679.25530   90.68660  554.10530   23.65060    -999.25    -999.25
 8100.00000 -268.58070  273.99460  523.25680   93.54640  660.62770   14.12310    -999.25    -999.25
 8150.00000 -251.42790  449.19450 1028.89880  119.65840  619.74640   20.50920    -999.25    -999.25
 8200.00000 -215.14850   45.94820   99.42330   25.79320  546.67790   27.66300    -999.25    -999.25
 8250.00000 -180.38680  392.66330  832.55600  125.84320  584.09840   20.08310    -999.25    -999.25
