~Version ---------------------------------------------------
VERS. 2.0 : CWLS log ASCII Standard -VERSION 2.0
WRAP.  NO : ONE LINE PER DEPTH STEP
~Well ------------------------------------------------------
STRT.F                             650.0 : START DEPTH
STOP.F                            9200.0 : STOP DEPTH
STEP.F                          50.00000 : STEP LENGTH
NULL.                            -999.25 : NULL VALUE
COMP.                 DENISON MINES LTD. : COMPANY
WELL. DENISON ET AL VIRG HILLS 4-7-65-12 : WELL
FLD .                                    : FIELD
LOC .                                    : LOCATION
CTRY.                             CANADA : COUNTRY
SRVC.                       Schlumberger : SERVICE COMPANY
DATE.                        14-Sep-1974 : LOGDATE
PROV.                            Alberta : PROVINCE
UWI .                   100040706512W500 : UNIQUE WELL ID
SLAT.WGS84                      54.60475 : SURFACE LATITUDE
SLON.WGS84                     -115.8121 : SURFACE LONGITUDE
~Curve Information -----------------------------------------
DEPT.F    0   1   0  0 : 1 MEASURED DEPTH
DT  .US/F 60 500 00 00 : DELTA-T (INTERVAL TRANSIT TIME)
GRS .GAPI 60 310 01 00 : GAMMA RAY FROM SONIC LOG
CALS.IN   60 280 50 00 : CALIPER FROM SONIC LOG
ILD .OHMM 07 120 46 00 : INDUCTION DEEP RESISTIVITY
ILM .OHMM 07 120 44 00 : INDUCTION MEDIUM RESISTIVITY
LL8 .OHMM 07 220 08 00 : LATEROLOG 8
SPR .MV   07 010 01 00 : SPONTANEOUS POTENTIAL FROM RESISTIVITY LOG
CILD.MMHO 07 110 46 00 : INDUCTION DEEP CONDUCTIVITY
~Params ----------------------------------------------------
PD  .                     GL : PERMANENT DATUM
EPD .FT                 3432 : ELEVATION PERMANENT DATUM
LMF .                     KB : LOG MEASURED FROM
DAPD.FT                   14 : FEET ABOVE PERMANENT DATUM
EKB .FT                 3446 : KELLY BUSHING
EGL .FT                 3432 : GROUND LEVEL
DATE.               09/14/74 : RUN DATE
RUN .                      1 : RUN NUMBER
DD  .FT                 9235 : DEPTH DRILLER
DL  .FT                 9236 : DEPTH LOGGER
BLI .FT                 9230 : BOTTOM LOG INTERVAL
TLI .FT                  657 : TOP LOG INTERVAL
CBD .FT                  657 : CASING BOTTOM DRILLER
CBL .FT                  657 : CASING BOTTOM LOGGER
BS  .IN                7.875 : BIT SIZE
BSD .FT                 9235 : BIT SIZE AT DEPTH
DFT .               GEL CHEM : DRILLING FLUID TYPE
DFD .                    9.5 : DRILLING FLUID DENSITY
DFV .                     85 : DRILLING FLUID VISCOSITY
DFPH.                   10.4 : DRILLING FLUID PH
DFL .                    7.8 : DRILLING FLUID LOSS
MSS .               FLOWLINE : MUD SAMPLE SOURCE
RMS .OHMM                3.1 : RESISTIVITY MUD SAMPLE
MST .DEGF                 61 : MUD SAMPLE TEMPERATURE
RMF .OHMM               1.95 : RESISTIVITY MUD FILTRATE SAMPLE
MFST.DEGF                 69 : MUD FILTRATE SAMPLE TEMPERATURE
RMB .OHMM               0.75 : RESISTIVITY MUD AT BHT
TCS .HRS                 2.5 : TIME CIRCULATED STOPPED
LUN .                   7690 : LOGGING UNIT NUMBER
LUL .                    EDM : LOGGING UNIT LOCATION
ENGI.                SIMPSON : RECORDING ENGINEER
WITN.                BISSETT : WITNESSED BY
CLNT.                A2DTECH : CLIENT CODE
ORIG.            2" 5" PRINT : ORIGIN OF DATA
UWI .       100040706512W500 : UNIQUE WELL ID
DICO. A2D Technologies, Inc. : DIGITIZING COMPANY
~Other -----------------------------------------------------
~ASCII -----------------------------------------------------
# ...
 4650.00000   82.80890   64.93410   11.20340    4.92680    -999.25    4.24920  -80.56760  215.07400
 4700.00000   81.06980   84.09850    9.52140    7.22190    -999.25    8.55790  -84.28080  134.08720
 4750.00000   82.80420   56.77880    8.79810    6.59840    -999.25    7.60690 -120.78160  148.80680
 4800.00000   79.53590   55.21590    9.35800    7.92910    -999.25   10.45760 -121.25650  124.79740
 4850.00000   85.18850   52.16000    9.34380    8.90850    -999.25   14.01690 -128.70230  112.72830
 4900.00000   83.54040   57.28860    9.22100    7.33620    -999.25   10.98180 -115.55020  134.86220
 4950.00000  119.01830   63.36650   11.68460    4.03720    -999.25    3.79810  -82.17000  247.37660
 5000.00000   85.59330   74.24790    9.54230    6.70650    -999.25    7.80760  -90.13230  154.01710
 5050.00000   80.47790   54.25970    9.35240    6.40340    -999.25   15.10600 -133.89890  153.55980
 5100.00000   75.34440   71.21600    9.88410    6.32480    -999.25    7.41850  -90.32200  160.36760
 5150.00000  102.96420   82.18770    9.88230    8.27590    -999.25   11.63130  -80.37750  114.79930
 5200.00000   79.28950   83.95550    9.49780    4.71880    -999.25    5.75520  -81.54940  205.05000
 5250.00000   78.66410   86.94480    9.52800    6.65690    -999.25    7.26720  -81.83050  148.48990
 5300.00000   82.17830   80.87220    9.64800    5.46670    -999.25    5.98370  -76.67290  193.71250
 5350.00000   79.21030   59.93190    8.25400   13.23280    -999.25   22.30390 -135.72840   83.34930
 5400.00000   57.59660   37.84190    8.52150   22.24240    -999.25   38.60240  -90.47740   51.02790
 5450.00000   73.96570   99.39860    9.52970    8.74750    -999.25   11.31700  -85.06080  111.72750
 5500.00000   72.88850   80.14120    8.93220    7.61840    -999.25   17.03280 -319.52650  124.62390
 5550.00000   75.23620  108.57530    9.14620    7.35970    -999.25    8.21650 -118.57440  133.75640
 5600.00000   73.88130   36.26630    9.57780    2.31350    -999.25    5.48390 -184.33930  421.86630
 5650.00000   59.11070   40.84950    8.98510    8.19340    -999.25   13.65860 -166.99000  118.80950
 5700.00000   48.37860   18.95170    8.70710   96.16180    -999.25   70.99970 -133.84650   12.27190
 5750.00000   48.79660   19.34670    8.36080  310.99570    -999.25  599.64810 -188.48360    7.92690
 5800.00000   50.73670   15.61990    9.01010  205.02870    -999.25    -999.25 -266.84880    8.02000
 5850.00000   48.69110   18.46260    9.29880  167.21830    -999.25  261.52770 -183.16360    3.61260
 5900.00000   66.34340   61.71730    9.68550    4.10220    -999.25    7.01780 -136.32190  248.56900
 5950.00000   69.89770   49.80520   10.11600    1.65790    -999.25    5.22920 -190.24530  673.56480
 6000.00000   52.34370   11.16070    9.14690   69.93060    -999.25  119.82440 -173.82660   18.73240
 6050.00000   52.61000   25.39450    8.65180  200.96940    -999.25  150.82630 -124.11140   18.86310
 6100.00000   50.62590   20.95480    8.87310   68.26210    -999.25  117.76030 -130.47300   12.82260
 6150.00000   56.49090   24.92520    8.47430   26.66290    -999.25   38.37700 -125.11740   39.52560
 6200.00000   57.01760   34.22850    8.23490   30.77660    -999.25   36.52690 -115.55940   33.39350
 6250.00000   56.83340   29.00100    8.25920   25.45000    -999.25   28.62450 -124.24410   40.91890
 6300.00000   58.85090   42.08940    8.40040   25.24860    -999.25   29.79490 -114.68030   42.66410
 6350.00000   71.00290   95.96570    9.42450    7.36610    -999.25    8.15860 -108.30140  133.97890
 6400.00000   82.66230  110.93630   12.09230    4.36320    -999.25    5.31240 -111.91630  226.06740
 6450.00000   62.27790   75.63290    9.32000    9.18920    -999.25   10.24210 -118.60180  111.04590
 6500.00000   51.18510   31.32290    8.86190  125.85410    -999.25  111.28310 -117.16020    8.72070
 6550.00000   50.32330   17.39200    8.97240  558.89900    -999.25  478.10910 -167.57680    2.38940
 6600.00000   49.38890   15.99780    8.61160    -999.25    -999.25  446.66700 -142.51780    0.83600
 6650.00000   49.36540   20.22360    8.72870    -999.25    -999.25    -999.25 -165.95790    0.84890
 6700.00000   50.37370   14.66170    8.67210   44.70030    -999.25  107.01980 -179.85210   26.42640
 6750.00000   50.50520   17.78010    9.06740   80.48470    -999.25  179.21740 -196.98020   14.26010
 6800.00000   51.76260   12.76260    8.44920   15.40190    -999.25  179.52180 -241.64570   64.28530
 6850.00000   49.45300   12.73140    9.04120   38.60350    -999.25  262.12680 -228.54930   24.93010
 6900.00000   52.50780   13.22420    8.59540   26.43590    -999.25  321.95950 -241.04600   39.73320
 6950.00000   48.40370   15.52770    8.94030   57.48830    -999.25  268.34300 -211.11820   16.86490
 7000.00000   48.78460   15.79720    8.91220  153.26280    -999.25  289.98730 -183.98320    6.30840
 7050.00000   49.32510   16.51320    8.90640  215.99170    -999.25  449.18100 -184.10730    6.91770
 7100.00000   51.92700   15.06520    7.81260   16.12030    -999.25  199.24130 -247.17470   60.10090
 7150.00000   50.58700   19.56000    8.58890   28.75820    -999.25  156.53330 -214.93860   35.11040
 7200.00000   52.42530   16.67470    8.72990   19.24500    -999.25   86.01090 -181.52570   59.46640
 7250.00000   52.12950   38.09910    9.36190    3.26460    -999.25   12.83180 -134.28820  302.08520
 7300.00000   60.09270   36.39440    8.00760    8.76820    -999.25   48.51000 -185.86010  117.68780
 7350.00000   45.91200   22.33380    8.99890  111.52920    -999.25  175.05700 -159.57240    9.96320
 7400.00000   55.86700   42.17720    8.92260    8.41910    -999.25   16.46130 -149.94910  120.92750
 7450.00000   51.43820   27.29970    8.81520   13.31300    -999.25   17.45760 -120.42170   81.15060
 7500.00000   57.07150   42.99210    9.20700   25.52280    -999.25   30.73900  -76.61140   40.16390
 7550.00000   58.56990   48.88500    9.03280   17.29250    -999.25   20.60250  -74.15890   57.44340
 7600.00000   79.63120   81.61330   13.71860    4.29290    -999.25    5.00080  -79.06250  228.48570
 7650.00000   75.04550   64.46430   14.07620    4.58760    -999.25    5.11880  -78.69270  210.54860
 7700.00000   63.74880   43.80780    9.92270   10.32780    -999.25   13.03620  -75.53250   96.95150
 7750.00000   70.87220   70.57570   10.92040    5.20200    -999.25    5.98130  -80.22600  194.48180
 7800.00000   70.88090   69.36780   10.00830    6.06670    -999.25    6.82950  -73.64020  172.38330
 7850.00000   68.93020   80.73370    8.97160    5.88920    -999.25    6.58650  -81.98400  168.01130
 7900.00000   67.38570   62.75280    9.97980    5.89530    -999.25    7.63760  -76.83340  170.27890
 7950.00000   58.96050   53.17910    8.91420   12.15450    -999.25   14.55590  -76.05620   81.26350
 8000.00000   84.70240   85.29710   12.75220    3.16450    -999.25    3.97240  -84.37040  294.08650
 8050.00000   78.54130   74.36350   13.44850    4.06210    -999.25    5.20820  -75.34020  230.46650
 8100.00000   78.46750   85.74840   10.30700    5.64630    -999.25    7.14020  -81.53720  196.53320
 8150.00000   68.41380   71.48810    9.71010    7.80100    -999.25    9.38350  -74.15170  126.93400
 8200.00000   67.40350   78.73130    9.37520    7.20300    -999.25    8.91380  -74.06760  139.16990
 8250.00000   66.60660   66.74870    8.79290    7.67050    -999.25    9.94720  -68.93110  131.59190
 8300.00000   73.63530   81.03020   11.36340    5.27320    -999.25    6.23990  -80.04990  182.85960
 8350.00000   76.90460   84.71910   12.63500    4.43400    -999.25    5.29680  -85.72350  220.31970
 8400.00000   64.64320   66.43180    9.02580    9.30340    -999.25   11.28630  -68.11660  108.71190
 8450.00000   72.52020   77.16640   10.86360    5.16190    -999.25    6.62780  -76.38200  190.04860
 8500.00000   72.58350   78.81060   10.72590    5.59390    5.78970    7.19790  -72.96260    -999.25
 8550.00000   72.26910   78.96410    9.61740    6.17590    6.97130   11.50680  -73.73960    -999.25
 8600.00000   62.76250   63.92330    9.25020   12.29540   12.76300   14.54510  -69.18570    -999.25
