~Version ---------------------------------------------------
VERS.      2.0 : CWLS log ASCII Standard -VERSION 2.0
WRAP.       NO : One line per depth step
CREA. 11/16/17 : LAS Creation Date
~Well ------------------------------------------------------
STRT.FT                         1050.0 : START DEPTH
STOP.FT                        10100.0 : STOP DEPTH
STEP.FT                       50.00000 : STEP LENGTH
NULL.                          -999.25 : NULL VALUE
COMP.             PETROFINA CANADA LTD : COMPANY
WELL.        FINA ET AL WIND 7-7-61-16 : WELL
FLD .                                  : FIELD
LOC .                                  : LOCATION
CTRY.                           CANADA : COUNTRY
SRVC. Schlumberger Well Surveying Corp : SERVICE COMPANY
DATE.                      23-Jan-1978 : LOGDATE
PROV.                          Alberta : PROVINCE
UWI .                 100070706116W500 : UNIQUE WELL ID
SLAT.WGS84                    54.25864 : SURFACE LATITUDE
SLON.WGS84                    -116.383 : SURFACE LONGITUDE
~Curve Information -----------------------------------------
DEPT    .FT    : Depth Curve
CALDED  .IN    : CALIPER FROM DENSITY LOG [ADJ.TO RESISTIVITY LOG]
CALSED  .IN    : CALIPER FROM SONIC LOG [ADJ.TO RESISTIVITY LOG]
CALWS   .IN    : CALIPER [CALSED]
CONDWS  .MMHO  : CONDUCTIVITY [1000/DRESWS]
DCORWS  .G/C3  : DENSITY CORRECTION [DRHOED]
DENWS   .G/C3  : FORMATION BULK DENSITY [RHOBED]
DPHILSED.V/V   : DENSITY POROSITY LIMESTONE [M=2.71, F=1.00] FROM DENSITY LOG [ADJ.TO RESISTIVITY LOG]
DPHISSED.V/V   : DENSITY POROSITY SANDSTONE [M=2.65, F=1.00] FROM DENSITY LOG [ADJ.TO RESISTIVITY LOG]
DPOLSWS .V/V   : DENSITY POROSITY LIMESTONE [CALC FROM DENWS, M=2.71, F=1.00]
DRESWS  .OHMM  : DEEP RESISTIVITY [ILDED]
DRHOED  .G/C3  : DENSITY CORRECTION FROM DENSITY LOG [ADJ.TO RESISTIVITY LOG]
DTED    .US/F  : DELTA TIME FROM SONIC LOG [ADJ.TO RESISTIVITY LOG]
DTWS    .US/F  : COMPRESSIONAL SONIC [DTED]
GRDED   .GAPI  : GAMMA RAY FROM DENSITY LOG [ADJ.TO RESISTIVITY LOG]
GRDRED  .GAPI  : GAMMA RAY [FROM REPEAT SECTION] FROM DENSITY LOG [ADJ.TO RESISTIVITY LOG]
GRSED   .GAPI  : GAMMA RAY FROM SONIC LOG [ADJ.TO RESISTIVITY LOG]
GRSRED  .GAPI  : GAMMA RAY [FROM REPEAT SECTION] FROM SONIC LOG [ADJ.TO RESISTIVITY LOG]
GRWS    .GAPI  : GAMMA RAY [GRSED SPL.TO GRSRED @ 10087.5']
ILDED   .OHMM  : DEEP INDUCTION FROM RESISTIVITY LOG
ILMED   .OHMM  : MEDIUM INDUCTION FROM RESISTIVITY LOG
LL8ED   .OHMM  : LATEROLOG 8 FROM RESISTIVITY LOG
MRESWS  .OHMM  : MEDIUM RESISTIVITY [ILMED]
NPHILSED.V/V   : NEUTRON POROSITY LIMESTONE FROM DENSITY LOG [ADJ.TO RESISTIVITY LOG]
NPHISSED.V/V   : NEUTRON POROSITY SANDSTONE FROM DENSITY LOG [ADJ.TO RESISTIVITY LOG]
NPOLSWS .V/V   : NEUTRON POROSITY LIMESTONE [NPHISSED MATRIX (SLB) CONVERSION FOR LIMESTONE, SPL.TO NPHILSED @ 6298']
RHOBED  .G/C3  : BULK DENSITY FROM DENSITY LOG [ADJ.TO RESISTIVITY LOG]
SPRED   .MV    : SPONTANEOUS POTENTIAL FROM RESISTIVITY LOG
SPWS    .MV    : SPONTANEOUS POTENTIAL [BASELINE 0 MV, SPRED]
SRESWS  .OHMM  : SHALLOW RESISTIVITY [LL8ED]
~Params ----------------------------------------------------
PD  .                     GL : PERMANENT DATUM
EPD .FT               2840.2 : ELEVATION PERMANENT DATUM
LMF .                     KB : LOG MEASURED FROM
DAPD.FT                 13.8 : FEET ABOVE PERMANENT DATUM
EKB .FT                 2854 : KELLY BUSHING
EGL .FT               2840.2 : GROUND LEVEL
DATE.               01/23/78 : RUN DATE
RUN .                      1 : RUN NUMBER
DD  .FT                10130 : DEPTH DRILLER
DL  .FT                10136 : DEPTH LOGGER
BLI .FT                10130 : BOTTOM LOG INTERVAL
TLI .FT                 1041 : TOP LOG INTERVAL
CBD .FT                 1041 : CASING BOTTOM DRILLER
CBL .FT                 1041 : CASING BOTTOM LOGGER
BS  .IN                7.875 : BIT SIZE
BSD .FT                10130 : BIT SIZE AT DEPTH
DFT .               GEL CHEM : DRILLING FLUID TYPE
DFD .                    9.1 : DRILLING FLUID DENSITY
DFV .                     88 : DRILLING FLUID VISCOSITY
DFPH.                    9.6 : DRILLING FLUID PH
DFL .                      6 : DRILLING FLUID LOSS
MSS .               FLOWLINE : MUD SAMPLE SOURCE
RMF .OHMM                2.1 : RESISTIVITY MUD FILTRATE SAMPLE
MFST.DEGF                 61 : MUD FILTRATE SAMPLE TEMPERATURE
RMB .OHMM               0.67 : RESISTIVITY MUD AT BHT
TCS .HRS                 2.5 : TIME CIRCULATED STOPPED
LUN .                   7730 : LOGGING UNIT NUMBER
LUL .                    EDM : LOGGING UNIT LOCATION
ENGI.               CAMPBELL : RECORDING ENGINEER
WITN.                  SMITH : WITNESSED BY
CLNT.                A2DTECH : CLIENT CODE
ORIG.            2" 5" PRINT : ORIGIN OF DATA
UWI .       100070706116W500 : UNIQUE WELL ID
DICO. A2D Technologies, Inc. : DIGITIZING COMPANY
~Other -----------------------------------------------------
~ASCII -----------------------------------------------------
# ...
 2300.00000    -999.25   10.52110   10.52110  293.67710    -999.25    -999.25    -999.25    -999.25    -999.25    3.40510    -999.25  117.05860  117.05860    -999.25    -999.25  121.04010    -999.25  121.04010    3.40510    2.92090    3.06060    2.92090    -999.25    -999.25    -999.25    -999.25  -87.51340   -2.16340    3.06060
 2350.00000    -999.25    9.61510    9.61510  265.87610    -999.25    -999.25    -999.25    -999.25    -999.25    3.76110    -999.25  109.28380  109.28380    -999.25    -999.25   98.41490    -999.25   98.41490    3.76110    3.36880    4.00860    3.36880    -999.25    -999.25    -999.25    -999.25  -87.02290   -2.07690    4.00860
 2400.00000    -999.25    9.76620    9.76620  196.98220    -999.25    -999.25    -999.25    -999.25    -999.25    5.07660    -999.25  108.43430  108.43430    -999.25    -999.25   92.16590    -999.25   92.16590    5.07660    4.56230    4.18900    4.56230    -999.25    -999.25    -999.25    -999.25  -86.70150   -2.11650    4.18900
 2450.00000    -999.25    9.27510    9.27510  275.55040    -999.25    -999.25    -999.25    -999.25    -999.25    3.63290    -999.25   93.04760   93.04760    -999.25    -999.25   90.09650    -999.25   90.09650    3.63290    3.28890    4.12310    3.28890    -999.25    -999.25    -999.25    -999.25  -86.71930   -1.39430    4.12310
 2500.00000   10.01330    9.84540    9.84540  123.36850    0.05090    2.35750    -999.25    0.18360    0.20610    8.10580    0.05090   90.95280   90.95280   70.11150    -999.25   68.32980    -999.25   68.32980    8.10580    7.89140    8.65840    7.89140    -999.25    0.34960    0.30600    2.35750  -88.32670   -2.01350    8.65840
 2550.00000   11.52570   10.28760   10.28760  221.68030    0.03230    2.38150    -999.25    0.19120    0.19210    4.51100    0.03230  114.54440  114.54440   74.02610    -999.25   76.59580    -999.25   76.59580    4.51100    4.23860    5.38660    4.23860    -999.25    0.47270    0.43180    2.38150  -87.77000   -2.94740    5.38660
 2600.00000   10.73360   10.00860   10.00860  205.91980    0.11160    2.28220    -999.25    0.21500    0.25010    4.85840    0.11160   98.52930   98.52930   85.28020    -999.25   86.55870    -999.25   86.55870    4.85840    4.15840    4.34350    4.15840    -999.25    0.41030    0.36760    2.28220  -86.07390   -1.91270    4.34350
 2650.00000   10.57180    9.72030    9.72030  225.70820    0.19450    2.15790    -999.25    0.26310    0.32290    4.43050    0.19450  103.63940  103.63940   77.80380    -999.25   79.70400    -999.25   79.70400    4.43050    4.02250    4.55990    4.02250    -999.25    0.48920    0.44890    2.15790  -86.43670   -2.40760    4.55990
 2700.00000    9.89370   10.19460   10.19460  140.03530    0.04390    2.44780    -999.25    0.12180    0.15340    7.15390    0.04390   95.68730   95.68730   66.77610    -999.25   75.03550    -999.25   75.03550    7.15390    6.20640    7.62260    6.20640    -999.25    0.37840    0.33510    2.44780  -85.55960   -1.66390    7.62260
 2750.00000   10.44160    9.38190    9.38190   70.48950    0.08460    2.30540    -999.25    0.20680    0.23660   14.18650    0.08460   90.34420   90.34420   49.66060    -999.25   56.30490    -999.25   56.30490   14.18650   12.90630   12.64880   12.90630    -999.25    0.35430    0.31070    2.30540  -95.10510  -10.98390   12.64880
 2800.00000    9.46190    9.15400    9.15400   51.11250    0.01670    2.57990    -999.25    0.02890    0.07610   19.56470    0.01670   65.23130   65.23130   46.94100    -999.25   46.18430    -999.25   46.18430   19.56470   26.46050   40.70330   26.46050    -999.25    0.17410    0.13110    2.57990  -87.96810   -2.82750   40.70330
 2850.00000   11.03190   10.30180   10.30180  163.60380    0.09600    2.40210    -999.25    0.15100    0.18010    6.14610    0.09600   92.75870   92.75870   66.73330    -999.25   65.40370    -999.25   65.40370    6.14610    5.65790    6.77980    5.65790    -999.25    0.39030    0.34730    2.40210  -84.47020   -0.96370    6.77980
 2900.00000   11.17120   10.34720   10.34720  212.04860    0.21060    2.20850    -999.25    0.27100    0.29330    4.71590    0.21060  101.96750  101.96750   77.52540    -999.25   83.77660    -999.25   83.77660    4.71590    4.44930    4.10890    4.44930    -999.25    0.47730    0.43650    2.20850  -85.72120   -1.64830    4.10890
 2950.00000    9.35010    9.09650    9.09650   66.78110    0.04230    2.47520    -999.25    0.10180    0.13730   14.97630    0.04230   75.87610   75.87610   43.96550    -999.25   50.95860    -999.25   50.95860   14.97630   13.87580   16.65500   13.87580    -999.25    0.24630    0.20240    2.47520  -88.71360   -2.24510   16.65500
 3000.00000    9.65810    9.65750    9.65750   85.10710    0.06000    2.47930    -999.25    0.09180    0.13490   11.74990    0.06000   87.23440   87.23440   65.16610    -999.25   71.55990    -999.25   71.55990   11.74990   11.22740   11.11430   11.22740    -999.25    0.35350    0.30990    2.47930  -88.53340   -3.18090   11.11430
 3050.00000    9.51960    9.00120    9.00120   36.29050    0.08840    2.46140    -999.25    0.11320    0.14540   27.55540    0.08840   81.13690   81.13690   45.69490    -999.25   52.10950    -999.25   52.10950   27.55540   25.47190   26.88220   25.47190    -999.25    0.26010    0.21610    2.46140 -102.44200  -18.61110   26.88220
 3100.00000    8.82860    8.91380    8.91380   92.65380    0.03010    2.52750    -999.25    0.07180    0.10680   10.85200    0.03010   78.38680   78.38680   76.90900    -999.25   76.46730    -999.25   76.46730   10.85200   12.19620   17.32500   12.19620    -999.25    0.30390    0.26000    2.52750  -87.44040   -3.74300   17.32500
 3150.00000    9.77740    9.63300    9.63300  165.11460    0.13540    2.38920    -999.25    0.13520    0.18760    6.05640    0.13540   90.20100   90.20100   62.95920    -999.25   79.27870    -999.25   79.27870    6.05640    5.66670    5.92320    5.66670    -999.25    0.39350    0.35050    2.38920  -86.35450   -2.80740    5.92320
 3200.00000    9.61930    9.02440    9.02440  116.01600    0.03650    2.45210    -999.25    0.10860    0.15080    8.62660    0.03650   85.52820   85.52820   65.01100    -999.25   70.93410    -999.25   70.93410    8.62660    8.19080    8.66210    8.19080    -999.25    0.35990    0.31630    2.45210  -86.27750   -2.60830    8.66210
 3250.00000    9.70070    9.16720    9.16720  158.72260    0.18130    2.28640    -999.25    0.21740    0.24770    6.30030    0.18130   87.97150   87.97150   74.64610    -999.25   81.59070    -999.25   81.59070    6.30030    6.07390    6.47500    6.07390    -999.25    0.35300    0.30940    2.28640  -85.68300   -1.40550    6.47500
 3300.00000    9.29670    9.26720    9.26720  161.47000    0.02900    2.51890    -999.25    0.07970    0.11180    6.19310    0.02900   83.95860   83.95860   80.62850    -999.25   87.85280    -999.25   87.85280    6.19310    5.89210    7.15340    5.89210    -999.25    0.35480    0.31120    2.51890  -85.21170   -0.90180    7.15340
 3350.00000    9.67370    9.27460    9.27460   94.39660    0.01850    2.50880    -999.25    0.06930    0.11770   10.59360    0.01850   82.36310   82.36310   83.92160    -999.25   93.32370    -999.25   93.32370   10.59360   10.18950   11.73160   10.18950    -999.25    0.33600    0.29230    2.50880  -88.06230   -4.91360   11.73160
 3400.00000   10.03560    9.60540    9.60540  165.39310    0.06630    2.52090    -999.25    0.07280    0.11060    6.04620    0.06630   92.86620   92.86620   95.98860    -999.25   99.37840    -999.25   99.37840    6.04620    5.55890    6.51960    5.55890    -999.25    0.41460    0.37200    2.52090  -85.70000   -1.96330    6.51960
 3450.00000   10.87950    9.67830    9.67830  145.92830    0.10270    2.31250    -999.25    0.20130    0.23250    6.85270    0.10270   91.37280   91.37280  113.20890    -999.25  112.00460    -999.25  112.00460    6.85270    6.39920    7.22750    6.39920    -999.25    0.38940    0.34630    2.31250  -88.33810   -3.00240    7.22750
 3500.00000   12.29610   10.51730   10.51730  159.51760    0.07270    2.42750    -999.25    0.13180    0.16520    6.26890    0.07270   94.90240   94.90240  115.69950    -999.25  117.42640    -999.25  117.42640    6.26890    5.90660    6.61930    5.90660    -999.25    0.42330    0.38090    2.42750  -87.81880   -2.43430    6.61930
