~Version ---------------------------------------------------
VERS. 2.0 : CWLS log ASCII Standard -VERSION 2.0
WRAP.  NO : ONE LINE PER DEPTH STEP
~Well ------------------------------------------------------
STRT.F                             850.0 : START DEPTH
STOP.F                            7900.0 : STOP DEPTH
STEP.F                          50.00000 : STEP LENGTH
NULL.                            -999.25 : NULL VALUE
COMP.    MICHIGAN WISCONSIN PIPE LINE CO : COMPANY
WELL. MICH WIS PAN AM IOE TIMEU 7-6-65-4 : WELL
FLD .                                    : FIELD
LOC .                                    : LOCATION
CTRY.                             CANADA : COUNTRY
SRVC.                       Schlumberger : SERVICE COMPANY
DATE.                        24-Aug-1968 : LOGDATE
PROV.                            Alberta : PROVINCE
UWI .                   100070606504W500 : UNIQUE WELL ID
SLAT.WGS84                      54.59319 : SURFACE LATITUDE
SLON.WGS84                     -114.5883 : SURFACE LONGITUDE
~Curve Information -----------------------------------------
DEPT.F    0   1   0  0 : 1 MEASURED DEPTH
CILD.MMHO 05 110 46 00 : INDUCTION DEEP CONDUCTIVITY
ILD .OHMM 05 120 46 00 : INDUCTION DEEP RESISTIVITY
SPR .MV   05 010 01 00 : SPONTANEOUS POTENTIAL FROM RESISTIVITY LOG
SN  .OHMM 05 040 16 00 : SHORT NORMAL RESISTIVITY
CALS.IN   60 280 50 00 : CALIPER FROM SONIC LOG
GRS .GAPI 60 310 01 00 : GAMMA RAY FROM SONIC LOG
DT  .US/F 60 500 32 00 : DELTA-T (INTERVAL TRANSIT TIME)
~Params ----------------------------------------------------
PD  .                     GL : PERMANENT DATUM
EPD .FT                 2288 : ELEVATION PERMANENT DATUM
LMF .                     KB : LOG MEASURED FROM
DAPD.FT                   12 : FEET ABOVE PERMANENT DATUM
EKB .FT                 2300 : KELLY BUSHING
EGL .FT                 2288 : GROUND LEVEL
DATE.               08/24/68 : RUN DATE
RUN .                      1 : RUN NUMBER
DD  .FT                 7910 : DEPTH DRILLER
DL  .FT                 7911 : DEPTH LOGGER
BLI .FT                 7910 : BOTTOM LOG INTERVAL
TLI .FT                  820 : TOP LOG INTERVAL
CBD .FT                  820 : CASING BOTTOM DRILLER
CBL .FT                  820 : CASING BOTTOM LOGGER
BS  .IN                7.875 : BIT SIZE
BSD .FT                 7910 : BIT SIZE AT DEPTH
DFT .                    GEL : DRILLING FLUID TYPE
DFD .                    9.5 : DRILLING FLUID DENSITY
DFV .                     80 : DRILLING FLUID VISCOSITY
DFPH.                   10.5 : DRILLING FLUID PH
DFL .                    9.2 : DRILLING FLUID LOSS
RMS .OHMM               0.88 : RESISTIVITY MUD SAMPLE
MST .DEGF                 70 : MUD SAMPLE TEMPERATURE
RMF .OHMM                0.7 : RESISTIVITY MUD FILTRATE SAMPLE
MFST.DEGF                 70 : MUD FILTRATE SAMPLE TEMPERATURE
RMC .OHMM               1.26 : RESISTIVITY MUD CAKE
MCST.DEGF                 75 : MUD CAKE SAMPLE TEMPERATURE
RMB .OHMM               0.42 : RESISTIVITY MUD AT BHT
TCS .HRS                   3 : TIME CIRCULATED STOPPED
LUN .                   7501 : LOGGING UNIT NUMBER
LUL .                    EDM : LOGGING UNIT LOCATION
ENGI.               STUEHMER : RECORDING ENGINEER
WITN.                   PEEL : WITNESSED BY
CLNT.                A2DTECH : CLIENT CODE
ORIG.            2" 5" PRINT : ORIGIN OF DATA
UWI .       100070606504W500 : UNIQUE WELL ID
DICO. A2D Technologies, Inc. : DIGITIZING COMPANY
~Other -----------------------------------------------------
~ASCII -----------------------------------------------------
  850.00000  228.51230    4.38980  -76.38520    4.15180    -999.25    -999.25    -999.25
  900.00000  276.32670    3.61950  -74.45590    3.41380    -999.25    -999.25    -999.25
  950.00000   92.01800   10.69760  -84.46980    9.76810    -999.25    -999.25    -999.25
 1000.00000  106.84410    9.35990  -84.42540    8.15940    -999.25    -999.25    -999.25
 1050.00000  220.87630    4.41160  -80.91180    3.66320    -999.25    -999.25    -999.25
 1100.00000  209.73420    4.44000  -79.02290    3.66480    -999.25    -999.25    -999.25
 1150.00000  234.05180    4.27760  -77.77070    3.38220    -999.25    -999.25    -999.25
 1200.00000  230.99050    4.32810  -77.87450    3.62350    -999.25    -999.25    -999.25
 1250.00000  159.84760    6.08910  -79.28770    4.62770    -999.25    -999.25    -999.25
 1300.00000  231.64830    4.31490  -79.18800    3.64890    -999.25    -999.25    -999.25
 1350.00000  218.85020    4.56930  -81.92250    3.33190    -999.25    -999.25    -999.25
 1400.00000  223.94060    4.46150  -84.51860    3.57010    -999.25    -999.25    -999.25
 1450.00000  164.18040    5.87920  -79.57130    6.60110    -999.25    -999.25    -999.25
 1500.00000  179.18970    5.35040  -82.33310    5.02240    -999.25    -999.25    -999.25
 1550.00000  165.11220    5.75220  -84.66960    4.80870    -999.25    -999.25    -999.25
 1600.00000  208.39050    4.79790  -84.45890    3.49600    -999.25    -999.25    -999.25
 1650.00000  142.00910    7.04160  -86.29020    5.88460    -999.25    -999.25    -999.25
 1700.00000  152.04660    6.57770  -85.59090    4.84980    -999.25    -999.25    -999.25
 1750.00000  137.38250    7.21870  -87.03830    5.30690    -999.25    -999.25    -999.25
 1800.00000  188.57340    5.25320  -84.65160    3.93760    -999.25    -999.25    -999.25
 1850.00000  182.07340    5.33540  -86.47110    3.84140    -999.25    -999.25    -999.25
 1900.00000  144.82840    6.86330  -85.44370    5.00050    -999.25    -999.25    -999.25
 1950.00000  190.45480    5.24520  -82.88530    4.49160    -999.25    -999.25    -999.25
 2000.00000  177.76970    5.93020  -81.59190    5.41480    -999.25    -999.25    -999.25
 2050.00000  132.87130    7.52700  -79.97690    8.49300    -999.25    -999.25    -999.25
 2100.00000  152.44590    6.55910  -78.65330    9.01310    -999.25    -999.25    -999.25
 2150.00000  185.75350    5.44650  -80.59180    4.95910    -999.25    -999.25    -999.25
 2200.00000  219.16490    4.55900  -81.63570    4.33470    -999.25    -999.25    -999.25
 2250.00000  244.97690    4.05870  -81.70990    3.56610    -999.25    -999.25    -999.25
 2300.00000  210.42550    4.75170  -82.57710    4.21960    -999.25    -999.25    -999.25
 2350.00000  205.23950    4.44940  -80.59110    5.27140    -999.25    -999.25    -999.25
 2400.00000  415.19780    2.41200  -76.11990    3.15320   11.55180  152.72480    -999.25
 2450.00000  440.87010    2.81890  -76.20960    2.32180   12.87410   76.55410    -999.25
 2500.00000  317.35260    3.32310  -76.56020    2.74810   11.94270   80.43120  107.87050
 2550.00000  324.38190    3.13040  -74.99770    2.67880   11.38350   85.61470  106.85120
 2600.00000  340.99700    3.13100  -75.10610    3.28920   11.67750   62.97110  108.68930
 2650.00000  570.70160    2.09410  -75.75980    1.49120   14.95820   59.76130  163.46350
 2700.00000  217.04710    4.20370 -123.09870    9.37710    9.05670   48.24020   96.38030
 2750.00000  198.53060    4.72070 -108.35540   13.74120    9.32150   48.20230   82.97580
 2800.00000  191.23900    5.03870 -108.25870    9.40450    9.13270   48.84870   89.36250
 2850.00000  233.25460    3.96560  -87.65170    5.53520    9.94960   64.91580   89.96200
 2900.00000  203.20490    4.56770 -129.27570   11.59110    8.90260   54.62060   90.66680
 2950.00000  159.52400    6.26830  -87.00220    8.63000   10.58560   70.22860  107.54970
 3000.00000  371.53080    2.92720 -121.25560    6.24280   10.21130   61.84840   93.31040
 3050.00000  242.88730    4.11960 -107.73020    5.82910   10.68790   69.30440   84.80100
 3100.00000  197.13420    4.82350  -83.30760    5.61270   11.37110   85.48460   97.63230
 3150.00000  458.85920    2.18310  -77.43490    2.71690   11.96640   71.33140   92.20480
 3200.00000  228.47320    4.37900  -79.07300    4.72190   11.94110   72.53200   87.85030
 3250.00000  466.96050    2.39870  -86.46130    2.87540    -999.25   59.26390  136.81760
 3300.00000  173.69850    5.39350  -78.19450    7.16240   11.27990   69.10830   97.34320
 3350.00000  170.99430    5.92520  -86.51390    7.82760    8.54960   41.53490   85.50180
 3400.00000  194.06890    5.06500  -84.81250    4.89180   15.01500   77.24080  100.96170
 3450.00000   47.68370   20.97170 -116.39300   26.54720   10.75930   20.66430   58.24740
 3500.00000   89.74250   11.14140  -84.75770   12.38070   11.22910   61.69250   69.85980
 3550.00000   35.12200   28.46850  -70.99500   30.46750   10.19850   50.47590   65.09780
 3600.00000   33.51670   29.41980  -83.45670   36.44740    9.30360  145.96410   78.74170
 3650.00000    4.61680  493.13120 -119.24610   84.79280    9.31810   15.80000   50.62200
 3700.00000  248.26950    4.02770 -160.54190   19.28490    8.69700   27.37640   42.84570
 3750.00000  123.25890    8.11250 -158.72480   31.70120    8.79800   23.01120   60.26070
 3800.00000  144.88770    6.59970 -165.85510   27.67750    8.99880   14.72640   63.08790
 3850.00000  141.23260    7.08070 -172.69550   24.63180    8.56070   10.46270   66.47680
 3900.00000  182.12670    5.20290 -166.77420   25.59290    8.82270   14.81660   61.08360
 3950.00000  133.99640    7.44610 -165.16490   33.05830    8.55220   16.67240   57.04500
 4000.00000   71.96420   14.38290 -168.71860   51.01360    9.21810   12.38990   52.22440
 4050.00000   26.08950   38.22360 -156.59050   87.38020    9.36520   12.74840   51.87510
 4100.00000   17.85210   53.74110 -159.54480   88.82770    9.62050   12.03990   51.47590
 4150.00000   50.04020   20.24220 -187.64050   50.02100    8.74450   13.13380   58.36210
 4200.00000   67.00580   14.81100 -181.96610   51.58860    9.07530   14.82490   54.51930
 4250.00000   31.04530   31.80420 -195.35880   77.28420    9.08690   15.46040   51.25220
 4300.00000  158.11790    6.36130 -181.40650   31.68810    8.77650   29.87460   58.40310
 4350.00000  403.79560    2.96390 -164.47500    6.37670    9.52560   42.85210   75.67840
 4400.00000   14.31740   61.77410 -176.14160   92.51470    8.67720   20.15050   47.75650
 4450.00000   71.63280   13.81220 -187.48190   35.00270    8.80980   37.91730   54.12250
 4500.00000  116.61400    8.62930 -169.86850   16.48340    9.27470   38.54440   55.93810
 4550.00000  211.79370    4.72780 -136.84920    5.36370   11.53120   75.27760   75.00230
 4600.00000   43.51880   21.83850 -143.51450   20.32620    8.97150   54.62050   61.53720
 4650.00000   31.40040   28.30020 -143.11340   29.19470    8.81920   42.53850   58.77860
 4700.00000   32.56530   28.18940 -135.96650   32.12580    8.77530   34.40720   57.67550
 4750.00000  272.96130    3.64350 -134.54300    4.29320   13.00650   74.18710   89.47540
 4800.00000  247.11970    4.18280 -136.60590    4.64330   13.41130   72.55360   87.18810
 4850.00000  249.99160    4.03070 -134.34880    4.33490   12.90390   77.62280   87.67000
 4900.00000  275.83590    3.69370 -129.10890    4.10640   13.99070   65.39180   86.73560
 4950.00000  317.53490    3.16230 -136.38470    3.52600   14.79370   76.13740  108.30910
 5000.00000  266.27170    3.56020 -131.43190    4.09660    -999.25   73.13990   88.76400
 5050.00000  243.14660    3.88490 -131.56360    4.54830    -999.25   72.16010   85.86280
 5100.00000  309.48730    3.13980 -125.73580    3.62440    -999.25   68.43000   93.23610
 5150.00000  348.04250    2.83530 -134.83380    3.24660    -999.25   69.09540  121.83540
 5200.00000  298.34460    3.59070 -129.59450    4.33810   14.78660   46.71330   87.52230
 5250.00000  188.36960    5.30260 -122.41970    7.05330   11.77660   56.14350   80.33630
 5300.00000   35.59800   29.99130 -113.03200   32.64340    9.29380   53.45720   65.08440
