~Version ---------------------------------------------------
VERS.      2.0 : CWLS log ASCII Standard -VERSION 2.0
WRAP.       NO : One line per depth step
CREA. 08/31/17 : LAS Creation Date
~Well ------------------------------------------------------
STRT.FT                     900.0 : START DEPTH
STOP.FT                   11750.0 : STOP DEPTH
STEP.FT                  50.00000 : STEP LENGTH
NULL.                     -999.25 : NULL VALUE
COMP.        MOBIL OIL CANADA LTD : COMPANY
WELL. MOBIL ET AL PINE CREEK 6-36 : WELL
FLD .                             : FIELD
LOC .                             : LOCATION
CTRY.                      CANADA : COUNTRY
SRVC.                Schlumberger : SERVICE COMPANY
DATE.                 21-Apr-1961 : LOGDATE
PROV.                     Alberta : PROVINCE
UWI .            100063605819W500 : UNIQUE WELL ID
SLAT.WGS84               54.05556 : SURFACE LATITUDE
SLON.WGS84              -116.6911 : SURFACE LONGITUDE
~Curve Information -----------------------------------------
DEPT  .FT         : Depth Curve
CALWS .IN         : CALIPER [MCALED]
CILDED.MMHO       : DEEP INDUCTION CONDUCTIVITY FROM IEL LOG
CONDWS.MMHO       : CONDUCTIVITY [CILDED]
DRESWS.OHMM       : DEEP RESISTIVITY [CALCULATED FROM 1000/CILDED, IF ILDED<1, ILDED]
DT1ED .US/F       : ACOUSTIC TRANSIT TIME SLOWNESS, DELTA T FROM SONIC LOG
DT2ED .US/F       : ACOUSTIC TRANSIT TIME SLOWNESS, DELTA T FROM SONIC LOG
DT3ED .US/F       : ACOUSTIC TRANSIT TIME SLOWNESS, DELTA T FROM SONIC LOG
DTED  .US/F       : ACOUSTIC TRANSIT TIME SLOWNESS, DELTA T FROM SONIC LOG
DTWS  .US/F       : COMPRESSIONAL SONIC [DTED]
GRSED .UgRa-Eq/T  : GAMMA RAY FROM SONIC LOG
GRWS  .GAPI       : GAMMA RAY [GRSED*16.5 FOR GAPI]
ILDED .OHMM       : DEEP INDUCTION FROM IEL LOG
MCALED.IN         : MLT [MICROLOG] CALIPER FROM MICRO LOG [ADJ. TO ILDED]
SNED  .OHMM       : SHORT NORMAL FROM IEL LOG
SPRED .MV         : SPONTANEOUS POTENTIAL FROM IEL LOG
SPWS  .MV         : SPONTANEOUS POTENTIAL [BASELINE 0 MV, SPRED]
SRESWS.OHMM       : SHALLOW RESISTIVITY [SNED]
~Params ----------------------------------------------------
PD  .                     GL : PERMANENT DATUM
LMF .                     KB : LOG MEASURED FROM
DAPD.FT                 13.6 : FEET ABOVE PERMANENT DATUM
DMF .                     KB : DRILLING MEASURED FROM
EKB .FT                 3433 : KELLY BUSHING
EGL .FT               3419.4 : GROUND LEVEL
DATE.               04/21/61 : RUN DATE
RUN .                      2 : RUN NUMBER
DD  .FT                11780 : DEPTH DRILLER
DL  .FT                11781 : DEPTH LOGGER
BLI .FT                11780 : BOTTOM LOG INTERVAL
TLI .FT                 8720 : TOP LOG INTERVAL
BS  .IN                    9 : BIT SIZE
BSD .FT                11780 : BIT SIZE AT DEPTH
DFT .              LIME BASE : DRILLING FLUID TYPE
DFV .                    120 : DRILLING FLUID VISCOSITY
DFPH.                     13 : DRILLING FLUID PH
DFL .                    8.8 : DRILLING FLUID LOSS
RMS .OHMM                1.0 : RESISTIVITY MUD SAMPLE
MST .DEGF                 55 : MUD SAMPLE TEMPERATURE
RMF .OHMM               0.22 : RESISTIVITY MUD FILTRATE SAMPLE
MFST.DEGF                203 : MUD FILTRATE SAMPLE TEMPERATURE
RMC .OHMM               0.39 : RESISTIVITY MUD CAKE
MCST.DEGF                203 : MUD CAKE SAMPLE TEMPERATURE
RMB .OHMM               0.28 : RESISTIVITY MUD AT BHT
TCS .HRS                   4 : TIME CIRCULATED STOPPED
LUN .                   2742 : LOGGING UNIT NUMBER
LUL .                    EDM : LOGGING UNIT LOCATION
ENGI.               MC CAMUS : RECORDING ENGINEER
WITN.           CURRIE MOORE : WITNESSED BY
CLNT.                A2DTECH : CLIENT CODE
ORIG.            2" 5" PRINT : ORIGIN OF DATA
UWI .       100063605819W500 : UNIQUE WELL ID
DICO. A2D Technologies, Inc. : DIGITIZING COMPANY
~Other -----------------------------------------------------
~ASCII -----------------------------------------------------
# ...
 2950.00000   11.50830  224.15780  224.15780    4.06300    -999.25    -999.25    -999.25  102.68830  102.68830    4.79840   79.17360    4.06300   11.50830    4.69190  -64.66350  -10.00170    4.69190
 3000.00000   11.40900  234.42890  234.42890    3.82580    -999.25    -999.25    -999.25   96.59390   96.59390    4.51360   74.47440    3.82580   11.40900    5.39970  -61.97130   -8.27630    5.39970
 3050.00000   10.72880   73.05150   73.05150   13.48060    -999.25    -999.25    -999.25   82.23700   82.23700    3.18070   52.48070   13.48060   10.72880   11.85290  -75.29200  -21.24330   11.85290
 3100.00000   11.96190  162.68320  162.68320    5.58740    -999.25    -999.25    -999.25   91.50260   91.50260    4.83660   79.80390    5.58740   11.96190    5.29180  -65.97710  -11.57240    5.29180
 3150.00000   12.02480  149.78600  149.78600    5.84130    -999.25    -999.25    -999.25   92.15520   92.15520    4.76850   78.68030    5.84130   12.02480    7.17510  -66.53420  -11.77580    7.17510
 3200.00000   11.43210  172.07360  172.07360    4.95430    -999.25    -999.25    -999.25   87.79640   87.79640    5.44050   89.76820    4.95430   11.43210    5.28750  -66.76940  -11.65490    5.28750
 3250.00000   10.50950  184.99230  184.99230    4.90920    -999.25    -999.25    -999.25  108.91990  108.91990    5.32480   87.85920    4.90920   10.50950    6.00960  -59.07100   -3.60280    6.00960
 3300.00000   11.72670  241.88750  241.88750    3.61180    -999.25    -999.25    -999.25   98.41030   98.41030    5.68070   93.73070    3.61180   11.72670    4.05180  -63.20040   -8.24600    4.05180
 3350.00000   11.59830  117.34120  117.34120    7.59350    -999.25    -999.25    -999.25   83.59970   83.59970    4.38530   72.35750    7.59350   11.59830    6.97320  -65.84790  -11.48540    6.97320
 3400.00000   12.45680  186.17100  186.17100    5.12390    -999.25    -999.25    -999.25   97.68260   97.68260    4.82140   79.55310    5.12390   12.45680    5.76230  -58.74080   -4.96640    5.76230
 3450.00000   11.87760  202.39220  202.39220    4.34220    -999.25    -999.25    -999.25   93.51600   93.51600    5.06100   83.50650    4.34220   11.87760    4.80110  -60.87320   -7.69080    4.80110
 3500.00000   10.41140  142.99360  142.99360    6.80410    -999.25    -999.25    -999.25   85.09190   85.09190    4.40110   72.61810    6.80410   10.41140    6.54920  -67.89040  -15.29610    6.54920
 3550.00000   11.62560  272.73220  272.73220    3.36190    -999.25    -999.25    -999.25  108.68400  108.68400    5.58740   92.19290    3.36190   11.62560    4.00460  -60.47250   -8.46630    4.00460
 3600.00000    9.58920   71.59640   71.59640   13.65660    -999.25    -999.25    -999.25   85.21240   85.21240    3.15460   52.05090   13.65660    9.58920    9.00740  -68.49420  -17.08000    9.00740
 3650.00000   11.29030  222.34730  222.34730    3.98610    -999.25    -999.25    -999.25   97.08930   97.08930    5.46690   90.20380    3.98610   11.29030    4.43400  -61.03710  -10.21100    4.43400
 3700.00000   11.81200  240.83110  240.83110    3.87840    -999.25    -999.25    -999.25  101.12150  101.12150    4.38960   72.42840    3.87840   11.81200    4.84670  -55.34320   -5.31240    4.84670
 3750.00000    9.86770   78.54080   78.54080   12.36540    -999.25    -999.25    -999.25   81.59510   81.59510    3.42670   56.54050   12.36540    9.86770    9.60510  -66.18880  -17.00160    9.60510
 3800.00000   11.99600  208.91890  208.91890    4.49240    -999.25    -999.25    -999.25   91.29240   91.29240    4.84320   79.91360    4.49240   11.99600    4.89410  -56.73550   -8.39190    4.89410
 3850.00000   12.21540  195.43850  195.43850    4.64080    -999.25    -999.25    -999.25   92.12680   92.12680    5.05430   83.39590    4.64080   12.21540    5.38880  -62.34600  -14.85160    5.38880
 3900.00000   11.41230  213.85670  213.85670    4.83460    -999.25    -999.25    -999.25   85.03050   85.03050    4.20150   69.32480    4.83460   11.41230    5.88980  -57.78100  -11.04080    5.88980
 3950.00000   11.81790  188.54890  188.54890    4.56790    -999.25    -999.25    -999.25   90.90770   90.90770    4.12800   68.11200    4.56790   11.81790    5.14800  -57.23710  -10.99560    5.14800
 4000.00000   12.27940   97.71930   97.71930   10.35390    -999.25    -999.25    -999.25   79.86100   79.86100    3.68670   60.83060   10.35390   12.27940    8.76120  -63.14400  -17.39790    8.76120
 4050.00000   11.32630  134.26970  134.26970    6.74710    -999.25    -999.25    -999.25   87.77440   87.77440    4.25760   70.25040    6.74710   11.32630    6.38170  -62.33550  -17.08480    6.38170
 4100.00000   12.37950  117.41480  117.41480    8.55720    -999.25    -999.25    -999.25   83.50500   83.50500    3.88740   64.14210    8.55720   12.37950    7.80000  -64.25110  -19.49900    7.80000
 4150.00000    9.27530   93.96620   93.96620   13.04230    -999.25    -999.25    -999.25   75.86010   75.86010    2.91360   48.07360   13.04230    9.27530    8.69420  -60.20860  -15.95190    8.69420
 4200.00000   11.59380  153.93810  153.93810    6.34320    -999.25    -999.25    -999.25   85.18600   85.18600    4.49350   74.14280    6.34320   11.59380    6.90840  -60.74360  -16.98560    6.90840
 4250.00000   12.22160  149.80700  149.80700    6.17850    -999.25    -999.25    -999.25   91.00010   91.00010    4.25660   70.23390    6.17850   12.22160    6.93190  -56.78310  -13.52050    6.93190
 4300.00000   12.96970  182.91240  182.91240    4.94080    -999.25    -999.25    -999.25   82.33460   82.33460    4.40300   72.64950    4.94080   12.96970    5.45890  -54.86970  -12.10250    5.45890
 4350.00000   11.91640  152.75060  152.75060    6.52700    -999.25    -999.25    -999.25   88.46590   88.46590    4.10880   67.79520    6.52700   11.91640    7.59210  -59.53950  -17.27090    7.59210
 4400.00000   11.34470  136.32310  136.32310    6.91000    -999.25    -999.25    -999.25   89.05240   89.05240    4.10370   67.71190    6.91000   11.34470    7.01330  -59.89050  -18.11730    7.01330
 4450.00000   11.45270  130.00990  130.00990    7.77080    -999.25    -999.25    -999.25   85.21050   85.21050    4.11870   67.95850    7.77080   11.45270    7.34100  -57.92100  -16.64650    7.34100
 4500.00000   12.37720  161.68150  161.68150    5.52420    -999.25    -999.25    -999.25   91.48730   91.48730    3.69000   60.88500    5.52420   12.37720    7.50170  -58.77550  -16.08070    7.50170
 4550.00000   11.87730  104.12870  104.12870    9.47330    -999.25    -999.25    -999.25   78.25160   78.25160    3.78370   62.43100    9.47330   11.87730    7.98120  -58.13810  -13.11160    7.98120
 4600.00000   10.31450   93.04250   93.04250    9.96290    -999.25    -999.25    -999.25   76.24040   76.24040    4.34510   71.69420    9.96290   10.31450   11.43760  -70.00800  -22.63450   11.43760
 4650.00000   12.52960  138.81210  138.81210    6.70790    -999.25    -999.25    -999.25   86.82990   86.82990    4.33360   71.50360    6.70790   12.52960    7.26600  -61.96360  -12.25840    7.26600
 4700.00000   12.34810   75.89830   75.89830   12.38940    -999.25    -999.25    -999.25   73.70000   73.70000    3.80210   62.73460   12.38940   12.34810   12.97390  -68.23000  -16.17780   12.97390
 4750.00000   12.25420  113.14800  113.14800    8.67450    -999.25    -999.25    -999.25   80.20890   80.20890    5.84130   96.38150    8.67450   12.25420    7.97780  -62.57910   -8.19520    7.97780
 4800.00000   11.79090  120.83200  120.83200    8.05480    -999.25    -999.25    -999.25   80.96590   80.96590    5.36360   88.49940    8.05480   11.79090    7.62480  -59.77990   -3.06430    7.62480
 4850.00000   12.54070  108.56000  108.56000    8.84760    -999.25    -999.25    -999.25   82.47940   82.47940    6.11170  100.84310    8.84760   12.54070    8.21740  -60.89060   -2.56540    8.21740
 4900.00000   13.21830  108.81680  108.81680    8.96360    -999.25    -999.25    -999.25   84.32470   84.32470    5.89050   97.19240    8.96360   13.21830    8.41180  -59.73430   -1.56810    8.41180
 4950.00000   13.85330  114.95060  114.95060    8.29150    -999.25    -999.25    -999.25   90.98240   90.98240    6.15390  101.53940    8.29150   13.85330    9.09040  -60.46540   -2.45920    9.09040
