~Version ---------------------------------------------------
VERS.      2.0 : CWLS log ASCII Standard -VERSION 2.0
WRAP.       NO : One line per depth step
CREA. 10/05/17 : LAS Creation Date
~Well ------------------------------------------------------
STRT.FT                  900.0 : START DEPTH
STOP.FT                11100.0 : STOP DEPTH
STEP.FT               50.00000 : STEP LENGTH
NULL.                   -999.0 : NULL VALUE
COMP.     CHEVRON STANDARD LTD : COMPANY
WELL. CHEVRON CLARK 10-2-59-18 : WELL
FLD .             KAYBOB SOUTH : FIELD
LOC .                          : LOCATION
CTRY.                   CANADA : COUNTRY
SRVC.             Schlumberger : SERVICE COMPANY
DATE.              17-Jul-1968 : LOGDATE
PROV.                  Alberta : PROVINCE
UWI .         100100205918W500 : UNIQUE WELL ID
SLAT.WGS84            54.07468 : SURFACE LATITUDE
SLON.WGS84           -116.5832 : SURFACE LONGITUDE
~Curve Information -----------------------------------------
DEPT    .FT    : Depth Curve
CALDED  .IN    : CALIPER FROM DENSITY LOG
CALNED  .IN    : CALIPER FROM NEUTRON LOG [ADJ. TO RESISTIVITY LOG]
CALSED  .IN    : CALIPER FROM SONIC LOG [ADJ. TO RESISTIVITY LOG]
CALWS   .IN    : CALIPER [CALSED SPL. TO CALDED @ 10654']
CONDWS  .MMHO  : CONDUCTIVITY [1000/DRESWS]
DCORWS  .G/C3  : DENSITY CORRECTION [DRHOED]
DENWS   .G/C3  : FORMATION BULK DENSITY [RHOBED]
DPHIDLED.V/V   : DENSITY POROSITY DOLOMITE [M=2.85, F=1.00] FROM DENSITY LOG [ADJ. TO RESISTIVITY LOG]
DPHILSED.V/V   : DENSITY POROSITY LIMESTONE [M=2.71,F=1.0] FROM DENSITY LOG [ADJ. TO RESISTIVITY LOG]
DPOLSWS .V/V   : DENSITY POROSITY LIMESTONE [CALC FROM DENWS,M=2.71, F=1.00]
DRESWS  .OHMM  : DEEP RESISTIVITY [ILDED]
DRHOED  .G/C3  : BULK DENSITY CORRECTION FROM DENSITY LOG [ADJ. TO RESISTIVITY LOG]
DTED    .US/F  : DELTA-T FROM SONIC LOG [ADJ. TO RESISTIVITY LOG]
DTWS    .US/F  : COMPRESSIONAL SONIC [DTED]
GRSED   .GAPI  : GAMMA RAY FROM SONIC LOG [ADJ. TO RESISTIVITY LOG]
GRWS    .GAPI  : GAMMA RAY [GRSED]
ILDED   .OHMM  : DEEP INDUCTION RESISTIVITY FROM RESISTIVITY LOG
ILMED   .OHMM  : MEDIUM INDUCTION RESISTIVITY FROM RESISTIVITY LOG
LL8ED   .OHMM  : LATEROLOG-8 RESISTIVITY FROM RESISTIVITY LOG
MRESWS  .OHMM  : MEDIUM RESISTIVITY [ILMED]
NPOLSWS .V/V   : NEUTRON POROSITY [SNPLSED]
RHOBED  .G/C3  : BULK DENSITY FROM DENSITY LOG
SNPLSED .V/V   : SIDEWALL NEUTRON POROSITY LIMESONTE FROM SNP LOG [ADJ. TO RESISTIVITY LOG]
SPRED   .MV    : SPONTANEOUS POTENTIAL FROM RESISTIVITY LOG
SPWS    .MV    : SPONTANEOUS POTENTIAL [BASELINE 0 MV,SPRED]
SRESWS  .OHMM  : SHALLOW RESISTIVITY [LL8ED]
~Params ----------------------------------------------------
PD  .                     GL : PERMANENT DATUM
EPD .FT                 3126 : ELEVATION PERMANENT DATUM
LMF .                     KB : LOG MEASURED FROM
DAPD.FT                   14 : FEET ABOVE PERMANENT DATUM
EKB .FT                 3140 : KELLY BUSHING
EDF .FT                 3126 : DRILLING FLOOR
DATE.               08/13/68 : RUN DATE
RUN .                      2 : RUN NUMBER
DD  .FT                11108 : DEPTH DRILLER
DL  .FT                11107 : DEPTH LOGGER
BLI .FT                11102 : BOTTOM LOG INTERVAL
TLI .FT                10629 : TOP LOG INTERVAL
CBD .FT                10630 : CASING BOTTOM DRILLER
CBL .FT                10629 : CASING BOTTOM LOGGER
BS  .IN                 6.25 : BIT SIZE
BSD .FT                11108 : BIT SIZE AT DEPTH
DFT .                    GEL : DRILLING FLUID TYPE
DFD .                    9.7 : DRILLING FLUID DENSITY
DFV .                     87 : DRILLING FLUID VISCOSITY
RMS .OHMM               1.52 : RESISTIVITY MUD SAMPLE
MST .DEGF                 70 : MUD SAMPLE TEMPERATURE
RMF .OHMM               1.25 : RESISTIVITY MUD FILTRATE SAMPLE
MFST.DEGF                 75 : MUD FILTRATE SAMPLE TEMPERATURE
RMC .OHMM               1.55 : RESISTIVITY MUD CAKE
MCST.DEGF                 70 : MUD CAKE SAMPLE TEMPERATURE
TCS .HRS                 1.5 : TIME CIRCULATED STOPPED
LUN .                   3702 : LOGGING UNIT NUMBER
LUL .                     DC : LOGGING UNIT LOCATION
ENGI.                   BIGG : RECORDING ENGINEER
WITN.         HOVDEBO GHAZAR : WITNESSED BY
CLNT.                A2DTECH : CLIENT CODE
ORIG.            2" 5" PRINT : ORIGIN OF DATA
UWI .       100100205918W500 : UNIQUE WELL ID
DICO. A2D Technologies, Inc. : DIGITIZING COMPANY
~Other -----------------------------------------------------
DIL-LAT/FDC/SNP/BCS LOG RAN
MATRIX VALUE NOT MENTION
~ASCII -----------------------------------------------------
# ...
 7650.00000     -999.0     -999.0    9.60060    9.60060   34.92360     -999.0     -999.0     -999.0     -999.0     -999.0   28.63390     -999.0   52.80550   52.80550   25.41110   25.41110   28.63390   39.16570   59.30210   39.16570     -999.0     -999.0     -999.0 -167.81850  -76.99160   59.30210
 7700.00000     -999.0     -999.0   10.02640   10.02640   35.85160     -999.0     -999.0     -999.0     -999.0     -999.0   27.89730     -999.0   55.66900   55.66900   58.87790   58.87790   27.89730   29.11090   33.83510   29.11090     -999.0     -999.0     -999.0 -134.23160  -44.71020   33.83510
 7750.00000     -999.0     -999.0   10.20480   10.20480   49.71590     -999.0     -999.0     -999.0     -999.0     -999.0   20.11430     -999.0   62.99450   62.99450   30.53790   30.53790   20.11430   18.79030   21.04200   18.79030     -999.0     -999.0     -999.0 -160.09150  -71.86710   21.04200
 7800.00000     -999.0     -999.0    9.72590    9.72590   19.28120     -999.0     -999.0     -999.0     -999.0     -999.0   51.86410     -999.0   54.02240   54.02240   49.05520   49.05520   51.86410  135.13560  148.20360  135.13560     -999.0     -999.0     -999.0 -131.25180  -44.32440  148.20360
 7850.00000     -999.0     -999.0   10.27780   10.27780   11.49290     -999.0     -999.0     -999.0     -999.0     -999.0   87.01020     -999.0   53.89820   53.89820   48.63820   48.63820   87.01020  872.59710  343.70490  872.59710     -999.0     -999.0     -999.0 -120.36650  -34.74460  343.70490
 7900.00000     -999.0     -999.0    9.93020    9.93020   37.62750     -999.0     -999.0     -999.0     -999.0     -999.0   26.57630     -999.0   49.29990   49.29990   13.32960   13.32960   26.57630   60.77330   82.62160   60.77330     -999.0     -999.0     -999.0 -219.99820 -135.67330   82.62160
 7950.00000     -999.0     -999.0   10.23860   10.23860   21.15520     -999.0     -999.0     -999.0     -999.0     -999.0   47.27100     -999.0   49.27590   49.27590   11.60600   11.60600   47.27100  152.47550  127.76890  152.47550     -999.0     -999.0     -999.0 -147.13080  -64.11140  127.76890
 8000.00000     -999.0     -999.0    9.88910    9.88910  113.48930     -999.0     -999.0     -999.0     -999.0     -999.0    8.81140     -999.0   59.47850   59.47850   57.26290   57.26290    8.81140    9.42570    8.42920    9.42570     -999.0     -999.0     -999.0 -128.96440  -47.24200    8.42920
 8050.00000     -999.0     -999.0    9.74120    9.74120   50.97800     -999.0     -999.0     -999.0     -999.0     -999.0   19.61630     -999.0   59.31880   59.31880   49.37690   49.37690   19.61630   20.40090   25.62140   20.40090     -999.0     -999.0     -999.0 -108.50340  -28.07790   25.62140
 8100.00000     -999.0     -999.0    9.82200    9.82200   36.02270     -999.0     -999.0     -999.0     -999.0     -999.0   27.76030     -999.0   55.16790   55.16790   38.27010   38.27010   27.76030   36.96290   44.20630   36.96290     -999.0     -999.0     -999.0  -92.43010  -13.31010   44.20630
 8150.00000     -999.0     -999.0    9.70960    9.70960   20.28100     -999.0     -999.0     -999.0     -999.0     -999.0   49.30720     -999.0   54.44410   54.44410   44.13310   44.13310   49.30720   58.23860   82.96470   58.23860     -999.0     -999.0     -999.0  -88.48390  -10.66090   82.96470
 8200.00000     -999.0     -999.0   10.58170   10.58170   64.47040     -999.0     -999.0     -999.0     -999.0     -999.0   15.61480     -999.0   65.16990   65.16990   45.19200   45.19200   15.61480   12.46810   15.57030   12.46810     -999.0     -999.0     -999.0  -78.74290   -2.22540   15.57030
 8250.00000     -999.0     -999.0    9.72970    9.72970    9.28820     -999.0     -999.0     -999.0     -999.0     -999.0  107.66370     -999.0   52.64430   52.64430   26.95760   26.95760  107.66370  200.91300  187.36370  200.91300     -999.0     -999.0     -999.0  -93.67440  -18.17630  187.36370
 8300.00000     -999.0     -999.0    9.61360    9.61360    9.31110     -999.0     -999.0     -999.0     -999.0     -999.0  107.39860     -999.0   53.57610   53.57610   26.76940   26.76940  107.39860  223.18650  161.32780  223.18650     -999.0     -999.0     -999.0  -96.03840  -20.47620  161.32780
 8350.00000     -999.0     -999.0    9.56630    9.56630    9.24820     -999.0     -999.0     -999.0     -999.0     -999.0  108.12970     -999.0   53.23480   53.23480   28.91320   28.91320  108.12970  305.22720  178.86420  305.22720     -999.0     -999.0     -999.0  -99.65050  -24.02370  178.86420
 8400.00000     -999.0     -999.0   10.14010   10.14010   32.51260     -999.0     -999.0     -999.0     -999.0     -999.0   30.75730     -999.0   57.15380   57.15380   40.28370   40.28370   30.75730   41.56720   38.58590   41.56720     -999.0     -999.0     -999.0  -90.17720  -14.48630   38.58590
 8450.00000     -999.0     -999.0    9.70400    9.70400   28.36460     -999.0     -999.0     -999.0     -999.0     -999.0   35.25630     -999.0   56.61900   56.61900   44.77010   44.77010   35.25630   57.59960   69.67530   57.59960     -999.0     -999.0     -999.0  -95.51930  -19.76380   69.67530
 8500.00000     -999.0     -999.0    9.80110    9.80110   28.91880     -999.0     -999.0     -999.0     -999.0     -999.0   34.57960     -999.0   64.42330   64.42330   80.09420   80.09420   34.57960   58.68800   56.02720   58.68800     -999.0     -999.0     -999.0  -91.57770  -15.75810   56.02720
 8550.00000     -999.0     -999.0    9.52020    9.52020   12.39890     -999.0     -999.0     -999.0     -999.0     -999.0   80.65260     -999.0   81.10710   81.10710     -999.0     -999.0   80.65260  779.86040  774.80790  779.86040     -999.0     -999.0     -999.0 -113.23390  -37.35010  774.80790
 8600.00000     -999.0     -999.0   10.22650   10.22650    4.55760     -999.0     -999.0     -999.0     -999.0     -999.0  219.41480     -999.0   51.70040   51.70040   15.44060   15.44060  219.41480  908.21770  341.08370  908.21770     -999.0     -999.0     -999.0 -157.77820  -81.82990  341.08370
 8650.00000     -999.0     -999.0   10.01320   10.01320    3.68680     -999.0     -999.0     -999.0     -999.0     -999.0  271.23550     -999.0   50.89660   50.89660   16.80190   16.80190  271.23550  761.29870  229.99980  761.29870     -999.0     -999.0     -999.0 -168.91030  -92.89780  229.99980
 8700.00000     -999.0     -999.0   10.45360   10.45360   11.17130     -999.0     -999.0     -999.0     -999.0     -999.0   89.52230     -999.0   52.05120   52.05120   14.89630   14.89630   89.52230 1318.50800  307.85080 1318.50800     -999.0     -999.0     -999.0 -185.77530 -109.69830  307.85080
 8750.00000     -999.0     -999.0   10.24540   10.24540   23.25900     -999.0     -999.0     -999.0     -999.0     -999.0   42.99420     -999.0   52.44280   52.44280   10.02390   10.02390   42.99420   69.06610   83.51300   69.06610     -999.0     -999.0     -999.0 -204.89290 -128.75170   83.51300
 8800.00000     -999.0     -999.0   11.86880   11.86880   14.72960     -999.0     -999.0     -999.0     -999.0     -999.0   67.89070     -999.0   52.98850   52.98850   14.72030   14.72030   67.89070  250.55270  101.06890  250.55270     -999.0     -999.0     -999.0 -189.54250 -113.33720  101.06890
 8850.00000     -999.0     -999.0   12.76430   12.76430   11.22350     -999.0     -999.0     -999.0     -999.0     -999.0   89.09860     -999.0   51.82910   51.82910   18.74230   18.74230   89.09860  192.34340  106.40040  192.34340     -999.0     -999.0     -999.0 -190.51670 -114.24680  106.40040
 8900.00000     -999.0     -999.0   10.46910   10.46910   13.57050     -999.0     -999.0     -999.0     -999.0     -999.0   73.68950     -999.0   52.17340   52.17340   12.69730   12.69730   73.68950  391.07060  332.77890  391.07060     -999.0     -999.0     -999.0 -203.72970 -127.39570  332.77890
 8950.00000     -999.0     -999.0   11.01540   11.01540    9.51020     -999.0     -999.0     -999.0     -999.0     -999.0  105.28000     -999.0   53.66320   53.66320   14.56650   14.56650  105.28000  417.17750  217.56380  417.17750     -999.0     -999.0     -999.0 -194.62890 -118.23030  217.56380
