~Version ---------------------------------------------------
VERS. 2.0 : CWLS log ASCII Standard -VERSION 2.0
WRAP.  NO : ONE LINE PER DEPTH STEP
~Well ------------------------------------------------------
STRT.F                              1350.0 : START DEPTH
STOP.F                             12000.0 : STOP DEPTH
STEP.F                            50.00000 : STEP LENGTH
NULL.                              -999.25 : NULL VALUE
COMP.                 CHEVRON STANDARD LTD : COMPANY
WELL. CHEVRON AMOCO WASKAHIGAN 10-17-64-24 : WELL
FLD .                                      : FIELD
LOC .                                      : LOCATION
CTRY.                               CANADA : COUNTRY
SRVC.                         Schlumberger : SERVICE COMPANY
DATE.                          17-Sep-1977 : LOGDATE
PROV.                              Alberta : PROVINCE
UWI .                     100101706424W500 : UNIQUE WELL ID
SLAT.WGS84                        54.54045 : SURFACE LATITUDE
SLON.WGS84                       -117.5875 : SURFACE LONGITUDE
~Curve Information -----------------------------------------
DEPT   .F                 : 
SPR    .MV   99 010 00 00 : SELF POTENTIAL
ILD    .OHMM 06 121 12 00 : INDUCTION LOG RESISTIVITY
ILM    .OHMM 07 120 44 00 : INDUCTION LOG MEDIUM RESISTIVITY
DFL    .OHMM 07 220 01 00 : DIGITAL FOCUSED LATEROLOG
GRS    .GAPI              : GAMMA RAY FROM SONIC LOG
CALS   .IN                : CALIPER FROM SONIC LOG
TENS   .LB   60 635 01 00 : TENSION FROM SONIC LOG
DRHO   .G/C3 00 000 00 01 : DENSITY CORRECTION
RHOB   .G/C3 45 350 01 00 : BULK DENSITY
CALD   .IN   70 280 01 00 : CALIPER FROM DENSITY LOG
GRD    .GAPI              : GAMMA RAY FROM DENSITY LOG
TEND   .LB                : TENSION FROM DENSITY LOG
DPHI_SS.DEC  45 890 12 00 : DENSITY POROSITY SANDSTONE
NPHI_SS.DEC               : NEUTRON POROSITY SANDSTONE
NPHI_LS.DEC               : NEUTRON POROSITY IN SELECTED LITHOLOGY SANDSTONE
DPHI_LS.DEC  45 890 00 00 : DENSITY POROSITY
DT     .US/F 60 520 00 00 : DELTA TIME FROM SONIC LOG
~Params ----------------------------------------------------
PD  .                     GL : PERMANENT DATUM
EPD .FT               2874.1 : ELEVATION PERMANENT DATUM
LMF .                     KB : LOG MEASURED FROM
DAPD.FT                 18.5 : FEET ABOVE PERMANENT DATUM
EKB .FT               2892.6 : KELLY BUSHING
EGL .FT               2874.1 : GROUND LEVEL
DATE.               09/17/77 : RUN DATE
RUN .                      1 : RUN NUMBER
DD  .FT                11989 : DEPTH DRILLER
DL  .FT                11985 : DEPTH LOGGER
BLI .FT                11979 : BOTTOM LOG INTERVAL
TLI .FT                 1516 : TOP LOG INTERVAL
CBD .FT              1516.87 : CASING BOTTOM DRILLER
CBL .FT                 1516 : CASING BOTTOM LOGGER
BS  .IN                 8.75 : BIT SIZE
BSD .FT                11989 : BIT SIZE AT DEPTH
DFT .                    GEL : DRILLING FLUID TYPE
DFD .                      9 : DRILLING FLUID DENSITY
DFV .                     90 : DRILLING FLUID VISCOSITY
DFPH.                    9.5 : DRILLING FLUID PH
DFL .                    8.4 : DRILLING FLUID LOSS
MSS .               FLOWLINE : MUD SAMPLE SOURCE
RMS .OHMM               1.53 : RESISTIVITY MUD SAMPLE
MST .DEGF                 68 : MUD SAMPLE TEMPERATURE
RMF .OHMM               1.36 : RESISTIVITY MUD FILTRATE SAMPLE
MFST.DEGF                 62 : MUD FILTRATE SAMPLE TEMPERATURE
RMC .OHMM               1.37 : RESISTIVITY MUD CAKE
MCST.DEGF                 62 : MUD CAKE SAMPLE TEMPERATURE
TCS .HRS                   5 : TIME CIRCULATED STOPPED
LUN .                   7772 : LOGGING UNIT NUMBER
LUL .                    EDM : LOGGING UNIT LOCATION
ENGI.         BERNISKY TRACY : RECORDING ENGINEER
WITN.             RICHARDSON : WITNESSED BY
CLNT.                A2DTECH : CLIENT CODE
ORIG.            2" 5" PRINT : ORIGIN OF DATA
UWI .       100101706424W500 : UNIQUE WELL ID
DICO. A2D Technologies, Inc. : DIGITIZING COMPANY
~Other -----------------------------------------------------
~ASCII -----------------------------------------------------
 1350.00000    -999.25    -999.25    -999.25    -999.25   41.42910    -999.25    -999.25    -999.25    -999.25    -999.25    -999.25    -999.25    -999.25    -999.25    -999.25    -999.25    -999.25
 1400.00000    -999.25    -999.25    -999.25    -999.25   38.72500    -999.25    -999.25    -999.25    -999.25    -999.25    -999.25    -999.25    -999.25    -999.25    -999.25    -999.25    -999.25
 1450.00000    -999.25    -999.25    -999.25    -999.25   46.03480    -999.25    -999.25    -999.25    -999.25    -999.25    -999.25    -999.25    -999.25    -999.25    -999.25    -999.25    -999.25
 1500.00000    -999.25    -999.25    -999.25    -999.25   42.11940    -999.25    -999.25    -999.25    -999.25    -999.25    -999.25    -999.25    -999.25    -999.25    -999.25    -999.25    -999.25
 1550.00000  -57.89560    1.98430    1.64580    2.19570   86.42010    9.31170 4257.19920    -999.25    -999.25    -999.25    -999.25    -999.25    -999.25    -999.25    -999.25    -999.25  136.25040
 1600.00000  -61.34640    7.16490    8.33210    6.84590   70.03890    9.28420 4274.53370    -999.25    -999.25    -999.25    -999.25    -999.25    -999.25    -999.25    -999.25    -999.25   94.19930
 1650.00000  -61.19990    4.88010    4.41090    4.20960   84.63570    9.65580 4259.35990    -999.25    -999.25    -999.25    -999.25    -999.25    -999.25    -999.25    -999.25    -999.25  109.50450
 1700.00000  -60.49730   10.40000   10.20210    8.91560   59.74560    9.42280 4069.90450    -999.25    -999.25    -999.25    -999.25    -999.25    -999.25    -999.25    -999.25    -999.25   94.51540
 1750.00000  -60.23220    2.67660    2.19610    1.99380   77.66770    8.82640 4207.31250    -999.25    -999.25    -999.25    -999.25    -999.25    -999.25    -999.25    -999.25    -999.25   95.48260
 1800.00000  -60.65050    4.20980    3.69770    3.47200   73.60640   10.24720 4027.52030    -999.25    -999.25    -999.25    -999.25    -999.25    -999.25    -999.25    -999.25    -999.25  109.03090
 1850.00000  -60.70200    4.59600    3.86370    3.70620   87.77280    9.70500 3946.66160    -999.25    -999.25    -999.25    -999.25    -999.25    -999.25    -999.25    -999.25    -999.25  103.18250
 1900.00000  -61.57500    4.90570    4.51750    4.23930   97.39870    9.80000 3864.45310    -999.25    -999.25    -999.25    -999.25    -999.25    -999.25    -999.25    -999.25    -999.25   94.37190
 1950.00000  -61.22880    3.45360    3.23510    3.24770   97.77880    9.62320 3899.70630    -999.25    -999.25    -999.25    -999.25    -999.25    -999.25    -999.25    -999.25    -999.25   96.73700
 2000.00000  -62.42300    6.08620    5.51160    5.48520   74.74800    9.40830 3725.28320    -999.25    -999.25    -999.25    -999.25    -999.25    -999.25    -999.25    -999.25    -999.25   92.00340
 2050.00000  -63.31510    6.23650    6.81140    5.28060   87.72970    9.94160 3731.92720    -999.25    -999.25    -999.25    -999.25    -999.25    -999.25    -999.25    -999.25    -999.25   97.58210
 2100.00000  -62.11070    4.54520    4.06170    3.85490   96.63770   10.60110 3887.53340    -999.25    -999.25    -999.25    -999.25    -999.25    -999.25    -999.25    -999.25    -999.25  104.07370
 2150.00000  -61.83720    7.60140    6.93220    6.57940   72.88690   10.19890 3540.22190    -999.25    -999.25    -999.25    -999.25    -999.25    -999.25    -999.25    -999.25    -999.25   92.40980
 2200.00000  -62.75120    3.32230    3.88390    3.63310  100.97680    9.76480 3425.18770    -999.25    -999.25    -999.25    -999.25    -999.25    -999.25    -999.25    -999.25    -999.25  106.59030
 2250.00000  -63.06580    4.31960    3.98640    3.74100   81.96160    9.76090 3414.73120    -999.25    -999.25    -999.25    -999.25    -999.25    -999.25    -999.25    -999.25    -999.25   95.33560
 2300.00000  -62.58940    3.53090    3.23930    3.71650   92.13110    9.21100 3311.63330    0.15700    2.19700    8.63030   98.39600 3633.36670    0.37010    0.50200    -999.25    -999.25  111.09300
 2350.00000  -63.42330    2.37810    2.10930    2.19160  119.40720    9.17090 3085.51250    0.18130    1.94860   12.41310  162.71630 3667.37110    0.43160    0.46870    -999.25    -999.25  105.85950
 2400.00000  -68.93560    9.16070    7.66030    7.45910   76.99860    9.31130 3376.53390    0.08280    2.31760   10.68530   76.38970 3599.93260    0.19780    0.35270    -999.25    -999.25   95.50320
 2450.00000  -63.97510    2.96570    2.84560    2.63190   87.82290   11.42280 4612.85600    0.06360    2.21660   13.48810  100.87250 3471.16750    0.25570    0.48920    -999.25    -999.25  112.18830
 2500.00000  -63.29230    4.12570    3.44790    3.06890   80.93140   10.89260 4476.82620    0.09820    2.39640   12.47230   88.82550 3452.45410    0.15290    0.30540    -999.25    -999.25   88.94670
 2550.00000  -73.03710    9.82070    8.77010    8.69820   59.48360    9.51110 4352.72510    0.07290    2.28870    9.71390   60.56600 3464.68020    0.18650    0.34380    -999.25    -999.25   84.63830
 2600.00000  -66.85710    6.59140    5.97710    5.48360   53.55480    9.22960 4274.58110    0.04790    2.37010   10.42140   72.39110 3407.20700    0.12720    0.31250    -999.25    -999.25   73.72520
 2650.00000  -64.42300    5.38780    6.19430    5.64250   83.18500    9.40920 4306.98290    0.16640    2.42220   11.73560   87.90000 3369.03760    0.17110    0.36630    -999.25    -999.25  110.71050
 2700.00000  -64.14950    5.10340    4.50680    3.94960   77.61820    9.73160 4272.89310    0.07770    2.36070   14.59690   84.49940 3253.25200    0.16330    0.41420    -999.25    -999.25   97.45650
 2750.00000  -65.17160    4.36390    4.23150    3.81690   54.90460    9.50650 4209.00200    0.07900    2.34090   12.60110   67.18330 3902.32570    0.15110    0.36940    -999.25    -999.25   88.03530
 2800.00000  -64.08440   10.55940   12.24070   20.16810   46.20110    9.70850 4039.57080    0.02330    2.55070    9.68510   46.36330 3985.35300    0.08580    0.23020    -999.25    -999.25   80.62710
 2850.00000  -63.38510    3.58100    3.36920    3.16300   69.67130    8.55150 4061.90210    0.16270    1.99300   11.19550   78.22570 3915.28130    0.49140    0.50010    -999.25    -999.25  111.53080
 2900.00000  -64.28880    4.84750    3.98670    3.82950   64.14220    8.85980 4089.02880    0.21010    1.98240   10.25630   73.51620 4047.03170    0.27210    0.43270    -999.25    -999.25   94.69580
 2950.00000  -63.57210    5.38900    4.70020    5.01330   69.01460    9.87680 3872.83890    0.07060    2.44910   10.22060   69.82970 3787.53130    0.14920    0.39550    -999.25    -999.25  113.90450
 3000.00000  -64.67510    5.82290    5.58420    5.38980   59.66510   10.15880 3865.20040    0.16990    2.41580   10.99480   64.01840 3889.10940    0.16910    0.37810    -999.25    -999.25   88.01220
 3050.00000  -64.21110    5.17010    4.78520    4.59110   66.75740   10.55380 3830.59720    0.15330    2.25450   11.49840   71.30540 3769.18210    0.19160    0.45800    -999.25    -999.25   97.59140
 3100.00000  -63.84560    6.36490    6.12930    7.87330   66.47940    9.60410 3825.84840    0.07180    2.35440   11.30730   68.38360 3756.65040    0.20910    0.42350    -999.25    -999.25  113.77900
 3150.00000  -64.68230    5.05180    4.91810    4.52330   63.77940   10.16630 3647.42820    0.13280    2.27020   10.88010   71.15970 3691.74610    0.29630    0.43520    -999.25    -999.25  105.34780
 3200.00000  -64.34370    4.42810    4.17000    4.00760   69.60270    9.15630 3657.97660    0.10550    2.27520   10.91390   68.07370 3727.01860    0.22640    0.43870    -999.25    -999.25  103.53840
 3250.00000  -63.56140    4.67190    4.28030    4.04600   64.33940    9.20060 3442.86790    0.14050    2.22640   10.27880   71.71240 3636.45560    0.24770    0.44860    -999.25    -999.25   88.46380
 3300.00000  -63.27230    4.48370    4.20980    4.05540   69.47830    9.20850 3555.00930    0.13080    2.20990    9.66690   68.11640 3629.92580    0.29750    0.49500    -999.25    -999.25  101.05620
 3350.00000  -64.23720    4.88300    4.56870    4.19070   70.26170    9.12470 3386.72050    0.12550    2.36360    9.81390   76.70580 3644.33250    0.14630    0.43170    -999.25    -999.25   91.63500
