~Version ---------------------------------------------------
VERS.      2.0 : CWLS log ASCII Standard -VERSION 2.0
WRAP.       NO : One line per depth step
CREA. 01/03/18 : LAS Creation Date
~Well ------------------------------------------------------
STRT.FT                               900.0 : START DEPTH
STOP.FT                              8300.0 : STOP DEPTH
STEP.FT                            50.00000 : STEP LENGTH
NULL.                               -999.25 : NULL VALUE
COMP.                      HOME OIL COMPANY : COMPANY
WELL. HOME FPC ET AL MORSE RIVER 10-30-65-9 : WELL
FLD .                                       : FIELD
LOC .                                       : LOCATION
CTRY.                                CANADA : COUNTRY
SRVC.                Schlumberger of Canada : SERVICE COMPANY
DATE.                           16-Feb-1961 : LOGDATE
PROV.                               Alberta : PROVINCE
UWI .                      100103006509W500 : UNIQUE WELL ID
SLAT.WGS84                         54.65619 : SURFACE LATITUDE
SLON.WGS84                         -115.345 : SURFACE LONGITUDE
~Curve Information -----------------------------------------
DEPT  .FT         : Depth Curve
CALWS .IN         : CALIPER [MCALED]
CILDED.MMHO       : INDUCTION DEEP CONDUCTIVITY
CONDWS.MMHO       : DEEP CONDUCTIVITY [1000/DRESWS]
DRESWS.OHMM       : DEEP RESISTIVITY [ILDED]
DTED  .US/F       : DELTA-T (INTERVAL TRANSIT TIME)  [DSH TO RES]
DTWS  .US/F       : DELTA-TIME COMPRESSIONAL [DTED]
GRSED .UgRa-Eq/T  : GAMMA RAY FROM SONIC LOG [DSH TO RES]
GRWS  .GAPI       : GAMMA RAY [GRSED*16.5 FOR API UNIT]
ILDED .OHMM       : INDUCTION DEEP RESISTIVITY
MCALED.IN         : MLT (MICROLOG) CALIPER
SNED  .OHMM       : SHORT NORMAL RESISTIVITY
SPRED .MV         : SPONTANEOUS POTENTIAL FROM RESISTIVITY LOG
SPWS  .MV         : SPONTANEOUS POTENTIAL [SPRED 0 MV BASELINE]
SRESWS.OHMM       : SHALLOW RESISTIVITY [SNED]
~Params ----------------------------------------------------
LMF .                     KB : LOG MEASURED FROM
DMF .                     KB : DRILLING MEASURED FROM
EKB .FT                 3357 : KELLY BUSHING
EGL .FT               3344.1 : GROUND LEVEL
DATE.               02/16/61 : RUN DATE
RUN .                      1 : RUN NUMBER
DD  .FT                 8361 : DEPTH DRILLER
DL  .FT                 8351 : DEPTH LOGGER
BLI .FT                 8350 : BOTTOM LOG INTERVAL
TLI .FT                  857 : TOP LOG INTERVAL
CBD .FT                  857 : CASING BOTTOM DRILLER
CBL .FT                  857 : CASING BOTTOM LOGGER
BS  .IN                 8.75 : BIT SIZE
BSD .FT                 8361 : BIT SIZE AT DEPTH
DFT .                    GEL : DRILLING FLUID TYPE
DFD .                    9.9 : DRILLING FLUID DENSITY
DFV .                    135 : DRILLING FLUID VISCOSITY
DFPH.                     10 : DRILLING FLUID PH
DFL .                      7 : DRILLING FLUID LOSS
RMS .OHMM               2.45 : RESISTIVITY MUD SAMPLE
MST .DEGF                 71 : MUD SAMPLE TEMPERATURE
TCS .HRS                   4 : TIME CIRCULATED STOPPED
LUN .                   1571 : LOGGING UNIT NUMBER
LUL .                     SH : LOGGING UNIT LOCATION
ENGI.               WILLIAMS : RECORDING ENGINEER
WITN.                  BEARD : WITNESSED BY
CLNT.                A2DTECH : CLIENT CODE
ORIG.            2" 5" PRINT : ORIGIN OF DATA
UWI .       100103006509W500 : UNIQUE WELL ID
DICO. A2D Technologies, Inc. : DIGITIZING COMPANY
~Other -----------------------------------------------------
SUSPECTED SP POSITIVE FROM 6594' TO TD (RW CHANGE?) AS SP GOES THE SAME DIRECTION WITH RESSITIVITY - HENCE BASELINE
SP AS POSITIVE FROM 6594' TO TD FOR SPWS, IF ANY DOUBTS PLEASE REFER TO ORIGINAL SPRED.
~ASCII -----------------------------------------------------
  900.00000    -999.25  338.14950  313.53860    3.18940    -999.25    -999.25    -999.25    -999.25    3.18940    -999.25    2.81030  -99.72800   -3.84680    2.81030
  950.00000    -999.25  348.34890  354.32090    2.82230    -999.25    -999.25    -999.25    -999.25    2.82230    -999.25    2.50430 -100.67240   -4.54090    2.50430
 1000.00000    -999.25  274.69020  295.16810    3.38790    -999.25    -999.25    -999.25    -999.25    3.38790    -999.25    3.09260  -96.77830   -4.39760    3.09260
 1050.00000    -999.25  239.81040  252.50610    3.96030    -999.25    -999.25    -999.25    -999.25    3.96030    -999.25    3.69670  -93.76390   -4.17360    3.69670
 1100.00000    -999.25  289.17950  288.92550    3.46110    -999.25    -999.25    -999.25    -999.25    3.46110    -999.25    3.05880  -91.80260   -2.86130    3.05880
 1150.00000    -999.25  277.26140  273.95010    3.65030    -999.25    -999.25    -999.25    -999.25    3.65030    -999.25    2.86880  -97.04700   -8.75040    2.86880
 1200.00000    -999.25  249.92990  247.97280    4.03270    -999.25    -999.25    -999.25    -999.25    4.03270    -999.25    3.59390  -92.17350   -4.52580    3.59390
 1250.00000    -999.25  217.99930  206.71410    4.83760    -999.25    -999.25    -999.25    -999.25    4.83760    -999.25    4.37110  -91.61070   -3.80680    4.37110
 1300.00000    -999.25  383.43680  373.38510    2.67820    -999.25    -999.25    -999.25    -999.25    2.67820    -999.25    2.05290  -90.77930   -2.23650    2.05290
 1350.00000    -999.25  283.36810  328.53670    3.04380    -999.25    -999.25    -999.25    -999.25    3.04380    -999.25    3.46860  -98.21060   -8.47210    3.46860
 1400.00000    -999.25  554.16050  499.57540    2.00170    -999.25    -999.25    -999.25    -999.25    2.00170    -999.25    1.55880  -97.72620   -6.14060    1.55880
 1450.00000    -999.25  322.20030  357.04080    2.80080    -999.25    -999.25    -999.25    -999.25    2.80080    -999.25    2.44720  -98.05840   -4.99280    2.44720
 1500.00000    -999.25  235.52660  226.14710    4.42190    -999.25    -999.25    -999.25    -999.25    4.42190    -999.25    3.76490  -99.97070   -6.65920    3.76490
 1550.00000    -999.25  240.92970  249.67540    4.00520    -999.25    -999.25    -999.25    -999.25    4.00520    -999.25    3.62040 -100.08960   -6.53230    3.62040
 1600.00000    -999.25  347.40160  329.12060    3.03840    -999.25    -999.25    -999.25    -999.25    3.03840    -999.25    2.74910  -97.49320   -3.68850    2.74910
 1650.00000    -999.25  132.17390  127.88870    7.81930    -999.25    -999.25    -999.25    -999.25    7.81930    -999.25    7.38670 -110.10700  -16.05640    7.38670
 1700.00000    -999.25  285.94660  309.80850    3.22780    -999.25    -999.25    -999.25    -999.25    3.22780    -999.25    3.61210  -96.36420   -2.06620    3.61210
 1750.00000    -999.25   83.42700   79.98080   12.50300    -999.25    -999.25    -999.25    -999.25   12.50300    -999.25   10.25210 -112.93640  -18.39250   10.25210
 1800.00000   10.40180  291.37810  313.13610    3.19350    -999.25    -999.25    -999.25    -999.25    3.19350   10.40180    2.88770  -99.89480   -5.10510    2.88770
 1850.00000    8.01550  229.62800  180.90380    5.52780    -999.25    -999.25    -999.25    -999.25    5.52780    8.01550    4.98860 -107.84960  -12.81250    4.98860
 1900.00000    8.29290  137.56410  138.79830    7.20470    -999.25    -999.25    -999.25    -999.25    7.20470    8.29290    5.97930 -113.87340  -18.59040    5.97930
 1950.00000    8.47270   94.80170   96.72680   10.33840    -999.25    -999.25    -999.25    -999.25   10.33840    8.47270    8.27870 -117.96340  -22.43300    8.27870
 2000.00000   10.01830  308.17840  285.09520    3.50760    -999.25    -999.25    -999.25    -999.25    3.50760   10.01830    3.87750 -101.34150   -5.56520    3.87750
 2050.00000    9.63250  230.72290  223.12960    4.48170    -999.25    -999.25    -999.25    -999.25    4.48170    9.63250    3.92550 -100.99430   -4.97220    3.92550
 2100.00000   10.81850  254.22320  277.70060    3.60100    -999.25    -999.25    -999.25    -999.25    3.60100   10.81850    4.02500  -98.55200   -2.28240    4.02500
 2150.00000   11.38480  304.49070  325.11870    3.07580    -999.25    -999.25    -999.25    -999.25    3.07580   11.38480    3.34880 -103.05710   -6.54170    3.34880
 2200.00000   11.76100  226.27390  223.73870    4.46950    -999.25    -999.25    -999.25    -999.25    4.46950   11.76100    4.04360 -102.09080   -5.32800    4.04360
 2250.00000   12.55130  268.09570  262.48790    3.80970    -999.25    -999.25    -999.25    -999.25    3.80970   12.55130    3.49170  -97.22040   -0.21170    3.49170
 2300.00000   11.73130  291.73910  308.63240    3.24010    -999.25    -999.25    -999.25    -999.25    3.24010   11.73130    3.61690 -100.63560   -3.65750    3.61690
 2350.00000   12.69810  290.89320  322.20650    3.10360    -999.25    -999.25    -999.25    -999.25    3.10360   12.69810    3.58520  -99.04560   -2.12420    3.58520
 2400.00000   11.58180  264.99320  285.83680    3.49850    -999.25    -999.25    -999.25    -999.25    3.49850   11.58180    3.81070  -98.74780   -1.88280    3.81070
 2450.00000   11.26870  266.61250  284.98150    3.50900    -999.25    -999.25    -999.25    -999.25    3.50900   11.26870    3.81280  -98.09010   -1.28180    3.81280
 2500.00000   10.04010  185.92840  197.35150    5.06710    -999.25    -999.25    -999.25    -999.25    5.06710   10.04010    6.23440 -108.78960  -12.03770    6.23440
 2550.00000   11.20770  260.86790  287.97700    3.47250    -999.25    -999.25    -999.25    -999.25    3.47250   11.20770    3.79050  -97.45800   -0.76250    3.79050
 2600.00000   12.39840  223.65080  233.71040    4.27880    -999.25    -999.25    -999.25    -999.25    4.27880   12.39840    4.55370 -102.29430   -5.65550    4.55370
 2650.00000   14.26430  206.70210  224.54750    4.45340    -999.25    -999.25    -999.25    -999.25    4.45340   14.26430    4.90790 -106.40760   -9.82520    4.90790
 2700.00000   13.91110  203.01320  221.39570    4.51680    -999.25    -999.25    -999.25    -999.25    4.51680   13.91110    4.78530 -106.73540  -10.20980    4.78530
 2750.00000   13.65080  247.24950  255.36910    3.91590    -999.25    -999.25    -999.25    -999.25    3.91590   13.65080    4.27770 -106.07430   -9.60500    4.27770
 2800.00000   14.04390  139.82020  136.46290    7.32800    -999.25    -999.25    -999.25    -999.25    7.32800   14.04390    8.02720 -102.49130   -6.07840    8.02720
 2850.00000   12.76880  163.52350  178.47900    5.60290    -999.25    -999.25    -999.25    -999.25    5.60290   12.76880    6.03300 -103.13320   -6.77710    6.03300
 2900.00000   14.14060  193.25520  209.30140    4.77780    -999.25    -999.25    -999.25    -999.25    4.77780   14.14060    5.13100 -105.17940   -8.87960    5.13100
 2950.00000   14.08650  226.74310  227.89950    4.38790    -999.25    -999.25    -999.25    -999.25    4.38790   14.08650    4.82370 -103.36710   -7.12410    4.82370
 3000.00000   13.50660  143.45670  149.51260    6.68840    -999.25    -999.25    -999.25    -999.25    6.68840   13.50660    7.16780 -102.04920   -6.07080    7.16780
 3050.00000   13.53380  171.06390  166.56950    6.00350    -999.25    -999.25    -999.25    -999.25    6.00350   13.53380    5.59770 -105.78070  -10.16300    5.59770
 3100.00000   14.65820  185.71330  183.82350    5.44000    -999.25    -999.25    -999.25    -999.25    5.44000   14.65820    5.11310 -104.82620   -9.57160    5.11310
 3150.00000   14.59060  226.79210  210.02230    4.76140    -999.25    -999.25    -999.25    -999.25    4.76140   14.59060    4.25500 -103.88300   -8.98910    4.25500
 3200.00000   14.62810  152.97320  152.40420    6.56150    -999.25    -999.25    -999.25    -999.25    6.56150   14.62810    6.13210 -104.03550   -9.50460    6.13210
 3250.00000   14.60000  174.85160  176.94420    5.65150    -999.25    -999.25    -999.25    -999.25    5.65150   14.60000    5.27630 -103.41260   -9.24240    5.27630
 3300.00000   14.58000  230.61790  217.61840    4.59520    -999.25    -999.25    -999.25    -999.25    4.59520   14.58000    4.90020 -101.97240   -8.16290    4.90020
