~Version ---------------------------------------------------
VERS.      2.0 : CWLS log ASCII Standard -VERSION 2.0
WRAP.       NO : One line per depth step
CREA. 07/27/17 : LAS Creation Date
~Well ------------------------------------------------------
STRT.FT                                800.0 : START DEPTH
STOP.FT                              10200.0 : STOP DEPTH
STEP.FT                             50.00000 : STEP LENGTH
NULL.                                -999.25 : NULL VALUE
COMP.                 EXXONMOBIL CANADA LTD. : COMPANY
WELL. MOBIL CARSON CREEK WEST 11-1-61-13 #11 : WELL
FLD .                                        : FIELD
LOC .                                        : LOCATION
CTRY.                                 CANADA : COUNTRY
SRVC.                           Schlumberger : SERVICE COMPANY
DATE.                            03-Feb-1963 : LOGDATE
PROV.                                Alberta : PROVINCE
UWI .                       100110106113W500 : UNIQUE WELL ID
SLAT.WGS84                     54.2487051583 : SURFACE LATITUDE
SLON.WGS84                   -115.8169997457 : SURFACE LONGITUDE
~Curve Information -----------------------------------------
DEPT   .FT    : Depth Curve
CALWS  .IN    : CALIPER [MCALED]
CILDED .MMHO  : DEEP INDUCTION CONDUCTIVITY FROM IEL LOG
CONDWS .MMHO  : CONDUCTIVITY [1000/DRESWS]
DRESWS .OHMM  : DEEP RESISTIVITY [1000/CILDED IF ILDED < 4, ILDED]
DT1FTED.US/F  : ACOUSTIC TRANSIT TIME SLOWNESS(1 FT SPACING), DELTA T FROM SONIC LOG
DTED   .US/F  : ACOUSTIC TRANSIT TIME SLOWNESS (3 FT SPACING), DELTA T FROM SONIC LOG
DTWS   .US/F  : COMPRESSIONAL SONIC [DT1ED]
GRSED  .GAPI  : GAMMA RAY FROM SONIC LOG
GRWS   .GAPI  : GAMMA RAY [GRSED]
ILDED  .OHMM  : DEEP INDUCTION FROM IEL LOG
MCALED .IN    : MLT [MICROLOG] CALIPER FROM ML LOG
SNED   .OHMM  : SHORT NORMAL 10" FROM IEL LOG
SPRED  .MV    : SPONTANEOUS POTENTIAL FROM IEL LOG
SPWS   .MV    : SPONTANEOUS POTENTIAL [BASELINE 0 MV, SPRED]
SRESWS .OHMM  : SHALLOW RESISTIVITY [SNED]
~Params ----------------------------------------------------
PD  .                     GL : PERMANENT DATUM
EPD .FT               2486.7 : ELEVATION PERMANENT DATUM
LMF .                     KB : LOG MEASURED FROM
DAPD.FT                 14.5 : FEET ABOVE PERMANENT DATUM
EKB .FT               2501.2 : KELLY BUSHING
EGL .FT               2486.7 : GROUND LEVEL
DATE.               02/03/63 : RUN DATE
RUN .                      2 : RUN NUMBER
DD  .FT                10215 : DEPTH DRILLER
DL  .FT                10214 : DEPTH LOGGER
BLI .FT                10213 : BOTTOM LOG INTERVAL
TLI .FT                 5500 : TOP LOG INTERVAL
CBD .FT                 1031 : CASING BOTTOM DRILLER
CBL .FT                 1031 : CASING BOTTOM LOGGER
BS  .IN                    9 : BIT SIZE
BSD .FT                10215 : BIT SIZE AT DEPTH
DFT .                    GEL : DRILLING FLUID TYPE
DFD .                    9.7 : DRILLING FLUID DENSITY
DFV .                    150 : DRILLING FLUID VISCOSITY
DFPH.                   10.5 : DRILLING FLUID PH
DFL .                    8.2 : DRILLING FLUID LOSS
RMS .OHMM                3.1 : RESISTIVITY MUD SAMPLE
MST .DEGF                 63 : MUD SAMPLE TEMPERATURE
RMF .OHMM               2.22 : RESISTIVITY MUD FILTRATE SAMPLE
MFST.DEGF                 66 : MUD FILTRATE SAMPLE TEMPERATURE
RMC .OHMM               1.27 : RESISTIVITY MUD CAKE
MCST.DEGF                 66 : MUD CAKE SAMPLE TEMPERATURE
TCS .HRS                 4.5 : TIME CIRCULATED STOPPED
LUN .                   1571 : LOGGING UNIT NUMBER
LUL .                    WCT : LOGGING UNIT LOCATION
ENGI.                KOKONIS : RECORDING ENGINEER
WITN.                  MILLS : WITNESSED BY
CLNT.                A2DTECH : CLIENT CODE
ORIG.            2" 5" PRINT : ORIGIN OF DATA
UWI .       100110106113W500 : UNIQUE WELL ID
DICO. A2D Technologies, Inc. : DIGITIZING COMPANY
~Other -----------------------------------------------------
~ASCII -----------------------------------------------------
  800.00000    -999.25    -999.25    -999.25    -999.25    -999.25    -999.25    -999.25   50.64160   50.64160    -999.25    -999.25    -999.25    -999.25    -999.25    -999.25
  850.00000    -999.25    -999.25    -999.25    -999.25    -999.25    -999.25    -999.25   45.96900   45.96900    -999.25    -999.25    -999.25    -999.25    -999.25    -999.25
  900.00000    -999.25    -999.25    -999.25    -999.25    -999.25    -999.25    -999.25   57.86830   57.86830    -999.25    -999.25    -999.25    -999.25    -999.25    -999.25
  950.00000    -999.25    -999.25    -999.25    -999.25    -999.25    -999.25    -999.25   45.03490   45.03490    -999.25    -999.25    -999.25    -999.25    -999.25    -999.25
 1000.00000    -999.25    -999.25    -999.25    -999.25    -999.25    -999.25    -999.25   43.17160   43.17160    -999.25    -999.25    -999.25    -999.25    -999.25    -999.25
 1050.00000   11.54290  242.62850  243.24980    4.11100  117.57060   80.00000  117.57060   75.93670   75.93670    4.11100   11.54290    5.30940  -67.49980   -2.60280    5.30940
 1100.00000   11.66320  196.77860  219.23090    4.56140  137.39480   80.00000  137.39480   77.29190   77.29190    4.56140   11.66320    5.25010  -67.83100   -1.17010    5.25010
 1150.00000   10.50250  129.05490  133.29250    7.50230  103.86080   80.00000  103.86080   71.98590   71.98590    7.50230   10.50250    6.85580  -67.45040   -0.94360    6.85580
 1200.00000   10.88930  211.04280  217.37710    4.60030  112.73480   80.00000  112.73480   78.60370   78.60370    4.60030   10.88930    5.22150  -67.56180   -1.21010    5.22150
 1250.00000   11.61270  132.35790  129.17390    7.74150  100.10780   80.00000  100.10780   75.55390   75.55390    7.74150   11.61270    7.05720  -67.60670   -1.40920    7.05720
 1300.00000   10.33170  160.99290  161.89090    6.17700  122.21990   80.00000  122.21990   97.46200   97.46200    6.17700   10.33170    6.60790  -67.58220   -1.53850    6.60790
 1350.00000   11.28510  135.57720  135.06580    7.40380  101.76590   80.00000  101.76590   74.26680   74.26680    7.40380   11.28510    6.85760  -66.59270   -0.70410    6.85760
 1400.00000    9.45640   37.09280   39.43640   25.35730   96.98570   80.00000   96.98570   74.63180   74.63180   25.35730    9.45640   22.04060  -67.77120   -2.03680   22.04060
 1450.00000    9.69970  160.33930  171.73870    5.82280   99.86410   80.00000   99.86410   78.58340   78.58340    5.82280    9.69970    6.52780  -66.15070   -0.57130    6.52780
 1500.00000   12.26800  284.40790  284.38180    3.51640  114.43560   80.00000  114.43560   92.80960   92.80960    3.73400   12.26800    4.33620  -66.03560   -0.61040    4.33620
 1550.00000   12.80850  268.59620  268.56450    3.72350  110.41770   80.00000  110.41770   89.39750   89.39750    3.64300   12.80850    4.07820  -65.78460   -0.51320    4.07820
 1600.00000   14.08010  205.06370  209.48110    4.77370  101.93400   80.00000  101.93400   81.75980   81.75980    4.77370   14.08010    5.25410  -66.13790   -1.02160    5.25410
 1650.00000   10.60730  144.22210  151.73590    6.59040  100.86250   80.00000  100.86250   66.06830   66.06830    6.59040   10.60730    6.89340  -66.70280   -1.74070    6.89340
 1700.00000    9.85190  187.42790  205.93500    4.85590  105.16140   80.00000  105.16140   68.37340   68.37340    4.85590    9.85190    4.76280  -68.04870   -3.24170    4.76280
 1750.00000   10.26450  166.02210  184.72340    5.41350  118.53670   80.00000  118.53670   79.49520   79.49520    5.41350   10.26450    5.95810  -65.90970   -1.25680    5.95810
 1800.00000    9.06080   21.26800   27.20820   36.75360   75.88630   77.62100   75.88630   47.79380   47.79380   36.75360    9.06080   24.71720  -70.03230   -5.53330   24.71720
 1850.00000    9.65540   78.88230   69.69420   14.34840  105.72270   80.00000  105.72270   63.01750   63.01750   14.34840    9.65540   13.69960  -66.56860   -2.22460   13.69960
 1900.00000   10.97680  137.25920  149.54390    6.68700  105.72800   80.00000  105.72800   69.95930   69.95930    6.68700   10.97680    7.31760  -65.46930   -1.27950    7.31760
 1950.00000   10.93320  179.72960  194.39370    5.14420  112.38590   80.00000  112.38590   68.88560   68.88560    5.14420   10.93320    5.66550  -65.15610   -1.12140    5.66550
 2000.00000   10.90090  208.30310  218.65090    4.57350  119.29410   80.00000  119.29410   68.07390   68.07390    4.57350   10.90090    5.12670  -64.54610   -0.66550    5.12670
 2050.00000    9.93950  121.24900  125.30700    7.98040   93.31960   80.00000   93.31960   73.75670   73.75670    7.98040    9.93950    8.92760  -64.83260   -1.10590    8.92760
 2100.00000   10.00210   90.42230   93.47800   10.69770   94.39450   80.00000   94.39450   67.58310   67.58310   10.69770   10.00210   10.13930  -66.01730   -2.44570   10.13930
 2150.00000   10.40910  160.03930  163.49490    6.11640  101.42800   80.00000  101.42800   68.65160   68.65160    6.11640   10.40910    7.02950  -64.76130   -1.34380    7.02950
 2200.00000    8.60890   92.70460  101.65180    9.83750  120.27120   80.00000  120.27120   47.66060   47.66060    9.83750    8.60890   11.62120  -77.22130  -13.95890   11.62120
 2250.00000   11.30450  149.33230  162.06930    6.17020  117.44470   80.00000  117.44470   71.66880   71.66880    6.17020   11.30450    6.79830  -64.68040   -1.57220    6.79830
 2300.00000   10.62590  169.19610  172.30390    5.80370  119.70300   80.00000  119.70300   67.67230   67.67230    5.80370   10.62590    6.27090  -64.15620   -1.20180    6.27090
 2350.00000    8.65710   65.06360   62.70060   15.94880   83.13720   79.99830   83.13720   47.04710   47.04710   15.94880    8.65710   19.79780  -83.23580  -20.43650   19.79780
 2400.00000    9.46140  156.62360  160.81820    6.21820   97.93700   80.00000   97.93700   69.87360   69.87360    6.21820    9.46140    6.71770  -63.52730   -0.88220    6.71770
 2450.00000    8.89780   76.26470   77.95990   12.82710   95.44860   80.00000   95.44860   48.45500   48.45500   12.82710    8.89780   14.03480  -82.23780  -19.74770   14.03480
 2500.00000    9.71240  162.61880  172.26830    5.80490  104.28370   80.00000  104.28370   64.43900   64.43900    5.80490    9.71240    6.69730  -63.35370   -1.02260    6.69730
 2550.00000    9.35910   94.84800   93.37330   10.70970   90.05140   80.00000   90.05140   59.45430   59.45430   10.70970    9.35910   12.63560  -66.90580   -4.96790   12.63560
 2600.00000    9.39530   89.01740   92.47190   10.81410   90.46740   80.00000   90.46740   72.84440   72.84440   10.81410    9.39530   11.99300  -65.94910   -4.40760   11.99300
 2650.00000   10.38600  167.02960  174.48050    5.73130   99.30800   80.00000   99.30800   78.04400   78.04400    5.73130   10.38600    6.71340  -62.95780   -1.81030    6.71340
 2700.00000   11.23850  124.32890  131.10800    7.62730   98.69550   80.00000   98.69550   88.50670   88.50670    7.62730   11.23850    8.20790  -65.90070   -5.01930    8.20790
 2750.00000   11.66390  118.52580  124.32710    8.04330   96.36550   80.00000   96.36550   84.97760   84.97760    8.04330   11.66390    8.89190  -66.47720   -5.59580    8.89190
 2800.00000   10.53070  132.52750  138.14640    7.23870   98.47270   80.00000   98.47270   99.49230   99.49230    7.23870   10.53070    8.23430  -66.94210   -6.06070    8.23430
 2850.00000   10.20530  116.72780  121.19600    8.25110   95.44530   80.00000   95.44530   98.26870   98.26870    8.25110   10.20530    9.48630  -66.81080   -5.92940    9.48630
 2900.00000    9.35780  152.49450  158.50870    6.30880  120.93350   80.00000  120.93350  167.24990  167.24990    6.30880    9.35780    8.59000  -61.78890   -0.90750    8.59000
 2950.00000    9.83270   97.88270  102.52520    9.75370   97.71200   80.00000   97.71200  103.61970  103.61970    9.75370    9.83270   11.71960  -63.06670   -2.18530   11.71960
 3000.00000   10.17520  104.41600  107.93310    9.26500   90.45640   80.00000   90.45640   99.26020   99.26020    9.26500   10.17520   10.45550  -64.62820   -3.74680   10.45550
 3050.00000   10.63230  113.21150  119.60430    8.36090   88.79200   80.00000   88.79200   83.50540   83.50540    8.36090   10.63230    9.31890  -66.39140   -5.51000    9.31890
