~Version ---------------------------------------------------
VERS.      2.0 : CWLS log ASCII Standard -VERSION 2.0
WRAP.       NO : One line per depth step
CREA. 11/17/17 : LAS Creation Date
~Well ------------------------------------------------------
STRT.FT                                1400.0 : START DEPTH
STOP.FT                               13450.0 : STOP DEPTH
STEP.FT                              50.00000 : STEP LENGTH
NULL.                                 -999.25 : NULL VALUE
COMP. SUPERTEST PETROLEUM CORPORATION LIMITED : COMPANY
WELL.    SUPTST ALMINEX MED FERRIERW 8-9-39-9 : WELL
FLD .                                         : FIELD
LOC .                                         : LOCATION
CTRY.                                  CANADA : COUNTRY
SRVC.                  Schlumberger of Canada : SERVICE COMPANY
DATE.                             01-Oct-1960 : LOGDATE
PROV.                                 Alberta : PROVINCE
UWI .                        100080903909W500 : UNIQUE WELL ID
SLAT.WGS84                           52.33911 : SURFACE LATITUDE
SLON.WGS84                          -115.2267 : SURFACE LONGITUDE
~Curve Information -----------------------------------------
DEPT  .FT         : Depth Curve
CALWS .IN         : CALIPER [MCALED]
CILDED.MMHO       : CONDUCTIVITY FROM RESISTIVITY LOG
CONDWS.MMHO       : CONDUCTIVITY [1000/DRESWS]
DRESWS.OHMM       : DEEP RESISTIVITY [ILDED]
DTED  .US/F       : DELTA-TIME FROM SONIC LOG
DTWS  .US/F       : CPOMPRESSIONAL SONIC [DTED]
GRSED .UgRa-Eq/T  : GAMMA RAY FROM SONIC LOG
GRWS  .GAPI       : GAMMA RAY [GRSED*16.5]
ILDED .OHMM       : DEEP INDUCTION 40"  RESISTIVITY FROM RESISTIVITY LOG
MCALED.IN         : MICRO CALIPER FROM ML LOG
SNED  .OHMM       : SHORT NORMAL 16"  RESISTIVITY FROM RESISTIVITY LOG
SPRED .MV         : SPONTANEOUS POTENTIAL FROM RESISTIVITY LOG
SPWS  .MV         : SPONTANEOUS POTENTIAL [BASELINE 0 MV, SPRED]
SRESWS.OHMM       : SHALLOW RESISTIVITY [SNED]
~Params ----------------------------------------------------
LMF .                     KB : LOG MEASURED FROM
DMF .                     KB : DRILLING MEASURED FROM
EKB .FT                 3787 : KELLY BUSHING
EGL .FT                 3770 : GROUND LEVEL
DATE.               10/01/60 : RUN DATE
RUN .                      2 : RUN NUMBER
DD  .FT                13500 : DEPTH DRILLER
DL  .FT                13492 : DEPTH LOGGER
BLI .FT                13486 : BOTTOM LOG INTERVAL
TLI .FT                10594 : TOP LOG INTERVAL
BS  .IN                 8.75 : BIT SIZE
BSD .FT                13500 : BIT SIZE AT DEPTH
DFT .              LIME BASE : DRILLING FLUID TYPE
DFD .                    9.6 : DRILLING FLUID DENSITY
DFV .                    194 : DRILLING FLUID VISCOSITY
DFPH.                   13.5 : DRILLING FLUID PH
DFL .                      7 : DRILLING FLUID LOSS
MSS .            CIRCULATION : MUD SAMPLE SOURCE
RMS .OHMM               0.59 : RESISTIVITY MUD SAMPLE
MST .DEGF                 70 : MUD SAMPLE TEMPERATURE
RMF .OHMM               0.43 : RESISTIVITY MUD FILTRATE SAMPLE
MFST.DEGF                 70 : MUD FILTRATE SAMPLE TEMPERATURE
RMC .OHMM               0.91 : RESISTIVITY MUD CAKE
MCST.DEGF                 70 : MUD CAKE SAMPLE TEMPERATURE
RMB .OHMM               0.18 : RESISTIVITY MUD AT BHT
TCS .HRS                   6 : TIME CIRCULATED STOPPED
LUN .                   1575 : LOGGING UNIT NUMBER
LUL .                      C : LOGGING UNIT LOCATION
ENGI.                 YUNKER : RECORDING ENGINEER
CLNT.                A2DTECH : CLIENT CODE
ORIG.            2" 5" PRINT : ORIGIN OF DATA
UWI .       100080903909W500 : UNIQUE WELL ID
DICO. A2D Technologies, Inc. : DIGITIZING COMPANY
~Other -----------------------------------------------------
IE-BCS-ML LOGS RUN
ALL RESISTIVITY DATA FROM SMALL SECTION @ TOP-7980'
~ASCII -----------------------------------------------------
# ...
 3850.00000    -999.25  107.08390  115.77020    8.63780    -999.25    -999.25    -999.25    -999.25    8.63780    -999.25   13.02380  -98.93370   -3.76860   13.02380
 3900.00000    -999.25   87.24090  108.43750    9.22190    -999.25    -999.25    -999.25    -999.25    9.22190    -999.25   13.66500  -99.52500   -4.26640   13.66500
 3950.00000    -999.25  184.01760  191.96070    5.20940    -999.25    -999.25    -999.25    -999.25    5.20940    -999.25   13.60340  -97.59670   -2.24460   13.60340
 4000.00000    -999.25  103.03180  114.65390    8.72190    -999.25    -999.25    -999.25    -999.25    8.72190    -999.25   13.92100  -99.58210   -4.13650   13.92100
 4050.00000    -999.25  137.18580  146.14050    6.84290    -999.25    -999.25    -999.25    -999.25    6.84290    -999.25   11.65020  -99.63480   -4.09610   11.65020
 4100.00000    -999.25   85.33670   85.35920   11.71520    -999.25    -999.25    -999.25    -999.25   11.71520    -999.25   19.04050 -106.13010  -10.56430   19.04050
 4150.00000    -999.25   96.85810  105.90980    9.44200    -999.25    -999.25    -999.25    -999.25    9.44200    -999.25   13.63730 -103.31510   -7.94660   13.63730
 4200.00000    -999.25   86.57710   90.06660   11.10290    -999.25    -999.25    -999.25    -999.25   11.10290    -999.25   16.88910 -103.54520   -8.37390   16.88910
 4250.00000    -999.25   95.35520  107.03540    9.34270    -999.25    -999.25    -999.25    -999.25    9.34270    -999.25   13.88310 -103.33410   -8.36000   13.88310
 4300.00000    -999.25  117.78180  121.27990    8.24540    -999.25    -999.25    -999.25    -999.25    8.24540    -999.25   12.47970  -99.06000   -4.28210   12.47970
 4350.00000    -999.25  115.01730  132.17900    7.56550    -999.25    -999.25    -999.25    -999.25    7.56550    -999.25   12.44080 -109.00030  -14.42070   12.44080
 4400.00000    -999.25   75.66730   84.39390   11.84920    -999.25    -999.25    -999.25    -999.25   11.84920    -999.25   16.31200 -104.45040  -10.06800   16.31200
 4450.00000    -999.25  130.19690  142.89590    6.99810    -999.25    -999.25    -999.25    -999.25    6.99810    -999.25   11.25120  -97.09900   -2.91380   11.25120
 4500.00000    -999.25  145.84980  162.44050    6.15610    -999.25    -999.25    -999.25    -999.25    6.15610    -999.25    9.91640  -97.42900   -3.44100    9.91640
 4550.00000    -999.25  156.34850  171.63180    5.83380    -999.25    -999.25    -999.25    -999.25    5.83380    -999.25    9.65590  -96.53010   -2.71610    9.65590
 4600.00000    -999.25  160.56280  167.55190    5.96830    -999.25    -999.25    -999.25    -999.25    5.96830    -999.25   10.12660  -95.72940   -1.93470   10.12660
 4650.00000    -999.25  132.27870  140.24850    7.13020    -999.25    -999.25    -999.25    -999.25    7.13020    -999.25   10.61850  -96.25360   -2.47810   10.61850
 4700.00000    -999.25  102.38700   94.14420   10.62200    -999.25    -999.25    -999.25    -999.25   10.62200    -999.25   17.62250 -100.85390   -7.09760   17.62250
 4750.00000    -999.25  140.42070  147.37960    6.78520    -999.25    -999.25    -999.25    -999.25    6.78520    -999.25   10.51400  -98.92080   -5.18370   10.51400
 4800.00000    -999.25  166.92410  172.13830    5.81020    -999.25    -999.25    -999.25    -999.25    5.81020    -999.25    9.54430  -98.26770   -4.54970    9.54430
 4850.00000    -999.25  127.91330  137.85120    7.25420    -999.25    -999.25    -999.25    -999.25    7.25420    -999.25   11.57540  -99.59100   -5.89220   11.57540
 4900.00000    -999.25  135.08520  142.12620    7.03600    -999.25    -999.25    -999.25    -999.25    7.03600    -999.25   10.88120  -98.27150   -4.59190   10.88120
 4950.00000    -999.25  172.44650  176.40730    5.66870    -999.25    -999.25    -999.25    -999.25    5.66870    -999.25    9.07640  -98.30050   -4.64010    9.07640
 5000.00000    -999.25   91.59120  104.14390    9.60210    -999.25    -999.25    -999.25    -999.25    9.60210    -999.25   14.17500  -99.62440   -5.98320   14.17500
 5050.00000    -999.25  153.07180  162.58330    6.15070    -999.25    -999.25    -999.25    -999.25    6.15070    -999.25   11.17830  -99.15190   -5.52980   11.17830
 5100.00000    -999.25  145.75970  132.62250    7.54020    -999.25    -999.25    -999.25    -999.25    7.54020    -999.25   10.65580 -101.03170   -7.42890   10.65580
 5150.00000    -999.25  188.85010  184.75410    5.41260    -999.25    -999.25    -999.25    -999.25    5.41260    -999.25    9.07550  -98.78470   -5.20110    9.07550
 5200.00000    -999.25  124.11910  132.44330    7.55040    -999.25    -999.25    -999.25    -999.25    7.55040    -999.25   11.47470  -98.64910   -5.08460   11.47470
 5250.00000    -999.25   80.36740   96.20940   10.39400    -999.25    -999.25    -999.25    -999.25   10.39400    -999.25   14.22870  -98.11380   -4.56850   14.22870
 5300.00000    -999.25  119.18560  136.56470    7.32610    -999.25    -999.25    -999.25    -999.25    7.32610    -999.25   11.93290  -97.90630   -4.38010   11.93290
 5350.00000    -999.25  103.47160  103.78400    9.63540    -999.25    -999.25    -999.25    -999.25    9.63540    -999.25   15.85530  -99.87720   -6.37030   15.85530
 5400.00000    -999.25  164.05260  161.39180    6.19610    -999.25    -999.25    -999.25    -999.25    6.19610    -999.25   10.69790  -97.00350   -3.51580   10.69790
 5450.00000    -999.25  179.99720  191.93120    5.21020    -999.25    -999.25    -999.25    -999.25    5.21020    -999.25    8.75630  -96.95640   -3.55420    8.75630
 5500.00000    -999.25   86.60560   81.34980   12.29260    -999.25    -999.25    -999.25    -999.25   12.29260    -999.25   17.26280  -96.77540   -3.46230   17.26280
 5550.00000    -999.25  150.41740  166.84100    5.99470    -999.25    -999.25    -999.25    -999.25    5.99470    -999.25    9.36570  -95.71830   -2.60500    9.36570
 5600.00000    -999.25   45.81580   54.16560   18.46190    -999.25    -999.25    -999.25    -999.25   18.46190    -999.25   26.13280  -98.00710   -5.13960   26.13280
 5650.00000    -999.25  111.93180  118.05820    8.47040    -999.25    -999.25    -999.25    -999.25    8.47040    -999.25   12.98570  -96.26010   -3.63730   12.98570
 5700.00000    -999.25  112.72400  115.82790    8.63350    -999.25    -999.25    -999.25    -999.25    8.63350    -999.25   13.49320  -96.32690   -3.94870   13.49320
 5750.00000    -999.25  138.24760  149.62890    6.68320    -999.25    -999.25    -999.25    -999.25    6.68320    -999.25   10.03930  -94.34840   -2.21480   10.03930
 5800.00000    -999.25  116.65350  129.94640    7.69620    -999.25    -999.25    -999.25    -999.25    7.69620    -999.25   10.57840  -93.77740   -1.88710   10.57840
 5850.00000    -999.25  230.23770  234.07690    4.27210    -999.25    -999.25    -999.25    -999.25    4.27210    -999.25    7.71710  -93.61430   -1.96990    7.71710
 5900.00000    -999.25  170.46150  187.70180    5.32760    -999.25    -999.25    -999.25    -999.25    5.32760    -999.25    8.82930  -93.08800   -1.68830    8.82930
 5950.00000    -999.25   72.34170   74.27650   13.46320    -999.25    -999.25    -999.25    -999.25   13.46320    -999.25   19.94960  -93.78550   -2.63040   19.94960
 6000.00000    -999.25   43.64300   50.38520   19.84710    -999.25    -999.25    -999.25    -999.25   19.84710    -999.25   29.24810 -118.17420  -27.26370   29.24810
 6050.00000    -999.25   91.72720   76.66280   13.14710    -999.25    -999.25    -999.25    -999.25   13.14710    -999.25   22.34290  -95.63850   -4.97140   22.34290
 6100.00000    -999.25  106.76550  107.42870    9.30850    -999.25    -999.25    -999.25    -999.25    9.30850    -999.25   14.07770  -93.11900   -2.69770   14.07770
 6150.00000    -999.25   27.35350   27.12500   36.86640    -999.25    -999.25    -999.25    -999.25   36.86640    -999.25   53.91600 -109.86710  -19.64320   53.91600
 6200.00000    -999.25   86.18480   91.69520   10.90570    -999.25    -999.25    -999.25    -999.25   10.90570    -999.25   15.73610  -93.44040   -3.39170   15.73610
 6250.00000    -999.25   29.32530   36.97610   27.04450    -999.25    -999.25    -999.25    -999.25   27.04450    -999.25   39.48460  -98.25800   -8.38450   39.48460
