~Version ---------------------------------------------------
VERS.      2.0 : CWLS log ASCII Standard -VERSION 2.0
WRAP.       NO : One line per depth step
CREA. 07/26/17 : LAS Creation Date
~Well ------------------------------------------------------
STRT.FT                     1250.0 : START DEPTH
STOP.FT                    11900.0 : STOP DEPTH
STEP.FT                   50.00000 : STEP LENGTH
NULL.                      -999.25 : NULL VALUE
COMP.         TALISMAN ENERGY INC. : COMPANY
WELL. BP ETHYL BASELINE 11-4-66-26 : WELL
FLD .                              : FIELD
LOC .                              : LOCATION
CTRY.                       CANADA : COUNTRY
SRVC.                      Unknown : SERVICE COMPANY
DATE.                  19-Feb-1971 : LOGDATE
PROV.                      Alberta : PROVINCE
UWI .             100110406626W500 : UNIQUE WELL ID
SLAT.WGS84                54.68586 : SURFACE LATITUDE
SLON.WGS84               -117.8738 : SURFACE LONGITUDE
~Curve Information -----------------------------------------
DEPT  .FT    : Depth Curve
CALSED.IN    : CALIPER FROM SONIC LOG
CALWS .IN    : CALIPER [CALSED]
CILDED.MMHO  : CONDUCTIVITY FROM RESISTIVITY LOG
CONDWS.MMHO  : CONDUCTIVITY [1000/DRESWS]
DRESWS.OHMM  : DEEP RESISTIVITY [1000/CILDED, IF ILDED < 5. ILDED]
DTED  .US/F  : DELTA-T FROM SONIC LOG
DTWS  .US/F  : COMPRESSIONAL SONIC [DTED]
GRSED .GAPI  : GAMMA RAY FROM SONIC LOG
GRWS  .GAPI  : GAMMA RAY [GRSED]
ILDED .OHMM  : INDUCTION DEEP RESISTIVITY
SNED  .OHMM  : SHORT NORMAL FROM  RESISTIVITY LOG
SPRED .MV    : SPONTANEOUS POTENTIAL FROM RESISTIVITY LOG
SPWS  .MV    : SPONTANEOUS POTENTIAL [BASELINE 0 MV, SPRED]
SRESWS.OHMM  : SHALLOW RESISITIVITY [SNED]
~Params ----------------------------------------------------
PD  .                     GL : PERMANENT DATUM
EPD .FT                 2594 : ELEVATION PERMANENT DATUM
LMF .                     KB : LOG MEASURED FROM
DAPD.FT                   14 : FEET ABOVE PERMANENT DATUM
EKB .FT                 2608 : KELLY BUSHING
EGL .FT                 2594 : GROUND LEVEL
DATE.               02/19/71 : RUN DATE
RUN .                      1 : RUN NUMBER
DD  .FT                11931 : DEPTH DRILLER
DL  .FT                11931 : DEPTH LOGGER
BLI .FT                11930 : BOTTOM LOG INTERVAL
TLI .FT                 1238 : TOP LOG INTERVAL
CBD .FT                 1238 : CASING BOTTOM DRILLER
CBL .FT                 1238 : CASING BOTTOM LOGGER
BS  .IN                7.875 : BIT SIZE
BSD .FT                11931 : BIT SIZE AT DEPTH
DFT .                    GEL : DRILLING FLUID TYPE
DFD .                    9.5 : DRILLING FLUID DENSITY
DFV .                     80 : DRILLING FLUID VISCOSITY
DFPH.                     10 : DRILLING FLUID PH
DFL .                    7.8 : DRILLING FLUID LOSS
RMS .OHMM               0.97 : RESISTIVITY MUD SAMPLE
MST .DEGF                 72 : MUD SAMPLE TEMPERATURE
RMF .OHMM               0.67 : RESISTIVITY MUD FILTRATE SAMPLE
MFST.DEGF                 74 : MUD FILTRATE SAMPLE TEMPERATURE
TCS .HRS                   4 : TIME CIRCULATED STOPPED
LUN .                   7002 : LOGGING UNIT NUMBER
LUL .                     RD : LOGGING UNIT LOCATION
ENGI.                 TALBOT : RECORDING ENGINEER
WITN.    KERKEGI DANIELEWICZ : WITNESSED BY
CLNT.                A2DTECH : CLIENT CODE
ORIG.            2" 5" PRINT : ORIGIN OF DATA
UWI .       100110406626W500 : UNIQUE WELL ID
DICO. A2D Technologies, Inc. : DIGITIZING COMPANY
~Other -----------------------------------------------------
~ASCII -----------------------------------------------------
# ...
 6150.00000    9.06410    9.06410  104.14470  101.83590    9.82540   76.02010   76.02010   65.41410   65.41410    9.82540   13.17970  -53.75410  -15.97760   13.17970
 6200.00000    9.07360    9.07360   81.48060   77.38260   12.92280   71.61730   71.61730   60.45620   60.45620   12.92280   15.27180  -43.68700   -6.26400   15.27180
 6250.00000    8.34500    8.34500   76.19350   71.51540   13.98300   71.55720   71.55720   43.50660   43.50660   13.98300   19.75140  -69.84990  -35.43080   19.75140
 6300.00000    8.79190    8.79190   60.54080   57.51040   17.39650   69.84530   69.84530   57.29390   57.29390   17.39650   18.50420  -32.79970   -2.34690   18.50420
 6350.00000    9.06920    9.06920   69.81570   67.63150   14.78600   76.79250   76.79250   79.41400   79.41400   14.78600   18.70700  -27.55410   -2.16070   18.70700
 6400.00000    9.34960    9.34960   87.98910   87.10940   11.48400   76.12370   76.12370   67.37450   67.37450   11.48400   12.70620  -25.67960   -2.35560   12.70620
 6450.00000    8.52510    8.52510   62.32260   58.45870   17.10610   68.66570   68.66570   39.16770   39.16770   17.10610   22.19710  -50.15660  -24.85750   22.19710
 6500.00000    8.89700    8.89700   31.77010   27.62420   36.20010   83.42690   83.42690   71.18190   71.18190   36.20010   33.05640  -36.67050  -12.26740   33.05640
 6550.00000    8.77740    8.77740   43.82920   41.42740   24.13990   70.87690   70.87690   72.89360   72.89360   24.13990   31.63280  -38.68770  -15.18070   31.63280
 6600.00000    8.84320    8.84320   48.73450   44.70530   22.36870   74.13710   74.13710   82.02190   82.02190   22.36870   32.56030  -38.06040  -15.45550   32.56030
 6650.00000    8.58480    8.58480   32.78840   29.93520   33.45500   72.98590   72.98590   50.57270   50.57270   33.45500   34.20010  -47.20980  -25.50100   34.20010
 6700.00000    7.92090    7.92090   85.76240   82.03040   12.19060   70.08630   70.08630   29.34700   29.34700   12.19060   21.82070  -98.78030  -77.97340   21.82070
 6750.00000    8.45100    8.45100   28.32780   27.90820   35.83170   65.29530   65.29530   80.80020   80.80020   35.83170   27.63670  -48.80580  -28.89500   27.63670
 6800.00000    8.02070    8.02070  151.21580  144.20110    6.93490   75.57130   75.57130   31.39240   31.39240    6.93490   12.14010 -112.36520  -93.35050   12.14010
 6850.00000    7.91090    7.91090  108.34800  105.78090    9.45350   75.08660   75.08660   31.46600   31.46600    9.45350   17.56830  -86.74050  -68.62780   17.56830
 6900.00000    7.86800    7.86800   80.43700   76.14910   13.13320   66.75670   66.75670   20.87660   20.87660   13.13320   24.11090  -95.39580  -78.17920   24.11090
 6950.00000   10.81640   10.81640  212.41870  212.41870    4.70770   82.96830   82.96830   75.66930   75.66930    4.69730    5.45090  -21.80280   -3.63180    5.45090
 7000.00000   10.40350   10.40350  242.35090  242.35090    4.12620   91.87580   91.87580   74.52480   74.52480    3.92620    4.58780   -6.17690   -1.37160    4.58780
 7050.00000   13.04220   13.04220  345.56320  345.56320    2.89560  104.90730  104.90730   80.11730   80.11730    2.88900    4.68990  -19.64090  -15.34360    4.68990
 7100.00000    8.18490    8.18490   10.59640    8.56010  116.82160   82.12220   82.12220  237.43930  237.43930  116.82160  171.76010  -46.38830  -41.34260  171.76010
 7150.00000    8.27780    8.27780   80.10430   75.97130   13.16390   60.61020   60.61020   74.94370   74.94370   13.16390   33.70000  -75.97310  -70.18380   33.70000
 7200.00000    8.57480    8.57480  148.06460  146.27580    6.83640   66.52740   66.52740   74.49020   74.49020    6.83640   18.16560  -82.70360  -76.16600   18.16560
 7250.00000    8.46600    8.46600  179.84670  172.27420    5.80470   67.62210   67.62210   76.52970   76.52970    5.80470   14.85420  -84.72570  -77.44460   14.85420
 7300.00000    8.35310    8.35310   42.99580   39.18120   25.53730   64.04870   64.04870   81.11830   81.11830   25.53730   29.62710  -58.10440  -50.07980   29.62710
 7350.00000    8.50620    8.50620   33.25760   28.80370   34.71780   61.92200   61.92200   83.62630   83.62630   34.71780   34.05650  -49.30780  -40.53480   34.05650
 7400.00000    8.21660    8.21660   96.25110   92.97900   10.75740   64.26020   64.26020   62.63410   62.63410   10.75740   20.72520  -60.87150  -51.35490   20.72520
 7450.00000    8.28340    8.28340   41.78410   37.58580   26.60580   62.10200   62.10200   73.66830   73.66830   26.60580   27.05800  -48.94110  -38.67610   27.05800
 7500.00000    8.31170    8.31170   19.83550   14.51520   68.89310   52.40210   52.40210   52.03340   52.03340   68.89310   57.57360  -42.35810  -31.34960   57.57360
 7550.00000    8.31720    8.31720   27.93640   23.89520   41.85260   59.32720   59.32720   61.42380   61.42380   41.85260   46.43200  -31.50200  -19.75010   46.43200
 7600.00000    8.62150    8.62150   27.06180   23.24930   43.01210   65.95670   65.95670   92.15980   92.15980   43.01210   43.79400  -14.53270   -2.03240   43.79400
 7650.00000    8.82310    8.82310   37.32180   33.39870   29.94160   66.33580   66.33580   96.41130   96.41130   29.94160   32.04700  -25.22130  -14.59500   32.04700
 7700.00000    8.44220    8.44220   46.15350   41.17850   24.28450   59.25960   59.25960   92.32880   92.32880   24.28450   37.36830  -58.28040  -49.64870   37.36830
 7750.00000    8.02020    8.02020  435.56920  435.56920    2.29580   67.36490   67.36490   26.95270   26.95270    2.91770   13.30610 -135.27920 -128.62910   13.30610
 7800.00000    8.56900    8.56900   22.71260   17.24710   57.98160   60.64100   60.64100   25.74400   25.74400   57.98160   33.32090  -65.03730  -60.36870   33.32090
 7850.00000    8.39560    8.39560   23.85720   20.65510   48.41430   59.18540   59.18540   69.55630   69.55630   48.41430   65.66680  -33.49590  -30.82190   65.66680
 7900.00000    8.52490    8.52490   15.13040    9.38960  107.35330   50.57460   50.57460   11.27680   11.27680  107.35330   85.47950  -25.68510  -24.99260   85.47950
 7950.00000    8.12040    8.12040   17.41750   12.96500   77.13060   48.27290   48.27290   28.19560   28.19560   77.13060   67.59220  -31.81540  -33.11760   67.59220
 8000.00000    8.46430    8.46430   48.02800   42.62170   23.46220   53.08330   53.08330   12.07290   12.07290   23.46220   48.59910 -104.20180 -107.48550   48.59910
 8050.00000    7.84540    7.84540  116.66610  115.01420    8.70840   61.42780   61.42780   22.44960   22.44960    8.70840   30.78240 -140.26340 -145.52870   30.78240
 8100.00000    8.26740    8.26740  108.28960  108.28960    9.23450   67.78050   67.78050   21.81460   21.81460    3.97370   13.79330 -141.23910 -148.49900   13.79330
 8150.00000    8.55750    8.55750  257.88110  257.88110    3.91620   64.47260   64.47260   25.53650   25.53650    3.92930   10.21700 -120.17290 -129.41430   10.21700
 8200.00000    8.26890    8.26890   80.07190   70.90940   14.10250   49.94960   49.94960   24.31930   24.31930   14.10250   24.99430  -89.73320 -100.96920   24.99430
 8250.00000    9.01540    9.01540    6.45330    5.27900  189.43160   53.79720   53.79720   18.41260   18.41260  189.43160   93.06340  -69.02740  -82.24510   93.06340
 8300.00000    8.17960    8.17960   17.71880   12.87640   79.53650   52.48590   52.48590   16.02000   16.02000   79.53650   64.31680  -24.71850  -39.91770   64.31680
 8350.00000    8.87120    8.87120   62.11070   59.06290   16.93110   65.51690   65.51690   54.79020   54.79020   16.93110   22.68040   15.69000   -1.50380   22.68040
 8400.00000    8.20950    8.20950   39.23830   38.56270   26.07410   51.55270   51.55270   16.61700   16.61700   26.07410   45.46170  -59.61240  -75.69880   45.46170
 8450.00000    8.23650    8.23650   48.08470   42.59920   23.47460   50.03600   50.03600   14.47960   14.47960   23.47460   34.18030  -74.42290  -89.02880   34.18030
 8500.00000    8.23990    8.23990  142.45060  108.27780    9.23550   51.89280   51.89280   11.40910   11.40910    9.23550   32.15850  -76.58800  -89.72320   32.15850
 8550.00000    8.39890    8.39890   34.67740   32.66830   30.62110   56.45130   56.45130   40.60980   40.60980   30.62110   54.21780  -30.50650  -42.17090   54.21780
