~Version ---------------------------------------------------
VERS.      2.0 : CWLS log ASCII Standard -VERSION 2.0
WRAP.       NO : One line per depth step
CREA. 09/28/13 : LAS Creation Date
~Well ------------------------------------------------------
STRT.M                         350.0 : START DEPTH
STOP.M                        2100.0 : STOP DEPTH
STEP.M                      50.00000 : STEP LENGTH
NULL.                        -999.25 : NULL VALUE
COMP.     MERLAND EXPLORATION LIMTED : COMPANY
WELL. MERLAND ET AL BRUCE 6-35-46-15 : WELL
FLD .                                : FIELD
LOC .                                : LOCATION
CTRY.                         CANADA : COUNTRY
SRVC.                        Unknown : SERVICE COMPANY
DATE.                    27-Jun-1983 : LOGDATE
PROV.                        Alberta : PROVINCE
UWI .               100063504615W400 : UNIQUE WELL ID
SLAT.WGS84                   53.0101 : SURFACE LATITUDE
SLON.WGS84                 -112.0762 : SURFACE LONGITUDE
~Curve Information -----------------------------------------
DEPT    .M      : DEPTH METER
CALDED  .MM     : CALIPER FROM DENSITY LOG [ADJ. TO RESISTIVITY LOG]
CALRED  .MM     : CALIPER FROM RESISTIVITY LOG
CALSED  .MM     : CALIPER FROM SONIC LOG [ADJ. TO RESISTIVITY LOG]
CALWS   .MM     : CALIPER [CALDED]
CONDWS  .MMHO   : CONDUCTIVITY [1000/DRESWS]
DCORWS  .KG/M3  : DENSITY CORRECTION [DRHOED]
DENWS   .KG/M3  : DENSITY POROSITY LIMESTONE [CALC FROM DPOLSWS, M=2710,F=1000]
DPHILSED.V/V    : DENSITY POROSITY LIMESTONE [M=2710,F=1000] FROM DENSITY LOG [ADJ. TO RESISTIVITY LOG]
DPHISSED.V/V    : DENSITY POROSITY SANDSTONE [M=2650,F=1000] FROM DENSITY LOG [ADJ. TO RESISTIVITY LOG]
DPOLSWS .V/V    : DENSITY POROSITY LIMESTONE [DPHISSED CONVERTED TO LIMESTONE MATRIX, M=2710,F=1000 & SPL TO DPHILSED @895M]
DRESWS  .OHMM   : DEEP RESISTIVITY [ILDED SPL. TO LLDED @1020M]
DRHOED  .KG/M3  : DENSITY CORRECTION FROM DENSITY LOG [ADJ. TO RESISTIVITY LOG]
DTED    .US/M   : DELTA TIME FROM SONIC LOG [ADJ. TO RESISTIVITY LOG]
DTWS    .US/M   : COMPRESSIONAL  SONIC [DTED]
GRRED   .GAPI   : GAMMA RAY FROM RESISTIVITY LOG
GRSED   .GAPI   : GAMMA RAY FROM SONIC LOG [ADJ. TO RESISTIVITY LOG]
GRWS    .GAPI   : GAMMA RAY [GRSED]
ILDED   .OHMM   : DEEP INDUCTION FROM RESISTIVITY LOG
ILMED   .OHMM   : MEDIUM INDUCTION FROM RESISTIVITY LOG
LLDED   .OHMM   : DEEP LATEROLOG RESISTIVITY FROM RESISTIVITY LOG
LLSED   .OHMM   : SHALLOW LATEROLOG RESISTIVITY FROM RESISTIVITY LOG
MRESWS  .OHMM   : MEDIUM RESISTIVITY [ILMED]
MSFLED  .OHMM   : MICROSPHERICALLY FOCUSED RESISTIVITY FROM RESISTIVITY LOG
NPHILSED.V/V    : NEUTRON POROSITY LIMESTONE FROM DENSITY LOG [ADJ. TO RESISTIVITY LOG]
NPHISSED.V/V    : NEUTRON POROSITY SANDSTONE FROM DENSITY LOG [ADJ. TO RESISTIVITY LOG]
NPOLSWS .V/V    : NEUTRON POROSITY LIMESTONE [NPHISSED MATRIX CONVERSION FOR LIMESTONE & SPL. TO NPHILSED @895M]
PEFED   .B/E    : PHOTOELECTRIC FACTOR FROM DENSITY LOG [ADJ. TO RESISTIVITY LOG]
PEFWS   .B/E    : PHOTOLELECTRIC FACTOR [PEFED]
RHOBED  .KG/M3  : BULK DENSITY FROM DENSITY LOG [ADJ. TO RESISTIVITY LOG]
SFLUED  .OHMM   : SPHERICALLY FOCUSED RESISTIVITY FROM RESISTIVITY LOG
SGRDDED .GAPI   : SPECTROSCOPY GAMMA RAY FROM DENSITY LOG [ADJ. TO RESISTIVITY LOG]
SPRED   .MV     : SPONTANEOUS POTENTIAL FROM RESISTIVITY LOG
SPWS    .MV     : SPONTANEOUS POTENTIAL [BASELINE 0 MV, SPRED]
SRESWS  .OHMM   : SHALLOW RESISTIVITY [SFLUED SPL. TO LLSED @1020M]
~Params ----------------------------------------------------
PD  .                           GL : PERMANENT DATUM
EPD .M                      703.69 : ELEVATION PERMANENT DATUM
LMF .                           KB : LOG MEASURED FROM
DAPD.M                        6.86 : FEET ABOVE PERMANENT DATUM
DMF .                           KB : DRILLING MEASURED FROM
EKB .M                      710.55 : KELLY BUSHING
EDF .M                      710.15 : DRILLING FLOOR
EGL .M                      703.69 : GROUND LEVEL
DATE.                     06/27/83 : RUN DATE
RUN .                            2 : RUN NUMBER
DD  .M                        2114 : DEPTH DRILLER
DL  .M                      2113.9 : DEPTH LOGGER
BLI .M                      2113.4 : BOTTOM LOG INTERVAL
TLI .M                         950 : TOP LOG INTERVAL
CS  .MM                        244 : CASING SIZE
CBD .M                       344.5 : CASING BOTTOM DRILLER
CBL .M                       344.2 : CASING BOTTOM LOGGER
BS  .MM                        222 : BIT SIZE
BSD .M                        2114 : BIT SIZE AT DEPTH
DFT .                         SALT : DRILLING FLUID TYPE
DFD .                         1290 : DRILLING FLUID DENSITY
DFV .                           54 : DRILLING FLUID VISCOSITY
DFPH.                            9 : DRILLING FLUID PH
DFL .                           29 : DRILLING FLUID LOSS
MSS .                     FLOWLINE : MUD SAMPLE SOURCE
RMS .OHMM                      0.1 : RESISTIVITY MUD SAMPLE
MST .DEGC                       21 : MUD SAMPLE TEMPERATURE
RMF .OHMM                     0.06 : RESISTIVITY MUD FILTRATE SAMPLE
MFST.DEGC                       21 : MUD FILTRATE SAMPLE TEMPERATURE
RMC .OHMM                    0.028 : RESISTIVITY MUD CAKE
MCST.DEGC                     66.6 : MUD CAKE SAMPLE TEMPERATURE
MFSS.                     MEASURED : MUD FILTRATE SAMPLE SOURCE
RMB .OHMM                    0.048 : RESISTIVITY MUD AT BHT
TCS .HRS                      1100 : TIME CIRCULATED STOPPED
TLAB.HRS                      1730 : TIME LOGGER AT BOTTOM
LUN .                         8108 : LOGGING UNIT NUMBER
LUL .                         WAIN : LOGGING UNIT LOCATION
ENGI.                       WEBBER : RECORDING ENGINEER
WITN.                        GAWNE : WITNESSED BY
CLNT.                      A2DTECH : CLIENT CODE
ORIG. 6.5" /100M 16.5" /100M PRINT : ORIGIN OF DATA
UWI .             100063504615W400 : UNIQUE WELL ID
DICO.       A2D Technologies, Inc. : DIGITIZING COMPANY
~Other -----------------------------------------------------
DIL-SFL-CNL-LDT-BCS LOG RAN
RHOB & DRHO HAVE BEEN VERIFIED FROM 2" SECTION @TOP-1050M.
NEUTRON CONVERSION USING SCHLUMBERGER CHART.
~ASCII -----------------------------------------------------
# ...
 1400.00000  232.22970  227.12890  228.40880  232.22970   41.48830  -19.67250 2645.87500    0.03750    -999.25    0.03750   24.10320  -19.67250  173.79070  173.79070   17.96170   11.93300   11.93300    -999.25    -999.25   24.10320   20.09950    -999.25   16.23390    0.03510    -999.25    0.03510    4.64710    4.64710 2645.70340    -999.25   13.81720  -50.35830  -68.71430   20.09950
 1450.00000  229.07820  226.59630  224.55770  229.07820   42.30620    6.91200 2714.95900   -0.00290    -999.25   -0.00290   23.63720    6.91200  196.66730  196.66730   46.92030   43.57780   43.57780    -999.25    -999.25   23.63720   24.51210    -999.25   30.65890    0.09700    -999.25    0.09700    4.62860    4.62860 2710.37990    -999.25   44.04980  -59.55330  -79.28480   24.51210
 1500.00000  227.25680  234.44180  227.94670  227.25680  165.27290   43.37870 2662.29100    0.02790    -999.25    0.02790    6.05060   43.37870  243.50430  243.50430   98.62520  101.55400  101.55400    -999.25    -999.25    6.05060    5.49570    -999.25    6.36940    0.21000    -999.25    0.21000    3.39490    3.39490 2664.31200    -999.25   94.92170  -59.72790  -80.83480    5.49570
 1550.00000  225.69830  223.34700  225.05370  225.69830    4.61590    4.42140 2658.01600    0.03040    -999.25    0.03040  216.64310    4.42140  170.86800  170.86800   27.22520   25.28810   25.28810    -999.25    -999.25  216.64310  152.74420    -999.25  335.90560    0.08300    -999.25    0.08300    2.96020    2.96020 2658.42410    -999.25   29.54220  -29.96520  -52.44760  152.74420
 1600.00000  362.37980  354.56250  345.34800  362.37980    1.44930   58.59030 1875.86200    0.48780    -999.25    0.48780  690.00710   58.59030  235.82980  235.82980   17.78400   20.08470   20.08470    -999.25    -999.25  690.00710    8.46760    -999.25    6.75650   -0.00210    -999.25   -0.00210    2.41200    2.41200 1875.78910    -999.25   19.50070   -8.24460  -32.10240    8.46760
 1650.00000  241.32790  238.75150  224.00210  241.32790    0.20440   43.17760 2459.65600    0.14640    -999.25    0.14640 4892.90280   43.17760  216.83960  216.83960   32.11490   31.35460   31.35460    -999.25    -999.25 4892.90280   15.72780    -999.25    2.77550    0.17170    -999.25    0.17170    4.07850    4.07850 2466.78660    -999.25   31.46090  -84.65250 -112.04110   15.72780
 1700.00000  228.81770  223.09190  222.42030  228.81770   97.12980    5.65670 2734.62400   -0.01440   -0.05040   -0.01440   10.29550    5.65670  196.58650  196.58650   54.86930   47.84060   47.84060    -999.25    -999.25   10.29550    9.37800    -999.25    6.31980    0.14250    0.18360    0.14250    2.89420    2.89420 2733.82100    -999.25   54.41540 -129.58090 -168.91910    9.37800
 1750.00000  224.68100  223.60110  218.57770  224.68100   59.39120   -6.54660 2544.98500    0.09650    0.06440    0.09650   16.83750   -6.54660  212.25110  212.25110  132.65270  134.89560  134.89560    -999.25    -999.25   16.83750   14.13670    -999.25    6.16420    0.07820    0.11940    0.07820    3.26700    3.26700 2545.95510    -999.25  129.96960 -132.79470 -195.13660   14.13670
 1800.00000  219.98090  215.55220  207.16370  219.98090  297.60130   10.52620 2504.11600    0.12040    0.08890    0.12040    3.36020   10.52620  249.79110  249.79110  125.70740  121.80530  121.80530    -999.25    -999.25    3.36020    3.26140    -999.25    3.26570    0.21950    0.26350    0.21950    2.89520    2.89520 2509.77560    -999.25  119.83540   63.26310  -32.13660    3.26140
 1850.00000  243.71470  225.66730  237.66130  243.71470  177.03820  130.48580 2540.02600    0.09940    0.06560    0.09940    5.64850  130.48580  258.75710  258.75710  129.51220  124.48320  124.48320    -999.25    -999.25    5.64850    7.09510    -999.25    0.82240    0.30400    0.34890    0.30400    2.81490    2.81490 2538.31230    -999.25  118.39170  119.91530   -6.55240    7.09510
 1900.00000  224.67030  217.82430  223.71280  224.67030   87.94840  143.87920 2621.08000    0.05200    0.01960    0.05200   11.37030  143.87920  222.40510  222.40510  119.45470  120.61580  120.61580    -999.25    -999.25   11.37030   13.78270    -999.25    1.23240    0.26090    0.29890    0.26090    3.11870    3.11870 2622.66920    -999.25  113.82800 -180.06870 -305.60100   13.78270
 1950.00000  223.75710  224.60460  219.49420  223.75710   92.39070   69.92670 2623.64500    0.05050    0.01570    0.05050   10.82360   69.92670  252.44860  252.44860  138.55660  136.53710  136.53710    -999.25    -999.25   10.82360   11.42740    -999.25    0.24510    0.24810    0.28410    0.24810    3.08620    3.08620 2625.97390    -999.25  143.87590 -179.33120 -305.46520   11.42740
 2000.00000  230.00430  240.54460  232.00680  230.00430   40.78890   53.74000 2710.85500   -0.00050   -0.03500   -0.00050   24.51650   53.74000  219.39680  219.39680  116.58330  124.44230  124.44230    -999.25    -999.25   24.51650   26.38560    -999.25   30.32840    0.24260    0.28840    0.24260    3.32200    3.32200 2712.51370    -999.25  115.81710  -14.28120 -141.01700   26.38560
 2050.00000  217.33700  222.89480  225.68060  217.33700    7.64190   30.87390 2631.68200    0.04580    0.01180    0.04580  130.85810   30.87390  175.60110  175.60110   22.74070   22.19780   22.19780    -999.25    -999.25  130.85810   78.45490    -999.25   53.06590    0.00260    0.02020    0.00260    1.90650    1.90650 2630.98800    -999.25   23.03260  -39.28060 -165.19780   78.45490
 2100.00000  216.33420  221.97760  226.79980  216.33420    3.47640   15.83280 2636.81200    0.04280    0.00740    0.04280  287.65670   15.83280  142.11300  142.11300   23.39770   20.94280   20.94280    -999.25    -999.25  287.65670  211.07690    -999.25  104.36090   -0.00020    0.01640   -0.00020    1.81800    1.81800 2638.56520    -999.25   25.82440  -56.69660 -180.32870  211.07690
