~Version ---------------------------------------------------
VERS. 2.0 : CWLS log ASCII Standard -VERSION 2.0
WRAP.  NO : ONE LINE PER DEPTH STEP
~Well ------------------------------------------------------
STRT.M                           300.0 : START DEPTH
STOP.M                          1750.0 : STOP DEPTH
STEP.M                        50.00000 : STEP LENGTH
NULL.                          -999.25 : NULL VALUE
COMP.           ALPETRO RESOURCES LTD. : COMPANY
WELL. WESTCOAST FLAME NIPISI 7-30-80-9 : WELL
FLD .                                  : FIELD
LOC .                                  : LOCATION
CTRY.                           CANADA : COUNTRY
SRVC.                     Schlumberger : SERVICE COMPANY
DATE.                      05-Oct-1986 : LOGDATE
PROV.                          Alberta : PROVINCE
UWI .                 100073008009W500 : UNIQUE WELL ID
SLAT.WGS84               55.9613456726 : SURFACE LATITUDE
SLON.WGS84             -115.3931655884 : SURFACE LONGITUDE
~Curve Information -----------------------------------------
DEPT  .M      : DEPTH METERS
CALS  .MM     : CALIPER FROM SONIC LOG
DPHILS.V/V    : DENSITY POROSITY [M=2710 F=1000] FROM DENSITY LOG
DPHISS.V/V    : DENSITY POROSITY [M=2650 F=1000] FROM DENSITY LOG
DRHO  .KG/M3  : DENSITY CORRECTION FROM DENSITY LOG
DT    .US/M   : DELTA TIME FROM SONIC LOG
GRS   .GAPI   : GAMMA RAY FROM SONIC LOG
ILD   .OHMM   : INDUCTION LOG DEEP RESISTIVITY
ILM   .OHMM   : INDUCTION LOG MEDIUM RESISTIVITY
NPHILS.V/V    : NEUTRON POROSITY LIMESTONE FROM DENSITY LOG
NPHISS.V/V    : NEUTRON POROSITY SANDSTONE FROM DENSITY LOG
PEF   .B/E    : PHOTOELECTRIC FACTOR FROM DENSITY LOG
RHOB  .KG/M3  : BULK DENSITY FROM DENSITY LOG
SFLU  .OHMM   : SPHERICALLY FOCUSED LOG RESISTIVITY
SPR   .MV     : SPONTANEOUS POTENTIAL FROM RESISTIVITY LOG
~Params ----------------------------------------------------
PD  .                     GL : PERMANENT DATUM
EPD .M                 647.9 : ELEVATION PERMANENT DATUM
LMF .                     KB : LOG MEASURED FROM
DAPD.M                   4.7 : FEET ABOVE PERMANENT DATUM
DMF .                     KB : DRILLING MEASURED FROM
EKB .M                 652.6 : KELLY BUSHING
EDF .M                 652.3 : DRILLING FLOOR
EGL .M                 647.9 : GROUND LEVEL
DATE.               10/05/86 : RUN DATE
RUN .                      1 : RUN NUMBER
DD  .M                  1776 : DEPTH DRILLER
DL  .M                  1777 : DEPTH LOGGER
BLI .M                  1776 : BOTTOM LOG INTERVAL
TLI .M                   305 : TOP LOG INTERVAL
CS  .MM                  219 : CASING SIZE
CBD .M                   305 : CASING BOTTOM DRILLER
CBL .M                   305 : CASING BOTTOM LOGGER
BS  .MM                  200 : BIT SIZE
BSD .M                  1776 : BIT SIZE AT DEPTH
DFT .               GEL CHEM : DRILLING FLUID TYPE
DFD .                   1120 : DRILLING FLUID DENSITY
DFV .                     75 : DRILLING FLUID VISCOSITY
DFPH.                     10 : DRILLING FLUID PH
DFL .                     10 : DRILLING FLUID LOSS
MSS .               FLOWLINE : MUD SAMPLE SOURCE
RMS .OHMM               1.07 : RESISTIVITY MUD SAMPLE
MST .DEGC                 20 : MUD SAMPLE TEMPERATURE
RMF .OHMM              0.803 : RESISTIVITY MUD FILTRATE SAMPLE
MFST.DEGC                 20 : MUD FILTRATE SAMPLE TEMPERATURE
RMC .OHMM              0.502 : RESISTIVITY MUD CAKE
MCST.DEGC                 45 : MUD CAKE SAMPLE TEMPERATURE
MFSS.                  PRESS : MUD FILTRATE SAMPLE SOURCE
MCSS.                        : MUD CAKE SAMPLE SOURCE
RMB .OHMM              0.669 : RESISTIVITY MUD AT BHT
TCS .HRS                1030 : TIME CIRCULATED STOPPED
TLAB.HRS                1515 : TIME LOGGER AT BOTTOM
LUN .                   8163 : LOGGING UNIT NUMBER
LUL .                     SL : LOGGING UNIT LOCATION
ENGI.                   NAGY : RECORDING ENGINEER
WITN.                MCBROOM : WITNESSED BY
CLNT.                A2DTECH : CLIENT CODE
ORIG.                        : ORIGIN OF DATA
UWI .       100073008009W500 : UNIQUE WELL ID
DICO. A2D Technologies, Inc. : DIGITIZING COMPANY
OS  .                        : OTHER SERVICES
PWI .                        : PRIMARY WELL IDENTIFIER
R1  .                        : REMARKS 1
R2  .                        : REMARKS 2
LSRV.                        : LOG MNEMONIC
~Other -----------------------------------------------------
~ASCII -----------------------------------------------------
  300.00000    -999.25    -999.25    -999.25    -999.25    -999.25   64.76270    -999.25    -999.25    -999.25    -999.25    -999.25    -999.25    -999.25    -999.25
  350.00000  203.20310    -999.25    -999.25    -999.25  401.47880   71.64320    5.99660    6.09580    -999.25    -999.25    -999.25    -999.25    6.50520  -32.78990
  400.00000  332.38460    -999.25    -999.25    -999.25  620.71980   51.21410    2.48870    2.28200    -999.25    -999.25    -999.25    -999.25    2.54820  -20.93450
  450.00000  218.84540    -999.25    -999.25    -999.25  382.99940   72.44880    5.24730    5.22160    -999.25    -999.25    -999.25    -999.25    6.14550  -30.39510
  500.00000  264.57530    -999.25    -999.25    -999.25  372.33260   71.57420    5.00820    5.00520    -999.25    -999.25    -999.25    -999.25    4.71850  -21.86860
  550.00000  302.61740    -999.25    -999.25    -999.25  452.29970   73.47360    5.07580    4.49940    -999.25    -999.25    -999.25    -999.25    5.29850  -23.46300
  600.00000  219.36800    -999.25    -999.25    -999.25  202.14280    9.20120  288.70220  847.43480    -999.25    -999.25    -999.25    -999.25  456.77920  -24.75830
  650.00000  272.42330    -999.25    -999.25    -999.25  259.32390   53.52550    4.98930    3.87760    -999.25    -999.25    -999.25    -999.25    5.48480  -28.51200
  700.00000  262.43350    -999.25    -999.25    -999.25  206.25360   27.19140   12.90230   13.11350    -999.25    -999.25    -999.25    -999.25   19.27640  -33.28170
  750.00000  239.43130    -999.25    -999.25    -999.25  228.46590   28.40620    7.80990    7.73180    -999.25    -999.25    -999.25    -999.25    8.46600   -9.02960
  800.00000  268.56770    -999.25    -999.25    -999.25  280.05930   28.50930    7.96120    6.01650    -999.25    -999.25    -999.25    -999.25    5.84890   -5.20680
  850.00000  225.79230    -999.25    -999.25    -999.25  214.14940   27.17690   12.44880   12.66730    -999.25    -999.25    -999.25    -999.25   17.88130   -9.20370
  900.00000  249.60330    -999.25    -999.25    -999.25  190.18190   16.23290   30.67300   45.66830    -999.25    -999.25    -999.25    -999.25  100.48340  -76.87850
  950.00000  240.19500    -999.25    -999.25    -999.25  188.03510   16.11880   23.98690   40.03010    -999.25    -999.25    -999.25    -999.25   93.98060  -70.27470
 1000.00000  229.10210    -999.25    -999.25    -999.25  182.86310   11.03850   27.61030   40.66310    -999.25    -999.25    -999.25    -999.25   88.50690  -63.31920
 1050.00000  227.96210    -999.25    -999.25    -999.25  176.23820   10.02920   47.55590   55.80470    -999.25    -999.25    -999.25    -999.25  136.50390  -43.38770
 1100.00000  227.98320    -999.25    -999.25    -999.25  167.88420    9.93440   46.20860   49.91620    -999.25    -999.25    -999.25    -999.25  114.93140  -47.23800
 1150.00000  241.47430    -999.25    -999.25    -999.25  251.12850   71.91260    2.26840    2.51340    -999.25    -999.25    -999.25    -999.25    3.73840  -34.13590
 1200.00000  229.38060    -999.25    -999.25    -999.25  123.47890   12.16330   17.60640   30.29120    -999.25    -999.25    -999.25    -999.25   95.20640  -35.96790
 1250.00000  239.01100    -999.25    -999.25    -999.25  240.86720   57.16740    7.96980    8.01040    -999.25    -999.25    -999.25    -999.25    8.76780   -5.88220
 1300.00000  241.53350    -999.25    -999.25    -999.25  285.63930   67.37970    3.47930    3.41950    -999.25    -999.25    -999.25    -999.25    3.62390  -18.02660
 1350.00000  264.81940    -999.25    -999.25    -999.25  298.07060   76.30740    3.28010    3.23380    -999.25    -999.25    -999.25    -999.25    3.34300  -16.68840
 1400.00000  285.73600    -999.25    -999.25    -999.25  316.92030   76.65320    2.70220    2.49700    -999.25    -999.25    -999.25    -999.25    2.88780  -12.92560
 1450.00000  267.19200    -999.25    -999.25    -999.25  277.30290   90.32570    3.27990    3.32280    -999.25    -999.25    -999.25    -999.25    3.40040   -5.40850
 1500.00000  213.28860    -999.25    -999.25    -999.25  239.52480   65.16060    6.54010    6.63510    -999.25    -999.25    -999.25    -999.25    7.99730    5.00590
 1550.00000  248.56280    -999.25    -999.25    -999.25  268.50260   75.41930    4.51960    4.46130    -999.25    -999.25    -999.25    -999.25    5.13010  -10.88560
 1600.00000  241.44010    -999.25    -999.25    -999.25  224.69200   54.64860    6.23660    6.47180    -999.25    -999.25    -999.25    -999.25    7.35440    1.90690
 1650.00000  210.12070    0.02610   -0.00900   -9.14680  180.89410   23.72290   31.12000   32.58710    0.06650    0.10950    4.47360 2661.59250   42.52880   -2.03690
 1700.00000  213.19720    0.02010   -0.01810   -1.14510  169.00900   19.01340   47.35940   78.91640    0.02850    0.06720    4.83820 2674.42990  122.49840  -38.44960
 1750.00000  211.67940    0.08120    0.04700    1.14840  214.10320  142.69430    5.38290    5.14410    0.29820    0.34530    3.72870 2570.34060    5.89340  -29.11700
