~Version ---------------------------------------------------
VERS.      2.0 : CWLS log ASCII Standard -VERSION 2.0
WRAP.       NO : One line per depth step
CREA. 11/28/17 : LAS Creation Date
~Well ------------------------------------------------------
STRT.FT                            850.0 : START DEPTH
STOP.FT                           7900.0 : STOP DEPTH
STEP.FT                         50.00000 : STEP LENGTH
NULL.                            -999.25 : NULL VALUE
COMP.    MICHIGAN WISCONSIN PIPE LINE CO : COMPANY
WELL. MICH WIS PAN AM IOE TIMEU 7-6-65-4 : WELL
FLD .                                    : FIELD
LOC .                                    : LOCATION
CTRY.                             CANADA : COUNTRY
SRVC.                       Schlumberger : SERVICE COMPANY
DATE.                        24-Aug-1968 : LOGDATE
PROV.                            Alberta : PROVINCE
UWI .                   100070606504W500 : UNIQUE WELL ID
SLAT.WGS84                      54.59319 : SURFACE LATITUDE
SLON.WGS84                     -114.5883 : SURFACE LONGITUDE
~Curve Information -----------------------------------------
DEPT  .FT    : Depth Curve
CALSED.IN    : CALIPER FROM SONIC LOG
CALWS .IN    : CALIPER [CALSED]
CILDED.MMHO  : DEEP INDUCTION CONDUCTIVITY FROM RESISTIVITY LOG
CONDWS.MMHO  : CONDUCTIVITY [1000/DRESWS]
DRESWS.OHMM  : DEEP RESISTIVITY [1000/CILDED,IF ILDED<5,ILDED]
DTED  .US/F  : DELTA-T FROM SONIC LOG
DTWS  .US/F  : COMPRESSIONAL SONIC [DTED]
GRSED .GAPI  : GAMMA RAY FROM SONIC LOG
GRWS  .GAPI  : GAMMA RAY [GRSED]
ILDED .OHMM  : DEEP INDUCTION RESISTIVITY FROM RESISTIVITY LOG
SNED  .OHMM  : SHORT NORMAL RESISTIVITY FROM RESISTIVITY LOG
SPRED .MV    : SPONTANEOUS POTENTIAL FROM RESISTIVITY LOG
SPWS  .MV    : SPONTANEOUS POTENTIAL [BASELINE 0MV, SPRED]
SRESWS.OHMM  : SHALLOW RESISTIVITY [SNED]
~Params ----------------------------------------------------
PD  .                     GL : PERMANENT DATUM
EPD .FT                 2288 : ELEVATION PERMANENT DATUM
LMF .                     KB : LOG MEASURED FROM
DAPD.FT                   12 : FEET ABOVE PERMANENT DATUM
EKB .FT                 2300 : KELLY BUSHING
EGL .FT                 2288 : GROUND LEVEL
DATE.               08/24/68 : RUN DATE
RUN .                      1 : RUN NUMBER
DD  .FT                 7910 : DEPTH DRILLER
DL  .FT                 7911 : DEPTH LOGGER
BLI .FT                 7910 : BOTTOM LOG INTERVAL
TLI .FT                  820 : TOP LOG INTERVAL
CBD .FT                  820 : CASING BOTTOM DRILLER
CBL .FT                  820 : CASING BOTTOM LOGGER
BS  .IN                7.875 : BIT SIZE
BSD .FT                 7910 : BIT SIZE AT DEPTH
DFT .                    GEL : DRILLING FLUID TYPE
DFD .                    9.5 : DRILLING FLUID DENSITY
DFV .                     80 : DRILLING FLUID VISCOSITY
DFPH.                   10.5 : DRILLING FLUID PH
DFL .                    9.2 : DRILLING FLUID LOSS
RMS .OHMM               0.88 : RESISTIVITY MUD SAMPLE
MST .DEGF                 70 : MUD SAMPLE TEMPERATURE
RMF .OHMM                0.7 : RESISTIVITY MUD FILTRATE SAMPLE
MFST.DEGF                 70 : MUD FILTRATE SAMPLE TEMPERATURE
RMC .OHMM               1.26 : RESISTIVITY MUD CAKE
MCST.DEGF                 75 : MUD CAKE SAMPLE TEMPERATURE
RMB .OHMM               0.42 : RESISTIVITY MUD AT BHT
TCS .HRS                   3 : TIME CIRCULATED STOPPED
LUN .                   7501 : LOGGING UNIT NUMBER
LUL .                    EDM : LOGGING UNIT LOCATION
ENGI.               STUEHMER : RECORDING ENGINEER
WITN.                   PEEL : WITNESSED BY
CLNT.                A2DTECH : CLIENT CODE
ORIG.            2" 5" PRINT : ORIGIN OF DATA
UWI .       100070606504W500 : UNIQUE WELL ID
DICO. A2D Technologies, Inc. : DIGITIZING COMPANY
~Other -----------------------------------------------------
IEL-BHC LOG RUN
DATA VERIFY FROM SMALL SCALE @ TOP-2318',3912'-6362'
~ASCII -----------------------------------------------------
# ...
 3300.00000   10.97060   10.97060  173.69850  185.40840    5.39350   97.34320   97.34320   75.25650   75.25650    5.39350    7.16240  -78.19450   -0.42260    7.16240
 3350.00000    9.96830    9.96830  161.11080  160.00310    6.26870   82.32290   82.32290   62.38320   62.38320    6.26870    8.50300  -87.65020  -11.62470    8.50300
 3400.00000   14.64310   14.64310  194.06890  197.43340    5.06500  100.96170  100.96170   67.29850   67.29850    5.06500    4.89180  -84.81250  -10.52200    4.89180
 3450.00000   10.65530   10.65530   46.04720   46.04730   21.74420   58.43870   58.43870   23.02220   23.02220   21.74420   27.49310 -117.14880  -44.60470   27.49310
 3500.00000   11.30510   11.30510   89.74250   89.75530   11.14140   69.85980   69.85980   56.33110   56.33110   11.14140   12.38070  -84.75770  -13.94860   12.38070
 3550.00000   10.37460   10.37460   35.12200   35.12650   28.46850   65.09780   65.09780   61.73140   61.73140   28.46850   30.46750  -70.99500   -0.85050   30.46750
 3600.00000    9.25000    9.25000   33.06680   33.64070   29.72910   78.62900   78.62900  101.85610  101.85610   29.72910   36.99360  -83.26610  -10.31880   36.99360
 3650.00000    9.25710    9.25710    4.61680    2.02790  493.13120   50.62200   50.62200   12.87270   12.87270  493.13120   84.79280 -119.24610  -43.51440   84.79280
 3700.00000    8.56620    8.56620  248.04210  248.04210    4.03160   43.17050   43.17050   22.89850   22.89850    4.03240   19.02080 -160.51410  -81.97960   19.02080
 3750.00000    8.76090    8.76090  123.25890  123.26660    8.11250   60.26070   60.26070   23.19820   23.19820    8.11250   31.70120 -158.72480  -77.40580   31.70120
 3800.00000    9.02540    9.02540  144.88770  151.52200    6.59970   63.08790   63.08790   14.04350   14.04350    6.59970   27.67750 -165.85510  -81.75160   27.67750
 3850.00000    8.67870    8.67870  143.45520  143.76200    6.95810   66.12190   66.12190   12.95550   12.95550    6.95810   24.45330 -172.54630  -85.64010   24.45330
 3900.00000    8.68270    8.68270  182.12670  192.20050    5.20290   61.08360   61.08360   15.73110   15.73110    5.20290   25.59290 -166.77420  -77.08350   25.59290
 3950.00000    8.33710    8.33710  135.37930  135.16540    7.39860   56.91840   56.91840   13.77180   13.77180    7.39860   33.49030 -165.39430  -72.90080   33.49030
 4000.00000    9.24630    9.24630   71.96420   69.52700   14.38290   52.22440   52.22440   14.06190   14.06190   14.38290   51.01360 -168.71860  -73.44060   51.01360
 4050.00000    9.35380    9.35380   26.08950   26.16180   38.22360   51.87510   51.87510   14.44470   14.44470   38.22360   87.38020 -156.59050  -58.52810   87.38020
 4100.00000    9.19270    9.19270   17.58460   18.25320   54.80560   51.74150   51.74150   18.10120   18.10120   54.80560   89.02570 -158.92940  -58.06420   89.02570
 4150.00000    8.98740    8.98740   50.04020   49.40170   20.24220   58.36210   58.36210   16.14770   16.14770   20.24220   50.02100 -187.64050  -83.99080   50.02100
 4200.00000    9.12150    9.12150   67.23940   67.67450   14.77670   55.02760   55.02760   14.04970   14.04970   14.77670   51.52920 -181.92330  -75.47080   51.52920
 4250.00000    8.94310    8.94310   31.04530   31.44240   31.80420   51.25220   51.25220   15.85730   15.85730   31.80420   77.28420 -195.35880  -86.12190   77.28420
 4300.00000    8.67610    8.67610  158.11790  157.20060    6.36130   58.40310   58.40310   28.04720   28.04720    6.36130   31.68810 -181.40650  -69.38510   31.68810
 4350.00000   10.21500   10.21500  413.32870  413.32870    2.42070   76.16070   76.16070   50.36450   50.36450    2.92320    6.39400 -168.00990  -53.11490    6.39400
 4400.00000    8.66670    8.66670   14.31740   16.18800   61.77410   47.75650   47.75650   21.58480   21.58480   61.77410   92.51470 -176.14160  -57.74470   92.51470
 4450.00000    8.79740    8.79740   73.55260   74.07120   13.50740   54.57070   54.57070   27.05490   27.05490   13.50740   35.13570 -187.35220  -65.43030   35.13570
 4500.00000    9.17720    9.17720  116.61400  115.88430    8.62930   55.93810   55.93810   35.61730   35.61730    8.62930   16.48340 -169.86850  -44.44470   16.48340
 4550.00000   13.82450   13.82450  211.79370  211.79370    4.72160   75.00230   75.00230   68.49240   68.49240    4.72780    5.36370 -136.84920   -7.92340    5.36370
 4600.00000    9.02950    9.02950   43.35490   45.54450   21.95720   61.89210   61.89210   56.04730   56.04730   21.95720   20.44680 -143.40020  -14.80800   20.44680
 4650.00000    8.83320    8.83320   31.40040   35.33540   28.30020   58.77860   58.77860   39.60780   39.60780   28.30020   29.19470 -143.11340  -15.71120   29.19470
 4700.00000    8.79600    8.79600   30.27630   33.92380   29.53950   56.87040   56.87040   30.41140   30.41140   29.53950   32.88320 -136.01910   -9.81480   32.88320
 4750.00000   12.47240   12.47240  272.96130  272.96130    3.66350   89.47540   89.47540   79.30270   79.30270    3.64350    4.29320 -134.54300   -9.52880    4.29320
 4800.00000   11.02090   11.02090  247.11970  247.11970    4.04660   87.18810   87.18810   77.35200   77.35200    4.18280    4.64330 -136.60590  -12.78170    4.64330
 4850.00000   13.17590   13.17590  250.17070  250.17070    3.99730   87.15730   87.15730   73.54770   73.54770    4.02560    4.31720 -134.32250  -11.69620    4.31720
 4900.00000   14.37810   14.37810  275.83590  275.83590    3.62530   86.73560   86.73560   70.49110   70.49110    3.69370    4.10640 -129.10890   -7.67260    4.10640
 4950.00000   14.87760   14.87760  318.89210  318.89210    3.13590  108.41710  108.41710   78.84680   78.84680    3.15760    3.52450 -136.34670  -16.10830    3.52450
 5000.00000   15.00000   15.00000  266.27170  266.27170    3.75560   88.76400   88.76400   75.98470   75.98470    3.56020    4.09660 -131.43190  -12.38360    4.09660
 5050.00000   15.00000   15.00000  243.14660  243.14660    4.11270   85.86280   85.86280   69.11050   69.11050    3.88490    4.54830 -131.56360  -13.70530    4.54830
 5100.00000   15.00000   15.00000  308.67570  308.67570    3.23970   94.42700   94.42700   70.70530   70.70530    3.13980    3.63840 -125.68680   -9.02640    3.63840
 5150.00000   15.00000   15.00000  348.04250  348.04250    2.87320  121.83540  121.83540   72.39260   72.39260    2.83530    3.24660 -134.83380  -19.36350    3.24660
 5200.00000   14.98420   14.98420  286.26650  286.26650    3.49950   86.17640   86.17640   53.69540   53.69540    3.68410    4.50510 -129.16160  -14.88910    4.50510
 5250.00000   11.07380   11.07380  188.36960  188.58670    5.30260   80.33630   80.33630   64.05920   64.05920    5.30260    7.05330 -122.41970   -9.33730    7.05330
 5300.00000    9.54510    9.54510   35.59800   33.34300   29.99130   65.08440   65.08440   60.61800   60.61800   29.99130   32.64340 -113.03200   -1.13960   32.64340
 5350.00000   10.72430   10.72430  120.65730  113.82160    8.80660   75.32880   75.32880   54.61790   54.61790    8.80660   11.54440 -117.32840   -6.63390   11.54440
 5400.00000   10.33080   10.33080   85.03300   85.20360   11.73660   65.43590   65.43590   50.02440   50.02440   11.73660   14.21440 -115.46780   -5.96340   14.21440
 5450.00000    9.18700    9.18700    1.68130    1.99600  501.01030   55.27300   55.27300   17.71270   17.71270  501.01030   98.69340 -119.65750  -11.35090   98.69340
 5500.00000    9.58580    9.58580   73.06000   72.97300   13.70370   63.48030   63.48030   48.62660   48.62660   13.70370   16.33410 -110.48100   -3.36450   16.33410
 5550.00000   10.53030   10.53030   99.93580   95.94260   10.42290   68.80910   68.80910   50.57230   50.57230   10.42290   12.36020 -107.31880   -1.39530   12.36020
 5600.00000   10.67050   10.67050  156.50100  149.81270    6.69840   78.07500   78.07500   58.32460   58.32460    6.69840    7.44610 -113.70450   -9.07080    7.44610
 5650.00000   14.69950   14.69950  265.35330  265.35330    3.76860   88.46690   88.46690   74.35990   74.35990    3.89160    4.39360 -123.95000  -20.59750    4.39360
 5700.00000   14.40690   14.40690  225.24070  225.24070    4.44130   79.69220   79.69220   64.59030   64.59030    4.33110    5.10770 -117.13530  -15.07260    5.10770
