~Version ---------------------------------------------------
VERS.      2.0 : CWLS log ASCII Standard -VERSION 2.0
WRAP.       NO : One line per depth step
CREA. 10/25/17 : LAS Creation Date
~Well ------------------------------------------------------
STRT.FT                 1200.0 : START DEPTH
STOP.FT                12350.0 : STOP DEPTH
STEP.FT               50.00000 : STEP LENGTH
NULL.                  -999.25 : NULL VALUE
COMP.     CHEVRON STANDARD LTD : COMPANY
WELL. CHEVRON EDSON 7-28-52-17 : WELL
FLD .                          : FIELD
LOC .                          : LOCATION
CTRY.                   CANADA : COUNTRY
SRVC.             Schlumberger : SERVICE COMPANY
DATE.              18-Oct-1968 : LOGDATE
PROV.                  Alberta : PROVINCE
UWI .         100072805217W500 : UNIQUE WELL ID
SLAT.WGS84             53.5164 : SURFACE LATITUDE
SLON.WGS84           -116.4412 : SURFACE LONGITUDE
~Curve Information -----------------------------------------
DEPT    .FT    : Depth Curve
CALDED  .IN    : CALIPER FROM FDC LOG [ADJ.TO RESISTIVITY LOG]
CALNED  .IN    : CALIPER FROM SNP LOG [ADJ.TO RESISTIVITY LOG]
CALSED  .IN    : CALIPER FROM SONIC LOG [ADJ. TO RESISTIVITY LOG]
CALWS   .IN    : CALIPER [CALSED]
CILDED  .MMHO  : DEEP CONDUCTIVITY FROM RESISTIVITY LOG
CONDWS  .MMHO  : CONDUCTIVITY [1000/DRESWS]
DCORED  .G/C3  : DENSITY CORRECTION FROM FDC LOG  [ADJ.TO RESISTIVITY LOG]
DCORWS  .G/C3  : DENSITY CORRECTION [DCORED]
DENWS   .G/C3  : FORMATION BULK DENSITY [RHOBED]
DPHILSED.V/V   : DENSITY POROSITY LIMESTONE [M=2.71, F=1.00] FROM FDC LOG [ADJ. TO RESISTIVITY LOG]
DPOLSWS .V/V   : DENSITY POROSITY LIMESTONE [DPHILSED]
DRESWS  .OHMM  : DEEP RESISTIVITY [ILDED]
DTED    .US/F  : DELTA TIME FROM SONIC LOG [ADJ. TO RESISTIVITY LOG]
DTWS    .US/F  : COMPRESSIONAL SONIC [DTED]
GRDED   .GAPI  : GAMMA RAY FROM SNP-FDC LOG [ADJ. TO RESISTIVITY LOG]
GRNED   .GAPI  : GAMMA RAY FROM SNP LOG  [ADJ. TO RESISTIVITY LOG]
GRSED   .GAPI  : GAMMA RAY FROM SONIC LOG [ADJ. TO RESISTIVITY LOG]
GRWS    .GAPI  : GAMMA RAY [GRSED SPL. TO GRDED @ 12330']
ILDED   .OHMM  : DEEP INDUCTION FROM RESISTIVITY LOG
NPOLSWS .V/V   : NEUTRON POROSITY LIMESONTE [SNPLSED]
RHOBED  .G/C3  : BULK DENSITY FROM FDC LOG [ADJ.TO RESISTIVITY LOG]
SNED    .OHMM  : SHORT NORMAL 16" FROM RESISTIVITY LOG
SNPLSED .V/V   : SIDEWALL NEUTRON POROSITY LIMESONTE FROM SNP LOG [ADJ.TO RESISTIVITY LOG]
SPRED   .MV    : SPONTANEOUS POTENTIAL FROM RESISTIVITY LOG
SPWS    .MV    : SPONTANEOUS POTENTIAL [BASELINE 0 MV, SPRED]
SRESWS  .OHMM  : SHALLOW RESISTIVITY [SNED]
~Params ----------------------------------------------------
PD  .                     GL : PERMANENT DATUM
EPD .FT                 3060 : ELEVATION PERMANENT DATUM
LMF .                     KB : LOG MEASURED FROM
DAPD.FT                   13 : FEET ABOVE PERMANENT DATUM
EKB .FT                 3073 : KELLY BUSHING
EGL .FT                 3060 : GROUND LEVEL
DATE.               10/18/68 : RUN DATE
RUN .                      1 : RUN NUMBER
DD  .FT                12360 : DEPTH DRILLER
DL  .FT                12367 : DEPTH LOGGER
BLI .FT                12366 : BOTTOM LOG INTERVAL
TLI .FT                 1258 : TOP LOG INTERVAL
CBD .FT                 1258 : CASING BOTTOM DRILLER
CBL .FT                 1258 : CASING BOTTOM LOGGER
BS  .IN                 8.75 : BIT SIZE
BSD .FT                12360 : BIT SIZE AT DEPTH
DFT .                    GEL : DRILLING FLUID TYPE
DFD .                    9.8 : DRILLING FLUID DENSITY
DFV .                     69 : DRILLING FLUID VISCOSITY
DFPH.                   10.5 : DRILLING FLUID PH
DFL .                    6.3 : DRILLING FLUID LOSS
RMF .OHMM               0.93 : RESISTIVITY MUD FILTRATE SAMPLE
MFST.DEGF                 63 : MUD FILTRATE SAMPLE TEMPERATURE
RMC .OHMM               1.94 : RESISTIVITY MUD CAKE
MCST.DEGF                 67 : MUD CAKE SAMPLE TEMPERATURE
TCS .HRS                   4 : TIME CIRCULATED STOPPED
LUN .                   7501 : LOGGING UNIT NUMBER
LUL .                    EDM : LOGGING UNIT LOCATION
ENGI.               CHADDOCK : RECORDING ENGINEER
WITN.                HOVDEBO : WITNESSED BY
CLNT.                A2DTECH : CLIENT CODE
ORIG.            2" 5" PRINT : ORIGIN OF DATA
UWI .       100072805217W500 : UNIQUE WELL ID
DICO. A2D Technologies, Inc. : DIGITIZING COMPANY
~Other -----------------------------------------------------
~ASCII -----------------------------------------------------
# ...
 2550.00000    -999.25    -999.25   10.97300   11.02390  111.36740  120.65340    -999.25    -999.25    -999.25    -999.25    -999.25    8.28980   77.94150   77.94150    -999.25    -999.25   70.19390   71.23100    8.28980    -999.25    -999.25    9.02390    -999.25 -157.56430   -3.85400    9.02390
 2600.00000    -999.25    -999.25   10.71030   10.55090   88.23570   96.08180    -999.25    -999.25    -999.25    -999.25    -999.25   10.40780   78.25270   78.25270    -999.25    -999.25   61.99860   56.40260   10.40780    -999.25    -999.25   11.10690    -999.25 -158.57220   -5.09010   11.10690
 2650.00000    -999.25    -999.25   11.71230   11.71560  205.49050  233.27970    -999.25    -999.25    -999.25    -999.25    -999.25    4.28670   96.11790   96.11790    -999.25    -999.25   69.67030   70.86800    4.28670    -999.25    -999.25    4.97870    -999.25 -157.25130   -3.99590    4.97870
 2700.00000    -999.25    -999.25   11.17630   11.17630  214.43700  239.90600    -999.25    -999.25    -999.25    -999.25    -999.25    4.16830  113.98920  113.98920    -999.25    -999.25   60.41980   60.41980    4.16830    -999.25    -999.25    5.49750    -999.25 -156.37680   -3.34960    5.49750
 2750.00000    -999.25    -999.25   10.74340   10.58810  102.38860  111.93450    -999.25    -999.25    -999.25    -999.25    -999.25    8.93380   78.30840   78.30840    -999.25    -999.25   55.50770   59.36870    8.93380    -999.25    -999.25   11.59700    -999.25 -157.90100   -5.10050   11.59700
 2800.00000    -999.25    -999.25   10.75660   10.60900  195.52470  222.75140    -999.25    -999.25    -999.25    -999.25    -999.25    4.49150   92.40400   92.40400    -999.25    -999.25   71.30620   71.72760    4.49150    -999.25    -999.25    7.06770    -999.25 -155.64080   -3.06700    7.06770
 2850.00000    -999.25    -999.25   10.37030   10.37410  144.68980  155.45570    -999.25    -999.25    -999.25    -999.25    -999.25    6.43270   82.16590   82.16590    -999.25    -999.25   63.05660   61.63350    6.43270    -999.25    -999.25    8.39930    -999.25 -154.38670   -2.04110    8.39930
 2900.00000    -999.25    -999.25   11.13100   11.80060  178.05240  209.13940    -999.25    -999.25    -999.25    -999.25    -999.25    4.78150   96.92590   96.92590    -999.25    -999.25   65.28170   66.61440    4.78150    -999.25    -999.25    5.58820    -999.25 -154.73850   -2.61960    5.58820
 2950.00000    -999.25    -999.25   10.48750   10.68570  194.61980  216.41270    -999.25    -999.25    -999.25    -999.25    -999.25    4.62080   91.36450   91.36450    -999.25    -999.25   72.96570   71.02170    4.62080    -999.25    -999.25    5.83740    -999.25 -154.82410   -2.93340    5.83740
 3000.00000    -999.25    -999.25   10.01340    9.85780   97.81980  106.53260    -999.25    -999.25    -999.25    -999.25    -999.25    9.38680   88.48390   88.48390    -999.25    -999.25   73.15950   71.18360    9.38680    -999.25    -999.25   10.25690    -999.25 -153.46890   -1.80490   10.25690
 3050.00000    -999.25    -999.25   10.22770   10.47590  137.84260  153.34720    -999.25    -999.25    -999.25    -999.25    -999.25    6.52110   83.40660   83.40660    -999.25    -999.25   67.27410   68.62840    6.52110    -999.25    -999.25    7.09070    -999.25 -153.40090   -1.96370    7.09070
 3100.00000    -999.25    -999.25   11.78730   11.73880  158.09800  185.10980    -999.25    -999.25    -999.25    -999.25    -999.25    5.40220   83.18890   83.18890    -999.25    -999.25   62.63620   62.72680    5.40220    -999.25    -999.25    5.85850    -999.25 -153.16080   -1.95180    5.85850
 3150.00000    -999.25    -999.25   11.19780   11.29770   50.37330   48.36170    -999.25    -999.25    -999.25    -999.25    -999.25   20.67750   75.35190   75.35190    -999.25    -999.25   37.64860   34.24350   20.67750    -999.25    -999.25   17.98810    -999.25 -169.49790  -18.51560   17.98810
 3200.00000    -999.25    -999.25   12.87810   12.37370  200.25010  230.80830    -999.25    -999.25    -999.25    -999.25    -999.25    4.33260   89.36970   89.36970    -999.25    -999.25   69.31470   71.09390    4.33260    -999.25    -999.25    4.82170    -999.25 -153.98830   -3.23420    4.82170
 3250.00000    -999.25    -999.25   11.53560   11.82040  228.46580  257.09580    -999.25    -999.25    -999.25    -999.25    -999.25    3.88960   95.65940   95.65940    -999.25    -999.25   61.39110   67.41070    3.88960    -999.25    -999.25    5.18460    -999.25 -153.25550   -2.72810    5.18460
 3300.00000    -999.25    -999.25   10.76410   10.60050  126.42570  140.20260    -999.25    -999.25    -999.25    -999.25    -999.25    7.13280   81.07840   81.07840    -999.25    -999.25   67.11770   64.80060    7.13280    -999.25    -999.25   10.79930    -999.25 -152.53640   -2.23570   10.79930
 3350.00000    -999.25    -999.25   11.04260   11.56730   99.60120  104.94720    -999.25    -999.25    -999.25    -999.25    -999.25    9.52860   76.79080   76.79080    -999.25    -999.25   57.60380   45.71850    9.52860    -999.25    -999.25    9.64730    -999.25 -152.47240   -2.39990    9.64730
 3400.00000    -999.25    -999.25   11.34690   11.39550  128.71360  142.94700    -999.25    -999.25    -999.25    -999.25    -999.25    6.99560   78.81230   78.81230    -999.25    -999.25   57.43990   55.23850    6.99560    -999.25    -999.25    8.26510    -999.25 -150.91210   -1.05400    8.26510
 3450.00000    -999.25    -999.25   11.95270   12.26160  146.56500  159.46420    -999.25    -999.25    -999.25    -999.25    -999.25    6.27100   87.87410   87.87410    -999.25    -999.25   73.97220   74.92080    6.27100    -999.25    -999.25    7.08390    -999.25 -152.53190   -2.79080    7.08390
 3500.00000    -999.25    -999.25   12.46820   12.48090  166.99500  189.90470    -999.25    -999.25    -999.25    -999.25    -999.25    5.26580   88.49720   88.49720    -999.25    -999.25   68.59450   66.15140    5.26580    -999.25    -999.25    6.26930    -999.25 -152.23470   -2.60990    6.26930
 3550.00000    -999.25    -999.25   12.47720   12.47720  296.17370  351.22380    -999.25    -999.25    -999.25    -999.25    -999.25    2.84950   97.38090   97.38090    -999.25    -999.25   88.82630   88.82630    2.84950    -999.25    -999.25    4.48030    -999.25 -152.30200   -2.79350    4.48030
 3600.00000    -999.25    -999.25   11.23870   11.23870   80.79850   86.25000    -999.25    -999.25    -999.25    -999.25    -999.25   11.59420   74.89410   74.89410    -999.25    -999.25   46.48320   46.48320   11.59420    -999.25    -999.25   12.05820    -999.25 -153.58900   -4.19760   12.05820
 3650.00000    -999.25    -999.25   11.17960   11.17960   88.14570   93.28180    -999.25    -999.25    -999.25    -999.25    -999.25   10.72020   78.02120   78.02120    -999.25    -999.25   61.88750   61.88750   10.72020    -999.25    -999.25   13.50420    -999.25 -156.08190   -6.80680   13.50420
 3700.00000    -999.25    -999.25   12.54060   12.54060  414.00950  588.72010    -999.25    -999.25    -999.25    -999.25    -999.25    1.69860  116.08690  116.08690    -999.25    -999.25   86.97340   85.06830    1.69860    -999.25    -999.25    4.21980    -999.25 -153.72690   -4.56880    4.21980
 3750.00000    -999.25    -999.25   10.91800   10.92870  116.03730  127.72530    -999.25    -999.25    -999.25    -999.25    -999.25    7.82930   76.21270   76.21270    -999.25    -999.25   60.11670   69.22660    7.82930    -999.25    -999.25    9.20070    -999.25 -151.60480   -2.56300    9.20070
 3800.00000    -999.25    -999.25   11.03710   11.52290  264.97400  285.70300    -999.25    -999.25    -999.25    -999.25    -999.25    3.53590  103.06340  103.06340    -999.25    -999.25   64.52110   86.30870    3.53590    -999.25    -999.25    4.86150    -999.25 -151.56490   -2.63940    4.86150
 3850.00000    -999.25    -999.25   10.65320   10.64180  112.11670  122.95430    -999.25    -999.25    -999.25    -999.25    -999.25    8.13310   86.22180   86.22180    -999.25    -999.25   70.32900   67.69000    8.13310    -999.25    -999.25    9.57850    -999.25 -152.65500   -3.84660    9.57850
