~Version ---------------------------------------------------
VERS.      2.0 : CWLS log ASCII Standard -VERSION 2.0
WRAP.       NO : One line per depth step
CREA. 12/22/14 : LAS Creation Date
~Well ------------------------------------------------------
STRT.M                          300.0 : START DEPTH
STOP.M                         4800.0 : STOP DEPTH
STEP.M                       50.00000 : STEP LENGTH
NULL.                         -999.25 : NULL VALUE
COMP.             CANTERRA ENERGY LTD : COMPANY
WELL. CANTERRA GULF PHOENIX 1-9-40-12 : WELL
FLD .                              WC : FIELD
LOC .                                 : LOCATION
CTRY.                          CANADA : COUNTRY
SRVC.                    Schlumberger : SERVICE COMPANY
DATE.                     20-Apr-1984 : LOGDATE
PROV.                         Alberta : PROVINCE
UWI .                100010904012W500 : UNIQUE WELL ID
SLAT.WGS84                     52.424 : SURFACE LATITUDE
SLON.WGS84                  -115.6556 : SURFACE LONGITUDE
~Curve Information -----------------------------------------
DEPT    .M      : Depth Curve
CALDED  .MM     : CALIPER FROM DENSITY LOG [ADJ. TO RESISTIVITY LOG]
CALRED  .MM     : CALIPER FROM DLL LOG
CALSED  .MM     : CALIPER FROM SONIC LOG [ADJ. TO RESISTIVITY LOG]
CALWS   .MM     : CALIPER [CALSED SPL. TO CALDED @ 3240 M]
CONDWS  .MMHO   : CONDUCTIVITY [1000/DRESWS]
DCORWS  .KG/M3  : DENSITY CORRECTION [DRHOED]
DENWS   .KG/M3  : FORMATION BULK DENSITY [RHOBED]
DPHILSED.V/V    : DENSITY POROSITY LIMESTONE [M=2710, F=1000] FROM DENSITY LOG [ADJ. TO RESISTIVITY LOG]
DPHISSED.V/V    : DENSITY POROSITY SANDSTONE [M=2650, F=1000] FROM DENSITY LOG [ADJ. TO RESISTIVITY LOG]
DPOLSWS .V/V    : DENSITY POROSITY LIMESTONE [CALC. FROM DENWS, M=2.71, F=1.0]
DRESWS  .OHMM   : DEEP RESISTIVITY [LLDED SPL. TO LLSED @ 3340 M]
DRHOED  .KG/M3  : DENSITY CORRECTION FROM DENSITY LOG [ADJ. TO RESISTIVITY LOG]
DTED    .US/M   : DELTA T FROM SONIC LOG [ADJ. TO RESISTIVITY LOG]
DTWS    .US/M   : COMPRESSIONAL SONIC [DTED]
GRDED   .GAPI   : GAMMA RAY FROM DENSITY LOG [ADJ. TO RESISTIVITY LOG]
GRRED   .GAPI   : GAMMA RAY FROM DIL-SFL-DLL LOG
GRSED   .GAPI   : GAMMA RAY FROM SONIC LOG [ADJ. TO RESISTIVITY LOG]
GRWS    .GAPI   : GAMMA RAY [GRSED SPL. TO GRRED @ 200 M & GRDED @ 4800 M]
ILDED   .OHMM   : DEEP INDUCTION RESISTIVITY FROM DIL-SFL LOG
ILMED   .OHMM   : MEDIUM INDUCTION RESISTIVITY FROM DIL-SFL LOG
LAED    .MM     : LONG ARM CALIPER FROM DENSITY LOG [ADJ. TO RESISTIVITY LOG]
LLDED   .OHMM   : DEEP LATEROLOG RESISTIVITY FROM DLL LOG
LLSED   .OHMM   : SHALLOW LATEROLOG RESISTIVITY FROM DLL LOG
MRESWS  .OHMM   : MEDIUM RESISTIVITY [ILMED]
MSFLED  .OHMM   : MICROSPHERICALLY FOCUSED RESISTIVITY FROM DLL LOG
NPHILSED.V/V    : NEUTRON POROSITY LIMESTONE FROM DENSITY LOG [ADJ. TO RESISTIVITY LOG]
NPHISSED.V/V    : NEUTRON POROSITY SANDSTONE FROM DENSITY LOG [ADJ. TO RESISTIVITY LOG]
NPOLSWS .V/V    : NEUTRON POROSITY LIMESTONE [NPHILSED SPL. NPHISSED 3334-3630M (SLB MTRX CONV. SAND TO LIME) ]
RHOBED  .KG/M3  : BULK DENSITY FROM DENSITY LOG [ADJ. TO RESISTIVITY LOG]
SPSED   .MV     : SPONTANEOUS POTENTIAL FROM SONIC LOG [ADJ. TO RESISTIVITY LOG]
SPWS    .MV     : SPONTANEOUS POTENTIAL [BASELINE 0 MV, SPRED]
SRESWS  .OHMM   : SHALLOW RESISTIVITY [LLSED]
TENDED  .N      : TENSION FROM DENSITY LOG [ADJ. TO RESISTIVITY LOG]
TENRED  .N      : TENSION FROM RESISTIVITY LOG
TENSED  .N      : TENSION FROM SONIC LOG [ADJ. TO RESISTIVITY LOG]
~Params ----------------------------------------------------
PD  .                         GL : PERMANENT DATUM
EPD .M                    1276.4 : ELEVATION PERMANENT DATUM
LMF .                         KB : LOG MEASURED FROM
DAPD.M                       7.4 : FEET ABOVE PERMANENT DATUM
DMF .                         KB : DRILLING MEASURED FROM
EKB .M                    1283.8 : KELLY BUSHING
EDF .M                    1283.5 : DRILLING FLOOR
EGL .M                    1276.4 : GROUND LEVEL
DATE.                   04/20/84 : RUN DATE
RUN .                          2 : RUN NUMBER
DD  .M                      4815 : DEPTH DRILLER
DL  .M                      4817 : DEPTH LOGGER
BLI .M                    4812.5 : BOTTOM LOG INTERVAL
TLI .M                      3341 : TOP LOG INTERVAL
CS  .MM                      244 : CASING SIZE
CBD .M                      3340 : CASING BOTTOM DRILLER
CBL .M                      3341 : CASING BOTTOM LOGGER
BS  .MM                      216 : BIT SIZE
BSD .M                      4815 : BIT SIZE AT DEPTH
DFT .                   GEL CHEM : DRILLING FLUID TYPE
DFD .                       1335 : DRILLING FLUID DENSITY
DFV .                         53 : DRILLING FLUID VISCOSITY
DFPH.                       11.5 : DRILLING FLUID PH
DFL .                          5 : DRILLING FLUID LOSS
MSS .                   FLOWLINE : MUD SAMPLE SOURCE
RMS .OHMM                    0.9 : RESISTIVITY MUD SAMPLE
MST .DEGC                   14.4 : MUD SAMPLE TEMPERATURE
RMF .OHMM                   0.63 : RESISTIVITY MUD FILTRATE SAMPLE
MFST.DEGC                   13.3 : MUD FILTRATE SAMPLE TEMPERATURE
RMC .OHMM                   0.82 : RESISTIVITY MUD CAKE
MCST.DEGC                   14.6 : MUD CAKE SAMPLE TEMPERATURE
MFSS.               FILTER PRESS : MUD FILTRATE SAMPLE SOURCE
MCSS.               FILTER PRESS : MUD CAKE SAMPLE SOURCE
RMB .OHMM                  0.227 : RESISTIVITY MUD AT BHT
TCS .HRS                    1600 : TIME CIRCULATED STOPPED
TLAB.HRS                     445 : TIME LOGGER AT BOTTOM
LUN .                       8063 : LOGGING UNIT NUMBER
LUL .                         RD : LOGGING UNIT LOCATION
ENGI.               BROWN BROCHU : RECORDING ENGINEER
WITN.                   LEISHMAN : WITNESSED BY
CLNT.                    A2DTECH : CLIENT CODE
ORIG. 6.5"/100M 16.5"/100M PRINT : ORIGIN OF DATA
UWI .           100010904012W500 : UNIQUE WELL ID
DICO.     A2D Technologies, Inc. : DIGITIZING COMPANY
~Other -----------------------------------------------------
1/ SP IS VERY ERRATIC - TRIED THE BEST TO SHALE BASELINE TO 0 MV - ANY DOUBTS PLEASE REFER TO ORIGINAL SPSED.
2/ TOOLS STUCK AT VARIOUS SPOTS ENTIRE LOGRUN2 - PLEASE SEE TENSION CURVES AS INDICATORS.
3/ CNLD NOT LOGGED 2770-2410; 2187-TOP.
~ASCII -----------------------------------------------------
# ...
 2400.00000  328.98970    -999.25  313.62660  313.62660  105.68140   12.26000 2606.83030    -999.25    0.02600    0.06030    9.46240   12.26000  251.82980  251.82980   73.77290   56.75160   57.03580   56.75160    9.46240   10.00600    -999.25    -999.25    -999.25   10.00600    -999.25    0.23910    0.28170    0.23910 2606.83030    -999.25    -999.25    -999.25 12279.85740 13480.62790 13466.64650
 2450.00000    -999.25    -999.25  311.74270  311.74270   89.36070    -999.25    -999.25    -999.25    -999.25    -999.25   11.19060    -999.25  245.32980  245.32980    -999.25   80.00160   80.23770   80.00160   11.19060   11.58810    -999.25    -999.25    -999.25   11.58810    -999.25    -999.25    -999.25    -999.25    -999.25    -999.25    -999.25    -999.25    -999.25 13666.49800 13713.93850
 2500.00000    -999.25    -999.25  311.48610  311.48610   87.86650    -999.25    -999.25    -999.25    -999.25    -999.25   11.38090    -999.25  246.49350  246.49350    -999.25   76.64790   76.66550   76.64790   11.38090   12.23100    -999.25    -999.25    -999.25   12.23100    -999.25    -999.25    -999.25    -999.25    -999.25    -999.25    -999.25    -999.25    -999.25 13872.95700 13907.97560
 2550.00000    -999.25    -999.25  313.21370  313.21370   94.68170    -999.25    -999.25    -999.25    -999.25    -999.25   10.56170    -999.25  271.72440  271.72440    -999.25   98.12000   98.32480   98.12000   10.56170   11.44330    -999.25    -999.25    -999.25   11.44330    -999.25    -999.25    -999.25    -999.25    -999.25    -999.25    -999.25    -999.25    -999.25 14105.92090 14095.29490
 2600.00000    -999.25    -999.25  310.63130  310.63130   85.61640    -999.25    -999.25    -999.25    -999.25    -999.25   11.68000    -999.25  255.07580  255.07580    -999.25   72.23190   72.45830   72.23190   11.68000   12.52270    -999.25    -999.25    -999.25   12.52270    -999.25    -999.25    -999.25    -999.25    -999.25    -999.25    -999.25    -999.25    -999.25 14273.47660 14328.75290
 2650.00000    -999.25    -999.25  311.04250  311.04250  147.39910    -999.25    -999.25    -999.25    -999.25    -999.25    6.78430    -999.25  266.98260  266.98260    -999.25   85.96720   86.52430   85.96720    6.78430    7.26040    -999.25    -999.25    -999.25    7.26040    -999.25    -999.25    -999.25    -999.25    -999.25    -999.25    -999.25    -999.25    -999.25 14520.44730 14505.56150
 2700.00000    -999.25    -999.25  310.87790  310.87790  165.16640    -999.25    -999.25    -999.25    -999.25    -999.25    6.05450    -999.25  265.74080  265.74080    -999.25   81.11260   82.01580   81.11260    6.05450    6.43780    -999.25    -999.25    -999.25    6.43780    -999.25    -999.25    -999.25    -999.25    -999.25    -999.25    -999.25    -999.25    -999.25 14724.49220 14753.08200
 2750.00000    -999.25    -999.25  310.16790  310.16790  118.18240    -999.25    -999.25    -999.25    -999.25    -999.25    8.46150    -999.25  246.95770  246.95770    -999.25   76.09120   76.33850   76.09120    8.46150    8.85980    -999.25    -999.25    -999.25    8.85980    -999.25    -999.25    -999.25    -999.25    -999.25    -999.25    -999.25    -999.25    -999.25 14940.36330 14877.06740
 2800.00000  332.13590    -999.25  318.28840  318.28840  144.50870    4.73900 2590.70430    -999.25    0.03540    0.06980    6.92000    4.73900  265.48870  265.48870  103.42030   81.46300   81.97990   81.46300    6.92000    7.24130    -999.25    -999.25    -999.25    7.24130    -999.25    0.26430    0.30830    0.26430 2590.70430    -999.25    -999.25    -999.25 13992.87210 15109.97270 15103.22170
 2850.00000  328.30020    -999.25  308.67960  328.30020   79.10580    7.48790 2599.71700    -999.25    0.03020    0.06450   12.64130    7.48790  233.22340  233.22340   78.51540   74.22140   74.09160   74.22140   12.64130   13.75370    -999.25    -999.25    -999.25   13.75370    -999.25    0.15150    0.19180    0.15150 2599.71700    -999.25    -999.25    -999.25 14320.29390 15254.41800 15363.86910
 2900.00000  328.30680    -999.25  310.43820  328.30680  112.41130    7.22590 2571.70340    -999.25    0.04530    0.08090    8.89590    7.22590  244.88290  244.88290  108.01750   90.72310   90.79020   90.72310    8.89590    9.12360    -999.25    -999.25    -999.25    9.12360    -999.25    0.19460    0.24170    0.19460 2571.70340    -999.25    -999.25    -999.25 14502.69730 15574.12400 15520.60740
 2950.00000  327.55890    -999.25  308.23610  327.55890  141.70530    0.98840 2584.74630    -999.25    0.03870    0.07320    7.05690    0.98840  258.25870  258.25870  102.21340   86.90240   87.15250   86.90240    7.05690    7.58290    -999.25    -999.25    -999.25    7.58290    -999.25    0.22420    0.26830    0.22420 2584.74630    -999.25    -999.25    -999.25 14691.86520 15815.72660 15752.41310
 3000.00000  329.69280    -999.25  307.46280  329.69280  130.88830   27.33500 2647.98240    -999.25   -0.00100    0.03630    7.64010   27.33500  272.86090  272.86090  111.85870  102.27610  101.18570  102.27610    7.64010    8.16340    -999.25    -999.25    -999.25    8.16340    -999.25    0.24160    0.28340    0.24160 2647.98240    -999.25    -999.25    -999.25 14886.38180 15972.65920 15953.53810
 3050.00000  327.63810    -999.25  311.39890  327.63810   99.09820   14.17090 2610.41500    -999.25    0.02420    0.05820   10.09100   14.17090  264.35330  264.35330  109.30290   91.34590   92.04430   91.34590   10.09100   10.95620    -999.25    -999.25    -999.25   10.95620    -999.25    0.22790    0.26940    0.22790 2610.41500    -999.25    -999.25    -999.25 15160.64450 16213.50100 16176.14840
 3100.00000  328.86990    -999.25  308.44400  328.86990  114.08750    0.33580 2584.69780    -999.25    0.03940    0.07330    8.76520    0.33580  287.06180  287.06180  111.22960   92.77440   92.96040   92.77440    8.76520    9.46450    -999.25    -999.25    -999.25    9.46450    -999.25    0.26660    0.30970    0.26660 2584.69780    -999.25    -999.25    -999.25 15330.33890 16396.77340 16397.08790
 3150.00000  331.55890    -999.25  307.85280  331.55890  127.57710   10.06980 2634.70650    -999.25    0.00950    0.04400    7.83840   10.06980  262.93810  262.93810   95.72740   75.13380   75.27620   75.13380    7.83840    8.38200    -999.25    -999.25    -999.25    8.38200    -999.25    0.21390    0.25480    0.21390 2634.70650    -999.25    -999.25    -999.25 15545.26170 16595.36330 16613.50200
 3200.00000  329.87360    -999.25  309.55000  329.87360  158.40080   16.59880 2607.71000    -999.25    0.02470    0.05980    6.31310   16.59880  284.00180  284.00180  117.71720  107.47940  107.60630  107.47940    6.31310    6.74050    -999.25    -999.25    -999.25    6.74050    -999.25    0.26360    0.30170    0.26360 2607.71000    -999.25    -999.25    -999.25 15778.31450 16795.72850 16830.36910
 3250.00000  326.84210    -999.25  307.85950  326.84210  110.46920    8.70760 2643.41870    -999.25    0.00470    0.03890    9.05230    8.70760  243.13170  243.13170  132.48100  105.41880  106.50800  105.41880    9.05230   10.10980    -999.25    -999.25    -999.25   10.10980    -999.25    0.16330    0.20680    0.16330 2643.41870    -999.25    -999.25    -999.25 15863.64750 16939.29490 16941.50390
 3300.00000  325.40160    -999.25  317.66500  325.40160  239.54960    9.82790 2588.21310    -999.25    0.03790    0.07120    4.17450    9.82790  282.24510  282.24510  125.04330   84.39230   84.53940   84.39230    4.17450    4.54850    -999.25    -999.25    -999.25    4.54850    -999.25    0.30600    0.33870    0.30600 2588.21310    -999.25    -999.25    -999.25 16179.99020 17234.91210 17314.14650
 3350.00000  305.61570   71.61530  276.47870  305.61570   94.62710    4.06070 2610.11670    -999.25    0.02260    0.05840   10.56780    4.06070  237.87190  237.87190   45.95150   51.94860   49.69460   51.94860    -999.25    -999.25  262.75870   10.56780    8.70040    -999.25    0.48920    -999.25    0.18010    0.14010 2610.11670  -40.11660  -13.76260    8.70040 17418.31450    -999.25 16424.02730
 3400.00000  399.67080  320.77570  234.15230  399.67080   43.65690   29.54670 2631.24680    -999.25    0.01080    0.04610   22.90590   29.54670  220.31030  220.31030   54.13350   55.90800   49.07900   55.90800    -999.25    -999.25  183.60120   22.90590   17.64820    -999.25    1.10690    -999.25    0.14950    0.10950 2631.24680  -49.01260  -19.75610   17.64820 18583.26950    -999.25 16861.68550
