~Version ---------------------------------------------------
VERS.      2.0 : CWLS log ASCII Standard -VERSION 2.0
WRAP.       NO : One line per depth step
CREA. 11/17/17 : LAS Creation Date
~Well ------------------------------------------------------
STRT.FT                                1400.0 : START DEPTH
STOP.FT                               13450.0 : STOP DEPTH
STEP.FT                              50.00000 : STEP LENGTH
NULL.                                 -999.25 : NULL VALUE
COMP. SUPERTEST PETROLEUM CORPORATION LIMITED : COMPANY
WELL.    SUPTST ALMINEX MED FERRIERW 8-9-39-9 : WELL
FLD .                                         : FIELD
LOC .                                         : LOCATION
CTRY.                                  CANADA : COUNTRY
SRVC.                  Schlumberger of Canada : SERVICE COMPANY
DATE.                             01-Oct-1960 : LOGDATE
PROV.                                 Alberta : PROVINCE
UWI .                        100080903909W500 : UNIQUE WELL ID
SLAT.WGS84                           52.33911 : SURFACE LATITUDE
SLON.WGS84                          -115.2267 : SURFACE LONGITUDE
~Curve Information -----------------------------------------
DEPT  .FT         : Depth Curve
CALWS .IN         : CALIPER [MCALED]
CILDED.MMHO       : CONDUCTIVITY FROM RESISTIVITY LOG
CONDWS.MMHO       : CONDUCTIVITY [1000/DRESWS]
DRESWS.OHMM       : DEEP RESISTIVITY [ILDED]
DTED  .US/F       : DELTA-TIME FROM SONIC LOG
DTWS  .US/F       : CPOMPRESSIONAL SONIC [DTED]
GRSED .UgRa-Eq/T  : GAMMA RAY FROM SONIC LOG
GRWS  .GAPI       : GAMMA RAY [GRSED*16.5]
ILDED .OHMM       : DEEP INDUCTION 40"  RESISTIVITY FROM RESISTIVITY LOG
MCALED.IN         : MICRO CALIPER FROM ML LOG
SNED  .OHMM       : SHORT NORMAL 16"  RESISTIVITY FROM RESISTIVITY LOG
SPRED .MV         : SPONTANEOUS POTENTIAL FROM RESISTIVITY LOG
SPWS  .MV         : SPONTANEOUS POTENTIAL [BASELINE 0 MV, SPRED]
SRESWS.OHMM       : SHALLOW RESISTIVITY [SNED]
~Params ----------------------------------------------------
LMF .                     KB : LOG MEASURED FROM
DMF .                     KB : DRILLING MEASURED FROM
EKB .FT                 3787 : KELLY BUSHING
EGL .FT                 3770 : GROUND LEVEL
DATE.               10/01/60 : RUN DATE
RUN .                      2 : RUN NUMBER
DD  .FT                13500 : DEPTH DRILLER
DL  .FT                13492 : DEPTH LOGGER
BLI .FT                13486 : BOTTOM LOG INTERVAL
TLI .FT                10594 : TOP LOG INTERVAL
BS  .IN                 8.75 : BIT SIZE
BSD .FT                13500 : BIT SIZE AT DEPTH
DFT .              LIME BASE : DRILLING FLUID TYPE
DFD .                    9.6 : DRILLING FLUID DENSITY
DFV .                    194 : DRILLING FLUID VISCOSITY
DFPH.                   13.5 : DRILLING FLUID PH
DFL .                      7 : DRILLING FLUID LOSS
MSS .            CIRCULATION : MUD SAMPLE SOURCE
RMS .OHMM               0.59 : RESISTIVITY MUD SAMPLE
MST .DEGF                 70 : MUD SAMPLE TEMPERATURE
RMF .OHMM               0.43 : RESISTIVITY MUD FILTRATE SAMPLE
MFST.DEGF                 70 : MUD FILTRATE SAMPLE TEMPERATURE
RMC .OHMM               0.91 : RESISTIVITY MUD CAKE
MCST.DEGF                 70 : MUD CAKE SAMPLE TEMPERATURE
RMB .OHMM               0.18 : RESISTIVITY MUD AT BHT
TCS .HRS                   6 : TIME CIRCULATED STOPPED
LUN .                   1575 : LOGGING UNIT NUMBER
LUL .                      C : LOGGING UNIT LOCATION
ENGI.                 YUNKER : RECORDING ENGINEER
CLNT.                A2DTECH : CLIENT CODE
ORIG.            2" 5" PRINT : ORIGIN OF DATA
UWI .       100080903909W500 : UNIQUE WELL ID
DICO. A2D Technologies, Inc. : DIGITIZING COMPANY
~Other -----------------------------------------------------
IE-BCS-ML LOGS RUN
ALL RESISTIVITY DATA FROM SMALL SECTION @ TOP-7980'
~ASCII -----------------------------------------------------
# ...
 8750.00000   10.62670   54.69430   54.40760   18.37980    -999.25    -999.25    -999.25    -999.25   18.37980   10.62670   27.74970  -91.59810   -4.17650   27.74970
 8800.00000   11.86860   51.68330   52.87800   18.91150    -999.25    -999.25    -999.25    -999.25   18.91150   11.86860   28.34120  -92.22030   -4.90270   28.34120
 8850.00000   12.58180   88.15380   89.11230   11.22180    -999.25    -999.25    -999.25    -999.25   11.22180   12.58180   18.68890  -93.08880   -5.87630   18.68890
 8900.00000   11.73230   83.25720   83.01030   12.04670    -999.25    -999.25    -999.25    -999.25   12.04670   11.73230   19.97560  -93.40810   -6.30010   19.97560
 8950.00000   12.16610   60.21300   57.75010   17.31600    -999.25    -999.25    -999.25    -999.25   17.31600   12.16610   26.66960  -92.99600   -5.99250   26.66960
 9000.00000   13.64060   80.05680   81.61730   12.25230    -999.25    -999.25    -999.25    -999.25   12.25230   13.64060   18.94690  -93.43470   -6.53570   18.94690
 9050.00000   14.32780  103.84380  106.01710    9.43250    -999.25    -999.25    -999.25    -999.25    9.43250   14.32780   14.64880  -92.73700   -5.94190   14.64880
 9100.00000   15.11200  101.54540  102.13360    9.79110    -999.25    -999.25    -999.25    -999.25    9.79110   15.11200   14.33010  -92.10140   -5.41140   14.33010
 9150.00000   10.31040   78.49440   73.71590   13.56560    -999.25    -999.25    -999.25    -999.25   13.56560   10.31040   22.25300  -91.69380   -5.10830   22.25300
 9200.00000   15.40960  209.58040  195.46900    5.11590    -999.25    -999.25    -999.25    -999.25    5.11590   15.40960    7.66270  -92.10620   -5.62530    7.66270
 9250.00000   12.23310  257.63710  247.47570    4.04080    -999.25    -999.25    -999.25    -999.25    4.04080   12.23310    6.29480  -92.33650   -5.96010    6.29480
 9300.00000    9.77310   82.17280   81.74820   12.23270   68.08760   68.08760    5.66290   93.43780   12.23270    9.77310   18.16540  -89.86910   -3.59660   18.16540
 9350.00000   10.28050  102.64160  107.89000    9.26870   74.66460   74.66460    5.40870   89.24350    9.26870   10.28050   13.63360  -89.21370   -3.04630   13.63360
 9400.00000    9.00970   58.18100   54.87180   18.22430   63.89260   63.89260    4.54690   75.02380   18.22430    9.00970   27.78910  -93.29380   -7.93620   27.78910
 9450.00000    9.38020   89.63010   85.62010   11.67950   72.03640   72.03640    4.75200   78.40800   11.67950    9.38020   19.62760  -88.63720   -4.44680   19.62760
 9500.00000    9.43740   78.36260   70.46420   14.19160   79.20940   79.20940    5.54320   91.46280   14.19160    9.43740   25.21410  -89.53370   -6.51050   25.21410
 9550.00000   10.02200   68.09790   70.15100   14.25640   68.09260   68.09260    4.87580   80.45150   14.25640   10.02200   20.29650  -87.39090   -5.52900   20.29650
 9600.00000    9.28330   53.44570   58.03530   17.23090   60.98070   60.98070    4.29330   70.83940   17.23090    9.28330   25.42470  -89.24310   -8.55430   25.42470
 9650.00000   10.70460   68.28290   65.94960   15.16310   75.12020   75.12020    5.73710   94.66210   15.16310   10.70460   29.05710  -88.21220   -8.69050   29.05710
 9700.00000    9.57990   77.56800   76.99710   12.98750   63.32880   63.32880    3.64990   60.22340   12.98750    9.57990   19.02110  -95.50690  -17.15240   19.02110
 9750.00000    9.62250   51.98540   50.50580   19.79970   63.39540   63.39540    5.12420   84.54930   19.79970    9.62250   33.72500  -89.24740  -12.06010   33.72500
 9800.00000    9.05270   58.74800   57.66870   17.34050   62.82320   62.82320    3.50310   57.80200   17.34050    9.05270   23.97470  -93.97870  -17.95270   23.97470
 9850.00000    9.09030   45.65660   46.15400   21.66660   60.86910   60.86910    3.79370   62.59600   21.66660    9.09030   32.25200  -90.70190  -15.84900   32.25200
 9900.00000    9.06180   23.55090   26.45830   37.79530   65.87860   65.87860    4.71290   77.76290   37.79530    9.06180   62.17180  -82.08710   -8.40140   62.17180
 9950.00000   10.17780   66.58750   64.11940   15.59590   77.35560   77.35560    5.35700   88.39050   15.59590   10.17780   29.18390  -83.29730  -11.29800   29.18390
 10000.00000    8.93320   14.02900   14.03130   71.26940   57.78890   57.78890    2.54650   42.01720   71.26940    8.93320   96.46540  -89.42330  -19.58980   96.46540
 10050.00000    9.15090   35.55470   36.76050   27.20320   66.23140   66.23140    5.44720   89.87880   27.20320    9.15090   50.13260  -83.56370  -15.88520   50.13260
 10100.00000    9.14650   44.68180   46.51360   21.49910   67.03730   67.03730    5.30290   87.49790   21.49910    9.14650   36.67260  -84.59320  -19.09130   36.67260
 10150.00000    9.85800   42.39850   42.18020   23.70780   69.37510   69.37510    5.22710   86.24720   23.70780    9.85800   39.76150  -80.40090  -17.06480   39.76150
 10200.00000    9.63180  131.42500  131.89830    7.58160   76.43300   76.43300    5.33750   88.06880    7.58160    9.63180   14.54550  -73.36620  -12.19590   14.54550
 10250.00000    9.47610   64.27820   66.81450   14.96680   61.34350   61.34350    4.12280   68.02620   14.96680    9.47610   24.55810  -67.74750   -8.74290   24.55810
 10300.00000    8.88390    8.58500    7.76860  128.80610   55.20300   55.20300    1.23330   20.34860  128.80610    8.88390  335.76160  -80.80710  -23.72520  335.76160
 10350.00000    8.80600   10.89540    9.91980  100.80860   53.72720   53.72720    1.49940   24.74010  100.80860    8.80600  198.46210 -118.33440  -63.01580  198.46210
 10400.00000    8.98470   12.29190   11.96080   83.60630   49.94040   49.94040    0.83960   13.85340   83.60630    8.98470  149.94110 -138.18990  -84.62590  149.94110
 10450.00000    8.99200    8.36330    8.56830  116.70930   51.75780   51.75780    2.38180   39.29970  116.70930    8.99200  162.26190  -91.47940  -39.67000  162.26190
 10500.00000    8.95130   12.03520   11.68830   85.55560   50.42270   50.42270    3.81240   62.90460   85.55560    8.95130  176.58870  -62.96550  -12.91070  176.58870
 10550.00000    8.93430   13.01040   12.23870   81.73100   50.73680   50.73680    3.85120   63.54400   81.73100    8.93430  153.14720  -96.29150  -47.87140  153.14720
 10600.00000    -999.25  142.38800  125.90490    7.94250   60.15080   60.15080    0.84090   13.87490    7.94250    -999.25   17.87090 -175.42560 -127.87630   17.87090
 10650.00000    -999.25    6.43180    4.36610  229.03630   48.05320   48.05320    0.77520   12.79080  229.03630    -999.25   41.70400 -149.19620 -102.51340   41.70400
 10700.00000    -999.25   41.59880   36.89750   27.10210   56.93030   56.93030    3.79310   62.58610   27.10210    -999.25   17.60400 -112.77230  -66.95590   17.60400
 10750.00000    -999.25    4.70060    3.64750  274.16410   47.37890   47.37890    1.25400   20.69100  274.16410    -999.25   48.08510 -117.15160  -72.20160   48.08510
 10800.00000    -999.25   17.57770   16.70810   59.86130   49.52090   49.52090    1.64590   27.15730   59.86130    -999.25   37.50790 -115.82230  -71.73450   37.50790
 10850.00000    -999.25   20.27340   16.59180   60.27090   52.94370   52.94370    2.74290   45.25790   60.27090    -999.25   28.64290  -95.75680  -52.53970   28.64290
 10900.00000    -999.25   18.06140   15.29770   65.36940   51.35200   51.35200    2.11540   34.90410   65.36940    -999.25   32.85610 -102.73090  -60.38030   32.85610
 10950.00000    -999.25   11.64440    9.95580  100.44430   51.16240   51.16240    1.85340   30.58110  100.44430    -999.25   33.86600 -100.67940  -59.19520   33.86600
 11000.00000    -999.25   16.69920   14.75430   67.77690   51.99110   51.99110    2.46280   40.63620   67.77690    -999.25   28.35870  -81.09450  -40.47680   28.35870
 11050.00000    -999.25   15.81750   13.66910   73.17420   53.24010   53.24010    2.77690   45.81800   73.17420    -999.25   28.56280  -83.02530  -43.26960   28.56280
 11100.00000    -999.25   16.27020   14.68660   68.08920   52.94310   52.94310    2.60970   43.06010   68.08920    -999.25   27.18840  -90.03490  -51.15010   27.18840
 11150.00000    -999.25   16.01870   13.74690   72.74350   54.72790   54.72790    2.74880   45.35520   72.74350    -999.25   30.06600  -92.19460  -54.17620   30.06600
