~Version ---------------------------------------------------
VERS.      2.0 : CWLS log ASCII Standard -VERSION 2.0
WRAP.       NO : One line per depth step
CREA. 10/25/17 : LAS Creation Date
~Well ------------------------------------------------------
STRT.FT                             1050.0 : START DEPTH
STOP.FT                            10000.0 : STOP DEPTH
STEP.FT                           50.00000 : STEP LENGTH
NULL.                              -999.25 : NULL VALUE
COMP.               FRONTIER PRODUCING INC : COMPANY
WELL. FRONT HUBER B.A. EAGLE T 12-28-63-16 : WELL
FLD .                                   WC : FIELD
LOC .                                      : LOCATION
CTRY.                               CANADA : COUNTRY
SRVC.                           Lane Wells : SERVICE COMPANY
DATE.                          16-Feb-1966 : LOGDATE
PROV.                              Alberta : PROVINCE
UWI .                     100122806316W500 : UNIQUE WELL ID
SLAT.WGS84                        54.48142 : SURFACE LATITUDE
SLON.WGS84                       -116.3666 : SURFACE LONGITUDE
~Curve Information -----------------------------------------
DEPT  .FT    : Depth Curve
ACED  .US/F  : ACOUSTIC FROM SONIC LOG [ADJ TO ILED]
CALWS .IN    : CALIPER [MCALED]
CILED .MMHO  : DEEP INDUCTION CONDUCTIVITY FROM IEL LOG
CONDWS.MMHO  : CONDUCTIVITY [1000/DRESWS]
DRESWS.OHMM  : DEEP RESISTIVITY [1000/CILDED IF ILDED <4, ILDED]
DTWS  .US/F  : COMPRESSIONAL SONIC [ACED]
GRSED .GAPI  : GAMMA RAY FROM SONIC LOG [ADJ TO ILED]
GRWS  .GAPI  : GAMMA RAY [GRSED]
ILED  .OHMM  : DEEP INDUCTION FROM IEL LOG
MCALED.IN    : MLT CALIPER FROM ML LOG
MINVED.OHMM  : MICRO INVERSE RESISTIVITY FROM ML LOG
MNORED.OHMM  : MICRO NORMAL RESISTIVITY FROM ML LOG
SNED  .OHMM  : SHORT NORMAL 10" FROM IEL LOG
SPRED .MV    : SPONTANEOUS POTENTIAL FROM IEL LOG
SPWS  .MV    : SPONTANEOUS POTENTIAL [BASELINE 0 MV, SPRED]
SRESWS.OHMM  : SHALLOW RESISTIVITY [SNED]
~Params ----------------------------------------------------
PD  .                     GL : PERMANENT DATUM
EPD .FT                 3184 : ELEVATION PERMANENT DATUM
LMF .                     KB : LOG MEASURED FROM
DAPD.FT                   14 : FEET ABOVE PERMANENT DATUM
DMF .                     KB : DRILLING MEASURED FROM
EKB .FT                 3198 : KELLY BUSHING
EGL .FT                 3184 : GROUND LEVEL
DATE.               02/16/66 : RUN DATE
RUN .                      1 : RUN NUMBER
DD  .FT                10035 : DEPTH DRILLER
DL  .FT                10036 : DEPTH LOGGER
BLI .FT                10032 : BOTTOM LOG INTERVAL
TLI .FT                 1022 : TOP LOG INTERVAL
CS  .IN                8.625 : CASING SIZE
CBD .FT                 1023 : CASING BOTTOM DRILLER
CBL .FT                 1022 : CASING BOTTOM LOGGER
BS  .IN                7.875 : BIT SIZE
BSD .FT                10035 : BIT SIZE AT DEPTH
DFT .                MUD GEL : DRILLING FLUID TYPE
DFD .                   10.2 : DRILLING FLUID DENSITY
DFV .                    114 : DRILLING FLUID VISCOSITY
DFPH.                   10.5 : DRILLING FLUID PH
DFL .                    4.8 : DRILLING FLUID LOSS
MSS .                   CIRC : MUD SAMPLE SOURCE
RMS .OHMM                2.9 : RESISTIVITY MUD SAMPLE
MST .DEGF                 71 : MUD SAMPLE TEMPERATURE
RMF .OHMM                1.6 : RESISTIVITY MUD FILTRATE SAMPLE
MFST.DEGF                 74 : MUD FILTRATE SAMPLE TEMPERATURE
RMC .OHMM                2.4 : RESISTIVITY MUD CAKE
MCST.DEGF                 74 : MUD CAKE SAMPLE TEMPERATURE
MFSS.                   MEAS : MUD FILTRATE SAMPLE SOURCE
MCSS.                   MEAS : MUD CAKE SAMPLE SOURCE
RMB .OHMM                1.2 : RESISTIVITY MUD AT BHT
TCS .HRS                 3.5 : TIME CIRCULATED STOPPED
LUN .                   8038 : LOGGING UNIT NUMBER
LUL .                     SL : LOGGING UNIT LOCATION
ENGI.                 WOOLAM : RECORDING ENGINEER
WITN.                HESKETH : WITNESSED BY
CLNT.                A2DTECH : CLIENT CODE
ORIG.            2" 5" PRINT : ORIGIN OF DATA
UWI .       100122806316W500 : UNIQUE WELL ID
DICO. A2D Technologies, Inc. : DIGITIZING COMPANY
~Other -----------------------------------------------------
~ASCII -----------------------------------------------------
# ...
 3200.00000   88.41820   10.00940  150.84070  144.68430    6.91160   88.41820   58.79380   58.79380    6.91160   10.00940    -999.25    -999.25    8.06330  -59.33240   -9.75720    8.06330
 3250.00000   99.43290   14.14590  248.67840  248.67840    4.02130   99.43290   66.01100   66.01100    3.92320   14.14590    -999.25    -999.25    4.40330  -65.36720  -13.46510    4.40330
 3300.00000   99.13960   13.29830  238.24910  219.74670    4.55080   99.13960   69.68310   69.68310    4.55080   13.29830    -999.25    -999.25    3.95550  -67.58980  -13.37260    3.95550
 3350.00000   78.54360   15.19720  149.93230  143.77110    6.95550   78.54360   78.09480   78.09480    6.95550   15.19720    -999.25    -999.25    6.30110  -69.27740  -12.72160    6.30110
 3400.00000   83.98310   16.02140  138.47720  130.06110    7.68870   83.98310   89.33260   89.33260    7.68870   16.02140    -999.25    -999.25    7.03300  -69.82530  -10.95430    7.03300
 3450.00000  119.10090   15.97090  165.75450  155.44610    6.43310  119.10090   83.29280   83.29280    6.43310   15.97090    -999.25    -999.25    5.89780  -69.25440   -8.04490    5.89780
 3500.00000  104.05560   13.30580  125.17520  128.09510    7.80670  104.05560  134.15000  134.15000    7.80670   13.30580    -999.25    -999.25    9.28450  -67.36630   -3.71050    9.28450
 3550.00000   95.43640   10.72540  118.34110  118.60790    8.43110   95.43640  130.16110  130.16110    8.43110   10.72540    -999.25    -999.25    9.57240  -67.05630   -3.42260    9.57240
 3600.00000  102.45870   13.67460  138.88090  139.29520    7.17900  102.45870  101.09660  101.09660    7.17900   13.67460    -999.25    -999.25    7.66260  -66.60300   -3.27360    7.66260
 3650.00000   92.87130   11.44650  162.39250  164.05850    6.09540   92.87130   97.43930   97.43930    6.09540   11.44650    -999.25    -999.25    6.49600  -68.75280   -5.72320    6.49600
 3700.00000   88.25680   14.51320  149.10800  144.56930    6.91710   88.25680   94.68320   94.68320    6.91710   14.51320    -999.25    -999.25    6.54700  -68.61030   -5.88500    6.54700
 3750.00000   90.25210   13.23980  161.90920  152.47620    6.55840   90.25210   97.31540   97.31540    6.55840   13.23980    -999.25    -999.25    6.15770  -69.66580   -7.24400    6.15770
 3800.00000   78.62270   13.08090  140.04920  142.26430    7.02960   78.62270   94.93100   94.93100    7.02960   13.08090    -999.25    -999.25    7.46690  -67.91900   -5.79690    7.46690
 3850.00000   81.47540   12.78250  164.38690  170.16640    5.87660   81.47540  122.34950  122.34950    5.87660   12.78250    -999.25    -999.25    6.45290  -66.63550   -5.26030    6.45290
 3900.00000   99.31920   13.26900  149.67510  143.80110    6.95400   99.31920  147.54980  147.54980    6.95400   13.26900    -999.25    -999.25    6.44550  -66.16830   -5.34190    6.44550
 3950.00000   99.98400   14.47520  141.06090  140.04430    7.14060   99.98400  141.43710  141.43710    7.14060   14.47520    -999.25    -999.25    6.41180  -62.97450   -2.70070    6.41180
 4000.00000   86.09870   10.79620  156.06160  149.81720    6.67480   86.09870  140.70030  140.70030    6.67480   10.79620    -999.25    -999.25    5.99370  -63.94400   -4.21910    5.99370
 4050.00000   82.70030   15.81920  115.26380  116.94160    8.55190   82.70030  144.14780  144.14780    8.55190   15.81920    -999.25    -999.25    7.61280  -63.35200   -4.17600    7.61280
 4100.00000  100.56380   14.76010  133.43780  131.78010    7.58840  100.56380  133.69180  133.69180    7.58840   14.76010    -999.25    -999.25    6.96400  -61.51850   -2.89500    6.96400
 4150.00000  103.62810   14.56970  130.25520  130.87560    7.64080  103.62810  143.29960  143.29960    7.64080   14.56970    -999.25    -999.25    7.15060  -61.26510   -3.19040    7.15060
 4200.00000   80.10510   14.91570  160.79460  160.65030    6.22470   80.10510  149.20430  149.20430    6.22470   14.91570    -999.25    -999.25    6.89160  -60.69220   -3.17010    6.89160
 4250.00000   86.05840   13.27200  178.58530  178.09120    5.61510   86.05840  149.33520  149.33520    5.61510   13.27200    -999.25    -999.25    6.50060  -60.30650   -3.33320    6.50060
 4300.00000   99.43970   12.48770  134.42830  134.69840    7.42400   99.43970  159.74750  159.74750    7.42400   12.48770    -999.25    -999.25    8.86280  -60.20990   -3.78550    8.86280
 4350.00000   92.35040   13.99250  143.81830  147.45130    6.78190   92.35040  153.23450  153.23450    6.78190   13.99250    -999.25    -999.25    8.34580  -60.30450   -4.10070    8.34580
 4400.00000  100.22030   11.22510  129.78750  128.78230    7.76510  100.22030  184.47970  184.47970    7.76510   11.22510    -999.25    -999.25   10.41840  -59.86940   -3.54180   10.41840
 4450.00000  100.84040    9.92290  120.70620  120.23710    8.31690  100.84040  170.64850  170.64850    8.31690    9.92290    4.17170    1.83520   12.41930  -61.36320   -4.91100   12.41930
 4500.00000  106.88540   13.11340  166.26550  166.25100    6.01500  106.88540  147.95860  147.95860    6.01500   13.11340    1.82880    2.41850    7.47430  -56.53550    0.04050    7.47430
 4550.00000   82.78300   14.37200  167.99640  167.99150    5.95270   82.78300  136.00340  136.00340    5.95270   14.37200    1.51730    2.15800    6.29330  -58.73220   -2.13550    6.29330
 4600.00000   75.22040   12.62030  198.39830  194.02030    5.15410   75.22040  141.47860  141.47860    5.15410   12.62030    1.52300    2.09130    6.13710  -55.79750   -0.96130    6.13710
 4650.00000   79.41180   10.16800  153.81790  151.43690    6.60390   79.41180  143.20450  143.20450    6.60390   10.16800    3.12040    2.83540    7.87660  -56.98220   -3.88850    7.87660
 4700.00000   78.96640   10.66750  157.32230  152.57860    6.55400   78.96640  149.55450  149.55450    6.55400   10.66750    3.07050    3.40320    7.49290  -55.46620   -4.13310    7.49290
 4750.00000   83.90290   10.41050  122.64680  122.69040    8.15060   83.90290  146.69400  146.69400    8.15060   10.41050    4.64230    3.77290    9.90590  -56.67910   -7.19320    9.90590
 4800.00000   89.65100   11.35910  178.94530  178.95370    5.58810   89.65100  179.36650  179.36650    5.58810   11.35910    2.79770    3.02940    6.58540  -54.81300   -7.19340    6.58540
 4850.00000   90.24140   14.06550  210.52870  210.65940    4.74700   90.24140  159.45510  159.45510    4.74700   14.06550    2.23360    2.02020    5.56220  -52.42100   -6.68660    5.56220
 4900.00000  120.66630   12.55000  386.88910  386.88910    2.58480  120.66630  139.37910  139.37910    3.13420   12.55000    1.70260    1.68310    3.56360  -50.76810   -6.90000    3.56360
 4950.00000   95.58340   11.84390  359.82680  359.82680    2.77910   95.58340  131.60340  131.60340    2.78450   11.84390    1.77280    1.89120    3.47080  -50.18810   -8.20510    3.47080
 5000.00000   84.16790   11.60370  250.04430  240.84780    4.15200   84.16790  141.65180  141.65180    4.15200   11.60370    1.41080    1.87190    4.70340  -48.64140   -7.37790    4.70340
 5050.00000   89.06820   15.02980  253.47120  238.03120    4.20140   89.06820  124.47000  124.47000    4.20140   15.02980    2.21830    2.12630    4.70280  -51.21320   -7.02240    4.70280
 5100.00000   93.03760   15.74990  221.71750  221.10690    4.52270   93.03760  125.42500  125.42500    4.52270   15.74990    1.57990    1.99970    5.13890  -50.23610   -3.08850    5.13890
 5150.00000   72.95950    9.44160  103.32540  101.77700    9.82550   72.95950   99.78980   99.78980    9.82550    9.44160    5.19940    6.06210   14.55180  -77.81740  -30.83510   14.55180
 5200.00000  181.00560   14.77520  305.98990  305.98990    3.26810  181.00560   74.10530   74.10530    3.59480   14.77520    1.92840    2.16890    4.76870  -49.84990   -3.64920    4.76870
 5250.00000   78.94770   11.07370  102.92400  102.93250    9.71510   78.94770  123.84610  123.84610    9.71510   11.07370    6.10410    4.86420   14.43780  -63.36650  -17.94320   14.43780
 5300.00000   73.56810   10.58920  101.04960  101.02320    9.89890   73.56810  113.80490  113.80490    9.89890   10.58920   10.09100    8.29330   15.34170  -60.38600  -15.73730   15.34170
