~Version ---------------------------------------------------
VERS.      2.0 : CWLS log ASCII Standard -VERSION 2.0
WRAP.       NO : One line per depth step
CREA. 09/27/17 : LAS Creation Date
~Well ------------------------------------------------------
STRT.FT                    300.0 : START DEPTH
STOP.FT                  13950.0 : STOP DEPTH
STEP.FT                 50.00000 : STEP LENGTH
NULL.                    -999.25 : NULL VALUE
COMP.   PENN WEST PETROLEUM LTD. : COMPANY
WELL. CONOCO WEB PECO 6-26-47-15 : WELL
FLD .                       PECO : FIELD
LOC .                            : LOCATION
CTRY.                     CANADA : COUNTRY
SRVC.     Schlumberger of Canada : SERVICE COMPANY
DATE.                03-May-1960 : LOGDATE
PROV.                    Alberta : PROVINCE
UWI .           100062604715W500 : UNIQUE WELL ID
SLAT.WGS84         53.0817985535 : SURFACE LATITUDE
SLON.WGS84       -116.0888900757 : SURFACE LONGITUDE
~Curve Information -----------------------------------------
DEPT  .FT         : Depth Curve
CALMED.IN         : CALIPER FROM MICRO LOG [ADJ. TO EL LOG]
CALWS .IN         : CALIPER [MCALED SPL. TO CALMED @ 9383']
CILDED.MMHO       : CONDUCTIVITY FROM IL LOG
CONDWS.MMHO       : CONDUCTIVITY [1000/DRESWS]
DRESWS.OHMM       : DEEP RESISTIVITY [LNED]
DT1ED .US/F       : DELTA-T 1 FEET SPACING FROM SONIC LOG [ADJ. TO EL LOG/DTED]
DTED  .US/F       : DELTA-T 3 FEET SPACING FROM SONIC LOG [ADJ. TO EL LOG]
DTWS  .US/F       : COMPRESSIONAL SONIC [DTED]
GRSED .UgRa-Eq/T  : GAMMA RAY FROM SONIC LOG [ADJ. TO EL LOG]
GRWS  .GAPI       : GAMMA RAY [GRSED*16.50, GRWS (CSG+15) @ 9354'-9407']
ILDED .OHMM       : DEEP INDUCTION FROM IL LOG
LNED  .OHMM       : LONG NORMAL FROM EL LOG
LT18ED.OHMM       : LATERAL 18 FROM EL LOG
MCALED.IN         : CALIPER FROM MICRO LOG [ADJ. TO EL LOG]
MLLED .OHMM       : CALIPER FROM MICRO LOG [ADJ. TO EL LOG]
SNED  .OHMM       : SHORT NORMAL FROM EL LOG
SPR1ED.MV         : SPONTANEOUS POTENTIAL FROM IL LOG
SPRED .MV         : SPONTANEOUS POTENTIAL FROM EL LOG
SPWS  .MV         : SPONTANEOUS POTENTIAL [SPRED SPL. TO SPR1ED @ 9383', BASELINE 0 MV]
SRESWS.OHMM       : SHALLOW RESISTIVITY [SNED]
~Params ----------------------------------------------------
PD  .                    GND : PERMANENT DATUM
LMF .                    GND : LOG MEASURED FROM
DMF .                    GND : DRILLING MEASURED FROM
EGL .FT                 3857 : GROUND LEVEL
DATE.               05/03/60 : RUN DATE
RUN .                      2 : RUN NUMBER
DD  .FT                13975 : DEPTH DRILLER
DL  .FT                13965 : DEPTH LOGGER
BLI .FT                13960 : BOTTOM LOG INTERVAL
TLI .FT                 9389 : TOP LOG INTERVAL
CBD .FT                 9386 : CASING BOTTOM DRILLER
CBL .FT                 9389 : CASING BOTTOM LOGGER
BS  .IN                8.875 : BIT SIZE
BSD .FT                13975 : BIT SIZE AT DEPTH
DFT .                   LIME : DRILLING FLUID TYPE
DFD .                     10 : DRILLING FLUID DENSITY
DFV .                     96 : DRILLING FLUID VISCOSITY
DFPH.                     13 : DRILLING FLUID PH
RMS .OHMM               0.69 : RESISTIVITY MUD SAMPLE
MST .DEGF                 58 : MUD SAMPLE TEMPERATURE
RMF .OHMM                0.4 : RESISTIVITY MUD FILTRATE SAMPLE
MFST.DEGF                 70 : MUD FILTRATE SAMPLE TEMPERATURE
RMC .OHMM                0.7 : RESISTIVITY MUD CAKE
MCST.DEGF                 70 : MUD CAKE SAMPLE TEMPERATURE
RMB .OHMM               0.16 : RESISTIVITY MUD AT BHT
TCS .HRS                   5 : TIME CIRCULATED STOPPED
LUN .               DSU C 72 : LOGGING UNIT NUMBER
ENGI.                  JAMES : RECORDING ENGINEER
WITN.               SHERRIFF : WITNESSED BY
CLNT.                A2DTECH : CLIENT CODE
ORIG.            2" 5" PRINT : ORIGIN OF DATA
UWI .       100062604715W500 : UNIQUE WELL ID
DICO. A2D Technologies, Inc. : DIGITIZING COMPANY
~Other -----------------------------------------------------
TOOL RAN: IL-EL-SONIC-ML-MLL LOG RAN.
EL LOG ARE FROM SMALL SECTION @FR-5350'& 680'0-7600',8200'-8900'
SONIC LOG ARE FROM SMALL SECTION @ FR-5000'& 6800'-7900',8200'-9000'
~ASCII -----------------------------------------------------
# ...
 10800.00000    9.12330    9.12330   30.60100   10.14030   98.63750   52.68370   52.99500   52.99500    0.49670    8.19550   32.82950   98.63750  463.37110    -999.25   41.66300   21.46460 -150.03950    -999.25 -124.20190   21.46460
 10850.00000    8.65740    8.65740   13.64280    6.38950  156.50710   53.17510   52.90470   52.90470    0.59110    9.75310   77.71720  156.50710  618.54220    -999.25   16.73670   31.43480 -144.93810    -999.25 -119.28770   31.43480
 10900.00000    8.78660    8.78660   70.60750   35.41710   28.24950   57.83190   59.75350   59.75350    3.91780   64.64370   14.02790   28.24950   76.70430    -999.25   19.29380   13.25230  -58.65780    -999.25  -33.19340   13.25230
 10950.00000    8.80350    8.80350   85.52880   48.26530   20.71880   59.46900   59.99350   59.99350    2.69820   44.52030   11.64980   20.71880   15.24720    -999.25    7.83930   10.72310  -38.38710    -999.25  -13.10990   10.72310
 11000.00000    8.75790    8.75790   18.61470   10.55460   94.74570   58.56110   58.46800   58.46800    3.95780   65.30370   53.13190   94.74570   86.87690    -999.25   26.85170   32.25030  -51.96340    -999.25  -26.87210   32.25030
 11050.00000    9.69790    9.69790   20.62990   14.58180   68.58320   56.63990   55.79700   55.79700    0.97970   16.16510   46.43460   68.58320  100.38530    -999.25   13.19850   23.64880  -38.73490    -999.25  -13.82960   23.64880
 11100.00000   10.70120   10.70120   17.26410   12.28870   81.37530   54.57120   53.32210   53.32210    2.87060   47.36490   55.00340   81.37530  123.55450    -999.25   36.88600   26.84970  -68.83560    -999.25  -43.18070   26.84970
 11150.00000    9.66780    9.66780   41.90250   11.99690   83.35500   56.41800   56.47050   56.47050    0.70140   11.57310   25.38800   83.35500  117.63140    -999.25    2.75670   22.77280  -60.80080    -999.25  -33.55200   22.77280
 11200.00000    8.92600    8.92600   15.26990    6.92990  144.30290   55.90100   56.06750   56.06750    1.88420   31.08930   73.76020  144.30290  241.80110    -999.25   69.96630   37.31230  -59.84940    -999.25  -30.99610   37.31230
 11250.00000    8.62520    8.62520   18.97970    9.01070  110.97950   57.08610   57.53510   57.53510    2.46820   40.72530   52.20320  110.97950  171.47910    -999.25   43.48270   30.62610  -49.72660    -999.25  -19.27940   30.62610
 11300.00000    8.77970    8.77970   28.72380   18.14850   55.10200   63.61610   60.44630   60.44630    3.69680   60.99720   33.56500   55.10200   87.78790    -999.25   32.58800   20.46050  -38.74390    -999.25   -7.40470   20.46050
 11350.00000    8.77470    8.77470   25.71870   12.32310   81.14840   65.95430   67.15410   67.15410    3.67650   60.66230   43.71860   81.14840   99.51350    -999.25   30.67150   28.71000  -50.36480    -999.25  -19.61290   28.71000
 11400.00000    8.32840    8.32840   12.09820    3.48380  287.09560   50.75930   52.70260   52.70260    4.69860   77.52690   89.99070  287.09560   71.00010    -999.25   45.10510   81.05060 -114.85170    -999.25  -84.68330   81.05060
 11450.00000    9.86440    9.86440    4.62220    2.00630  498.44210   50.68210   51.65890   51.65890    0.79250   13.07630  225.61460  498.44210  511.95070    -999.25    5.07560   57.61510 -101.28460    -999.25  -71.70360   57.61510
 11500.00000   10.52260   10.52260   42.26190    2.99290  334.12150   61.52570   57.84480   57.84480    1.27900   21.10350   32.01050  334.12150  408.75710    -999.25    1.89040   27.29540 -104.08020    -999.25  -75.08270   27.29540
 11550.00000    9.54660    9.54660   11.26140    5.46880  182.85990   48.10050   48.15040   48.15040    0.69990   11.54830   88.99520  182.85990  321.58580    -999.25    8.79360   31.29670 -127.81750    -999.25  -99.40350   31.29670
 11600.00000   12.00990   12.00990   43.04240    4.03680  247.71840   53.71360   50.80230   50.80230    0.93830   15.48200   25.22060  247.71840  159.15700    -999.25    8.14260   39.11540 -144.51830    -999.25 -116.69160   39.11540
 11650.00000   11.18780   11.18780   32.32540    4.33890  230.47420   51.47870   51.27850   51.27850    0.55920    9.22680   30.53000  230.47420  140.07820    -999.25    2.01530   43.05620 -113.56910    -999.25  -86.32590   43.05620
 11700.00000    8.12100    8.12100   17.70610    4.03800  247.64560   52.62520   52.15130   52.15130    0.65260   10.76790   61.98070  247.64560  266.21490    -999.25    4.42150   33.12440  -93.48760    -999.25  -66.83180   33.12440
 11750.00000   11.93910   11.93910   11.08500    5.20360  192.17510   55.59800   56.32480   56.32480    0.56100    9.25650   60.72800  192.17510  164.80040    -999.25    8.09150   35.70060  -92.17050    -999.25  -66.09820   35.70060
 11800.00000   12.24480   12.24480   10.70020    2.93690  340.49000   50.07680   54.05080   54.05080    0.64350   10.61860  103.52400  340.49000  125.66320    -999.25    6.57870   21.37520  -96.16690    -999.25  -70.67810   21.37520
 11850.00000   12.16440   12.16440   16.89990    4.22240  236.82950   60.47810   53.61230   53.61230    0.81630   13.46900   46.42600  236.82950   95.77180    -999.25    4.76390   17.54120  -82.30000    -999.25  -57.39850   17.54120
 11900.00000   10.65350   10.65350    3.87030    3.72150  268.74390   53.34590   51.50110   51.50110    0.82890   13.67600  411.82600  268.74390  232.70400    -999.25    4.33090   44.19890 -122.15920    -999.25  -97.84120   44.19890
 11950.00000   11.17190   11.17190   14.74920    3.00150  333.16430   51.92580   56.69260   56.69260    0.73140   12.06810   64.51700  333.16430  325.35420    -999.25    3.65620   43.96930 -107.79390    -999.25  -84.06330   43.96930
 12000.00000    8.38530    8.38530    6.99870    3.64750  274.16060   53.17630   52.91200   52.91200    0.59070    9.74650  231.49720  274.16060  436.28190    -999.25   44.07300   36.88110 -108.96570    -999.25  -85.81860   36.88110
 12050.00000    8.39090    8.39090    2.26850    3.92680  254.66350   49.66000   50.71360   50.71360    0.83210   13.73050  500.29400  254.66350  319.90020    -999.25  194.19390   44.25280 -120.68590    -999.25  -98.12230   44.25280
 12100.00000   10.41610   10.41610   21.13970    7.14480  139.96180   48.95480   54.48650   54.48650    2.03510   33.57910   46.68080  139.96180  218.23940    -999.25    2.70570   23.42780 -113.59460    -999.25  -91.61830   23.42780
 12150.00000   12.48160   12.48160   37.88970    5.18210  192.98090   53.51140   57.05190   57.05190    1.76590   29.13730   27.20370  192.98090  168.90510    -999.25    2.69460   35.44890 -128.77310    -999.25 -107.38030   35.44890
 12200.00000    9.06160    9.06160   17.43880    5.49140  182.10440   54.52070   55.01360   55.01360    1.21740   20.08710   57.61490  182.10440  347.85810    -999.25    4.36780   27.88880 -100.08890    -999.25  -79.28350   27.88880
 12250.00000    7.99310    7.99310   36.45370   14.21760   70.33530   58.01120   58.89350   58.89350    3.16390   52.20430   28.89860   70.33530  170.89530    -999.25   11.17420   19.25660  -58.42890    -999.25  -38.20700   19.25660
 12300.00000    8.57220    8.57220   62.18910   22.89500   43.68180   65.50480   68.86940   68.86940    5.41770   89.39200   15.56030   43.68180  166.50050    -999.25   91.96900   15.68570  -38.10790    -999.25  -18.46950   15.68570
 12350.00000    9.65420    9.65420   90.84350   45.50290   21.97660   75.08210   76.58590   76.58590    5.36990   88.60340   11.24140   21.97660   25.30130    -999.25   10.48140   11.15730  -29.03850    -999.25   -9.98740   11.15730
 12400.00000    8.35870    8.35870    3.65020    4.75420  210.34550   53.30990   54.09140   54.09140    1.95660   32.28430  208.31420  210.34550  102.57430    -999.25  236.35840   65.98400  -84.44820    -999.25  -65.98060   65.98400
 12450.00000    8.04050    8.04050   19.83110   10.21270   97.91700   57.52360   57.55450   57.55450    2.38510   39.35410   64.76770   97.91700   98.50810    -999.25   53.20950   31.97760  -55.95380    -999.25  -38.07360   31.97760
 12500.00000    9.15610    9.15610   17.54480    7.72700  129.41550   52.46960   53.87110   53.87110    2.90320   47.90280   69.74250  129.41550  184.32700    -999.25   27.51220   34.61910  -59.20250    -999.25  -41.90580   34.61910
