~Version ---------------------------------------------------
VERS. 2.0 : CWLS log ASCII Standard -VERSION 2.0
WRAP.  NO : ONE LINE PER DEPTH STEP
~Well ------------------------------------------------------
STRT.F                      950.0 : START DEPTH
STOP.F                    10050.0 : STOP DEPTH
STEP.F                   50.00000 : STEP LENGTH
NULL.                     -999.25 : NULL VALUE
COMP. SHELL CANADA RESOURCES LTD. : COMPANY
WELL.     ISH MAHASKA 11-32-56-13 : WELL
FLD .                             : FIELD
LOC .                             : LOCATION
CTRY.                      CANADA : COUNTRY
SRVC.                Schlumberger : SERVICE COMPANY
DATE.                 17-Nov-1977 : LOGDATE
PROV.                     Alberta : PROVINCE
UWI .            100113205613W500 : UNIQUE WELL ID
SLAT.WGS84               53.88366 : SURFACE LATITUDE
SLON.WGS84              -115.9002 : SURFACE LONGITUDE
~Curve Information -----------------------------------------
DEPT   .F    0   1   0  0 : 1 MEASURED DEPTH
MLL    .OHMM 20 270 04 00 : MICRO FOCUSED LATEROLOG RESISTIVITY
GRR    .GAPI 11 310 01 00 : GAMMA RAY FROM RESISTIVITY LOG
LLD    .OHMM 11 220 10 00 : LATEROLOG DEEP RESISTIVITY
LLS    .OHMM 11 220 09 00 : LATEROLOG SHALLOW RESISTIVITY
CALD   .IN   45 280 60 00 : CALIPER FROM DENSITY LOG
DRHO   .G/C3 45 356 01 00 : BULK DENSITY CORRECTION
GRD    .GAPI 45 310 01 00 : GAMMA RAY FROM DENSITY LOG
RHOB   .G/C3 45 350 01 00 : BULK DENSITY
DPHI_SS.DEC  45 890 12 00 : DENSITY POROSITY SANDSTONE
NPHI_SS.DEC  42 890 03 00 : NEUTRON POROSITY SANDSTONE
DPHI_LS.DEC  45 890 10 00 : DENSITY POROSITY LIMESTONE
NPHI_LS.DEC  42 890 01 00 : NEUTRON POROSITY LIMESTONE
GRS    .GAPI 60 310 01 00 : GAMMA RAY FROM SONIC LOG
DT     .US/F 60 500 00 00 : DELTA-T (INTERVAL TRANSIT TIME)
CALS   .IN   60 280 50 00 : CALIPER FROM SONIC LOG
~Params ----------------------------------------------------
PD  .                     GL : PERMANENT DATUM
EPD .FT               2734.7 : ELEVATION PERMANENT DATUM
LMF .                     KB : LOG MEASURED FROM
DAPD.FT                   13 : FEET ABOVE PERMANENT DATUM
DMF .                     KB : DRILLING MEASURED FROM
EKB .FT               2747.7 : KELLY BUSHING
EGL .FT               2734.7 : GROUND LEVEL
DATE.               11/17/77 : RUN DATE
RUN .                      1 : RUN NUMBER
DD  .FT                10070 : DEPTH DRILLER
DL  .FT                10075 : DEPTH LOGGER
BLI .FT                10074 : BOTTOM LOG INTERVAL
TLI .FT                 4250 : TOP LOG INTERVAL
CBD .FT                 1066 : CASING BOTTOM DRILLER
BS  .IN                 8.75 : BIT SIZE
BSD .FT                10070 : BIT SIZE AT DEPTH
DFT .                    KCL : DRILLING FLUID TYPE
DFD .                    9.3 : DRILLING FLUID DENSITY
DFV .                     85 : DRILLING FLUID VISCOSITY
DFPH.                   10.5 : DRILLING FLUID PH
RMS .OHMM               0.33 : RESISTIVITY MUD SAMPLE
MST .DEGF                 64 : MUD SAMPLE TEMPERATURE
RMF .OHMM               0.47 : RESISTIVITY MUD FILTRATE SAMPLE
MFST.DEGF                 61 : MUD FILTRATE SAMPLE TEMPERATURE
TCS .HRS                 700 : TIME CIRCULATED STOPPED
LUN .                   7730 : LOGGING UNIT NUMBER
LUL .                    EDM : LOGGING UNIT LOCATION
ENGI.                PERKINS : RECORDING ENGINEER
WITN.                  FUCHS : WITNESSED BY
CLNT.                A2DTECH : CLIENT CODE
ORIG.               5" PRINT : ORIGIN OF DATA
UWI .       100113205613W500 : UNIQUE WELL ID
DICO. A2D Technologies, Inc. : DIGITIZING COMPANY
~Other -----------------------------------------------------
~ASCII -----------------------------------------------------
# ...
 5550.00000   18.10500   88.87300   19.52410   20.40350   10.03700    0.03260   93.08610    2.49670    0.09380    0.19060    -999.25    -999.25   76.59080   71.45350    9.58060
 5600.00000   10.74820   89.14050   10.06950   12.15000   10.25710    0.01470   95.24340    2.46020    0.11400    0.34600    -999.25    -999.25   63.82090   76.96530   10.24780
 5650.00000   13.95480   75.19140   19.66130   14.91790   10.28800    0.08730   67.11600    2.44600    0.12180    0.30230    -999.25    -999.25   91.24270   77.89250   10.40020
 5700.00000    6.42610   47.48360   52.52450   36.19530   12.85050   -0.00550   48.10830    1.40780    0.44990    0.58400    -999.25    -999.25   53.09660   93.04830   10.35930
 5750.00000   14.45610   72.19190   17.52610   16.01400    9.73940    0.00530   80.70800    2.51050    0.07970    0.23470    -999.25    -999.25   71.60650   69.22340    9.74110
 5800.00000   15.06650   67.71540   58.22260   47.67480   11.60050    0.00500   82.92110    2.82320    -999.25    0.59250    -999.25    -999.25   44.87080  120.58710   11.21420
 5850.00000   21.25610  105.11630   20.65340   15.85330    9.80360    0.00210   94.75380    2.57120    0.03700    0.29800    -999.25    -999.25  104.89280   71.09040    9.76990
 5900.00000   17.58830   94.67790   18.86790   15.01720   10.08100    0.01010   96.39380    2.53560    0.05140    0.28550    -999.25    -999.25   90.37970   73.47850   10.12450
 5950.00000   14.48160   53.95720   10.33120   11.23210    9.75010    0.00330   56.76380    2.45380    0.12150    0.19710    -999.25    -999.25   54.96080   69.20000    9.55840
 6000.00000   12.42670   63.47590    9.66670   11.32810   10.05170    0.02400   57.97370    2.49080    0.10450    0.22270    -999.25    -999.25   52.18760   69.81480    9.97450
 6050.00000    7.40860   85.50190    9.62580   12.19230   10.42310    0.00830   85.57990    2.43550    0.11290    0.26070    -999.25    -999.25   76.64750   74.79600   10.57190
 6100.00000   12.81050  105.11250    9.86520   11.22390   10.04730    0.01260   96.52790    2.56090    0.05790    0.27670    -999.25    -999.25   92.55970   76.93190   10.07160
 6150.00000   34.43650   51.45710   28.98660   32.28640    9.53660    0.00940   56.37430    2.48030    0.11260    0.15620    -999.25    -999.25   50.50950   67.92130    9.77570
 6200.00000   15.96800  104.92200   13.94840   17.66770    9.55210    0.00200   95.31600    2.51910    0.07040    0.25800    -999.25    -999.25  101.86090   79.34010    9.63330
 6250.00000   30.92480  111.85960   28.06610   35.34610    9.47410    0.01090   99.50450    2.47470    0.11170    0.24350    -999.25    -999.25  103.17970   73.95860    9.84080
 6300.00000    6.80620   89.66790    6.29330    7.23090   10.35740   -0.01660   77.61240    2.64740    0.01030    0.26700    -999.25    -999.25   95.59820   75.17600   10.43410
 6350.00000   11.30700   93.70840   12.92570   14.60880   11.10720    0.03080  100.45010    2.56590    0.02210    0.28930    -999.25    -999.25   79.98990   73.83690   10.52960
 6400.00000   34.19060   43.92390   36.32530   43.43660    9.21990    0.00440   64.79950    2.41740    0.11450    0.15720    -999.25    -999.25   32.28880   58.30800    9.09250
 6450.00000  219.94470   20.41430  165.22030  196.42180    8.82770    0.01380   22.68040    2.51550    -999.25    -999.25    0.11670    0.03240   21.01070   53.93690    9.03410
 6500.00000 2210.85450   31.99110 8423.41990  726.23080    9.09220    0.01260   31.80050    2.54570    -999.25    -999.25    0.07720    0.01820   29.09170   55.06800    9.11470
 6550.00000 1312.61070   74.62530  871.21910  405.55020    9.08310   -0.00820   76.28380    2.48950    -999.25    -999.25    0.13040    0.14090   67.20500   60.71330    9.35770
 6600.00000   16.50680   67.66880   16.94120   21.61680   10.03390    0.03720   70.53780    2.60810    -999.25    -999.25    0.08710    0.14540    2.30230   54.84530    9.26210
 6650.00000   59.57030   25.07840   40.55520   63.27550    9.10170    0.03590   28.09410    2.52580    -999.25    -999.25    0.13680    0.12380   23.81030   52.19820    9.03640
 6700.00000   12.79870   96.21350   10.31890   13.18750   10.08540   -0.00340   79.26660    2.60080    -999.25    -999.25    0.05440    0.20170   79.39830   61.61650   10.03170
 6750.00000   30.74470   62.45900   17.39900   19.47600    9.46040   -0.00140   78.68210    2.61740    -999.25    -999.25    0.05590    0.12270   52.30160   56.44650    9.36990
 6800.00000   62.08470   39.17280    8.24220    9.33040   10.13050    0.12190   34.95400    2.66040    -999.25    -999.25    0.04730    0.09270   31.98830   57.61660   10.27570
 6850.00000  216.79540   36.67960  114.88000  109.16370    9.39070    0.00480   35.01350    2.60830    -999.25    -999.25    0.05870    0.06390   32.90080   55.34780    9.41150
 6900.00000  296.44290   25.82850  447.35360  405.53150    9.67220    0.00320   40.96280    2.64560    -999.25    -999.25    0.04530    0.06200   17.89710   49.95890    9.76070
 6950.00000  109.25450   26.74540   72.41150   86.19250    9.05800    0.00890   20.42700    2.65950    -999.25    -999.25    0.02170    0.02880   23.29960   51.94780    9.00640
 7000.00000   82.29100   24.54490   82.99330   99.40350    9.56390    0.00450   24.95210    2.68290    -999.25    -999.25    0.01700    0.02140   26.19080   51.37810    9.43370
 7050.00000   71.23250   29.97930   70.28250   76.84350    9.05720   -0.00670   29.85340    2.64920    -999.25    -999.25    0.02250    0.04380   30.22160   52.92700    8.48680
 7100.00000   88.93170   39.39390   63.78850   77.80930    9.10920    0.00210   35.17260    2.65500    -999.25    -999.25    0.01870    0.06230   33.28890   53.62960    9.17890
 7150.00000   89.35300   40.53130   80.80450   88.70580    9.10530   -0.00150   39.87950    2.64860    -999.25    -999.25    0.03230    0.05590   35.28050   54.15690    9.10030
 7200.00000  243.70270   62.30140  145.21890  153.47910    9.16740    0.00400   61.68340    2.65450    -999.25    -999.25    0.02340    0.07040   62.35130   55.90350    9.17830
 7250.00000   30.17760   59.62510   52.61270   44.23470    9.04600    0.00980   60.88030    2.66720    -999.25    -999.25    0.02990    0.09280   39.90570   52.24750    9.14570
 7300.00000  267.00970   33.19130  845.89260  533.95600    9.48550    0.00790   39.85040    2.65320    -999.25    -999.25    0.03580    0.02130   49.55490   50.93380    9.30790
 7350.00000  153.60280   17.81360 1009.70610  393.64780   10.95730    0.13850   19.45130    2.57500    -999.25    -999.25    0.08540    0.01660   22.84310   49.81800    9.70760
 7400.00000   86.18160   18.95690  291.95510  148.77080    9.83740    0.01460   17.90740    2.66220    -999.25    -999.25    0.03830    0.04540   15.02930   48.83190    9.57590
 7450.00000   11.63450   13.98320 1886.96140  178.55020   12.84960    0.17610   16.04270    2.39860    -999.25    -999.25    0.20050    0.03710   16.42350   48.73820   10.01920
 7500.00000   97.25750   16.21190   41.27100   31.72120   10.89100    0.16210   17.59930    2.61720    -999.25    -999.25    0.05600    0.01410   10.55090   53.17580    9.36280
 7550.00000    2.98750   19.84040  263.50990  119.05460   13.40540    0.15050   19.14650    2.40980    -999.25    -999.25    0.17690    0.04060   15.97580   49.15670    9.88320
 7600.00000    6.40950   16.97430 1734.91260  451.94600   11.81780    0.16620   15.52630    2.47400    -999.25    -999.25    0.14560    0.03720   14.34010   48.15930    9.72090
 7650.00000    4.98590   16.76960 3992.28080  272.08080   12.66110    0.23100   17.12350    2.45250    -999.25    -999.25    0.17500    0.03490   13.56890   48.36870    9.52240
 7700.00000    5.43130   18.73080 3288.77250  450.60100   12.54040    0.21400   18.76740    2.35050    -999.25    -999.25    0.18340    0.02350   17.73680   48.33020    9.58840
 7750.00000   10.98740   21.24810  385.34020  301.62450   11.58350    0.21360   19.53330    2.50820    -999.25    -999.25    0.10660    0.01060   18.44060   49.00370    9.50860
 7800.00000    4.10680   13.72060  380.32840  144.63750   13.13370    0.13110   15.65570    2.43910    -999.25    -999.25    0.14670    0.01540   15.18220   49.55510    9.76340
