~Version ---------------------------------------------------
VERS.      2.0 : CWLS log ASCII Standard -VERSION 2.0
WRAP.       NO : One line per depth step
CREA. 09/06/13 : LAS Creation Date
~Well ------------------------------------------------------
STRT.M                           350.0 : START DEPTH
STOP.M                          4000.0 : STOP DEPTH
STEP.M                        50.00000 : STEP LENGTH
NULL.                          -999.25 : NULL VALUE
COMP. CHEVRON CANADA RESOURCES LIMITED : COMPANY
WELL.     CHEVRON SIMONETTE 11-6-64-26 : WELL
FLD .                                  : FIELD
LOC .                                  : LOCATION
CTRY.                           CANADA : COUNTRY
SRVC.                          Unknown : SERVICE COMPANY
DATE.                      18-Feb-1991 : LOGDATE
PROV.                          Alberta : PROVINCE
UWI .                 100110606426W500 : UNIQUE WELL ID
SLAT.WGS84                    54.51141 : SURFACE LATITUDE
SLON.WGS84                   -117.9251 : SURFACE LONGITUDE
~Curve Information -----------------------------------------
DEPT    .M      : DEPTH METER
C1ED    .MM     : CALIPER 1 FROM CNL-LDT LOG [ADJ. TO PISFL LOG]
C2ED    .MM     : CALIPER 2 FROM CNL-LDT LOG [ADJ. TO PISFL LOG]
CALSED  .MM     : CALIPER FROM BCS LOG [ADJ. TO PISFL LOG]
CALWS   .MM     : CALIPER [C1ED]
CONDWS  .MMHO   : CONDUCTIVITY [1000/DRESWS]
DCORWS  .KG/M3  : DENSITY CORRECTION [DRHOED]
DENWS   .KG/M3  : FORMATION BULK DENSITY [RHOBED SPL. TO CALC DPHILSED,M=2710,F=1000,@3678-3704.3M]
DPHILSED.V/V    : DENSITY POROSITY LIMESTONE [M=2710,F=1000] FROM CNL-LDT LOG [ADJ. TO PISFL LOG]
DPHISSED.V/V    : DENSITY POROSITY SANDSTONE [M=2650,F=1000] FROM CNL-LDT LOG [ADJ. TO PISFL LOG]
DPOLSWS .V/V    : DENSITY POROSITY LIMESTONE [CALC FROM DENWS,M=2710,F=1000]
DRESWS  .OHMM   : DEEP RESISTIVITY [IDPHED]
DRHOED  .KG/M3  : BULK DENSITY CORRECTION FROM CNL-LDT LOG [ADJ. TO PISFL LOG]
DT1ED   .US/M   : DELTA-T FROM ARRAY SONIC-STC-VDL LOG
DTCOED  .US/M   : DELTA TIME COMPRESSIONAL FROM ARRAY SONIC-STC-VDL LOG [ADJ. TO PISFL LOG]
DTED    .US/M   : DELTA TIME FROM BCS LOG [ADJ. TO RESISTIVITY LOG]
DTLED   .US/M   : DELTA-T LONG SPACING FROM ARRAY SONIC-STC-VDL LOG [ADJ. TO PISFL LOG]
DTLFED  .US/M   : DELTA TIME LONG SPACING FAR DETECTOR FROM ARRAY SONIC-STC-VDL LOG [ADJ. TO PISFL LOG]
DTLNED  .US/M   : DELTA TIME LONG SPACING NEAR DETECTOR FROM ARRAY SONIC-STC-VDL LOG [ADJ. TO PISFL LOG]
DTSMED  .US/M   : DELTA TIME SHEAR WAVE FROM ARRAY SONIC-STC-VDL LOG [ADJ. TO PISFL LOG]
DTSWS   .US/M   : SHEAR SONIC [DTSMED]
DTWS    .US/M   : COMPRESSIONAL SONIC [DTED SPL @3686.7-3724.5M TO DT1ED]
GRR1ED  .GAPI   : GAMMA RAY FROM DLL LOG [ADJ. TO PISFL LOG]
GRRED   .GAPI   : GAMMA RAY FROM PISFL LOG
GRSED   .GAPI   : GAMMA RAY [GRS SPL. TO GRS_1@3668M] FROM BCS-ARRAY SONIC-STC-VDL LOG [ADJ. TO PISFL LOG]
GRWS    .GAPI   : GAMMA RAY [GRRED SPL. TO GRSED @ 4031M]
HDSED   .MM     : HOLE DIAMETER FROM SONIC LOG [ADJ. TO PISFL LOG]
IDPHED  .OHMM   : DEEP INDUCTION RESISTIVITY FROM PISFL LOG
IMPHED  .OHMM   : MEDIUM INDUCTION RESISTIVITY FROM PISFL LOG
LLDED   .OHMM   : SHALLOW RESISTIVITY FROM DLL LOG [ADJ. TO PISFL LOG]
LLSED   .OHMM   : DEEP RESISTIVITY FROM DLL LOG [ADJ. TO PISFL LOG]
MRESWS  .OHMM   : MEDIUM RESISTIVITY [IMPHED]
NPHILSED.V/V    : NEUTRON POROSITY LIMESTONE FROM CNL-LDT LOG [ADJ. TO PISFL LOG]
NPHISSED.V/V    : NEUTRON POROSITY SANDSTONE FROM CNL-LDT LOG [ADJ. TO PISFL LOG]
NPOLSWS .V/V    : NEUTRON POROSITY LIMESTONE [NPHISSED CONVERTED TO LIMESTONE MATRIX,SPL. TO NPHILSED @2696M]
PEFED   .B/E    : PHOTOELECTRIC FACTOR FROM CNL-LDT LOG [ADJ. TO PISFL LOG]
PEFWS   .B/E    : PHOTOELECTRIC FACTOR [PEFED]
RHOBED  .KG/M3  : BULK DENSITY FROM CNL-LDT LOG [ADJ. TO PISFL LOG]
SFLUED  .OHMM   : SHALLOW FOCUS RESISTIVITY FROM PISFL LOG
SGRDDED .GAPI   : GAMMA RAY COMBINED FROM CNL-LDT LOG [ADJ. TO PISFL LOG]
SPR1ED  .MV     : SPONTANEOUS POTENTIAL  FROM DLL LOG [ADJ. TO PISFL LOG]
SPRED   .MV     : SPONTANEOUS POTENTIAL FROM PISFL LOG
SPWS    .MV     : SPONTANEOUS POTENTIAL [BASELINE 0 MV, SPRED]
SRESWS  .OHMM   : SHALLOW RESISTIVITY [SFLUED]
TENDED  .N      : TENSION FROM CNL-LDT LOG [ADJ. TO PISFL LOG]
TENRED  .N      : TENSION FROM PISFL-DLL LOG
TENSED  .N      : TENSION [TENS SPL. TO TENS_1@3724M] FROM BCS-ARRAY SONIC-STC-VDL LOG [ADJ. TO PISFL LOG]
~Params ----------------------------------------------------
PD  .                         GL : PERMANENT DATUM
EPD .M                     916.7 : ELEVATION PERMANENT DATUM
LMF .                         KB : LOG MEASURED FROM
DAPD.M                       6.7 : FEET ABOVE PERMANENT DATUM
DMF .                         KB : DRILLING MEASURED FROM
EKB .M                     923.4 : KELLY BUSHING
EDF .M                       923 : DRILLING FLOOR
EGL .M                     916.7 : GROUND LEVEL
DATE.                   02/18/91 : RUN DATE
RUN .                          1 : RUN NUMBER
DD  .M                      3725 : DEPTH DRILLER
DL  .M                    3705.6 : DEPTH LOGGER
BLI .M                    3704.8 : BOTTOM LOG INTERVAL
TLI .M                     450.4 : TOP LOG INTERVAL
CS  .MM                    244.5 : CASING SIZE
CBD .M                       451 : CASING BOTTOM DRILLER
CBL .M                     450.4 : CASING BOTTOM LOGGER
BS  .MM                      222 : BIT SIZE
BSD .M                      3725 : BIT SIZE AT DEPTH
DFT .                   GEL CHEM : DRILLING FLUID TYPE
DFD .                       1160 : DRILLING FLUID DENSITY
DFV .                         83 : DRILLING FLUID VISCOSITY
DFPH.                        9.5 : DRILLING FLUID PH
DFL .                          7 : DRILLING FLUID LOSS
MSS .                   MEASURED : MUD SAMPLE SOURCE
RMS .OHMM                   1.54 : RESISTIVITY MUD SAMPLE
MST .DEGC                     20 : MUD SAMPLE TEMPERATURE
RMF .OHMM                   1.15 : RESISTIVITY MUD FILTRATE SAMPLE
MFST.DEGC                     16 : MUD FILTRATE SAMPLE TEMPERATURE
RMC .OHMM                   0.86 : RESISTIVITY MUD CAKE
MCST.DEGC                      9 : MUD CAKE SAMPLE TEMPERATURE
MFSS.                   MEASURED : MUD FILTRATE SAMPLE SOURCE
MCSS.                   MEASURED : MUD CAKE SAMPLE SOURCE
RMB .OHMM                  0.602 : RESISTIVITY MUD AT BHT
TCS .HRS                     400 : TIME CIRCULATED STOPPED
TLAB.HRS                    1638 : TIME LOGGER AT BOTTOM
LUN .                       8204 : LOGGING UNIT NUMBER
LUL .              GRANE PRAIRIE : LOGGING UNIT LOCATION
ENGI.                     HAYDEN : RECORDING ENGINEER
WITN.                      CROWE : WITNESSED BY
CLNT.                    A2DTECH : CLIENT CODE
ORIG. 6.5"/100M 16.5"/100M PRINT : ORIGIN OF DATA
UWI .           100110606426W500 : UNIQUE WELL ID
DICO.     A2D Technologies, Inc. : DIGITIZING COMPANY
~Other -----------------------------------------------------
PI-SFL-DLL-CNL-LDT-STC-VDL-BCS TOOL RUN
~ASCII -----------------------------------------------------
# ...
 2750.00000  318.48590  308.53860  267.07120  318.48590    0.50260   83.64480 2728.10380   -0.00660    -999.25   -0.01060 1989.65520   83.64480    -999.25    -999.25  171.92240    -999.25    -999.25    -999.25    -999.25    -999.25  171.92240    -999.25   14.12480   14.65160   14.12480    -999.25 1989.65520 1864.03540    -999.25    -999.25 1864.03540    0.02330    -999.25    0.02330    4.97950    4.97950 2728.10380 1615.40440   14.53210    -999.25 -260.06390 -236.29570 1615.40440 21345.06450    -999.25 18464.66600
 2800.00000  222.38520  325.89990  235.03290  222.38520   37.28170  -13.36790 2757.35990   -0.02510    -999.25   -0.02770   26.82280  -13.36790    -999.25    -999.25  187.21730    -999.25    -999.25    -999.25    -999.25    -999.25  187.21730    -999.25   34.04290   34.09490   34.04290    -999.25   26.82280   19.40970    -999.25    -999.25   19.40970    0.08820    -999.25    0.08820    3.45360    3.45360 2757.35990   21.68340   34.47470    -999.25  -64.02030  -40.41850   21.68340 21333.45900    -999.25 18372.92970
 2850.00000  226.05830  335.02780  242.10570  226.05830    6.85450   -9.14350 2717.68530    0.00600    -999.25   -0.00450  145.88920   -9.14350    -999.25    -999.25  170.40830    -999.25    -999.25    -999.25    -999.25    -999.25  170.40830    -999.25   30.04740   29.71700   30.04740    -999.25  145.88920 1191.18700    -999.25    -999.25 1191.18700    0.03120    -999.25    0.03120    4.81660    4.81660 2717.68530  369.56340   32.91380    -999.25 -114.53730  -91.10180  369.56340 21903.57030    -999.25 18347.93360
 2900.00000  242.40900  264.95350  275.27400  242.40900   48.31520   91.30080 2445.65670    0.15420    -999.25    0.15460   20.69740   91.30080    -999.25    -999.25  155.59610    -999.25    -999.25    -999.25    -999.25    -999.25  155.59610    -999.25   14.05050   13.70640   14.05050    -999.25   20.69740   24.41910    -999.25    -999.25   24.41910    0.09510    -999.25    0.09510    6.60780    6.60780 2445.65670   80.34270   14.92060    -999.25 -117.09040  -93.82130   80.34270 22348.18160    -999.25 18952.37700
 2950.00000  348.52260  249.70650  260.26720  348.52260   50.62090  100.19110 2309.80440    0.22630    -999.25    0.23400   19.75470  100.19110    -999.25    -999.25  174.10010    -999.25    -999.25    -999.25    -999.25    -999.25  174.10010    -999.25   10.29890   11.08130   10.29890    -999.25   19.75470   87.49200    -999.25    -999.25   87.49200    0.01690    -999.25    0.01690    8.69490    8.69490 2309.80440  562.45860   12.55420    -999.25 -178.96600 -155.86330  562.45860 22085.95510    -999.25 19018.61910
 3000.00000  284.26700  256.62760  256.73460  284.26700   64.87730  239.98780 2588.56450    0.07770    -999.25    0.07100   15.41370  239.98780    -999.25    -999.25  187.66620    -999.25    -999.25    -999.25    -999.25    -999.25  187.66620    -999.25   39.20050   38.49800   39.20050    -999.25   15.41370   15.96860    -999.25    -999.25   15.96860    0.07750    -999.25    0.07750    6.92920    6.92920 2588.56450   19.33390   41.38260    -999.25  -52.92530  -31.90670   19.33390 22224.00000    -999.25 19105.08790
 3050.00000  256.65920  353.82890  269.36680  256.65920   35.61630    5.44990 2625.91210    0.04780    -999.25    0.04920   28.07700    5.44990    -999.25    -999.25  191.08820    -999.25    -999.25    -999.25    -999.25    -999.25  191.08820    -999.25   44.34930   43.21790   44.34930    -999.25   28.07700   22.60760    -999.25    -999.25   22.60760    0.09050    -999.25    0.09050    4.90410    4.90410 2625.91210   36.20560   48.28660    -999.25  -46.05440  -33.14200   36.20560 22254.09380    -999.25 19392.21880
 3100.00000  238.65890  248.88600  242.60240  238.65890   20.39140  -12.48630 2710.97140   -0.00070    -999.25   -0.00060   49.04040  -12.48630    -999.25    -999.25  184.80150    -999.25    -999.25    -999.25    -999.25    -999.25  184.80150    -999.25   33.41490   33.44750   33.41490    -999.25   49.04040   50.62050    -999.25    -999.25   50.62050    0.04460    -999.25    0.04460    4.37780    4.37780 2710.97140   57.70190   38.67970    -999.25  -34.46230  -18.83220   57.70190 22966.46090    -999.25 19301.86520
 3150.00000  251.33630  249.55280  252.29570  251.33630   34.81790    3.19750 2538.35940    0.08490    -999.25    0.10040   28.72090    3.19750    -999.25    -999.25  192.50270    -999.25    -999.25    -999.25    -999.25    -999.25  192.50270    -999.25   48.55940   48.70990   48.55940    -999.25   28.72090   29.20680    -999.25    -999.25   29.20680    0.07210    -999.25    0.07210    5.84260    5.84260 2538.35940   35.60310   51.61230    -999.25  -29.40200   -4.32890   35.60310 22636.14650    -999.25 19879.73050
 3200.00000  224.50800  334.93570  244.22980  224.50800    0.52310  -10.34790 2701.41500    0.00470    -999.25    0.00500 1911.65600  -10.34790    -999.25    -999.25  161.02420    -999.25    -999.25    -999.25    -999.25    -999.25  161.02420    -999.25   11.08670   10.71610   11.08670    -999.25 1911.65600    -999.25    -999.25    -999.25 1961.98080    0.00720    -999.25    0.00720    5.15750    5.15750 2701.41500 2000.00000   13.32500    -999.25 -307.31080 -271.66480 2000.00000 22675.63480    -999.25 20089.06050
 3250.00000  229.35710  395.25900  261.56370  229.35710    0.51270  144.40040 2460.40940    0.14420    -999.25    0.14600 1950.37870  144.40040    -999.25    -999.25  163.76330    -999.25    -999.25    -999.25    -999.25    -999.25  163.76330    -999.25   11.04790   11.21950   11.04790    -999.25 1950.37870  258.80870    -999.25    -999.25  258.80870    0.02760    -999.25    0.02760    7.31930    7.31930 2460.40940 2000.00000    9.96990    -999.25 -346.45120 -300.15760 2000.00000 23209.90430    -999.25 20280.93550
 3300.00000  485.82650  392.95080  293.41380  485.82650    0.51080  109.58940 2455.69340    0.14760    -999.25    0.14870 1957.76990  109.58940    -999.25    -999.25  160.51130    -999.25    -999.25    -999.25    -999.25    -999.25  160.51130    -999.25   12.26530   12.06910   12.26530    -999.25 1957.76990  124.44750    -999.25    -999.25  124.44750    0.00430    -999.25    0.00430    8.51540    8.51540 2455.69340 2000.00000   13.34980    -999.25 -358.44840 -301.50710 2000.00000 24231.44530    -999.25 20168.50390
 3350.00000  222.79400  222.14950  241.87510  222.79400    0.51630  -16.28370 2701.89090    0.00360    -999.25    0.00470 1936.99480  -16.28370    -999.25    -999.25  160.93450    -999.25    -999.25    -999.25    -999.25    -999.25  160.93450    -999.25   11.40280   11.11160   11.40280    -999.25 1936.99480    -999.25    -999.25    -999.25    -999.25    0.00850    -999.25    0.00850    5.62660    5.62660 2701.89090 2000.00000   13.01340    -999.25 -382.99370 -315.40480 2000.00000 23916.06250    -999.25 20134.75200
 3400.00000  274.86890  281.53830  276.74250  274.86890    0.52200   92.55350 2603.28660    0.06290    -999.25    0.06240 1915.79210   92.55350    -999.25    -999.25  159.40550    -999.25    -999.25    -999.25    -999.25    -999.25  159.40550    -999.25    9.10900    9.68830    9.10900    -999.25 1915.79210   99.27090    -999.25    -999.25   99.27090    0.00180    -999.25    0.00180    7.62730    7.62730 2603.28660 2000.00000   11.57960    -999.25 -332.46680 -254.23030 2000.00000 24956.44730    -999.25 20197.33590
 3450.00000  278.44290  400.74460  312.98430  278.44290    0.51600   52.34280 2614.53540    0.06340    -999.25    0.05580 1937.98070   52.34280    -999.25    -999.25  154.34150    -999.25    -999.25    -999.25    -999.25    -999.25  154.34150    -999.25   15.30770   15.28990   15.30770    -999.25 1937.98070   58.11290    -999.25    -999.25   58.11290    0.06250    -999.25    0.06250    4.27190    4.27190 2614.53540  618.04510   17.60430    -999.25 -237.41080 -148.52660  618.04510 24100.31050    -999.25 21151.82810
 3500.00000  219.74750  246.82110  225.71460  219.74750    0.50890  -20.01980 2713.51760   -0.00210    -999.25   -0.00210 1965.20310  -20.01980    -999.25    -999.25  162.03170    -999.25    -999.25    -999.25    -999.25    -999.25  162.03170    -999.25   14.52370   14.17290   14.52370    -999.25 1965.20310  795.92120    -999.25    -999.25  795.92120    0.01340    -999.25    0.01340    4.95520    4.95520 2713.51760 2000.00000   16.64700    -999.25 -435.88540 -336.35360 2000.00000 24232.72460    -999.25 20711.04100
