~Version ---------------------------------------------------
VERS.      2.0 : CWLS log ASCII Standard -VERSION 2.0
WRAP.       NO : One line per depth step
CREA. 08/01/17 : LAS Creation Date
~Well ------------------------------------------------------
STRT.FT                       300.0 : START DEPTH
STOP.FT                     11500.0 : STOP DEPTH
STEP.FT                    50.00000 : STEP LENGTH
NULL.                       -999.25 : NULL VALUE
COMP.          MOBIL OIL CANADA LTD : COMPANY
WELL. MOBIL ET AL NE PINE 6-9-59-18 : WELL
FLD .                    CLARK LAKE : FIELD
LOC .                               : LOCATION
CTRY.                        CANADA : COUNTRY
SRVC.                  Schlumberger : SERVICE COMPANY
DATE.                   18-Jul-1968 : LOGDATE
PROV.                       Alberta : PROVINCE
UWI .              100060905918W500 : UNIQUE WELL ID
SLAT.WGS84                 54.08428 : SURFACE LATITUDE
SLON.WGS84                -116.6419 : SURFACE LONGITUDE
~Curve Information -----------------------------------------
DEPT  .FT    : Depth Curve
CALSED.IN    : CALIPER FROM SONIC LOG
CALWS .IN    : CALIPER [CALSED]
CILDED.MMHO  : CONDUCTIVITY FROM RESISTIVITY LOG
CONDWS.MMHO  : CONDUCTIVITY [1000/DRESWS]
DRESWS.OHMM  : DEEP RESISTIVITY [ILDED]
DTED  .US/F  : DELTA TIME FROM SONIC LOG
DTWS  .US/F  : DELTA TIME [DTED]
GRSED .GAPI  : GAMMA RAY FROM SONIC LOG
GRWS  .GAPI  : GAMMA RAY [GRSED]
ILDED .OHMM  : INDUCTION LOG DEEP RESISTIVITY
SNED  .OHMM  : 16 INCH SHORT NORMAL RESISTIVITY FROM IEL
SPRED .MV    : SPONTANEOUS POTENTIAL FROM RESISTIVITY LOG
SPWS  .MV    : SPONTANEOUS POTENTIAL [BASELINE 0 MV] [SPRED]
SRESWS.OHMM  : SHALLOW RESISTIVITY [SNED]
~Params ----------------------------------------------------
PD  .                     GL : PERMANENT DATUM
EPD .FT               3509.9 : ELEVATION PERMANENT DATUM
LMF .                     KB : LOG MEASURED FROM
DAPD.FT                16.06 : FEET ABOVE PERMANENT DATUM
EKB .FT              3525.96 : KELLY BUSHING
EGL .FT               3509.9 : GROUND LEVEL
DATE.               07/18/68 : RUN DATE
RUN .                      1 : RUN NUMBER
DD  .FT                11521 : DEPTH DRILLER
DL  .FT                11510 : DEPTH LOGGER
BLI .FT                11510 : BOTTOM LOG INTERVAL
TLI .FT                 1200 : TOP LOG INTERVAL
CBL .FT                 1215 : CASING BOTTOM LOGGER
BS  .IN                 8.75 : BIT SIZE
BSD .FT                11521 : BIT SIZE AT DEPTH
DFT .                    GEL : DRILLING FLUID TYPE
DFD .                   10.2 : DRILLING FLUID DENSITY
DFV .                     95 : DRILLING FLUID VISCOSITY
DFPH.                   10.5 : DRILLING FLUID PH
DFL .                      6 : DRILLING FLUID LOSS
RMS .OHMM               1.18 : RESISTIVITY MUD SAMPLE
MST .DEGF                 58 : MUD SAMPLE TEMPERATURE
RMF .OHMM              0.693 : RESISTIVITY MUD FILTRATE SAMPLE
MFST.DEGF                 60 : MUD FILTRATE SAMPLE TEMPERATURE
RMC .OHMM                1.4 : RESISTIVITY MUD CAKE
MCST.DEGF                 59 : MUD CAKE SAMPLE TEMPERATURE
RMB .OHMM               0.39 : RESISTIVITY MUD AT BHT
TCS .HRS                   3 : TIME CIRCULATED STOPPED
LUN .                   7501 : LOGGING UNIT NUMBER
LUL .                    EDM : LOGGING UNIT LOCATION
ENGI.               STUEHMER : RECORDING ENGINEER
WITN.                   HELM : WITNESSED BY
CLNT.                A2DTECH : CLIENT CODE
ORIG.            2" 5" PRINT : ORIGIN OF DATA
UWI .       100060905918W500 : UNIQUE WELL ID
DICO. A2D Technologies, Inc. : DIGITIZING COMPANY
~Other -----------------------------------------------------
~ASCII -----------------------------------------------------
# ...
 10100.00000    9.14460    9.14460   11.22240   10.04990   99.50380   52.45130   52.45130   27.76390   27.76390   99.50380   64.81850  -53.42160   -4.08100   64.81850
 10150.00000    9.13520    9.13520   21.86400   20.74890   48.19540   54.30630   54.30630   29.12260   29.12260   48.19540   45.74660  -57.58810   -8.15610   45.74660
 10200.00000    9.26730    9.26730   13.76840   13.78220   72.55740   52.91310   52.91310   22.79320   22.79320   72.55740   59.65560  -59.59540  -10.07190   59.65560
 10250.00000    9.15540    9.15540   16.08240   15.83520   63.15060   53.76250   53.76250   23.18000   23.18000   63.15060   54.58290  -59.22470   -9.60970   54.58290
 10300.00000    9.20870    9.20870   23.98120   23.90260   41.83660   55.55350   55.55350   32.92580   32.92580   41.83660   42.13030  -59.18120   -9.47520   42.13030
 10350.00000    9.26570    9.26570   40.37210   39.36540   25.40300   58.03030   58.03030   39.30320   39.30320   25.40300   28.58010  -56.82990   -7.03200   28.58010
 10400.00000   10.08050   10.08050  101.72240   98.60180   10.14180   67.22650   67.22650   60.66410   60.66410   10.14180   12.91160  -57.12470   -7.23540   12.91160
 10450.00000    9.92140    9.92140  105.15970  102.72640    9.73460   68.03780   68.03780   61.24890   61.24890    9.73460   13.71250  -55.24360   -5.26280   13.71250
 10500.00000    9.83050    9.83050   75.54940   73.41230   13.62170   67.29970   67.29970   72.94070   72.94070   13.62170   18.45050  -56.90210   -8.27840   18.45050
 10550.00000   10.16160   10.16160   97.78060   94.92720   10.53710   67.15190   67.15190   62.19260   62.19260   10.53710   13.42040  -60.59850  -13.70830   13.42040
 10600.00000   13.29740   13.29740  141.90190  152.98010    6.53680   78.57770   78.57770   77.47100   77.47100    6.53680    8.73770  -61.43470  -16.29530    8.73770
 10650.00000   12.76580   12.76580  131.31190  129.96800    7.69420   79.66530   79.66530   68.94730   68.94730    7.69420    9.82030  -61.95760  -18.56040    9.82030
 10700.00000    9.41520    9.41520   59.37270   57.40460   17.42020   63.02450   63.02450   58.96380   58.96380   17.42020   23.67600  -51.34230   -9.68720   23.67600
 10750.00000    9.34970    9.34970   24.52540   24.74010   40.42020   55.65770   55.65770   41.93100   41.93100   40.42020   36.96150  -50.50510  -10.59220   36.96150
 10800.00000    9.38760    9.38760   56.68440   54.94630   18.20280   64.03800   64.03800   62.96300   62.96300   18.20280   22.61670  -50.35530  -12.17590   22.61670
 10850.00000    9.57750    9.57750   88.00910   84.82270   11.78930   71.47930   71.47930   89.46780   89.46780   11.78930   16.62160  -54.06540  -17.63680   16.62160
 10900.00000    9.52240    9.52240   89.24680   87.07310   11.48460   67.55150   67.55150   87.07910   87.07910   11.48460   16.06920  -54.66990  -19.98350   16.06920
 10950.00000    9.09860    9.09860   55.12820   53.41480   18.72140   62.59280   62.59280   60.71890   60.71890   18.72140   22.97920  -54.61690  -21.67260   22.97920
 11000.00000    9.12350    9.12350   11.75420   18.26620   54.74590   63.03300   63.03300   45.88010   45.88010   54.74590   68.44420  -46.37480  -15.17270   68.44420
 11050.00000    8.72610    8.72610    2.48050    2.21910  450.88320   71.54050   71.54050   76.62460   76.62460  450.88320  153.06940  -31.30820   -1.83950  153.06940
 11100.00000    8.77110    8.77110    2.24190    1.97600  506.06750   68.77090   68.77090  119.49730  119.49730  506.06750  170.56930  -37.52260   -8.23690  170.56930
 11150.00000    8.81930    8.81930    2.56950    2.21060  452.36800   62.28120   62.28120   96.03190   96.03190  452.36800  126.03340  -39.14340   -9.85770  126.03340
 11200.00000    9.30440    9.30440    2.15640    1.56550  638.77230   48.87570   48.87570    7.28430    7.28430  638.77230  164.86870 -102.13680  -72.85110  164.86870
 11250.00000    8.71760    8.71760    0.72910    1.56950  637.16160   52.84080   52.84080   10.38050   10.38050  637.16160  138.22260 -169.08170 -139.79600  138.22260
 11300.00000    8.96010    8.96010    2.24480    2.70490  369.73000   51.15700   51.15700   10.42560   10.42560  369.73000  103.79880 -176.71760 -147.43190  103.79880
 11350.00000    8.39300    8.39300    4.63180    4.34450  230.17420   57.96250   57.96250    9.38190    9.38190  230.17420   83.25540 -162.46490 -133.17920   83.25540
 11400.00000    8.88550    8.88550   17.17030   18.91360   52.87190   51.05710   51.05710   11.30390   11.30390   52.87190   71.04990 -173.37450 -144.08880   71.04990
 11450.00000    8.82380    8.82380    7.94730    7.30910  136.81660   46.99020   46.99020   15.75600   15.75600  136.81660   75.81000 -168.11970 -138.83400   75.81000
 11500.00000    9.26310    9.26310    5.74400    5.03880  198.46120   46.78670   46.78670    -999.25    -999.25  198.46120   99.10930 -143.46370 -114.17800   99.10930
