~Version ---------------------------------------------------
VERS.      2.0 : CWLS log ASCII Standard -VERSION 2.0
WRAP.       NO : One line per depth step
CREA. 09/16/13 : LAS Creation Date
~Well ------------------------------------------------------
STRT.M                       400.0 : START DEPTH
STOP.M                      3150.0 : STOP DEPTH
STEP.M                    50.00000 : STEP LENGTH
NULL.                      -999.25 : NULL VALUE
COMP.    GULF CANADA RESOURCES INC : COMPANY
WELL. GULF AEC LIGNITE 10-21-70-26 : WELL
FLD .                      LIGNITE : FIELD
LOC .                              : LOCATION
CTRY.                       CANADA : COUNTRY
SRVC.                 Schlumberger : SERVICE COMPANY
DATE.                  11-Jan-1986 : LOGDATE
PROV.                      Alberta : PROVINCE
UWI .             100102107026W500 : UNIQUE WELL ID
SLAT.WGS84                55.07789 : SURFACE LATITUDE
SLON.WGS84               -117.9009 : SURFACE LONGITUDE
~Curve Information -----------------------------------------
DEPT    .M      : DEPTH METER
C2ED    .MM     : C2 FROM DENSITY LOG [ADJ. TO RESISTIVITY LOG]
CALDED  .MM     : CALIPER FROM DENSITY LOG [ADJ. TO RESISTIVITY LOG]
CALSED  .MM     : CALIPER FROM SONIC LOG
CALWS   .MM     : CALIPER [CALDED]
CONDWS  .MMHO   : CONDUCTIVITY [1000/DRESWS]
DCORWS  .KG/M3  : DENSITY CORRECTION [DRHOED]
DENWS   .KG/M3  : FORMATION BULK DENSITY [CALC. FROM DPOLSWS,M=27100,F=1000]
DPHILSED.V/V    : DENSITY POROSITY LIMESTONE [M=2710,F=1000] FROM DENSITY LOG [ADJ. TO RESISTIVITY LOG]
DPHISSED.V/V    : DENSITY DENSITY POROSITY SANDSTONE [M=2650,F=1000] FROM DENSITY LOG [ADJ. TO RESISTIVITY LOG]
DPOLSWS .V/V    : DENSITY POROSITY LIMESTONE [DPHISSED CONVERTED TO LIMESTONE MATRIX SPL. TO DPHILSED @ 1577 M]
DRESWS  .OHMM   : DEEP RESISTIVITY [ILDED]
DRHOED  .KG/M3  : DENSITY CORRECTION FROM DENSITY LOG [ADJ. TO RESISTIVITY LOG]
DTED    .US/M   : DELTA TIME FROM SONIC LOG
DTWS    .US/M   : COMPRESSIONAL SONIC [DTED]
GRDED   .GAPI   : GAMMA RAY FROM DENSITY LOG [ADJ. TO RESISTIVITY LOG]
GRSED   .GAPI   : GAMMA RAY FROM SONIC LOG
GRWS    .GAPI   : GAMMA RAY [GRSED SPOL. TO GRDED @ 3174 M]
ILDED   .OHMM   : DEEP INDUCTION RESISTIVITY FROM RESISTIVITY LOG
ILMED   .OHMM   : MEDIUM INDUCTION RESISTIVITY FROM RESISTIVITY LOG
MRESWS  .OHMM   : MEDIUM RESISTIVITY [ILMED]
NPHILSED.V/V    : NEUTRON POROSITY LIMESTONE FROM DENSITY LOG [ADJ. TO RESISTIVITY LOG]
NPHISSED.V/V    : NEUTRON POROSITY SANDSTONE FROM DENSITY LOG [ADJ. TO RESISTIVITY LOG]
NPOLSWS .V/V    : NEUTRON POROSITY LIMESTONE [NPHISSED CONVERTED TO LIMESTONE MATRIX,SPL. TO NPHILSED @1569 M]
RHOBED  .KG/M3  : FORMATION BULK DENSITY FROM DENSITY LOG [ADJ. TO RESISTIVITY LOG]
SFLUED  .OHMM   : SPHERICALLY FOCUSED RESISTIVITY FROM RESISTIVITY LOG
SPRED   .MV     : SPONTANEOUS POTENTIAL FROM RESISTIVITY LOG
SPWS    .MV     : SPONTANEOUS POTENTIAL [BASELINE 0 MV,SPRED]
SRESWS  .OHMM   : SHALLOW RESISTIVITY [SFLUED]
TENDED  .N      : TENSION FROM DENSITY LOG [ADJ. TO RESISTIVITY LOG]
TENSED  .N      : TENSION FROM SONIC LOG
~Params ----------------------------------------------------
PD  .                       GL : PERMANENT DATUM
EPD .M                   633.8 : ELEVATION PERMANENT DATUM
LMF .                       KB : LOG MEASURED FROM
DAPD.M                     6.1 : FEET ABOVE PERMANENT DATUM
DMF .                       KB : DRILLING MEASURED FROM
EKB .M                   639.9 : KELLY BUSHING
EDF .M                   639.6 : DRILLING FLOOR
EGL .M                   633.8 : GROUND LEVEL
DATE.                 01/11/86 : RUN DATE
RUN .                        1 : RUN NUMBER
DD  .M                    3195 : DEPTH DRILLER
DL  .M                    3194 : DEPTH LOGGER
BLI .M                    3193 : BOTTOM LOG INTERVAL
TLI .M                   434.7 : TOP LOG INTERVAL
CS  .MM                  244.5 : CASING SIZE
CBD .M                     435 : CASING BOTTOM DRILLER
CBL .M                     434 : CASING BOTTOM LOGGER
BS  .MM                    222 : BIT SIZE
BSD .M                    3195 : BIT SIZE AT DEPTH
DFT .                 GEL CHEM : DRILLING FLUID TYPE
DFD .                     1100 : DRILLING FLUID DENSITY
DFV .                       65 : DRILLING FLUID VISCOSITY
DFPH.                       10 : DRILLING FLUID PH
DFL .                      9.4 : DRILLING FLUID LOSS
MSS .                 FLOWLINE : MUD SAMPLE SOURCE
RMS .OHMM                 2.56 : RESISTIVITY MUD SAMPLE
MST .DEGC                   21 : MUD SAMPLE TEMPERATURE
RMF .OHMM                 2.09 : RESISTIVITY MUD FILTRATE SAMPLE
MFST.DEGC                   21 : MUD FILTRATE SAMPLE TEMPERATURE
RMC .OHMM                 0.86 : RESISTIVITY MUD CAKE
MCST.DEGC                   82 : MUD CAKE SAMPLE TEMPERATURE
MFSS.                     MEAS : MUD FILTRATE SAMPLE SOURCE
MCSS.                     MEAS : MUD CAKE SAMPLE SOURCE
RMB .OHMM                1.053 : RESISTIVITY MUD AT BHT
TCS .HRS                   700 : TIME CIRCULATED STOPPED
TLAB.HRS                   530 : TIME LOGGER AT BOTTOM
LUN .                     8157 : LOGGING UNIT NUMBER
LUL .                       GP : LOGGING UNIT LOCATION
ENGI.              CHABOT GUNN : RECORDING ENGINEER
WITN.                    ZADEH : WITNESSED BY
CLNT.                  A2DTECH : CLIENT CODE
ORIG. 6"/100M 16.5"/100M PRINT : ORIGIN OF DATA
UWI .         100102107026W500 : UNIQUE WELL ID
DICO.   A2D Technologies, Inc. : DIGITIZING COMPANY
~Other -----------------------------------------------------
DIL-SFL-SONIC-CNFD LOG RAN
~ASCII -----------------------------------------------------
  400.00000    -999.25    -999.25    -999.25    -999.25    -999.25    -999.25    -999.25    -999.25    -999.25    -999.25    -999.25    -999.25    -999.25    -999.25    -999.25   40.59490   40.59490    -999.25    -999.25    -999.25    -999.25    -999.25    -999.25    -999.25    -999.25    -999.25    -999.25    -999.25    -999.25    -999.25
  450.00000  309.32480  337.72770  263.91010  337.72770  132.18770   55.56910 1998.58000    -999.25    0.39480    0.41600    7.56500   55.56910  363.87470  363.87470   92.73890   95.75690   95.75690    7.56500    6.90230    6.90230    -999.25    0.45770    0.41780 2058.56940    7.17200  -66.00910  -21.76500    7.17200 7096.30890 28490.98090
  500.00000  266.90450  223.44580  240.09950  223.44580  138.62900   42.15520 2191.46500    -999.25    0.27790    0.30320    7.21350   42.15520  356.69210  356.69210  100.59670   99.06920   99.06920    7.21350    6.48400    6.48400    -999.25    0.50260    0.46270 2189.05130    6.97200  -60.17020  -11.63690    6.97200 7148.75880 30555.76620
  550.00000  214.82450  284.83690  251.71900  284.83690  118.34320   49.95840 2288.81500    -999.25    0.21890    0.24630    8.45000   49.95840  350.99780  350.99780   99.55210   98.91330   98.91330    8.45000    7.35740    7.35740    -999.25    0.40950    0.36530 2288.91500    7.57160  -51.24170   -5.14340    7.57160 7817.49770 32168.31590
  600.00000  222.40240  270.62160  253.74240  270.62160   75.77190  102.02610 2307.46000    -999.25    0.20760    0.23540   13.19750  102.02610  312.52430  312.52430   85.76230   85.36790   85.36790   13.19750   11.01580   11.01580    -999.25    0.39350    0.34790 2321.59550   11.39670  -56.50040  -14.93720   11.39670 8315.17050 32800.40650
  650.00000  264.58700  267.28600  259.09330  267.28600  115.95010   46.00520 2080.09000    -999.25    0.34540    0.36840    8.62440   46.00520  326.43130  326.43130   92.35260   89.89700   89.89700    8.62440    6.97760    6.97760    -999.25    0.46510    0.42520 2084.86040    7.49570  -59.52540  -17.59540    7.49570 8179.03230 34860.88680
  700.00000  291.89770  276.86980  280.30150  276.86980  125.96040   42.21990 2376.10000    -999.25    0.16600    0.19530    7.93900   42.21990  353.20370  353.20370  106.18190   96.99980   96.99980    7.93900    7.62520    7.62520    -999.25    0.47940    0.43950 2375.29350    8.20150  -54.39910  -11.02620    8.20150 8711.09210 35194.67690
  750.00000  247.52840  252.75940  260.88360  252.75940   92.02760   59.58750 2506.45000    -999.25    0.08700    0.11900   10.86630   59.58750  316.31310  316.31310   92.66830   91.61410   91.61410   10.86630   10.52220   10.52220    -999.25    0.32940    0.27930 2500.75150   12.55430  -55.44770  -10.63200   12.55430 9010.30170 37686.19390
  800.00000  275.61430  268.95730  308.25250  268.95730  113.05060   48.01870 2137.18000    -999.25    0.31080    0.33500    8.84560   48.01870  319.15680  319.15680   87.66890   79.30350   79.30350    8.84560    7.58170    7.58170    -999.25    0.43480    0.39320 2137.94870    6.12790  -64.54010  -12.48550    6.12790 9169.93500 38091.97660
  850.00000  238.68750  235.46640  237.36790  235.46640  119.40730    8.37530 2455.46500    -999.25    0.11790    0.14890    8.37470    8.37530  287.59930  287.59930   81.01830   71.69720   71.69720    8.37470    8.59590    8.59590    -999.25    0.28910    0.23740 2452.19630    8.70890  -59.05070  -15.41390    8.70890 9343.06070 38974.96150
  900.00000  230.33050  340.96690  255.00630  340.96690  187.37470   49.34290 1568.09500    -999.25    0.65570    0.66780    5.33690   49.34290  327.70640  327.70640   93.68540   95.96720   95.96720    5.33690    5.22440    5.22440    -999.25    0.45380    0.41390 1521.48050    5.60140  -54.40430   -7.05200    5.60140 9995.63930 40967.41740
  950.00000  227.66870  277.53700  245.66740  277.53700  130.30000  222.93190 2114.41000    -999.25    0.32460    0.34830    7.67460  222.93190  295.13490  295.13490   95.03270   91.22410   91.22410    7.67460    7.47360    7.47360    -999.25    0.32850    0.27840 2125.10180    8.01400  -54.21470   -6.86240    8.01400 10545.54220 41716.11320
 1000.00000  275.25950  272.29330  279.77380  272.29330  227.90980   67.72850 2094.11500    -999.25    0.33690    0.36020    4.38770   67.72850  303.30820  303.30820   86.09330   80.03070   80.03070    4.38770    4.12480    4.12480    -999.25    0.37160    0.32420 2092.62350    4.97740  -49.67190   -2.31960    4.97740 10401.69610 42052.22300
 1050.00000  291.73790  251.22810  271.98830  251.22810  248.62020   89.69650 2106.32500    -999.25    0.32950    0.35300    4.02220   89.69650  337.70900  337.70900   91.56110   87.90830   87.90830    4.02220    3.75980    3.75980    -999.25    0.43680    0.39540 2089.87720    4.07530  -50.64790   -3.29560    4.07530 10729.60340 44026.08670
 1100.00000  208.76910  215.47280  213.24790  215.47280  131.77310   87.68920 2411.24500    -999.25    0.14470    0.17470    7.58880   87.68920  269.24450  269.24450   41.96420   40.72580   40.72580    7.58880    9.72370    9.72370    -999.25    0.22320    0.17120 2406.24780   13.21620  -98.81230  -52.48840   13.21620 10419.16870 46122.75860
 1150.00000  235.14430  230.51610  242.47520  230.51610  109.52300    2.04020 2530.21000    -999.25    0.07260    0.10510    9.13050    2.04020  234.12180  234.12180   34.92530   37.14990   37.14990    9.13050    8.98420    8.98420    -999.25    0.20320    0.15220 2527.77150   11.04620  -48.85980   -4.29080   11.04620 11152.90690 47934.50550
 1200.00000  259.08030  263.96610  274.62650  263.96610  154.86830  153.96240 2170.01500    -999.25    0.29090    0.31580    6.45710  153.96240  300.54590  300.54590   75.44330   72.48910   72.48910    6.45710    5.87050    5.87050    -999.25    0.36860    0.32100 2229.77780    5.20240  -46.36300   -3.08610    5.20240 11104.24240 47836.83990
 1250.00000  254.19700  247.63550  256.25000  247.63550  132.06380    1.69280 2422.79500    -999.25    0.13770    0.16800    7.57210    1.69280  253.08340  253.08340   50.61220   47.46120   47.46120    7.57210    7.89960    7.89960    -999.25    0.26090    0.20830 2421.01560   11.44050  -62.22530  -20.07440   11.44050 11649.27150 48226.90220
 1300.00000  242.96700  230.53700  248.48690  230.53700  170.92850   59.74680 2394.58000    -999.25    0.15480    0.18450    5.85040   59.74680  269.26410  269.26410   58.95840   56.96400   56.96400    5.85040    7.54200    7.54200    -999.25    0.27190    0.21950 2394.72120   11.94900  -92.13080  -51.04920   11.94900 11421.10440 48069.86750
 1350.00000  282.92150  254.18120  276.49560  254.18120  110.93240    8.85800 2524.10500    -999.25    0.07630    0.10870    9.01450    8.85800  265.40480  265.40480   80.05050   76.03780   76.03780    9.01450    9.22970    9.22970    -999.25    0.34510    0.29590 2524.68430    9.41320  -47.90360   -7.89140    9.41320 11970.14570 51245.93250
 1400.00000  262.25020  253.65060  269.07760  253.65060  103.15450    0.22980 2568.82000    -999.25    0.04920    0.08260    9.69420    0.22980  256.11690  256.11690   78.99490   75.09590   75.09590    9.69420    9.65550    9.65550    -999.25    0.31370    0.26290 2566.09840   11.33670  -43.87970   -4.93680   11.33670 12282.82990 52381.59320
 1450.00000  284.72850  264.75040  284.12880  264.75040   60.73710    4.90510 2545.06000    0.08330    0.06360    0.09650   16.46440    4.90510  232.20630  232.20630   59.38620   56.85190   56.85190   16.46440   17.36070   17.36070    0.20230    0.23940    0.18690 2546.24020   22.17910  -56.88640  -22.10780   22.17910 12791.00810 52250.22750
 1500.00000  271.24150  356.39750  293.32840  356.39750  123.80990  185.86230 2287.16500    0.29270    0.21990    0.24730    8.07690  185.86230  249.05470  249.05470  101.31850   95.21030   95.21030    8.07690    7.80040    7.80040    0.27500    0.30440    0.25320 2241.79930    8.64050  -37.80400   -9.02290    8.64050 12769.42930 54893.09210
 1550.00000  253.27950  254.67650  264.98130  254.67650   70.12180   26.83030 2570.96500    0.08730    0.04790    0.08130   14.26090   26.83030  227.14880  227.14880   54.65780   51.87800   51.87800   14.26090   18.05430   18.05430    0.14660    0.19540    0.14490 2565.80030   33.77930  -39.32910  -16.54560   33.77930 13457.44730 54964.61550
