~Version ---------------------------------------------------
VERS.      2.0 : CWLS log ASCII Standard -VERSION 2.0
WRAP.       NO : One line per depth step
CREA. 11/16/17 : LAS Creation Date
~Well ------------------------------------------------------
STRT.FT                        1250.0 : START DEPTH
STOP.FT                       12550.0 : STOP DEPTH
STEP.FT                      50.00000 : STEP LENGTH
NULL.                         -999.25 : NULL VALUE
COMP.     ANADARKO CANADA CORPORATION : COMPANY
WELL. GPD NOEL AMOCO GOLD CK 5-8-69-5 : WELL
FLD .                              WC : FIELD
LOC .                                 : LOCATION
CTRY.                          CANADA : COUNTRY
SRVC.                    Schlumberger : SERVICE COMPANY
DATE.                     03-Nov-1970 : LOGDATE
PROV.                         Alberta : PROVINCE
UWI .                100050806905W600 : UNIQUE WELL ID
SLAT.WGS84                    54.9586 : SURFACE LATITUDE
SLON.WGS84                  -118.7315 : SURFACE LONGITUDE
~Curve Information -----------------------------------------
DEPT  .FT    : Depth Curve
CALSED.IN    : CALIPER FROM SONIC LOG
CALWS .IN    : CALIPER [CALSED]
CILDED.MMHO  : DEEP CONDUCTIVITY INDUCTION FROM RESISTIVITY LOG
CONDWS.MMHO  : CONDUCTIVITY [1000/DRESWS]
DRESWS.OHMM  : DEEP RESISTIVITY [1000/CILDED, IF ILDED <1, ILDED]
DTED  .US/F  : ACOUSTIC TRANSIT TIME SLOWNESS, DELTA T FROM SONIC LOG [ADJ. TO RESISTIVITY LOG]
DTWS  .US/F  : COMPRESSIONAL SONIC [ DTED]
GRSED .GAPI  : GAMMA RAY FROM SONIC LOG [ADJ. TO RESISTIVITY LOG]
GRWS  .GAPI  : GAMMA RAY [GRSED]
ILDED .OHMM  : DEEP INDUCTION RESISTIVITY FROM RESISTIVITY LOG
ILMED .OHMM  : MEDIUM INDUCTION RESISTIVITY FROM RESISTIVITY LOG
LL8ED .OHMM  : LATEROLOG-8 RESISTIVITY FROM RESISTIVITY LOG
MCALED.IN    : MLT [MICROLOG] CALIPER FROM MINILOG
MRESWS.OHMM  : MEDIUM RESISTIVITY [ILMED]
SPRED .MV    : SPONTANEOUS POTENTIAL FROM RESISTIVITY LOG
SPWS  .MV    : SPONTANEOUS POTENTIAL [BASELINE 0 MV, SPRED]
SRESWS.OHMM  : SHALLOW RESISTIVITY [LL8ED]
~Params ----------------------------------------------------
PD  .                     GL : PERMANENT DATUM
EPD .FT                 2152 : ELEVATION PERMANENT DATUM
LMF .                     KB : LOG MEASURED FROM
DAPD.FT                   14 : FEET ABOVE PERMANENT DATUM
EKB .FT                 2166 : KELLY BUSHING
EGL .FT                 2152 : GROUND LEVEL
DATE.               11/04/70 : RUN DATE
RUN .                      1 : RUN NUMBER
DD  .FT                 1319 : DEPTH DRILLER
DL  .FT                 1318 : DEPTH LOGGER
BLI .FT                12587 : BOTTOM LOG INTERVAL
TLI .FT                 1318 : TOP LOG INTERVAL
CBD .FT                12601 : CASING BOTTOM DRILLER
CBL .FT                12594 : CASING BOTTOM LOGGER
BS  .IN                 8.75 : BIT SIZE
BSD .FT                 1319 : BIT SIZE AT DEPTH
DFT .            MAGOBAR GEL : DRILLING FLUID TYPE
DFD .                   11.1 : DRILLING FLUID DENSITY
DFV .                    435 : DRILLING FLUID VISCOSITY
DFPH.                     11 : DRILLING FLUID PH
DFL .                    6.6 : DRILLING FLUID LOSS
MSS .               FLOWLINE : MUD SAMPLE SOURCE
TCS .HRS                 4.5 : TIME CIRCULATED STOPPED
LUN .                   3702 : LOGGING UNIT NUMBER
LUL .                     DC : LOGGING UNIT LOCATION
ENGI.                 SEAMAN : RECORDING ENGINEER
WITN.               SIMMONDS : WITNESSED BY
CLNT.                A2DTECH : CLIENT CODE
ORIG.            2" 5" PRINT : ORIGIN OF DATA
UWI .       100050806905W600 : UNIQUE WELL ID
DICO. A2D Technologies, Inc. : DIGITIZING COMPANY
~Other -----------------------------------------------------
~ASCII -----------------------------------------------------
# ...
 11500.00000    9.80990    9.80990    -999.25    1.43360  697.54330   54.12380   54.12380   43.59850   43.59850  697.54330   69.48790  544.44920    -999.25   69.48790 -182.37630  -20.32110  544.44920
 11550.00000   10.91030   10.91030    -999.25    8.70110  114.92820   51.46860   51.46860   12.67950   12.67950  114.92820   54.43320  134.45110    -999.25   54.43320 -192.51200  -29.05940  134.45110
 11600.00000   14.90610   14.90610    -999.25   58.76200   17.01780   77.00810   77.00810   39.36630   39.36630   17.01780    4.43180    8.99010    -999.25    4.43180 -171.19700   -6.44370    8.99010
 11650.00000   15.11540   15.11540    -999.25   51.04650   19.59000   65.20770   65.20770   36.97650   36.97650   19.59000    5.78680   10.79470    -999.25    5.78680 -178.99450  -13.64940   10.79470
 11700.00000   14.86150   14.86150    -999.25   61.39150   16.28890   71.58930   71.58930   47.00170   47.00170   16.28890    5.32050   10.65200    -999.25    5.32050 -183.75090  -17.81390   10.65200
 11750.00000   15.08160   15.08160    -999.25   39.73580   25.16620   65.46990   65.46990   44.12440   44.12440   25.16620    6.62300   16.86770    -999.25    6.62300 -171.37310   -4.84430   16.86770
 11800.00000   15.03410   15.03410    -999.25   74.36220   13.44770   71.06020   71.06020   44.90190   44.90190   13.44770    5.15280   10.23010    -999.25    5.15280 -170.04670   -9.32180   10.23010
 11850.00000   14.96080   14.96080    -999.25   67.30610   14.85750   70.27090   70.27090   42.08150   42.08150   14.85750    6.17670   12.35480    -999.25    6.17670 -165.70070  -11.65180   12.35480
 11900.00000   13.98620   13.98620    -999.25   57.59270   17.36330   70.22170   70.22170   47.45520   47.45520   17.36330    8.33990   16.02650    -999.25    8.33990 -153.64230   -6.26950   16.02650
 11950.00000   15.01870   15.01870    -999.25   72.78600   13.73890   72.18460   72.18460   44.43760   44.43760   13.73890    6.40640   12.45820    -999.25    6.40640 -148.60950   -7.91270   12.45820
 12000.00000   13.72430   13.72430    -999.25   66.98010   14.92980   74.34460   74.34460   48.03700   48.03700   14.92980    9.18880   16.28150    -999.25    9.18880 -136.93500   -2.91420   16.28150
 12050.00000   11.51020   11.51020    -999.25   93.34980   10.71240   74.14250   74.14250   57.72590   57.72590   10.71240   18.69960   28.88580    -999.25   18.69960 -137.75450   -5.29730   28.88580
 12100.00000   13.80640   13.80640    -999.25   53.69240   18.62460   74.25890   74.25890   50.35360   50.35360   18.62460   10.19510   23.62420    -999.25   10.19510 -139.63810   -6.65630   23.62420
 12150.00000   12.94570   12.94570    -999.25   15.39380   64.96120   74.77630   74.77630   64.09540   64.09540   64.96120   29.51540   55.70250    -999.25   29.51540 -157.10440  -23.59800   55.70250
 12200.00000   10.01110   10.01110    -999.25   21.28770   46.97540   63.80330   63.80330   66.98200   66.98200   46.97540   61.24970  139.47170    -999.25   61.24970 -161.71540  -27.68430  139.47170
 12250.00000   10.48970   10.48970    -999.25   24.07310   41.54010   70.26040   70.26040   87.11310   87.11310   41.54010   37.14450   52.90670    -999.25   37.14450 -156.21590  -21.66020   52.90670
 12300.00000   10.17090   10.17090    -999.25   19.33470   51.72060   69.01430   69.01430   77.12640   77.12640   51.72060   43.54650   66.87630    -999.25   43.54650 -166.33730  -31.25700   66.87630
 12350.00000   10.57750   10.57750    -999.25   12.30930   81.23950   69.76970   69.76970   85.12940   85.12940   81.23950   62.59410  148.32990    -999.25   62.59410 -163.44480  -27.83990  148.32990
 12400.00000    9.53540    9.53540    -999.25    2.53500  394.48320   53.26970   53.26970   87.38360   87.38360  394.48320  139.71910  265.60210    -999.25  139.71910 -154.46920  -18.54950  265.60210
 12450.00000    9.52950    9.52950    -999.25    0.53020 1885.94350   52.13280   52.13280   17.67500   17.67500 1885.94350 1713.99110 1232.70430    -999.25 1713.99110 -196.73130  -60.81160 1232.70430
 12500.00000    9.64150    9.64150    -999.25    0.48540 2060.16890   46.77240   46.77240   21.52820   21.52820 2060.16890 1741.03320 1108.81340    -999.25 1741.03320 -207.82080  -71.90110 1108.81340
 12550.00000   10.00080   10.00080    -999.25    0.99240 1007.66940   52.06110   52.06110  221.92890  221.92890 1007.66940  258.51070  178.34090    -999.25  258.51070 -153.13690  -17.21720  178.34090
