~Version ---------------------------------------------------
VERS.      2.0 : CWLS log ASCII Standard -VERSION 2.0
WRAP.       NO : One line per depth step
CREA. 12/15/17 : LAS Creation Date
~Well ------------------------------------------------------
STRT.FT                         950.0 : START DEPTH
STOP.FT                        9250.0 : STOP DEPTH
STEP.FT                      50.00000 : STEP LENGTH
NULL.                         -999.25 : NULL VALUE
COMP.   TEXACO CANADA ENTERPRISES LTD : COMPANY
WELL. TEXCAN ET AL MAHASKA 7-10-58-13 : WELL
FLD .                                 : FIELD
LOC .                                 : LOCATION
CTRY.                          CANADA : COUNTRY
SRVC.                         Unknown : SERVICE COMPANY
DATE.                     11-Jan-1974 : LOGDATE
PROV.                         Alberta : PROVINCE
UWI .                100071005813W500 : UNIQUE WELL ID
SLAT.WGS84                   53.99612 : SURFACE LATITUDE
SLON.WGS84                  -115.8404 : SURFACE LONGITUDE
~Curve Information -----------------------------------------
DEPT    .FT    : Depth Curve
CALDED  .IN    : CALIPER FROM DENSITY LOG
CALSED  .IN    : CALIPER FROM SONIC LOG
CALWS   .IN    : CALIPER [CALSED]
CONDWS  .MMHO  : CONDUCTIVITY [1000/DRESWS]
DCORED  .G/C3  : DENSITY CORRECTION FROM DENSITY LOG [ADJ TO RESISTIVITY LOG]
DCORWS  .G/C3  : DENSITY CORRECTION [DCORED]
DENWS   .G/C3  : FORMATION BULK DENSITY [RHOBED]
DPHILSED.V/V   : DENSITY POROSITY LIMESTONE [M=2.71, F=1.00] FROM DENSITY LOG [ADJ TO RESISTIVITY LOG]
DPHISSED.V/V   : DENSITY POROSITY SANDSTONE [M=2.65, F=1.00] FROM DENSITY LOG [ADJ TO RESISTIVITY LOG]
DPOLSWS .V/V   : DENSITY POROSITY LIMESTONE [CALC FROM DENWS,M=2.71, F=1.00]
DRESWS  .OHMM  : DEEP RESISTIVITY [ILDED]
DTED    .US/F  : INTERVAL TRANSIT TIMEM=2.65, F=1.00 FROM SONIC LOG [ADJ TO RESISTIVITY LOG]
DTWS    .US/F  : COMPRESSIONAL SONIC [DTED]
GRDED   .GAPI  : GAMMA RAY FROM DENSITY LOG
GRSED   .GAPI  : GAMMA RAY FROM SONIC LOG
GRWS    .GAPI  : GAMMA RAY [GRSED]
ILDED   .OHMM  : INDUCTION LOG DEEP FROM RESISTIVITY LOG
ILMED   .OHMM  : INDUCTION LOG MEDIUM FROM RESISTIVITY LOG
LL8ED   .OHMM  : LATEROLOG-8 FROM RESISTIVITY LOG
MRESWS  .OHMM  : MEDIUM RESISTIVITY [ILMED]
NPHILSED.V/V   : NEUTRON POROSITY LIMESTONE FROM DENSITY LOG [ADJ TO RESISTIVITY LOG]
NPHISSED.V/V   : NEUTRON POROSITY SANDSTONE FROM DENSITY LOG [ADJ TO RESISTIVITY LOG]
NPOLSWS .V/V   : NEUTRON POROSITY LIMESTONE [NPHISSED MATRIX CONVERTED TO LIMESTONE (SLB-CNL) & SPL @ 5728' TO NPHILSED]
RHOBED  .G/C3  : BULK DENSITY FROM DENSITY LOG [ADJ TO RESISTIVITY LOG]
SPRED   .MV    : SPONTANEOUS POTENTIAL FROM RESISTIVITY LOG
SPWS    .MV    : SPONTANEOUS POTENTIAL [BASELINE 0MV, SPRED]
SRESWS  .OHMM  : SHALLOW RESISTIVITY [LL8ED]
~Params ----------------------------------------------------
PD  .                     GL : PERMANENT DATUM
EPD .FT               2427.8 : ELEVATION PERMANENT DATUM
LMF .                     KB : LOG MEASURED FROM
DAPD.FT                 18.2 : FEET ABOVE PERMANENT DATUM
DMF .                     KB : DRILLING MEASURED FROM
EKB .FT                 2446 : KELLY BUSHING
EGL .FT               2427.8 : GROUND LEVEL
DATE.               01/11/74 : RUN DATE
RUN .                      1 : RUN NUMBER
DD  .FT                 9279 : DEPTH DRILLER
DL  .FT                 9280 : DEPTH LOGGER
BLI .FT                 9274 : BOTTOM LOG INTERVAL
TLI .FT                  960 : TOP LOG INTERVAL
CBD .FT                  960 : CASING BOTTOM DRILLER
CBL .FT                  960 : CASING BOTTOM LOGGER
BS  .IN                 8.75 : BIT SIZE
BSD .FT                 9279 : BIT SIZE AT DEPTH
DFT .               GEL CHEM : DRILLING FLUID TYPE
DFD .                    9.2 : DRILLING FLUID DENSITY
DFV .                    130 : DRILLING FLUID VISCOSITY
DFPH.                      9 : DRILLING FLUID PH
DFL .                     11 : DRILLING FLUID LOSS
MSS .               FLOWLINE : MUD SAMPLE SOURCE
RMS .OHMM               2.59 : RESISTIVITY MUD SAMPLE
MST .DEGF                 50 : MUD SAMPLE TEMPERATURE
RMF .OHMM               1.92 : RESISTIVITY MUD FILTRATE SAMPLE
MFST.DEGF                 50 : MUD FILTRATE SAMPLE TEMPERATURE
TCS .HRS                   5 : TIME CIRCULATED STOPPED
LUN .                   7636 : LOGGING UNIT NUMBER
LUL .                    EDM : LOGGING UNIT LOCATION
ENGI.                  BOYKO : RECORDING ENGINEER
WITN.         PRIER CHAUDHRY : WITNESSED BY
CLNT.                A2DTECH : CLIENT CODE
ORIG.            2" 5" PRINT : ORIGIN OF DATA
UWI .       100071005813W500 : UNIQUE WELL ID
DICO. A2D Technologies, Inc. : DIGITIZING COMPANY
~Other -----------------------------------------------------
DIL-FDC-CNL-GR-SLC-GR TOOL RUN
RHOB & DRHO VERIFIED FROM SMALL SCALE LOG
~ASCII -----------------------------------------------------
  950.00000    -999.25    -999.25    -999.25    -999.25    -999.25    -999.25    -999.25    -999.25    -999.25    -999.25    -999.25    -999.25    -999.25    -999.25   43.45710   43.45710    -999.25    -999.25    -999.25    -999.25    -999.25    -999.25    -999.25    -999.25    -999.25    -999.25    -999.25
 1000.00000    -999.25    9.48460    9.48460  141.32280    -999.25    -999.25    -999.25    -999.25    -999.25    -999.25    7.07600   97.30750   97.30750    -999.25   61.50460   61.50460    7.07600    6.67230    7.12860    6.67230    -999.25    -999.25    -999.25    -999.25  -83.65490   -4.17120    7.12860
 1050.00000    -999.25    9.21460    9.21460  129.08060    -999.25    -999.25    -999.25    -999.25    -999.25    -999.25    7.74710  130.67200  130.67200    -999.25   61.97620   61.97620    7.74710    7.12910    6.84480    7.12910    -999.25    -999.25    -999.25    -999.25  -82.56300   -3.05580    6.84480
 1100.00000    -999.25   10.88260   10.88260  288.36730    -999.25    -999.25    -999.25    -999.25    -999.25    -999.25    3.46780  115.42380  115.42380    -999.25   78.36960   78.36960    3.46780    3.19240    3.61430    3.19240    -999.25    -999.25    -999.25    -999.25  -83.94460   -4.41390    3.61430
 1150.00000    -999.25   10.38160   10.38160  352.37320    -999.25    -999.25    -999.25    -999.25    -999.25    -999.25    2.83790  157.56110  157.56110    -999.25   73.64580   73.64580    2.83790    2.57190    3.89820    2.57190    -999.25    -999.25    -999.25    -999.25  -85.15340   -5.59910    3.89820
 1200.00000    -999.25   10.78750   10.78750  236.59680    -999.25    -999.25    -999.25    -999.25    -999.25    -999.25    4.22660  103.78760  103.78760    -999.25   73.00890   73.00890    4.22660    3.74700    3.99410    3.74700    -999.25    -999.25    -999.25    -999.25  -89.20880   -9.63100    3.99410
 1250.00000    -999.25    9.92970    9.92970  170.04780    -999.25    -999.25    -999.25    -999.25    -999.25    -999.25    5.88070   90.31720   90.31720    -999.25   70.68940   70.68940    5.88070    5.49050    5.81420    5.49050    -999.25    -999.25    -999.25    -999.25  -87.49990   -7.89860    5.81420
 1300.00000    -999.25    9.97420    9.97420  218.62700    -999.25    -999.25    -999.25    -999.25    -999.25    -999.25    4.57400  114.39740  114.39740    -999.25   63.73310   63.73310    4.57400    3.87820    4.22280    3.87820    -999.25    -999.25    -999.25    -999.25  -90.60770  -10.98290    4.22280
 1350.00000    -999.25   10.67730   10.67730  275.80120    -999.25    -999.25    -999.25    -999.25    -999.25    -999.25    3.62580  103.09620  103.09620    -999.25   67.84100   67.84100    3.62580    3.40450    3.77190    3.40450    -999.25    -999.25    -999.25    -999.25  -88.05820   -8.40990    3.77190
 1400.00000    -999.25   10.64210   10.64210  249.40140    -999.25    -999.25    -999.25    -999.25    -999.25    -999.25    4.00960  132.77600  132.77600    -999.25   69.81450   69.81450    4.00960    3.57110    4.16090    3.57110    -999.25    -999.25    -999.25    -999.25  -87.73490   -8.06310    4.16090
 1450.00000    -999.25   10.34930   10.34930  191.85020    -999.25    -999.25    -999.25    -999.25    -999.25    -999.25    5.21240  109.86550  109.86550    -999.25   67.38470   67.38470    5.21240    5.02150    4.63470    5.02150    -999.25    -999.25    -999.25    -999.25  -85.69930   -6.00400    4.63470
 1500.00000    -999.25   10.50140   10.50140  280.44200    -999.25    -999.25    -999.25    -999.25    -999.25    -999.25    3.56580  110.77830  110.77830    -999.25   76.34140   76.34140    3.56580    3.42630    3.85850    3.42630    -999.25    -999.25    -999.25    -999.25  -83.87000   -4.15110    3.85850
 1550.00000    -999.25    9.88890    9.88890  216.16480    -999.25    -999.25    -999.25    -999.25    -999.25    -999.25    4.62610   95.70070   95.70070    -999.25   79.42660   79.42660    4.62610    3.52700    4.69810    3.52700    -999.25    -999.25    -999.25    -999.25  -85.96990   -6.22750    4.69810
 1600.00000    -999.25    9.55170    9.55170  268.86780    -999.25    -999.25    -999.25    -999.25    -999.25    -999.25    3.71930  121.27860  121.27860    -999.25   75.73900   75.73900    3.71930    3.56870    3.99710    3.56870    -999.25    -999.25    -999.25    -999.25  -84.22620   -4.46030    3.99710
 1650.00000    -999.25    9.20450    9.20450  117.39570    -999.25    -999.25    -999.25    -999.25    -999.25    -999.25    8.51820   87.41590   87.41590    -999.25   88.68200   88.68200    8.51820    8.09710    8.16710    8.09710    -999.25    -999.25    -999.25    -999.25  -86.84780   -7.05840    8.16710
 1700.00000    -999.25    9.26000    9.26000  174.56880    -999.25    -999.25    -999.25    -999.25    -999.25    -999.25    5.72840   88.55430   88.55430    -999.25   65.43630   65.43630    5.72840    5.51030    5.37370    5.51030    -999.25    -999.25    -999.25    -999.25  -86.43900   -6.62610    5.37370
 1750.00000    -999.25    9.45520    9.45520  451.99780    -999.25    -999.25    -999.25    -999.25    -999.25    -999.25    2.21240  133.04800  133.04800    -999.25   93.49760   93.49760    2.21240    2.11420    2.57990    2.11420    -999.25    -999.25    -999.25    -999.25  -83.74700   -3.91060    2.57990
 1800.00000    -999.25   11.10150   11.10150  224.44170    -999.25    -999.25    -999.25    -999.25    -999.25    -999.25    4.45550  114.00050  114.00050    -999.25   78.10690   78.10690    4.45550    3.80150    4.33280    3.80150    -999.25    -999.25    -999.25    -999.25  -83.21530   -3.35530    4.33280
 1850.00000    -999.25   10.27340   10.27340  374.13950    -999.25    -999.25    -999.25    -999.25    -999.25    -999.25    2.67280  108.21810  108.21810    -999.25   88.16770   88.16770    2.67280    2.58020    3.11200    2.58020    -999.25    -999.25    -999.25    -999.25  -84.37100   -4.48750    3.11200
 1900.00000    -999.25   10.09080   10.09080  326.00900    -999.25    -999.25    -999.25    -999.25    -999.25    -999.25    3.06740  106.16640  106.16640    -999.25   73.13280   73.13280    3.06740    2.75720    3.94710    2.75720    -999.25    -999.25    -999.25    -999.25  -84.28370   -4.37670    3.94710
 1950.00000    -999.25    9.28670    9.28670  132.14400    -999.25    -999.25    -999.25    -999.25    -999.25    -999.25    7.56750   93.67100   93.67100    -999.25   61.11810   61.11810    7.56750    7.24280    8.27420    7.24280    -999.25    -999.25    -999.25    -999.25  -85.22390   -5.29340    8.27420
 2000.00000    -999.25   10.92880   10.92880  344.09190    -999.25    -999.25    -999.25    -999.25    -999.25    -999.25    2.90620  109.41740  109.41740    -999.25   78.57500   78.57500    2.90620    2.80130    3.18530    2.80130    -999.25    -999.25    -999.25    -999.25  -84.36840   -4.41440    3.18530
 2050.00000    -999.25   10.54440   10.54440  239.60130    -999.25    -999.25    -999.25    -999.25    -999.25    -999.25    4.17360   95.39420   95.39420    -999.25   71.69560   71.69560    4.17360    4.00060    4.88700    4.00060    -999.25    -999.25    -999.25    -999.25  -84.98610   -5.00860    4.88700
 2100.00000    -999.25   10.80000   10.80000  346.45230    -999.25    -999.25    -999.25    -999.25    -999.25    -999.25    2.88640  106.47390  106.47390    -999.25   63.46290   63.46290    2.88640    2.78280    3.21050    2.78280    -999.25    -999.25    -999.25    -999.25  -84.48660   -4.48560    3.21050
 2150.00000    -999.25   10.40210   10.40210  215.76840    -999.25    -999.25    -999.25    -999.25    -999.25    -999.25    4.63460   97.12840   97.12840    -999.25   59.20280   59.20280    4.63460    4.46640    4.66620    4.46640    -999.25    -999.25    -999.25    -999.25  -83.23490   -3.21030    4.66620
 2200.00000    -999.25    9.83220    9.83220  100.83290    -999.25    -999.25    -999.25    -999.25    -999.25    -999.25    9.91740   90.07790   90.07790    -999.25   46.53240   46.53240    9.91740    8.96880   13.55960    8.96880    -999.25    -999.25    -999.25    -999.25  -86.33850   -6.29040   13.55960
