~Version ---------------------------------------------------
VERS.      2.0 : CWLS log ASCII Standard -VERSION 2.0
WRAP.       NO : One line per depth step
CREA. 06/07/13 : LAS Creation Date
~Well ------------------------------------------------------
STRT.M                 350.0 : START DEPTH
STOP.M                4150.0 : STOP DEPTH
STEP.M              50.00000 : STEP LENGTH
NULL.                -999.25 : NULL VALUE
COMP.  CDC OIL & GAS LIMITED : COMPANY
WELL. CDCOG OBED 13-24-55-22 : WELL
FLD .                        : FIELD
LOC .                        : LOCATION
CTRY.                 CANADA : COUNTRY
SRVC. Schlumberger of Canada : SERVICE COMPANY
DATE.            06-Mar-1981 : LOGDATE
PROV.                Alberta : PROVINCE
UWI .       100132405522W500 : UNIQUE WELL ID
SLAT.WGS84          53.77035 : SURFACE LATITUDE
SLON.WGS84         -117.1407 : SURFACE LONGITUDE
~Curve Information -----------------------------------------
DEPT    .M      : DEPTH METER
CALDED  .MM     : CALIPER FROM DENSITY LOG [ADJ. TO RESISTIVITY LOG]
CALSED  .MM     : CALIPER FROM SONIC LOG [ADJ. TO RESISTIVITY LOG]
CALWS   .MM     : CALIPER [CALSED]
CONDWS  .MMHO   : CONDUCTIVITY [1000/DRESWS]
DCORED  .KG/M3  : DENSITY CORRECTION FROM DENSITY LOG [ADJ. TO RESISTIVITY LOG]
DCORWS  .KG/M3  : DENSITY CORRECTION [DCORED]
DENWS   .KG/M3  : FORMATION BULK DENSITY [CALC FROM DPOLSWS, M=2710, F=1000]
DPHILSED.V/V    : DENSITY POROSITY LIMESTONE [M=2710, F=1000] FROM DENSITY LOG [ADJ. TO RESISTIVITY LOG]
DPHISSED.V/V    : DENSITY POROSITY SANDSTONE [M=2650, F=1000] FROM DENSITY LOG [ADJ. TO RESISTIVITY LOG]
DPOLSWS .V/V    : DENSITY POROSITY LIMESTONE [DPHISSED CONVERTED TO LIMESTONE MATRIX, M=2.71, F=1.0, SPL.TO DPHILSED @ 2975.7M]
DRESWS  .OHMM   : DEEP RESISTIVITY [LLDED]
DTED    .US/M   : DELTA TIME FROM SONIC LOG [ADJ. TO RESISTIVITY LOG]
DTWS    .US/M   : COMPRESSIONAL SONIC [DTED]
GRDED   .GAPI   : GAMMA RAY FROM DENSITY LOG [ADJ. TO RESISTIVITY LOG]
GRRED   .GAPI   : GAMMA RAY FROM RESISTIVITY LOG
GRSED   .GAPI   : GAMMA RAY FROM SONIC LOG [ADJ. TO RESISTIVITY LOG]
GRWS    .GAPI   : GAMMA RAY [GRSED]
LLDED   .OHMM   : DEEP LATEROLOG FROM RESISTIVITY LOG
LLSED   .OHMM   : SHALLOW LATEROLOG FROM RESISTIVITY LOG
NPHILSED.V/V    : NEUTRON POROSITY LIMESTONE FROM DENSITY LOG [ADJ. TO RESISTIVITY LOG]
NPHISSED.V/V    : NEUTRON POROSITY SANDSTONE FROM DENSITY LOG [ADJ. TO RESISTIVITY LOG]
NPOLSWS .V/V    : NEUTRON POROSITY LIMESTONE [NPHISSED MATRIX SLB CNL (NPHI) CONVERSION FOR LIMESTONE, SPL.TO NPHILSED @ 2975.7M]
RHOBED  .KG/M3  : BULK DENSITY FROM DENSITY LOG [ADJ. TO RESISTIVITY LOG]
SPRED   .MV     : SPONTANEOUS POTENTIAL FROM RESISTIVITY LOG
SPWS    .MV     : SPONTANEOUS POTENTIAL [BASELINE 0 MV, SPRED]
SRESWS  .OHMM   : SHALLOW RESISTIVITY [LLSED]
~Params ----------------------------------------------------
PD  .                         GL : PERMANENT DATUM
EPD .M                   1011.77 : ELEVATION PERMANENT DATUM
LMF .                         KB : LOG MEASURED FROM
DAPD.M                       7.5 : FEET ABOVE PERMANENT DATUM
DMF .                         KB : DRILLING MEASURED FROM
EKB .M                   1019.27 : KELLY BUSHING
EGL .M                   1011.77 : GROUND LEVEL
DATE.                   03/06/81 : RUN DATE
RUN .                          2 : RUN NUMBER
DD  .M                      4183 : DEPTH DRILLER
DL  .M                    4185.5 : DEPTH LOGGER
BLI .M                    4184.6 : BOTTOM LOG INTERVAL
TLI .M                    2582.5 : TOP LOG INTERVAL
CS  .MM                      244 : CASING SIZE
CBD .M                    2582.6 : CASING BOTTOM DRILLER
CBL .M                    2582.5 : CASING BOTTOM LOGGER
BS  .MM                      216 : BIT SIZE
BSD .M                      4183 : BIT SIZE AT DEPTH
DFT .                        KCL : DRILLING FLUID TYPE
DFD .                       1060 : DRILLING FLUID DENSITY
DFV .                         64 : DRILLING FLUID VISCOSITY
DFPH.                         11 : DRILLING FLUID PH
DFL .                         12 : DRILLING FLUID LOSS
MSS .                CIRCULATION : MUD SAMPLE SOURCE
RMS .OHMM                  0.339 : RESISTIVITY MUD SAMPLE
MST .DEGC                   27.8 : MUD SAMPLE TEMPERATURE
RMF .OHMM                  0.267 : RESISTIVITY MUD FILTRATE SAMPLE
MFST.DEGC                   18.3 : MUD FILTRATE SAMPLE TEMPERATURE
MFSS.                      PRESS : MUD FILTRATE SAMPLE SOURCE
MCSS.                       MEAS : MUD CAKE SAMPLE SOURCE
RMB .OHMM                  0.118 : RESISTIVITY MUD AT BHT
TCS .HRS                     800 : TIME CIRCULATED STOPPED
TLAB.HRS                    2030 : TIME LOGGER AT BOTTOM
LUN .                       8112 : LOGGING UNIT NUMBER
LUL .                      EDSON : LOGGING UNIT LOCATION
ENGI.                    LEBLANC : RECORDING ENGINEER
WITN.                  MACDONALD : WITNESSED BY
CLNT.                    A2DTECH : CLIENT CODE
ORIG. 6.5"/100M 16.5"/100M PRINT : ORIGIN OF DATA
UWI .           100132405522W500 : UNIQUE WELL ID
DICO.     A2D Technologies, Inc. : DIGITIZING COMPANY
~Other -----------------------------------------------------
DLL-FDC-CNL-BHC LOG RUN
RHOBED, DCORED DIG IN SMALL SCALE
~ASCII -----------------------------------------------------
  350.00000    -999.25  345.42500  345.42500   53.28130    -999.25    -999.25    -999.25    -999.25    -999.25    -999.25   18.76830  272.28910  272.28910    -999.25   47.03490   58.13460   58.13460   18.76830   13.24500    -999.25    -999.25    -999.25    -999.25 -103.34450    4.23120   13.24500
  400.00000  389.69850  346.60790  346.60790   39.15410   12.15740   19.02540 2007.60440    -999.25    0.38930    0.41080   25.54010  354.06000  354.06000   77.96900   68.37130   73.48820   73.48820   25.54010   29.93170    -999.25    0.45720    0.41570 2007.60440 -109.14230   19.39100   29.93170
  450.00000  402.26230  350.30040  350.30040   86.27760   -1.21310   12.76060 2238.62920    -999.25    0.24930    0.27570   11.59050  290.55260  290.55260   81.97510   62.95520   78.64830   78.64830   11.59050    7.85820    -999.25    0.33640    0.29260 2238.62920 -116.73320    9.19140    7.85820
  500.00000    -999.25  346.15240  346.15240   94.60290    -999.25    -999.25    -999.25    -999.25    -999.25    -999.25   10.57050  318.30700  318.30700    -999.25   76.50210   87.98220   87.98220   10.57050    5.99500    -999.25    -999.25    -999.25    -999.25 -116.87200   11.18750    5.99500
  550.00000    -999.25  327.55850  327.55850   32.60380    -999.25    -999.25    -999.25    -999.25    -999.25    -999.25   30.67130  225.19140  225.19140    -999.25   42.18250   43.31360   43.31360   30.67130   22.52160    -999.25    -999.25    -999.25    -999.25 -106.73850   15.89460   22.52160
  600.00000    -999.25  343.88320  343.88320   84.60450    -999.25    -999.25    -999.25    -999.25    -999.25    -999.25   11.81970  273.74870  273.74870    -999.25   74.96110   85.15000   85.15000   11.81970    8.40040    -999.25    -999.25    -999.25    -999.25 -117.61930    8.28620    8.40040
  650.00000    -999.25  350.69250  350.69250  142.08780    -999.25    -999.25    -999.25    -999.25    -999.25    -999.25    7.03790  342.13570  342.13570    -999.25   84.08200   95.75890   95.75890    7.03790    6.24380    -999.25    -999.25    -999.25    -999.25 -123.03980    6.13820    6.24380
  700.00000  362.97660  339.49510  339.49510   67.79020   60.95980   48.02540 2184.80790    -999.25    0.28190    0.30710   14.75140  266.43870  266.43870   83.18990   71.55690   87.60820   87.60820   14.75140    9.27210    -999.25    0.33020    0.28640 2184.80790 -125.62090    2.01810    9.27210
  750.00000  326.53520  346.69880  346.69880   65.36030   -7.71650   -3.83910 2509.15110    -999.25    0.08540    0.11750   15.29980  274.81320  274.81320   80.74570   81.57200   89.66570   89.66570   15.29980    9.74510    -999.25    0.37340    0.33010 2509.15110 -110.84310   15.43360    9.74510
  800.00000    -999.25  342.09950  342.09950   81.90140    -999.25    -999.25    -999.25    -999.25    -999.25    -999.25   12.20980  260.61870  260.61870    -999.25   64.03750   71.17030   71.17030   12.20980   10.00260    -999.25    -999.25    -999.25    -999.25 -111.71130   12.19800   10.00260
  850.00000    -999.25  330.99860  330.99860   78.96030    -999.25    -999.25    -999.25    -999.25    -999.25    -999.25   12.66460  260.43540  260.43540    -999.25   76.31400   79.41770   79.41770   12.66460   10.33370    -999.25    -999.25    -999.25    -999.25 -112.61940   13.49530   10.33370
  900.00000  317.25400  342.22220  342.22220   73.95030   -2.71930   -2.50490 2524.05640    -999.25    0.07630    0.10870   13.52260  261.93210  261.93210   79.13680   63.76280   68.70990   68.70990   13.52260   10.95510    -999.25    0.30190    0.25790 2524.05640 -121.28600    5.60660   10.95510
  950.00000  313.45520  332.11800  332.11800   18.96350   29.85880   29.90110 2573.22630    -999.25    0.04650    0.08000   52.73290  207.79590  207.79590   51.50470   47.38320   57.89840   57.89840   52.73290   33.84070    -999.25    0.17280    0.12980 2573.22630 -119.47510    7.21580   33.84070
 1000.00000    -999.25  352.38930  352.38930  136.64940    -999.25    -999.25    -999.25    -999.25    -999.25    -999.25    7.31800  283.54430  283.54430    -999.25   69.99430   80.94500   80.94500    7.31800    5.41370    -999.25    -999.25    -999.25    -999.25 -122.76770    3.64310    5.41370
 1050.00000    -999.25  340.08610  340.08610   48.60600    -999.25    -999.25    -999.25    -999.25    -999.25    -999.25   20.57360  222.94210  222.94210    -999.25   57.00620   66.53030   66.53030   20.57360   13.44310    -999.25    -999.25    -999.25    -999.25 -116.99520    9.29140   13.44310
 1100.00000    -999.25  335.43710  335.43710  114.52920    -999.25    -999.25    -999.25    -999.25    -999.25    -999.25    8.73140  270.66960  270.66960    -999.25   67.77250   73.21710   73.21710    8.73140    7.15690    -999.25    -999.25    -999.25    -999.25 -112.47360   16.38490    7.15690
 1150.00000    -999.25  342.53560  342.53560   93.55850    -999.25    -999.25    -999.25    -999.25    -999.25    -999.25   10.68850  280.14950  280.14950    -999.25   76.15620   80.53170   80.53170   10.68850    8.26410    -999.25    -999.25    -999.25    -999.25 -111.22950   18.64230    8.26410
 1200.00000    -999.25  341.96220  341.96220   71.12880    -999.25    -999.25    -999.25    -999.25    -999.25    -999.25   14.05900  246.57190  246.57190    -999.25   71.28070   73.97310   73.97310   14.05900   10.81660    -999.25    -999.25    -999.25    -999.25 -115.51350   14.35830   10.81660
 1250.00000  311.51100  334.75670  334.75670   25.16440    0.53380    1.16010 2538.46000    -999.25    0.06760    0.10030   39.73860  229.06810  229.06810   52.71420   47.18390   48.24970   48.24970   39.73860   33.28460    -999.25    0.20340    0.15990 2536.46750 -107.40820   22.46360   33.28460
 1300.00000  319.21990  348.68020  348.68020   82.56410   -5.33610   -4.77300 2532.85000    -999.25    0.07100    0.10360   12.11180  269.17370  269.17370   91.52670   69.20010   77.21240   77.21240   12.11180    7.94980    -999.25    0.31420    0.27030 2529.45360 -114.47360   13.54610    7.94980
 1350.00000    -999.25  340.68360  340.68360   36.87300    -999.25    -999.25    -999.25    -999.25    -999.25    -999.25   27.12010  225.91570  225.91570    -999.25   45.14500   50.47740   50.47740   27.12010   20.93530    -999.25    -999.25    -999.25    -999.25 -111.74610   12.43760   20.93530
 1400.00000  314.57680  358.23100  358.23100   83.48920    7.00460    4.68820 2520.64000    -999.25    0.07840    0.11070   11.97760  274.66430  274.66430   90.20510   77.36900   83.53480   83.53480   11.97760    9.98330    -999.25    0.30710    0.26310 2525.10820 -117.40060    6.64950    9.98330
 1450.00000  432.47450  354.47740  354.47740   55.81730   58.25160   43.81910 2056.66000    -999.25    0.35960    0.38210   17.91560  272.30570  272.30570   67.84600   61.26130   62.55990   62.55990   17.91560   12.36100    -999.25    0.46190    0.42060 2005.96450  -96.15680   26.81960   12.36100
 1500.00000  320.56090  358.56680  358.56680   37.14240   18.13830   10.30940 2522.12500    -999.25    0.07750    0.10990   26.92340  255.32500  255.32500   55.88600   52.07250   54.98000   54.98000   26.92340    9.32720    -999.25    0.36840    0.32500 2513.32790 -117.61940    4.28330    9.32720
 1550.00000  319.89500  364.37630  364.37630   72.00200   29.19480   34.29050 2333.53000    -999.25    0.19180    0.22020   13.88850  275.83030  275.83030   69.61770   57.26170   64.80600   64.80600   13.88850    8.79490    -999.25    0.50180    0.46210 2331.89330 -117.84390    2.98510    8.79490
 1600.00000    -999.25  342.69860  342.69860   27.67240    -999.25    -999.25    -999.25    -999.25    -999.25    -999.25   36.13710  227.49950  227.49950    -999.25   45.49840   50.21070   50.21070   36.13710   27.07780    -999.25    -999.25    -999.25    -999.25 -107.39830   12.35700   27.07780
 1650.00000  324.74440  349.09100  349.09100   40.03380   -4.05380   -5.62350 2546.42430    -999.25    0.06280    0.09570   24.97890  253.56080  253.56080   59.00570   59.96710   62.30250   62.30250   24.97890   13.34810    -999.25    0.35870    0.31520 2546.42430 -110.06970    9.32270   13.34810
