~Version ---------------------------------------------------
VERS.      2.0 : CWLS log ASCII Standard -VERSION 2.0
WRAP.       NO : One line per depth step
CREA. 08/04/17 : LAS Creation Date
~Well ------------------------------------------------------
STRT.FT                          1000.0 : START DEPTH
STOP.FT                          9750.0 : STOP DEPTH
STEP.FT                        50.00000 : STEP LENGTH
NULL.                           -999.25 : NULL VALUE
COMP.       BRITISH AMERICAN OIL CO LTD : COMPANY
WELL. B. A. ET AL SAKWATAMAU 2-32-64-14 : WELL
FLD .                                   : FIELD
LOC .                                   : LOCATION
CTRY.                            CANADA : COUNTRY
SRVC.                        Lane Wells : SERVICE COMPANY
DATE.                       03-Apr-1966 : LOGDATE
PROV.                           Alberta : PROVINCE
UWI .                  100023206414W500 : UNIQUE WELL ID
SLAT.WGS84                     54.57622 : SURFACE LATITUDE
SLON.WGS84                    -116.0764 : SURFACE LONGITUDE
~Curve Information -----------------------------------------
DEPT  .FT    : Depth Curve
AC1ED .US/F  : DELTA T 1' SPACING FROM SONIC LOG
ACED  .US/F  : DELTA T 3' SPACING FROM SONIC LOG
CALWS .IN    : CALIPER [MCALED]
CILDED.MMHO  : CONDUCTIVITY FROM RESISTIVITY LOG
CONDWS.MMHO  : CONDUCTIVITY [1000/DRESWS]
DRESWS.OHMM  : DEEP RESISTIVITY [ILDED]
DTWS  .US/F  : COMPRESSIONAL SONIC [ACED SPL. TO AC1ED @4950.772'
GRSED .GAPI  : GAMMA RAY FROM SONIC LOG
GRWS  .GAPI  : GAMMA RAY [GRSED]
ILDED .OHMM  : DEEP INDUCTION FROM RESISTIVITY LOG
MCALED.IN    : MLT  CALIPER FROM ML LOG
SNED  .OHMM  : SHORT NORMAL FROM RESISTIVITY LOG
SPRED .MV    : SPONTANEOUS POTENTIAL FROM RESISTIVITY LOG
SPWS  .MV    : SPONTANEOUS POTENTIAL [BASELINE 0 MV, SPRED]
SRESWS.OHMM  : SHALLOW RESISTIVITY [SNED]
~Params ----------------------------------------------------
PD  .                     GL : PERMANENT DATUM
EPD .FT               3517.7 : ELEVATION PERMANENT DATUM
LMF .                     KB : LOG MEASURED FROM
DAPD.FT                 13.6 : FEET ABOVE PERMANENT DATUM
DMF .                     KB : DRILLING MEASURED FROM
EKB .FT               3531.3 : KELLY BUSHING
EGL .FT               3517.7 : GROUND LEVEL
DATE.               04/03/66 : RUN DATE
RUN .                      1 : RUN NUMBER
DD  .FT                 9767 : DEPTH DRILLER
DL  .FT                 9765 : DEPTH LOGGER
BLI .FT                 9761 : BOTTOM LOG INTERVAL
TLI .FT                  993 : TOP LOG INTERVAL
CS  .IN                9.625 : CASING SIZE
CBD .FT                  991 : CASING BOTTOM DRILLER
CBL .FT                  993 : CASING BOTTOM LOGGER
BS  .IN                 8.75 : BIT SIZE
BSD .FT                 9767 : BIT SIZE AT DEPTH
DFT .           MUD GEL CHEM : DRILLING FLUID TYPE
DFD .                   10.1 : DRILLING FLUID DENSITY
DFV .                    130 : DRILLING FLUID VISCOSITY
DFPH.                    9.5 : DRILLING FLUID PH
DFL .                      9 : DRILLING FLUID LOSS
MSS .                   CIRC : MUD SAMPLE SOURCE
RMS .OHMM                  2 : RESISTIVITY MUD SAMPLE
MST .DEGF                 60 : MUD SAMPLE TEMPERATURE
RMF .OHMM                1.6 : RESISTIVITY MUD FILTRATE SAMPLE
MFST.DEGF                 70 : MUD FILTRATE SAMPLE TEMPERATURE
RMC .OHMM                2.2 : RESISTIVITY MUD CAKE
MCST.DEGF                 70 : MUD CAKE SAMPLE TEMPERATURE
MFSS.                   MEAS : MUD FILTRATE SAMPLE SOURCE
MCSS.                   MEAS : MUD CAKE SAMPLE SOURCE
RMB .OHMM               0.71 : RESISTIVITY MUD AT BHT
TCS .HRS                   4 : TIME CIRCULATED STOPPED
LUN .                   8038 : LOGGING UNIT NUMBER
LUL .                     SL : LOGGING UNIT LOCATION
ENGI.                   COLE : RECORDING ENGINEER
WITN.              DAAE LOCK : WITNESSED BY
CLNT.                A2DTECH : CLIENT CODE
ORIG.            2" 5" PRINT : ORIGIN OF DATA
UWI .       100023206414W500 : UNIQUE WELL ID
DICO. A2D Technologies, Inc. : DIGITIZING COMPANY
~Other -----------------------------------------------------
~ASCII -----------------------------------------------------
# ...
 7900.00000   53.22090    -999.25    9.20850   25.76450   19.38420   54.10630   53.22090   19.54550   19.54550   54.10630    9.20850   43.74980  -97.26940  -87.75850   43.74980
 7950.00000   51.03590    -999.25    9.93160   64.95600   55.90810   17.88650   51.03590   20.24060   20.24060   17.88650    9.93160   28.38590  -89.77890  -80.39160   28.38590
 8000.00000   54.26020    -999.25    9.25320   26.73060   21.62300   46.24710   54.26020   26.01070   26.01070   46.24710    9.25320   50.00000  -38.57230  -29.30790   50.00000
 8050.00000   55.30250    -999.25    9.36620   43.79600   39.19010   25.52010   55.30250   23.87020   23.87020   25.52010    9.36620   31.42390  -32.64790  -23.50630   31.42390
 8100.00000   58.13860    -999.25    9.02920   44.45240   39.03320   25.61920   58.13860   37.05730   37.05730   25.61920    9.02920   31.23860  -23.54200  -14.52410   31.23860
 8150.00000   61.34730    -999.25    9.53710   93.69620   88.93270   11.24450   61.34730   38.23210   38.23210   11.24450    9.53710   16.32020  -21.71480  -12.81970   16.32020
 8200.00000   80.71470    -999.25   14.80160  202.23450  191.40220    5.22460   80.71470   50.21910   50.21910    5.22460   14.80160    5.98310  -25.54850  -16.77710    5.98310
 8250.00000   73.67990    -999.25   13.66450  190.45050  181.89760    5.49760   73.67990   54.36820   54.36820    5.49760   13.66450    6.14650  -14.70070   -6.05210    6.14650
 8300.00000   63.55630    -999.25   10.07920  103.95350   97.71620   10.23400   63.55630   42.46650   42.46650   10.23400   10.07920   13.63490  -14.83800   -6.22600   13.63490
 8350.00000   68.47930    -999.25   10.52320  162.55680  151.84180    6.58580   68.47930   53.86310   53.86310    6.58580   10.52320    8.91250  -19.57950  -10.67840    8.91250
 8400.00000   65.90600    -999.25    9.11640   89.61540   82.96070   12.06200   65.90600   46.19070   46.19070   12.06200    9.11640   16.78710  -23.69720  -14.50900   16.78710
 8450.00000   67.47310    -999.25    9.48430  161.09310  151.83720    6.58600   67.47310   46.05030   46.05030    6.58600    9.48430    9.63310  -19.85880  -10.38160    9.63310
 8500.00000  123.22000    -999.25   10.29780  160.69290  132.11780    7.56900  123.22000   56.92420   56.92420    7.56900   10.29780   10.97200  -32.33990  -22.57560   10.97200
 8550.00000   66.40630    -999.25   11.28110  154.52090  149.48110    6.69390   66.40630   44.38260   44.38260    6.69390   11.28110    7.64180  -30.44010  -20.38870    7.64180
 8600.00000   75.31950    -999.25   14.86600  197.42410  193.64830    5.16400   75.31950   45.89990   45.89990    5.16400   14.86600    6.05970  -42.34270  -32.00230    6.05970
 8650.00000   65.47410    -999.25    9.73040  117.54510  112.49430    8.88940   65.47410   45.23920   45.23920    8.88940    9.73040   13.36720  -41.70060  -31.07310   13.36720
 8700.00000   65.05110    -999.25   10.47200  165.28810  161.34240    6.19800   65.05110   61.51810   61.51810    6.19800   10.47200    9.05110  -44.05260  -33.13610    9.05110
 8750.00000   68.72370    -999.25    9.87020  143.11530  136.76150    7.31200   68.72370   53.05680   53.05680    7.31200    9.87020   10.90250  -32.68100  -21.47730   10.90250
 8800.00000   67.06090    -999.25    9.67440  156.01790  145.48580    6.88170   67.06090   49.98240   49.98240    6.88170    9.67440   10.13960  -28.51620  -17.02540   10.13960
 8850.00000   77.77730    -999.25   13.67480  182.16370  175.75000    5.68990   77.77730   60.49570   60.49570    5.68990   13.67480    7.73630  -42.77020  -30.99040    7.73630
 8900.00000   72.91680    -999.25   12.08000  163.22170  156.63370    6.38450   72.91680   57.39740   57.39740    6.38450   12.08000    9.11050  -30.61300  -18.54610    9.11050
 8950.00000   69.68250    -999.25   12.65490  203.81370  196.69550    5.08400   69.68250   56.41560   56.41560    5.08400   12.65490    7.14110  -34.49380  -22.13790    7.14110
 9000.00000   76.55630    -999.25   12.72320  220.52620  184.74040    5.41300   76.55630   58.64360   58.64360    5.41300   12.72320    6.47610  -36.10210  -23.45910    6.47610
 9050.00000   84.61850    -999.25   13.98300  255.97050  221.73560    4.51000   84.61850   59.56500   59.56500    4.51000   13.98300    5.53090  -38.36150  -25.43140    5.53090
 9100.00000   80.26740    -999.25    8.94420   25.33460   18.01540   55.50800   80.26740   97.24050   97.24050   55.50800    8.94420   86.64730  -24.95970  -11.79720   86.64730
 9150.00000   71.97420    -999.25    9.09490  100.16880   90.29960   11.07870   71.97420   52.57550   52.57550   11.07870    9.09490   15.43680  -24.27040  -12.97280   15.43680
 9200.00000   86.81880    -999.25   13.36090  173.10490  152.38330    6.56240   86.81880   74.79720   74.79720    6.56240   13.36090    8.36480  -28.27650  -18.85620    8.36480
 9250.00000   58.47690    -999.25    8.66010   26.94040   21.56060   46.38090   58.47690   37.63230   37.63230   46.38090    8.66010   86.63280  -18.35830  -10.80290   86.63280
 9300.00000   52.05280    -999.25    8.80920   18.37600   11.53590   86.69880   52.05280   19.68540   19.68540   86.69880    8.80920  119.53950  -15.76050  -10.07010  119.53950
 9350.00000   50.68200    -999.25    9.24170    8.26020    2.37800  420.51390   50.68200    9.82280    9.82280  420.51390    9.24170  188.86850  -73.46470  -67.21960  188.86850
 9400.00000   51.97950    -999.25    8.78060   50.75280   43.30090   23.11160   51.97950   14.84070   14.84070   23.11160    8.78060   76.09350 -121.51420 -114.35470   76.09350
 9450.00000   49.38840    -999.25    9.10460   10.21500    4.88820  204.57560   49.38840   10.97730   10.97730  204.57560    9.10460  150.39700 -134.45030 -126.37030  150.39700
 9500.00000   51.56600    -999.25    9.32680   41.73650   36.79570   27.17710   51.56600    7.54430    7.54430   27.17710    9.32680   48.97220 -128.02520 -119.03080   48.97220
 9550.00000   52.22470    -999.25    9.32930   27.33730   22.60130   44.25350   52.22470    7.09570    7.09570   44.25350    9.32930   51.49520 -123.71730 -113.80850   51.49520
 9600.00000   49.01530    -999.25    9.71230   12.39490    6.19160  161.50820   49.01530    3.42300    3.42300  161.50820    9.71230  125.33180 -114.03510 -103.20580  125.33180
 9650.00000   51.88340    -999.25    9.96460    5.01870    2.08950  478.58420   51.88340   10.58300   10.58300  478.58420    9.96460  150.84510  -99.70860  -87.96490  150.84510
 9700.00000   48.57920    -999.25    8.88820   12.44720    6.34470  157.61250   48.57920   10.80190   10.80190  157.61250    8.88820  108.85020  -48.10900  -35.44490  108.85020
 9750.00000   61.08290    -999.25    8.62990  127.63560  118.18790    8.46110   61.08290  109.95990  109.95990    8.46110    8.62990   14.96680  -44.54630  -31.33470   14.96680
