~Version ---------------------------------------------------
VERS. 2.0 : CWLS log ASCII Standard -VERSION 2.0
WRAP.  NO : One line per depth step
~Well ------------------------------------------------------
STRT.ft                       700.0 : START DEPTH
STOP.ft                     10900.0 : STOP DEPTH
STEP.ft                    50.00000 : STEP LENGTH
NULL.                       -999.25 : NULL VALUE
COMP.   SHELL CANADA RESOURCES LTD. : COMPANY
WELL. SHELL ET AL PEERS 11-34-53-14 : WELL
FLD .                               : FIELD
LOC .                               : LOCATION
CTRY.                        CANADA : COUNTRY
SRVC.        Schlumberger of Canada : SERVICE COMPANY
DATE.                   29-Aug-1977 : LOGDATE
PROV.                       Alberta : PROVINCE
UWI .              100113405314W500 : UNIQUE WELL ID
SLAT.WGS84                 53.62396 : SURFACE LATITUDE
SLON.WGS84                -115.9841 : SURFACE LONGITUDE
~Curve Information -----------------------------------------
DEPT   .ft    : Depth Curve
CALD   .IN    : CALIPER FROM FDC/CNL LOG
CALS   .IN    : CALIPER FROM BHC/GR LOG
DCOR   .G/C3  : DENSITY CORRECTION FROM FDC/CNL LOG
DPHI_LS.DEC   : DENSITY POROSITY LIMESTONE FROM FDC/CNL LOG
DPHI_SS.DEC   : DENSITY POROSITY SANDSTONE FROM FDC/CNL LOG
DT     .US/F  : DELTA-T (INTERVAL TRANSIT TIME) FROM BHC/GR LOG
GRD    .GAPI  : GAMMA RAY FROM FDC/CNL LOG
GRR    .GAPI  : GAMMA RAY FROM DLL LOG
GRS    .GAPI  : GAMMA RAY FROM BHC/GR LOG
LLD    .OHMM  : LATEROLOG DEEP RESISTIVITY FROM DLL LOG
LLS    .OHMM  : LATEROLOG SHALLOW RESISTIVITY FROM DLL LOG
MCAL   .IN    : CALIPER FROM PML LOG
NPHI_LS.DEC   : NEUTRON POROSITY LIMESTONE FROM FDC/CNL LOG
NPHI_SS.DEC   : NEUTRON POROSITY SANDSTONE FROM FDC/CNL LOG
PROX   .OHMM  : PROXIMITY RESISTIVITY FROM PML LOG
RHOB   .G/C3  : BULK DENSITY FROM FDC/CNL LOG
~Params ----------------------------------------------------
PD  .                     GL : PERMANENT DATUM
EPD .FT               2853.7 : ELEVATION PERMANENT DATUM
LMF .                     KB : LOG MEASURED FROM
DAPD.FT                 20.6 : FEET ABOVE PERMANENT DATUM
EKB .FT               2874.3 : KELLY BUSHING
EGL .FT               2853.7 : GROUND LEVEL
DATE.               08/29/77 : RUN DATE
RUN .                      1 : RUN NUMBER
DD  .FT                10950 : DEPTH DRILLER
DL  .FT                10935 : DEPTH LOGGER
BLI .FT                10932 : BOTTOM LOG INTERVAL
TLI .FT                 1159 : TOP LOG INTERVAL
CS  .IN                9.625 : CASING SIZE
CBD .FT                 1159 : CASING BOTTOM DRILLER
CBL .FT                 1159 : CASING BOTTOM LOGGER
BS  .IN                 8.75 : BIT SIZE
BSD .FT                10950 : BIT SIZE AT DEPTH
DFT .             KCL BARITE : DRILLING FLUID TYPE
DFD .                    9.2 : DRILLING FLUID DENSITY
DFV .                     65 : DRILLING FLUID VISCOSITY
DFPH.                   10.5 : DRILLING FLUID PH
DFL .                   14.2 : DRILLING FLUID LOSS
RMS .OHMM              0.243 : RESISTIVITY MUD SAMPLE
MST .DEGF                 60 : MUD SAMPLE TEMPERATURE
RMF .OHMM              0.172 : RESISTIVITY MUD FILTRATE SAMPLE
MFST.DEGF                 74 : MUD FILTRATE SAMPLE TEMPERATURE
RMB .OHMM              0.069 : RESISTIVITY MUD AT BHT
TCS .HRS                   5 : TIME CIRCULATED STOPPED
LUN .                   7772 : LOGGING UNIT NUMBER
LUL .                    EDM : LOGGING UNIT LOCATION
ENGI.               BERNISKY : RECORDING ENGINEER
WITN.                  CRAIG : WITNESSED BY
CLNT.                A2DTECH : CLIENT CODE
ORIG.            2" 5" PRINT : ORIGIN OF DATA
UWI .       100113405314W500 : UNIQUE WELL ID
DICO. A2D Technologies, Inc. : DIGITIZING COMPANY
~Other -----------------------------------------------------
~ASCII -----------------------------------------------------
# ...
 7150.00000    9.57000    9.67330    0.02500    -999.25    0.01970   70.10200  126.23620  119.24960  121.28310   27.38020   27.04890    -999.25    -999.25    0.23870    -999.25    2.61550
 7200.00000    9.69540    9.56880    0.03160    -999.25   -0.04000   61.47090   57.58790   66.56100   70.07540   37.13270   43.30210    -999.25    -999.25    0.16830    -999.25    2.67850
 7250.00000    9.23320    9.48940    0.02660    -999.25    0.01010   60.27620   42.96560   44.26780   38.11400   32.71860   41.14760    -999.25    -999.25    0.10860    -999.25    2.66450
 7300.00000   11.48620   10.30250    0.19170    -999.25    0.10080   83.69140  136.32620  128.83050  129.33220   14.31910   16.34050    -999.25    -999.25    0.35190    -999.25    2.50630
 7350.00000    8.55570    9.00260    0.02600    0.11060    0.01040   55.35870   30.21240   33.85760   28.48510 1139.54690  869.20680    -999.25    0.04780    0.05600    -999.25    2.65080
 7400.00000    8.50760    8.87420    0.02100    0.14060    0.08770   64.01130   23.57770   22.79060   22.38920   16.17640   12.82000    -999.25    0.10030    0.14420    -999.25    2.45410
 7450.00000    8.69480    9.14050    0.04010    0.05580   -0.03090   55.94560   34.54410   35.88570   34.39740   86.16040  113.38870    -999.25    0.05050    0.09850    -999.25    2.71210
 7500.00000    9.76530    9.69680    0.01430    0.16350    0.10430   68.11500  145.75120  144.89690  214.75750  407.74180  347.55780    -999.25    0.20550    0.24400    -999.25    2.49380
 7550.00000    9.55820    9.46250   -0.00400    0.02110   -0.02410   53.08580   69.59160   64.80760   63.16930  313.33330  269.50630    -999.25    0.03140    0.06040    -999.25    2.68640
 7600.00000   14.14920    9.93090    0.05990    0.16050    0.12280   51.74810   23.16950   23.50570   22.78790   56.35870   48.80170    -999.25    0.12120    0.15360    -999.25    2.39380
 7650.00000    8.93170    9.27310   -0.00530   -0.00660   -0.05030   56.26940   84.65510   86.59030   85.08680   23.97890   26.74230    -999.25    0.08300    0.12440    -999.25    2.73340
 7700.00000    8.84490    9.14960    0.00880   -0.02990    -999.25   53.23210   54.05790   60.05580   53.59790   21.63300   26.63690    -999.25    0.08190    -999.25    -999.25    2.73470
 7750.00000    8.92430    9.20980    0.05030   -0.02150    -999.25   55.13230   42.57930   46.10820   40.97990   18.44630   26.31360    -999.25    0.05010    -999.25    -999.25    2.79910
 7800.00000    8.74970    9.20350    0.01040   -0.00480    -999.25   52.55530   41.49880   46.46190   42.04900  243.46330  277.76550    -999.25    0.02800    -999.25    -999.25    2.69260
 7850.00000    8.80080    9.21190   -0.00240   -0.01740    -999.25   50.75740   28.43950   32.94220   27.38460  199.21290  248.88830    -999.25    0.01150    -999.25    -999.25    2.70160
 7900.00000    8.77640    9.13680    0.03940   -0.00910    -999.25   53.25200   50.79810   53.39550   51.46630  119.85700  142.50160    -999.25    0.03120    -999.25    -999.25    2.74700
 7950.00000    8.72740    9.16300    0.01610    0.00480    -999.25   56.41970   64.62310   69.58470   63.17870   56.99260   67.99790    -999.25    0.07150    -999.25    -999.25    2.68830
 8000.00000    8.91250    9.27490   -0.00020    0.02500    -999.25   56.49990   58.82660   64.25390   56.59570   40.40090   46.78150    -999.25    0.09330    -999.25    -999.25    2.68120
 8050.00000    8.82730    9.17220    0.04130   -0.02750    -999.25   54.59820   48.35900   48.12910   46.00700   70.13990   92.69140    -999.25    0.04530    -999.25    -999.25    2.75260
 8100.00000    8.69890    9.15260    0.03510   -0.00220    -999.25   52.63420   42.75770   41.28240   43.26390 1090.77990  940.97010    9.28500    0.02950    -999.25    0.34990    2.71960
 8150.00000    8.80250    9.23630    0.01280    0.00700    -999.25   51.54330   27.57290   23.93240   24.19220  537.07280  437.54230    9.82300    0.01870    -999.25   23.26470    2.65970
 8200.00000    9.01330    9.27840    0.01030    0.00230    -999.25   51.69160   45.93610   47.16630   40.80430  351.03030  356.48170    9.55700    0.01690    -999.25    0.54620    2.71260
 8250.00000   10.67940    9.65960    0.24790    0.00100    -999.25   49.33180   21.69500   24.07660   21.33810 1947.04090  823.19100   10.89200    0.00760    -999.25    -999.25    2.67810
 8300.00000   10.37840    9.61880    0.09620    0.03210    -999.25   51.38860   23.67340   23.24090   21.45080  400.16150  272.35350   11.05700    0.00700    -999.25    -999.25    2.61570
 8350.00000   10.49620    9.63390    0.18320    0.00310    -999.25   49.39100   18.52490   19.69430   17.58060  442.55670  250.69520   11.68900    0.00230    -999.25    -999.25    2.65620
 8400.00000   12.12580    9.88620    0.21830    0.13830    -999.25   46.11580   23.54470   23.65180   22.63880  345.77880  183.94780   13.54600    0.04750    -999.25    1.20200    2.50960
 8450.00000   10.99960    9.94000    0.08810    0.01310    -999.25   47.88660   21.81670   23.43520   19.51210  504.37500  152.09510   12.43300    0.00470    -999.25    -999.25    2.65940
 8500.00000   11.52690    9.64850    0.19220    0.10220    -999.25   48.25850   19.95580   22.07010   17.72010  299.87310  291.07810   11.46500    0.00480    -999.25    2.11080    2.55080
 8550.00000   10.84400    9.74870    0.23110    0.04310    -999.25   48.95850   21.68810   19.87640   17.45790   99.48200   69.82530   13.79300    0.04500    -999.25    2.01370    2.65520
 8600.00000   12.56250    9.94970    0.18240    0.15120    -999.25   48.87790   19.76160   19.69930   20.11060  228.62610  204.66720   12.15100    0.01910    -999.25    1.62480    2.44290
 8650.00000   10.30970    9.58500    0.24860    0.01020    -999.25   48.29890   20.15200   17.44510   16.46050  172.90530   87.16160   11.59500    0.01690    -999.25    4.32290    2.69000
 8700.00000   14.07870    9.55030    0.23670    0.13910    -999.25   50.00100   24.52940   25.74630   21.85260  701.54190  222.95470   14.96800    0.04730    -999.25    1.72860    2.49270
 8750.00000    9.97370    9.77430    0.12140   -0.08090    -999.25   49.94060   22.16000   23.90840   20.92390  390.61120  308.67590    9.86100    0.03760    -999.25   10.36700    2.79230
 8800.00000    9.03880    9.29220    0.06700   -0.05260    -999.25   49.67650   20.50260   20.27970   17.73740  105.00610  121.38970    8.91200    0.03350    -999.25  168.32740    2.75610
 8850.00000   12.07050    9.30010    0.24820    0.10670    -999.25   47.73640   23.17410   22.34610   22.69950 22339.76760 2914.33060    9.22100    0.02850    -999.25    1.31300    2.39550
 8900.00000    8.79060    9.07110    0.10020   -0.02100    -999.25   56.33270   83.39370   82.97070   81.62570   77.69770  101.58650    8.63100    0.04630    -999.25   56.11210    2.68800
 8950.00000   12.84160    9.58310    0.24920    0.07760    -999.25   52.82210   38.49320   32.70030   32.87240  136.35650   49.39090   15.74400    0.07390    -999.25    0.75470    2.31860
 9000.00000   11.60180    9.86960    0.25050    0.04750    -999.25   51.62170   40.88690   43.37330   42.41110  133.28090   59.49120   11.79300    0.09190    -999.25    2.26040    2.53600
 9050.00000   13.88110    9.85480    0.23930    0.17900    -999.25   50.82710   34.70420   35.36030   33.10760  106.59950   84.34560   13.70900    0.13100    -999.25    0.95770    2.28400
 9100.00000    8.79100    9.02630    0.02380   -0.02190    -999.25   54.25960   52.17140   52.31660   56.07710   81.57890  102.28280    8.66000    0.05670    -999.25   93.13350    2.73420
 9150.00000    8.74440    9.11110    0.03500   -0.01940    -999.25   55.54820   62.90320   66.03620   61.91570   55.17890   73.09280    8.64400    0.06800    -999.25   69.76540    2.75980
 9200.00000    8.83430    9.18180    0.02550   -0.00860    -999.25   57.44580   64.19650   64.38670   57.23930   32.05370   40.40210    8.76600    0.08960    -999.25   43.14670    2.72010
 9250.00000   10.29030    9.55890    0.24880    0.02430    -999.25   72.39320  109.41960  112.41410  110.53080    9.91680   12.35400   10.35900    0.20260    -999.25    3.91140    2.70760
