~Version ---------------------------------------------------
VERS. 2.0 : CWLS log ASCII Standard -VERSION 2.0
WRAP.  NO : ONE LINE PER DEPTH STEP
~Well ------------------------------------------------------
STRT.M                        300.0 : START DEPTH
STOP.M                       1750.0 : STOP DEPTH
STEP.M                     50.00000 : STEP LENGTH
NULL.                       -999.25 : NULL VALUE
COMP. KELES PRODUCTION COMPANY LTD. : COMPANY
WELL.  KELES ET AL NIPISI 16-7-78-8 : WELL
FLD .                       WILDCAT : FIELD
LOC .                               : LOCATION
CTRY.                        CANADA : COUNTRY
SRVC.        Schlumberger of Canada : SERVICE COMPANY
DATE.                   31-Dec-1986 : LOGDATE
PROV.                       Alberta : PROVINCE
UWI .              100160707808W500 : UNIQUE WELL ID
SLAT.WGS84            55.7502174377 : SURFACE LATITUDE
SLON.WGS84          -115.2186813354 : SURFACE LONGITUDE
~Curve Information -----------------------------------------
DEPT    .M      : DEPTH METERS
CALDED  .MM     : CALIPER FROM DENSITY LOG
CALWS   .MM     : CALIPER [CALDED]
CONDWS  .MMHO   : CONDUCTIVITY [1000/DRESWS]
DCORWS  .KG/M3  : DENSITY CORRECTION [DRHOED]
DENWS   .KG/M3  : BULK DENSITY [M=2710 F=1000] [CALCULATED FROM DPOLSWS]
DPHILSED.V/V    : DENSITY POROSITY [M=2710 F=1000] FROM DENSITY LOG
DPHISSED.V/V    : DENSITY POROSITY [M=2650 F=1000] FROM DENSITY LOG
DPOLSWS .V/V    : DENSITY POROSITY LIMESTONE [M=2710 F=1000] [DPHILSED]
DRESWS  .OHMM   : DEEP RESISTIVITY [ILDED]
DRHOED  .KG/M3  : DENSITY CORRECTION FROM DENSITY LOG
GRRED   .GAPI   : GAMMA RAY FROM RESISTIVITY LOG
GRWS    .GAPI   : GAMMA RAY [GRRED] CSG @ 310M
ILDED   .OHMM   : INDUCTION LOG DEEP RESISTIVITY
ILMED   .OHMM   : INDUCTION LOG MEDIUM RESISTIVITY
MRESWS  .OHMM   : MEDIUM RESISTIVITY [ILMED]
NPHILSED.V/V    : NEUTRON POROSITY LIMESTONE FROM DENSITY LOG
NPHISSED.V/V    : NEUTRON POROSITY SANDSTONE FROM DENSITY LOG
NPOLSWS .V/V    : NEUTRON POROSITY LIMESTONE [NPHILSED] CSG @ 310M
RHOBED  .KG/M3  : BULK DENSITY FROM DENSITY LOG *SMALL SCALE NOT USED*
SFLUED  .OHMM   : SPHERICALLY FOCUSED LOG RESISTIVITY
SPRED   .MV     : SPONTANEOUS POTENTIAL FROM RESISTIVITY LOG
SPWS    .MV     : SPONTANEOUS POTENTIAL [BASELINE 0 MV] [SPRED]
SRESWS  .OHMM   : SHALLOW RESISTIVITY [SFLUED]
~Params ----------------------------------------------------
PD  .                         GL : PERMANENT DATUM
EPD .M                     655.9 : ELEVATION PERMANENT DATUM
LMF .                         KB : LOG MEASURED FROM
DAPD.M                       3.6 : FEET ABOVE PERMANENT DATUM
DMF .                         KB : DRILLING MEASURED FROM
EKB .M                     659.5 : KELLY BUSHING
EDF .M                     659.2 : DRILLING FLOOR
EGL .M                     655.9 : GROUND LEVEL
DATE.                   12/13/86 : RUN DATE
RUN .                          1 : RUN NUMBER
DD  .M                    1783.5 : DEPTH DRILLER
DL  .M                      1784 : DEPTH LOGGER
BLI .M                      1783 : BOTTOM LOG INTERVAL
TLI .M                       310 : TOP LOG INTERVAL
CS  .MM                      219 : CASING SIZE
CBD .M                       310 : CASING BOTTOM DRILLER
CBL .M                       310 : CASING BOTTOM LOGGER
BS  .MM                      200 : BIT SIZE
BSD .M                      1783 : BIT SIZE AT DEPTH
DFT .                   GEL CHEM : DRILLING FLUID TYPE
DFD .                       1150 : DRILLING FLUID DENSITY
DFV .                         60 : DRILLING FLUID VISCOSITY
DFPH.                         10 : DRILLING FLUID PH
DFL .                         11 : DRILLING FLUID LOSS
MSS .                       CIRC : MUD SAMPLE SOURCE
RMS .OHMM                   0.73 : RESISTIVITY MUD SAMPLE
MST .DEGC                     22 : MUD SAMPLE TEMPERATURE
RMF .OHMM                   0.63 : RESISTIVITY MUD FILTRATE SAMPLE
MFST.DEGC                     22 : MUD FILTRATE SAMPLE TEMPERATURE
RMC .OHMM                  0.395 : RESISTIVITY MUD CAKE
MCST.DEGC                     48 : MUD CAKE SAMPLE TEMPERATURE
MFSS.                 FILT PRESS : MUD FILTRATE SAMPLE SOURCE
MCSS.                 FILT PRESS : MUD CAKE SAMPLE SOURCE
RMB .OHMM                  0.458 : RESISTIVITY MUD AT BHT
TCS .HRS                    1200 : TIME CIRCULATED STOPPED
TLAB.HRS                    1900 : TIME LOGGER AT BOTTOM
LUN .                       8387 : LOGGING UNIT NUMBER
LUL .                         SL : LOGGING UNIT LOCATION
ENGI.                     MURRAY : RECORDING ENGINEER
WITN.                      BLAKE : WITNESSED BY
CLNT.                    A2DTECH : CLIENT CODE
ORIG. 6.5"/100M 16.5"/100M PRINT : ORIGIN OF DATA
UWI .           100160707808W500 : UNIQUE WELL ID
DICO.     A2D Technologies, Inc. : DIGITIZING COMPANY
~Other -----------------------------------------------------
~ASCII -----------------------------------------------------
  300.00000    -999.25    -999.25    -999.25    -999.25    -999.25    -999.25    -999.25    -999.25    -999.25    -999.25   83.01230   83.01230    -999.25    -999.25    -999.25    0.65980    -999.25    0.65980    -999.25    -999.25    -999.25    -999.25    -999.25
  350.00000  269.75630  269.75630  206.27490   10.27960 1779.24690    0.54430    0.59930    0.54430    4.84790   10.27960   99.93480   99.93480    4.84790    4.55970    4.55970    0.51650    0.61260    0.51650 2059.17600    5.10530  -13.55340   -9.09320    5.10530
  400.00000  279.46860  279.46860  215.24360    2.85430 1936.73800    0.45220    0.51140    0.45220    4.64590    2.85430   53.73130   53.73130    4.64590    4.78230    4.78230    0.48980    0.55760    0.48980 1815.59280    4.24530  -22.97170  -19.55640    4.24530
  450.00000  276.72520  276.72520  256.58790   -0.36420 2266.59690    0.25930    0.23060    0.25930    3.89730   -0.36420   74.25150   74.25150    3.89730    4.06600    4.06600    0.38910    0.48090    0.38910 2266.97850    4.09780  -20.84090  -18.47050    4.09780
  500.00000  275.33770  275.33770  143.62040    6.98300 2070.46000    0.37400    0.35140    0.37400    6.96280    6.98300   42.33130   42.33130    6.96280    8.43040    8.43040    0.38060    0.44140    0.38060 2065.83370    9.21300  -32.40310  -31.07770    9.21300
  550.00000  339.08990  339.08990  189.27920    8.84040 2318.06790    0.22920    0.19880    0.22920    5.28320    8.84040   67.04370   67.04370    5.28320    4.95270    4.95270    0.35670    0.40230    0.35670 2315.09720    4.77960  -18.06990  -17.78940    4.77960
  600.00000  248.31350  248.31350    5.48050   -2.20190 2319.09400    0.22860    0.19670    0.22860  182.46390   -2.20190   14.69010   14.69010  182.46390  142.05030  142.05030    0.24400    0.28040    0.24400 2320.74000  264.91750  -33.09870  -33.86310  264.91750
  650.00000  283.66870  283.66870   52.72870    -999.25    -999.25    -999.25    -999.25    -999.25   18.96500    -999.25   50.94850   50.94850   18.96500   16.86210   16.86210    -999.25    -999.25    -999.25    -999.25   60.66840  -10.24410  -12.05350   60.66840
  700.00000  289.95110  289.95110  211.34950    -999.25    -999.25    -999.25    -999.25    -999.25    4.73150    -999.25   64.61450   64.61450    4.73150    4.36800    4.36800    -999.25    -999.25    -999.25    -999.25    5.08680  -14.20180  -17.05610    5.08680
  750.00000  252.06600  252.06600   79.02390    -999.25    -999.25    -999.25    -999.25    -999.25   12.65440    -999.25   22.46590   22.46590   12.65440   11.98570   11.98570    -999.25    -999.25    -999.25    -999.25   13.78340  -13.06280  -16.96200   13.78340
  800.00000  244.04630  244.04630   52.85720    -999.25    -999.25    -999.25    -999.25    -999.25   18.91890    -999.25   17.59730   17.59730   18.91890   18.17320   18.17320    -999.25    -999.25    -999.25    -999.25   21.88300  -17.97220  -22.05060   21.88300
  850.00000  303.78120  303.78120  142.84080   72.30600 2002.40200    -999.25    -999.25    -999.25    7.00080   72.30600   44.13420   44.13420    7.00080    5.76130    5.76130    -999.25    -999.25    -999.25 2002.35950   10.95790   -4.30540   -3.52430   10.95790
  900.00000  251.28690  251.28690   19.56760    6.98580 2566.01810    0.08420    -999.25    0.08420   51.10500    6.98580   17.68150   17.68150   51.10500   68.63970   68.63970    0.04130    -999.25    0.04130 2560.50120  182.31630  -52.40880  -42.70680  182.31630
  950.00000  269.83350  269.83350   57.32240   63.88840 2506.68090    0.11890    -999.25    0.11890   17.44520   63.88840   17.52180   17.52180   17.44520   28.93830   28.93830    0.09660    -999.25    0.09660 2515.26490   95.78060  -87.95550  -77.27010   95.78060
 1000.00000  255.03850  255.03850   56.57740   -3.60140 2535.92190    0.10180    -999.25    0.10180   17.67490   -3.60140    8.88050    8.88050   17.67490   28.02500   28.02500    0.09560    -999.25    0.09560 2532.33150   70.72340  -86.45050  -74.78170   70.72340
 1050.00000  248.12180  248.12180   14.55030    -999.25    -999.25    -999.25    -999.25    -999.25   68.72700    -999.25   12.08230   12.08230   68.72700   74.34850   74.34850    -999.25    -999.25    -999.25    -999.25  178.21170  -59.11320  -46.46100  178.21170
 1100.00000  234.08370  234.08370   14.78150    -999.25    -999.25    -999.25    -999.25    -999.25   67.65210    -999.25   13.12890   13.12890   67.65210   84.83950   84.83950    -999.25    -999.25    -999.25    -999.25  227.62450  -71.93630  -58.30070  227.62450
 1150.00000  246.70360  246.70360   10.04640    9.73720 2722.48290   -0.00730    -999.25   -0.00730   99.53810    9.73720   10.88070   10.88070   99.53810  119.64410  119.64410    0.16060    -999.25    0.16060 2725.06100  453.13520  -70.78910  -56.17010  453.13520
 1200.00000  237.06560  237.06560  475.12710   14.73820 2433.66410    0.16160    -999.25    0.16160    2.10470   14.73820   48.38860   48.38860    2.10470    3.09070    3.09070    0.26150    -999.25    0.26150 2429.28610   10.80970  -81.61000  -66.00760   10.80970
 1250.00000  225.72530  225.72530  103.40190    -999.25    -999.25    -999.25    -999.25    -999.25    9.67100    -999.25   43.80130   43.80130    9.67100   10.55040   10.55040    -999.25    -999.25    -999.25    -999.25   12.56290  -19.87120   -3.80460   12.56290
 1300.00000  310.70140  310.70140  431.10880    -999.25    -999.25    -999.25    -999.25    -999.25    2.31960    -999.25   93.60710   93.60710    2.31960    2.10760    2.10760    -999.25    -999.25    -999.25    -999.25    2.70060  -32.71660  -17.49490    2.70060
 1350.00000  409.93650  409.93650  396.18080    -999.25    -999.25    -999.25    -999.25    -999.25    2.52410    -999.25   76.37110   76.37110    2.52410    2.43030    2.43030    -999.25    -999.25    -999.25    -999.25    2.84950  -37.51430  -23.13740    2.84950
 1400.00000  343.69340  343.69340  386.29430    -999.25    -999.25    -999.25    -999.25    -999.25    2.58870    -999.25   76.33680   76.33680    2.58870    2.51630    2.51630    -999.25    -999.25    -999.25    -999.25    2.85440  -33.16190  -19.62980    2.85440
 1450.00000  219.23860  219.23860   71.14350    -999.25    -999.25    -999.25    -999.25    -999.25   14.05610    -999.25   17.36620   17.36620   14.05610   14.82000   14.82000    -999.25    -999.25    -999.25    -999.25   15.45330  -38.85060  -26.16330   15.45330
 1500.00000  216.52530  216.52530  102.72000    -999.25    -999.25    -999.25    -999.25    -999.25    9.73520    -999.25   48.58020   48.58020    9.73520   10.15960   10.15960    -999.25    -999.25    -999.25    -999.25   11.85490  -16.63210   -3.73410   11.85490
 1550.00000  339.00620  339.00620  381.83970    -999.25    -999.25    -999.25    -999.25    -999.25    2.61890    -999.25   88.54570   88.54570    2.61890    2.73240    2.73240    -999.25    -999.25    -999.25    -999.25    3.08100  -32.04860  -18.54160    3.08100
 1600.00000  236.64430  236.64430  120.89120  174.44480 2618.17310    0.05370    -999.25    0.05370    8.27190  174.44480   56.35540   56.35540    8.27190    9.72030    9.72030    0.14140    -999.25    0.14140 2627.79520    8.55400  -20.01460   -5.89850    8.55400
 1650.00000  228.28840  228.28840  142.53950    4.36560 2652.37300    0.03370    -999.25    0.03370    7.01560    4.36560   75.40380   75.40380    7.01560    7.38500    7.38500    0.17450    -999.25    0.17450 2650.54760    8.44730  -18.51820   -3.79310    8.44730
 1700.00000  230.74300  230.74300  164.12280    9.00380 2676.82590    0.01940    -999.25    0.01940    6.09300    9.00380   81.00020   81.00020    6.09300    6.37660    6.37660    0.21720    -999.25    0.21720 2669.97950    7.88090  -18.12160   -2.54350    7.88090
 1750.00000  206.71420  206.71420  389.28680   49.88830 2486.67410    0.13060    -999.25    0.13060    2.56880   49.88830  130.55280  130.55280    2.56880    2.66920    2.66920    0.27880    -999.25    0.27880 2484.37550    2.94430  -36.00620  -18.65740    2.94430
