~Version ---------------------------------------------------
VERS. 2.0 : CWLS log ASCII Standard -VERSION 2.0
WRAP.  NO : One line per depth step
~Well ------------------------------------------------------
STRT.M                                300.0 : START DEPTH
STOP.M                               1700.0 : STOP DEPTH
STEP.M                             50.00000 : STEP LENGTH
NULL.                               -999.25 : NULL VALUE
COMP. CONOCOPHILLIPS CANADA RESOURCES CORP. : COMPANY
WELL.      MANNVILLE ET AL NIPISI 4-30-80-7 : WELL
FLD .                                       : FIELD
LOC .                                       : LOCATION
CTRY.                                CANADA : COUNTRY
SRVC.                          Schlumberger : SERVICE COMPANY
DATE.                           18-Dec-1990 : LOGDATE
PROV.                               Alberta : PROVINCE
UWI .                      100043008007W500 : UNIQUE WELL ID
SLAT.WGS84                    55.9575288309 : SURFACE LATITUDE
SLON.WGS84                  -115.0944534502 : SURFACE LONGITUDE
~Curve Information -----------------------------------------
DEPT   .M      : DEPTH METERS
CALD   .MM     : CALIPER FROM DENSITY LOG
DPHI_LS.DEC    : DENSITY POROSITY LIMESTONE [M=2710 F=1000]
DPHI_SS.DEC    : DENSITY POROSITY SANDSTONE [M=2650 F=1000]
DRHO   .KG/M3  : DENSITY CORRECTION FROM DENSITY LOG
GRR    .GAPI   : GAMMA RAY FROM RESISTIVITY LOG
IDPH   .OHMM   : INDUCTION DEEP PHASE RESISTIVITY
IMPH   .OHMM   : INDUCTION MEDIUM PHASE RESISTIVITY
NPOR_LS.DEC    : NEUTRON POROSITY LIMESTONE
NPOR_SS.DEC    : NEUTRON POROSITY SANDSTONE
RHOB   .KG/M3  : BULK DENSITY FROM DENSITY LOG
SFLU   .OHMM   : SPHERICALLY FOCUSED LOG RESISTIVITY
SPR    .MV     : SPONTANEOUS POTENTIAL FROM RESISTIVITY LOG
~Params ----------------------------------------------------
PD  .                         GL : PERMANENT DATUM
EPD .M                     664.4 : ELEVATION PERMANENT DATUM
LMF .                         GL : LOG MEASURED FROM
DAPD.M                        KB : FEET ABOVE PERMANENT DATUM
DMF .                        4.2 : DRILLING MEASURED FROM
EKB .M                     668.8 : KELLY BUSHING
EDF .M                     668.3 : DRILLING FLOOR
EGL .M                     664.4 : GROUND LEVEL
DATE.                   12/18/90 : RUN DATE
RUN .                          1 : RUN NUMBER
DD  .M                      1716 : DEPTH DRILLER
DL  .M                    1717.3 : DEPTH LOGGER
BLI .M                    1714.4 : BOTTOM LOG INTERVAL
TLI .M                     180.7 : TOP LOG INTERVAL
CS  .MM                    219.1 : CASING SIZE
CBD .M                     180.8 : CASING BOTTOM DRILLER
CBL .M                     180.7 : CASING BOTTOM LOGGER
BS  .MM                      200 : BIT SIZE
BSD .M                      1716 : BIT SIZE AT DEPTH
DFT .                   GEL CHEM : DRILLING FLUID TYPE
DFD .                       1140 : DRILLING FLUID DENSITY
DFV .                         77 : DRILLING FLUID VISCOSITY
DFPH.                         11 : DRILLING FLUID PH
DFL .                        9.2 : DRILLING FLUID LOSS
MSS .                  FLOW LINE : MUD SAMPLE SOURCE
RMS .OHMM                  0.834 : RESISTIVITY MUD SAMPLE
MST .DEGC                     20 : MUD SAMPLE TEMPERATURE
RMF .OHMM                  0.629 : RESISTIVITY MUD FILTRATE SAMPLE
MFST.DEGC                     17 : MUD FILTRATE SAMPLE TEMPERATURE
RMC .OHMM                   1.94 : RESISTIVITY MUD CAKE
MCST.DEGC                     10 : MUD CAKE SAMPLE TEMPERATURE
MFSS.                       MEAS : MUD FILTRATE SAMPLE SOURCE
MCSS.                       MEAS : MUD CAKE SAMPLE SOURCE
RMB .OHMM                  0.545 : RESISTIVITY MUD AT BHT
TCS .HRS                    1100 : TIME CIRCULATED STOPPED
TLAB.HRS                    2015 : TIME LOGGER AT BOTTOM
LUN .                       8387 : LOGGING UNIT NUMBER
LUL .                   EDMONTON : LOGGING UNIT LOCATION
ENGI.                  ZACHYSTAL : RECORDING ENGINEER
WITN.                     PIERCE : WITNESSED BY
CLNT.                    A2DTECH : CLIENT CODE
ORIG. 6.5"/100M 16.5"/100M PRINT : ORIGIN OF DATA
UWI .           100043008007W500 : UNIQUE WELL ID
DICO.     A2D Technologies, Inc. : DIGITIZING COMPANY
~Other -----------------------------------------------------
~ASCII -----------------------------------------------------
  300.00000  216.12200    -999.25    0.45190  105.79430   78.03930    2.70930    2.52390    -999.25    0.48830 1875.20090    2.79340  -63.27290
  350.00000  216.49510    -999.25    0.29220   27.48670   36.20170    6.09850    6.74300    -999.25    0.34630 2170.98970    6.86560  -75.89050
  400.00000  204.68550    -999.25    0.40960   12.27780   56.90700    3.41060    4.15610    -999.25    0.47900 1285.63380    5.67390  -66.44730
  450.00000  243.94650    -999.25    0.33300   10.52470   53.15560    4.34760    4.22840    -999.25    0.47680 2093.87080    4.20490  -73.13010
  500.00000  228.63950    -999.25    0.30130   17.90540   51.99410    5.35850    5.80460    -999.25    0.47920 2160.88180    5.44340  -70.23340
  550.00000  254.32060    -999.25    0.22720  107.59890   57.69870    6.08050    5.79850    -999.25    0.39470 2283.98000    6.00390  -65.70180
  600.00000  254.51190    -999.25    0.06900   10.62310   12.58680   46.48140   55.43280    -999.25    0.18310 2537.71780   82.23700  -64.52070
  650.00000  241.42660    0.07740    0.04960    2.16340   17.70210   21.30370   20.73530    0.10970    -999.25 2583.59030   22.71380  -63.44350
  700.00000  277.83380    0.10820    -999.25    5.37660   26.27140    9.68410    9.18510    0.18810    -999.25 2513.88110   10.74270  -47.48570
  750.00000  247.68870    0.08290    -999.25   -1.65850   27.53540   12.12160   11.79660    0.14550    -999.25 2565.90450   12.35890  -50.14750
  800.00000  250.45150    0.04030    -999.25   -7.42060   15.73250   57.69530   68.95930    0.06700    -999.25 2635.05960   75.66100  -66.27870
  850.00000  238.28090    0.03410    -999.25   -1.47350   10.28110   71.31830   86.96260    0.05770    -999.25 2649.11010  102.02260  -79.48260
  900.00000  220.63310    0.02860    -999.25   -6.83300   10.56680  114.98720  111.76640    0.04310    -999.25 2656.92550  115.14830  -65.65170
  950.00000  234.61970    0.04530    -999.25   13.10410    8.52660   29.26080   39.19510    0.09450    -999.25 2620.97340   66.94970  -81.20110
 1000.00000  222.08090    0.02650    -999.25    0.46060   11.03540   98.13610  112.12910    0.05050    -999.25 2668.53320  115.54400  -75.68660
 1050.00000  220.23310    0.09880    -999.25   22.79570    9.14760   25.48210   41.03390    0.21720    -999.25 2547.92460   62.52420  -86.42660
 1100.00000  223.79330    0.00030    -999.25    9.74220   20.49030   21.05860   26.27760    0.15130    -999.25 2700.60990   54.71660  -80.07650
 1150.00000  220.81540   -0.03170    -999.25   76.94440   11.70210   23.51150   36.81330    0.15570    -999.25 2766.19340   66.62350  -97.74750
 1200.00000  280.03890    0.14940    -999.25  132.30800   54.83650    4.70270    4.46900    0.26920    -999.25 2423.74290    4.76660  -38.65390
 1250.00000  401.02670    0.57900    -999.25   68.56840   68.13980    2.31420    2.08170    0.43160    -999.25 1664.33030    2.44080  -40.79830
 1300.00000  223.73540    0.05780    -999.25   19.93570   60.66820    8.01290    8.62280    0.19910    -999.25 2625.84160    7.30060  -27.73550
 1350.00000  216.30320    0.05520    -999.25   59.23230   44.09140    8.42510   13.22640    0.11080    -999.25 2614.79980   13.54390  -27.85690
 1400.00000  209.69060    0.03680    -999.25   15.75140   54.13030    7.49660    7.66900    0.14930    -999.25 2635.96700    8.78390  -21.60660
 1450.00000  267.28300    0.27630    -999.25   71.66180   90.17770    2.42290    2.26760    0.43320    -999.25 2236.00070    2.72320  -29.40090
 1500.00000  263.63330    0.34510    -999.25  146.42900   76.18220    3.36120    3.29040    0.39540    -999.25 2152.37960    3.27720  -31.24830
 1550.00000  221.69150    0.02240    -999.25   30.05030   35.86350   11.71590   15.70300    0.10830    -999.25 2662.06050   17.40700  -15.76770
 1600.00000  225.91480    0.01910    -999.25    0.24860   54.61510    8.40480    9.09800    0.13990    -999.25 2671.20290   11.11670  -11.28830
 1650.00000  217.10600    0.04280    -999.25   -3.19920   76.63450    5.40270    5.46140    0.21190    -999.25 2638.77080    6.70540  -15.28300
 1700.00000  195.87830   -0.06230    -999.25    0.98360   11.61590   41.75440   38.99680    0.08740    -999.25 2819.23830  104.85390  -56.16090
