~Version ---------------------------------------------------
VERS. 2.0 : CWLS log ASCII Standard -VERSION 2.0
WRAP.  NO : ONE LINE PER DEPTH STEP
~Well ------------------------------------------------------
STRT.F                      557.7428 : START DEPTH
STOP.F                    10838.7428 : STOP DEPTH
STEP.F                       0.50000 : STEP LENGTH
NULL.                        -999.25 : NULL VALUE
COMP.           PETROFINA CANADA LTD : COMPANY
WELL. FINA AMOCO HB FOXCK 6-35-60-18 : WELL
FLD .                                : FIELD
LOC .                                : LOCATION
CTRY.                         CANADA : COUNTRY
SRVC.         Schlumberger of Canada : SERVICE COMPANY
DATE.                    29-Aug-1976 : LOGDATE
PROV.                        Alberta : PROVINCE
UWI .               100063506018W500 : UNIQUE WELL ID
SLAT.WGS84                  54.22952 : SURFACE LATITUDE
SLON.WGS84                 -116.5928 : SURFACE LONGITUDE
~Curve Information -----------------------------------------
DEPT   .F                 : 
SPR    .MV                : SPONTANEOUS POTENTIAL FROM RESISTIVITY
ILD    .OHMM              : DEEP INDUCTION RESISTIVITY
ILM    .OHMM              : INDUCTION MEDIUM RESISTIVITY
LL8    .OHMM              : LATEROLOG-8 RESISTIVITY
CALD   .IN   70 280 01 00 : CALIPER
DCOR   .G/C3 45 356 01 00 : DENSITY CORRECTION
GRD    .GAPI 45 310 01 00 : GAMMA RAY FROM DENSITY LOG
RHOB   .G/C3 45 350 01 00 : BULK DENSITY
DPOR_SS.DEC               : DENSITY POROSITY SANDSTONE
NPOR_S .DEC               : ENCHANCED THERMAL NEUTRON POROSITY IN SELECTED LITHOLOGY SANDSTONE
DPOR_LS.DEC               : DENSITY POROSITY LIMESTONE
NPOR_LS.DEC               : ENCHANCED THERMAL NEUTRON POROSITY IN SELECTED LITHOLOGY SANDSTONE
DT     .US/F 60 520 00 00 : ACOUSTIC TRANSIT TIME SLOWNESS, DELTA T
CALS   .IN                : 
GRS    .GAPI              : GAMMA RAY FROM SONIC LOG
GR     .GAPI              : GAMMA RAY
~Params ----------------------------------------------------
PD  .                     GL : PERMANENT DATUM
EPD .FT                 3085 : ELEVATION PERMANENT DATUM
LMF .                     KB : LOG MEASURED FROM
DAPD.FT                 15.7 : FEET ABOVE PERMANENT DATUM
EKB .FT               3100.9 : KELLY BUSHING
EDF .FT               3085.2 : DRILLING FLOOR
EGL .FT               3085.5 : GROUND LEVEL
DATE.               08/29/76 : RUN DATE
RUN .                      1 : RUN NUMBER
DD  .FT                10843 : DEPTH DRILLER
DL  .FT                10840 : DEPTH LOGGER
BLI .FT                10834 : BOTTOM LOG INTERVAL
TLI .FT                 1119 : TOP LOG INTERVAL
CBD .FT                 1119 : CASING BOTTOM DRILLER
CBL .FT                 1119 : CASING BOTTOM LOGGER
BS  .IN                 8.75 : BIT SIZE
BSD .FT                10843 : BIT SIZE AT DEPTH
DFT .               GEL CHEM : DRILLING FLUID TYPE
DFD .                    9.3 : DRILLING FLUID DENSITY
DFV .                    150 : DRILLING FLUID VISCOSITY
DFPH.                   10.5 : DRILLING FLUID PH
DFL .                    7.0 : DRILLING FLUID LOSS
MSS .            CIRCULATION : MUD SAMPLE SOURCE
RMS .OHMM               2.43 : RESISTIVITY MUD SAMPLE
MST .DEGF                 76 : MUD SAMPLE TEMPERATURE
RMF .OHMM               2.33 : RESISTIVITY MUD FILTRATE SAMPLE
MFST.DEGF                 73 : MUD FILTRATE SAMPLE TEMPERATURE
RMC .OHMM               2.22 : RESISTIVITY MUD CAKE
MCST.DEGF                 67 : MUD CAKE SAMPLE TEMPERATURE
RMB .OHMM               0.86 : RESISTIVITY MUD AT BHT
TCS .HRS                   3 : TIME CIRCULATED STOPPED
LUN .                   7691 : LOGGING UNIT NUMBER
LUL .                    WCT : LOGGING UNIT LOCATION
ENGI.              CROCKFORD : RECORDING ENGINEER
WITN.                 HALKOW : WITNESSED BY
CLNT.                A2DTECH : CLIENT CODE
ORIG.            2" 5" PRINT : ORIGIN OF DATA
UWI .       100063506018W500 : UNIQUE WELL ID
DICO. A2D Technologies, Inc. : DIGITIZING COMPANY
~Other -----------------------------------------------------
~ASCII -----------------------------------------------------
# ...
 3202.24280  -35.69950    5.21480    4.57000    4.95400   14.98240    0.16240   62.31390    1.87930    0.42940    0.40360    -999.25    -999.25   99.68260   13.25940   62.98310    -999.25
 3202.74280  -35.71970    5.29660    4.55930    5.05230   15.38210    0.12620   64.31680    1.79120    0.42570    0.41330    -999.25    -999.25   95.98150   12.27540   64.72290    -999.25
 3203.24280  -35.84610    5.37970    4.52050    5.07320   15.37120    0.10200   65.34070    1.69520    0.44530    0.43070    -999.25    -999.25   95.88860   11.11660   64.79740    -999.25
 3203.74280  -36.10370    5.45210    4.47080    4.94520   15.36030    0.10840   65.35450    1.65840    0.50350    0.45280    -999.25    -999.25   93.93890   10.44680   62.99550    -999.25
 3204.24280  -36.40790    5.50420    4.46640    4.68230   15.34940    0.12620   65.28280    1.70040    0.56620    0.46990    -999.25    -999.25   89.98550   10.43250   60.08380    -999.25
 3204.74280  -36.58610    5.54750    4.51180    4.43400   15.33850    0.12340   66.36730    1.71280    0.58090    0.45530    -999.25    -999.25   90.08650   10.46290   58.27600    -999.25
 3205.24280  -36.51610    5.59120    4.60120    4.40950   14.67140    0.10570   67.55510    1.68070    0.55900    0.42490    -999.25    -999.25   93.81860   10.45250   58.06320    -999.25
 3205.74280  -36.32730    5.61300    4.71690    4.71980   13.90050    0.10320   67.16000    1.65590    0.54390    0.40560    -999.25    -999.25  100.26630   10.36290   58.20210    -999.25
 3206.24280  -36.15880    5.58520    4.81540    5.14950   14.10360    0.10320   66.00320    1.61860    0.56130    0.40230    -999.25    -999.25  107.75550   10.68940   58.65590    -999.25
 3206.74280  -36.14120    5.50260    4.78240    5.34650   14.86470    0.10580   64.46460    1.60470    0.59020    0.41850    -999.25    -999.25  113.57400   11.70310   59.42630    -999.25
 3207.24280  -36.27530    5.38670    4.60660    5.29950   15.36180    0.10740   62.42980    1.61080    0.60110    0.43980    -999.25    -999.25  111.95010   11.75020   60.36450    -999.25
 3207.74280  -36.47260    5.26710    4.40880    5.17930   15.36620    0.10240   60.26150    1.59510    0.60120    0.45970    -999.25    -999.25  101.90270   10.87710   61.55670    -999.25
 3208.24280  -36.68010    5.15000    4.21920    4.97940   15.37070    0.09990   59.41000    1.58600    0.60110    0.47840    -999.25    -999.25   92.68110   10.50550   63.18560    -999.25
 3208.74280  -36.83230    5.03560    4.05160    4.70190   15.37510    0.09940   60.35820    1.59800    0.60090    0.49550    -999.25    -999.25   87.91050   10.36850   64.94900    -999.25
 3209.24280  -36.76820    4.92370    3.94960    4.42730   15.37950    0.12150   61.76500    1.65900    0.60060    0.50730    -999.25    -999.25   84.42190   10.43200   65.62140    -999.25
 3209.74280  -36.33190    4.80970    3.90480    4.24920   15.38390    0.14350   63.08060    1.73150    0.59050    0.50560    -999.25    -999.25   88.59730   10.86810   65.23620    -999.25
 3210.24280  -35.58230    4.69080    3.89560    4.20200   15.29600    0.15510   64.25290    1.77210    0.56620    0.48460    -999.25    -999.25  101.72330   11.32300   64.13640    -999.25
 3210.74280  -34.81790    4.62820    3.91890    4.20810   14.89040    0.15630   64.98400    1.78330    0.53650    0.45200    -999.25    -999.25  112.52100   11.68050   62.46550    -999.25
 3211.24280  -34.27240    4.62740    3.94620    4.27690   14.66960    0.15100   63.39940    1.78860    0.51420    0.42500    -999.25    -999.25  115.08210   12.08710   61.88880    -999.25
 3211.74280  -33.93420    4.63590    3.97460    4.42160   15.07070    0.15590   60.54200    1.81620    0.51160    0.40600    -999.25    -999.25  111.46240   12.27470   62.75610    -999.25
 3212.24280  -33.69780    4.68060    4.00320    4.56570   15.41570    0.16280   59.45200    1.84840    0.50700    0.39890    -999.25    -999.25  107.76880   12.06660   63.69540    -999.25
 3212.74280  -33.55360    4.75510    4.03190    4.64190   15.45630    0.15390   59.51270    1.86930    0.48770    0.40360    -999.25    -999.25  104.55390   11.50360   64.31280    -999.25
 3213.24280  -33.50470    4.82830    4.07020    4.63990   15.45110    0.13770   59.68950    1.86700    0.46730    0.40280    -999.25    -999.25   99.41180   10.88130   65.39320    -999.25
 3213.74280  -33.43670    4.87890    4.10930    4.59190   15.44600    0.13220   59.86630    1.84080    0.45970    0.39060    -999.25    -999.25   93.31480   10.62430   66.71760    -999.25
 3214.24280  -33.31950    4.90810    4.13870    4.61670   15.44090    0.15360   60.04310    1.82070    0.47430    0.37940    -999.25    -999.25   90.91450   10.85100   66.97280    -999.25
 3214.74280  -33.20140    4.93750    4.15510    4.76750   15.43580    0.18690   60.20480    1.85640    0.49360    0.38110    -999.25    -999.25   96.33300   11.26430   66.01860    -999.25
 3215.24280  -33.14370    4.96700    4.15700    4.88400   15.10530    0.21110   60.32020    1.95470    0.48750    0.38580    -999.25    -999.25  102.81350   11.65270   64.56440    -999.25
 3215.74280  -33.10430    5.02370    4.18520    4.82140   14.13510    0.20380   60.40360    2.05790    0.44720    0.37510    -999.25    -999.25  104.23700   11.57890   62.82900    -999.25
 3216.24280  -33.00510    5.15480    4.25420    4.66030   13.22540    0.17110   60.33010    2.15590    0.39330    0.35910    -999.25    -999.25  101.11780   11.17120   60.77610    -999.25
 3216.74280  -32.97860    5.38540    4.48530    4.70540   12.91450    0.16890   60.02660    2.25940    0.33850    0.35380    -999.25    -999.25   94.66600   10.86030   58.89240    -999.25
 3217.24280  -33.09410    5.71090    4.89440    5.07870   12.81600    0.18650   59.71130    2.31960    0.28450    0.35290    -999.25    -999.25   89.56810   10.76170   57.27100    -999.25
 3217.74280  -33.38290    6.09160    5.34310    5.59940   12.65970    0.18980   59.91460    2.34130    0.23070    0.34640    -999.25    -999.25   90.32550   10.72760   55.89540    -999.25
 3218.24280  -33.77300    6.49780    5.83290    6.12810   12.56910    0.18780   61.39810    2.37110    0.19790    0.33470    -999.25    -999.25   92.71130   10.65390   55.19150    -999.25
 3218.74280  -34.13820    6.90560    6.36960    6.61950   12.69320    0.18120   63.72190    2.38720    0.18130    0.32950    -999.25    -999.25   92.89580   10.63380   55.95210    -999.25
 3219.24280  -34.48510    7.21310    6.83590    7.57230   12.91410    0.18230   64.87280    2.38120    0.16530    0.33160    -999.25    -999.25   92.56910   10.62800   58.04050    -999.25
 3219.74280  -34.70950    7.43070    7.01240    8.87670   12.97650    0.20100   63.37850    2.36750    0.16370    0.33470    -999.25    -999.25   91.13540   10.63730   59.85250    -999.25
 3220.24280  -34.72850    7.65500    6.94960    8.79490   12.84860    0.21640   60.39850    2.35450    0.17210    0.33300    -999.25    -999.25   89.05210   10.65410   60.67420    -999.25
 3220.74280  -34.56190    7.88840    6.86840    7.46600   12.70910    0.20350   57.41850    2.36200    0.18130    0.32380    -999.25    -999.25   87.67570   10.67060   60.87710    -999.25
 3221.24280  -34.33860    8.11450    6.84440    6.58230   12.59760    0.18190   54.67160    2.38770    0.18650    0.31160    -999.25    -999.25   86.70430   10.71400   60.58540    -999.25
 3221.74280  -34.21950    8.32400    6.89180    6.71900   12.47010    0.16080   52.54100    2.38770    0.17620    0.30210    -999.25    -999.25   86.50900   10.75870   60.22370    -999.25
 3222.24280  -34.47340    8.56200    7.12860    7.63060   12.25940    0.12940   51.13860    2.34980    0.15790    0.30110    -999.25    -999.25   87.95930   10.77870   60.22410    -999.25
 3222.74280  -35.11830    8.97980    7.53770    8.53730   12.07060    0.12080   50.12070    2.31600    0.16620    0.30630    -999.25    -999.25   89.04780   10.81740   60.33370    -999.25
 3223.24280  -35.88090    9.61660    8.01970    9.09850   11.95680    0.13100   49.01170    2.29250    0.19320    0.31570    -999.25    -999.25   88.03510   10.85440   60.06240    -999.25
