~Version ---------------------------------------------------
VERS. 2.0 : CWLS log ASCII Standard -VERSION 2.0
WRAP.  NO : One line per depth step
~Well ------------------------------------------------------
STRT.ft                       700.0 : START DEPTH
STOP.ft                     10900.0 : STOP DEPTH
STEP.ft                    50.00000 : STEP LENGTH
NULL.                       -999.25 : NULL VALUE
COMP.   SHELL CANADA RESOURCES LTD. : COMPANY
WELL. SHELL ET AL PEERS 11-34-53-14 : WELL
FLD .                               : FIELD
LOC .                               : LOCATION
CTRY.                        CANADA : COUNTRY
SRVC.        Schlumberger of Canada : SERVICE COMPANY
DATE.                   29-Aug-1977 : LOGDATE
PROV.                       Alberta : PROVINCE
UWI .              100113405314W500 : UNIQUE WELL ID
SLAT.WGS84                 53.62396 : SURFACE LATITUDE
SLON.WGS84                -115.9841 : SURFACE LONGITUDE
~Curve Information -----------------------------------------
DEPT   .ft    : Depth Curve
CALD   .IN    : CALIPER FROM FDC/CNL LOG
CALS   .IN    : CALIPER FROM BHC/GR LOG
DCOR   .G/C3  : DENSITY CORRECTION FROM FDC/CNL LOG
DPHI_LS.DEC   : DENSITY POROSITY LIMESTONE FROM FDC/CNL LOG
DPHI_SS.DEC   : DENSITY POROSITY SANDSTONE FROM FDC/CNL LOG
DT     .US/F  : DELTA-T (INTERVAL TRANSIT TIME) FROM BHC/GR LOG
GRD    .GAPI  : GAMMA RAY FROM FDC/CNL LOG
GRR    .GAPI  : GAMMA RAY FROM DLL LOG
GRS    .GAPI  : GAMMA RAY FROM BHC/GR LOG
LLD    .OHMM  : LATEROLOG DEEP RESISTIVITY FROM DLL LOG
LLS    .OHMM  : LATEROLOG SHALLOW RESISTIVITY FROM DLL LOG
MCAL   .IN    : CALIPER FROM PML LOG
NPHI_LS.DEC   : NEUTRON POROSITY LIMESTONE FROM FDC/CNL LOG
NPHI_SS.DEC   : NEUTRON POROSITY SANDSTONE FROM FDC/CNL LOG
PROX   .OHMM  : PROXIMITY RESISTIVITY FROM PML LOG
RHOB   .G/C3  : BULK DENSITY FROM FDC/CNL LOG
~Params ----------------------------------------------------
PD  .                     GL : PERMANENT DATUM
EPD .FT               2853.7 : ELEVATION PERMANENT DATUM
LMF .                     KB : LOG MEASURED FROM
DAPD.FT                 20.6 : FEET ABOVE PERMANENT DATUM
EKB .FT               2874.3 : KELLY BUSHING
EGL .FT               2853.7 : GROUND LEVEL
DATE.               08/29/77 : RUN DATE
RUN .                      1 : RUN NUMBER
DD  .FT                10950 : DEPTH DRILLER
DL  .FT                10935 : DEPTH LOGGER
BLI .FT                10932 : BOTTOM LOG INTERVAL
TLI .FT                 1159 : TOP LOG INTERVAL
CS  .IN                9.625 : CASING SIZE
CBD .FT                 1159 : CASING BOTTOM DRILLER
CBL .FT                 1159 : CASING BOTTOM LOGGER
BS  .IN                 8.75 : BIT SIZE
BSD .FT                10950 : BIT SIZE AT DEPTH
DFT .             KCL BARITE : DRILLING FLUID TYPE
DFD .                    9.2 : DRILLING FLUID DENSITY
DFV .                     65 : DRILLING FLUID VISCOSITY
DFPH.                   10.5 : DRILLING FLUID PH
DFL .                   14.2 : DRILLING FLUID LOSS
RMS .OHMM              0.243 : RESISTIVITY MUD SAMPLE
MST .DEGF                 60 : MUD SAMPLE TEMPERATURE
RMF .OHMM              0.172 : RESISTIVITY MUD FILTRATE SAMPLE
MFST.DEGF                 74 : MUD FILTRATE SAMPLE TEMPERATURE
RMB .OHMM              0.069 : RESISTIVITY MUD AT BHT
TCS .HRS                   5 : TIME CIRCULATED STOPPED
LUN .                   7772 : LOGGING UNIT NUMBER
LUL .                    EDM : LOGGING UNIT LOCATION
ENGI.               BERNISKY : RECORDING ENGINEER
WITN.                  CRAIG : WITNESSED BY
CLNT.                A2DTECH : CLIENT CODE
ORIG.            2" 5" PRINT : ORIGIN OF DATA
UWI .       100113405314W500 : UNIQUE WELL ID
DICO. A2D Technologies, Inc. : DIGITIZING COMPANY
~Other -----------------------------------------------------
~ASCII -----------------------------------------------------
# ...
 9300.00000   13.07100   10.92990    0.16100    0.06730    -999.25   77.64830  119.32930  114.87870  118.23420    9.48250   12.49100   12.81300    0.26740    -999.25    1.15360    2.56490
 9350.00000    8.84380    9.08840    0.05980    0.02050    -999.25   68.53500  103.60970  100.50840   98.63820   19.54510   23.77670    8.67600    0.19940    -999.25   20.97520    2.68610
 9400.00000    8.86610    9.14070    0.01290    0.00150    -999.25   58.01690   69.88320   70.24210   61.77080   42.78940   53.27960    8.80600    0.08520    -999.25   37.70130    2.70910
 9450.00000   10.02220    9.73160    0.25000    0.01320    -999.25   66.86700   95.44470   87.14070   86.31240   12.98480   15.18020   11.15200    0.15090    -999.25    2.00680    2.62240
 9500.00000    8.99710    9.18410    0.06520   -0.01030    -999.25   55.75570   59.56780   61.70570   57.18110   53.09130   65.48260    8.78200    0.06880    -999.25   48.08680    2.74180
 9550.00000    8.83130    9.16230    0.01770    0.01030    -999.25   58.94960   73.08940   69.02850   71.49050   40.87470   51.40950    8.79000    0.10350    -999.25   39.79230    2.70560
 9600.00000    8.79430    9.08980    0.00340   -0.00100    -999.25   66.50600  111.92150  111.16560  105.95440   15.91410   20.48060    8.76600    0.18770    -999.25   20.50470    2.67660
 9650.00000    8.81640    9.11170    0.00960   -0.00450    -999.25   62.30360   81.59980   79.31200   82.16120   23.80650   28.30570    8.72500    0.12920    -999.25   23.20200    2.72610
 9700.00000    8.85880    9.10840    0.00980    0.02190    -999.25   67.50390  115.85280  109.06140  108.71930   15.14460   19.61260    8.66000    0.19980    -999.25   19.41660    2.69110
 9750.00000    8.79250    9.13720    0.01770   -0.01360    -999.25   70.98990  126.16860  118.89230  115.33460   14.01650   17.84610    8.70100    0.21300    -999.25   15.40000    2.72970
 9800.00000    8.83050    9.08870   -0.00210   -0.00490    -999.25   72.75810  126.60680  124.49250  129.95860   11.59660   15.05490    8.34300    0.21740    -999.25   15.65140    2.70040
 9850.00000    8.79430    9.01270    0.02790   -0.03300    -999.25   66.18670  108.54100  102.75590  107.76900   18.13500   23.82790    8.43300    0.18260    -999.25   25.06220    2.74410
 9900.00000    8.79590    9.00200   -0.00850   -0.00510    -999.25   70.30160  113.03680  113.20760  102.97160   12.07590   15.66140    8.44100    0.20610    -999.25   16.31460    2.68900
 9950.00000    8.70590    9.00970   -0.00170   -0.01930    -999.25   63.17580   89.01580   92.67700   88.31430   25.20840   30.96200    8.44100    0.13990    -999.25   31.26590    2.70380
 10000.00000    8.74220    8.99840    0.01140   -0.02100    -999.25   72.74020  129.67470  123.88450  135.90320   12.48140   16.34970    8.47300    0.22130    -999.25   19.56690    2.72530
 10050.00000    8.69110    9.02750   -0.00140   -0.01850    -999.25   72.55100  136.61070  128.58220  119.03760   12.50210   15.98060    8.47100    0.21800    -999.25   19.29660    2.70620
 10100.00000    8.62920    8.96220    0.00880    0.06840    -999.25   65.34280  114.51740  116.55840  128.01650 1100.62920  818.41640    8.61900    0.16060    -999.25  564.10960    2.64670
 10150.00000    8.68880    9.00470    0.02160   -0.01890    -999.25   51.39110   33.79320   34.54250   35.05100  684.06340  598.70040    8.70100    0.02360    -999.25  487.94050    2.74260
 10200.00000   10.78930    9.88990    0.18580    0.07730    -999.25   80.27470  148.93150  143.58870  150.03070   17.01990   18.16200   10.47900    0.24300    -999.25    4.76150    2.58920
 10250.00000    8.59400    8.96920    0.05840    0.02540    -999.25   73.28030  126.69600  128.15880  134.10640   16.81790   19.31270    8.57100    0.22220    -999.25    6.65660    2.66640
 10300.00000    8.68910    8.97030    0.01100   -0.01250    -999.25   51.86130   38.22620   44.85310   38.97770 1725.07530 1010.54290    8.53800    0.03810    -999.25  659.37980    2.74150
 10350.00000    9.05140    9.02960    0.01030   -0.00140    -999.25   53.07010   46.43020   50.97000   47.49180  263.86070  264.23110    8.40800    0.05040    -999.25  297.22900    2.70310
 10400.00000    9.10500    8.89830   -0.01290   -0.00210    -999.25   55.50860   71.79220   75.91760   80.89380   54.80530   62.82710    8.63600    0.12190    -999.25   30.67580    2.67170
 10450.00000    8.82800    9.35250    0.03790    0.01680    -999.25   48.51430   42.77170   37.44410   34.38710 1693.05130  530.74070    8.80500    0.00540    -999.25   18.55480    2.70690
 10500.00000    8.92550    8.97930    0.07680    0.00050    -999.25   48.24680   23.55690   24.03480   24.05590 37006.48440  672.61440    8.43600    0.00090    -999.25 3191.05220    2.76000
 10550.00000    8.89020    8.91220   -0.00080    0.00790    -999.25   48.23860   16.65660   15.21480   12.22270  159.30690   99.37200    8.44000    0.01080    -999.25  151.21320    2.69380
 10600.00000    9.11410    9.25700    0.15100   -0.02680    -999.25   49.24100   22.00150   20.76660   21.91680 36500.77730  672.40770    8.64100    0.00200    -999.25   25.33220    2.77360
 10650.00000   10.30840    9.31650    0.18840    0.01680    -999.25   51.15640   24.43320   26.14490   22.71610 9575.14060 1202.95080    9.22500    0.00200    -999.25    9.48960    2.62840
 10700.00000    8.94920    9.04760    0.02940    0.02070    -999.25   51.24760   75.71570   73.21380   70.87820  415.41290  364.84150    8.41300    0.02870    -999.25  325.87660    2.72840
 10750.00000    9.54940    9.11160    0.24990    0.11390    -999.25   59.81770   65.68720   78.52510   61.37280   36.36080   34.42250    8.68500    0.03020    -999.25    8.61800    2.51690
 10800.00000    8.93940    8.92210    0.00120    0.00170    -999.25   56.04510  143.39320  136.04770  150.06040  121.80940  129.41410    8.28300    0.10720    -999.25  107.02240    2.67780
 10850.00000    8.97710    9.01720    0.01770   -0.01830    -999.25   50.39060  127.79940  115.32600  123.67110  163.28520  167.46390    8.23300    0.05530    -999.25  105.19300    2.73360
 10900.00000   10.41200    9.37160    0.24750    0.05330    -999.25   51.07410   33.94650   30.11330   28.02140   50.34090   37.12330    9.53900    0.07150    -999.25    3.33310    2.59510
