~Version ---------------------------------------------------
VERS.      2.0 : CWLS log ASCII Standard -VERSION 2.0
WRAP.       NO : One line per depth step
CREA. 10/25/17 : LAS Creation Date
~Well ------------------------------------------------------
STRT.FT                             1050.0 : START DEPTH
STOP.FT                            10000.0 : STOP DEPTH
STEP.FT                           50.00000 : STEP LENGTH
NULL.                              -999.25 : NULL VALUE
COMP.               FRONTIER PRODUCING INC : COMPANY
WELL. FRONT HUBER B.A. EAGLE T 12-28-63-16 : WELL
FLD .                                   WC : FIELD
LOC .                                      : LOCATION
CTRY.                               CANADA : COUNTRY
SRVC.                           Lane Wells : SERVICE COMPANY
DATE.                          16-Feb-1966 : LOGDATE
PROV.                              Alberta : PROVINCE
UWI .                     100122806316W500 : UNIQUE WELL ID
SLAT.WGS84                        54.48142 : SURFACE LATITUDE
SLON.WGS84                       -116.3666 : SURFACE LONGITUDE
~Curve Information -----------------------------------------
DEPT  .FT    : Depth Curve
ACED  .US/F  : ACOUSTIC FROM SONIC LOG [ADJ TO ILED]
CALWS .IN    : CALIPER [MCALED]
CILED .MMHO  : DEEP INDUCTION CONDUCTIVITY FROM IEL LOG
CONDWS.MMHO  : CONDUCTIVITY [1000/DRESWS]
DRESWS.OHMM  : DEEP RESISTIVITY [1000/CILDED IF ILDED <4, ILDED]
DTWS  .US/F  : COMPRESSIONAL SONIC [ACED]
GRSED .GAPI  : GAMMA RAY FROM SONIC LOG [ADJ TO ILED]
GRWS  .GAPI  : GAMMA RAY [GRSED]
ILED  .OHMM  : DEEP INDUCTION FROM IEL LOG
MCALED.IN    : MLT CALIPER FROM ML LOG
MINVED.OHMM  : MICRO INVERSE RESISTIVITY FROM ML LOG
MNORED.OHMM  : MICRO NORMAL RESISTIVITY FROM ML LOG
SNED  .OHMM  : SHORT NORMAL 10" FROM IEL LOG
SPRED .MV    : SPONTANEOUS POTENTIAL FROM IEL LOG
SPWS  .MV    : SPONTANEOUS POTENTIAL [BASELINE 0 MV, SPRED]
SRESWS.OHMM  : SHALLOW RESISTIVITY [SNED]
~Params ----------------------------------------------------
PD  .                     GL : PERMANENT DATUM
EPD .FT                 3184 : ELEVATION PERMANENT DATUM
LMF .                     KB : LOG MEASURED FROM
DAPD.FT                   14 : FEET ABOVE PERMANENT DATUM
DMF .                     KB : DRILLING MEASURED FROM
EKB .FT                 3198 : KELLY BUSHING
EGL .FT                 3184 : GROUND LEVEL
DATE.               02/16/66 : RUN DATE
RUN .                      1 : RUN NUMBER
DD  .FT                10035 : DEPTH DRILLER
DL  .FT                10036 : DEPTH LOGGER
BLI .FT                10032 : BOTTOM LOG INTERVAL
TLI .FT                 1022 : TOP LOG INTERVAL
CS  .IN                8.625 : CASING SIZE
CBD .FT                 1023 : CASING BOTTOM DRILLER
CBL .FT                 1022 : CASING BOTTOM LOGGER
BS  .IN                7.875 : BIT SIZE
BSD .FT                10035 : BIT SIZE AT DEPTH
DFT .                MUD GEL : DRILLING FLUID TYPE
DFD .                   10.2 : DRILLING FLUID DENSITY
DFV .                    114 : DRILLING FLUID VISCOSITY
DFPH.                   10.5 : DRILLING FLUID PH
DFL .                    4.8 : DRILLING FLUID LOSS
MSS .                   CIRC : MUD SAMPLE SOURCE
RMS .OHMM                2.9 : RESISTIVITY MUD SAMPLE
MST .DEGF                 71 : MUD SAMPLE TEMPERATURE
RMF .OHMM                1.6 : RESISTIVITY MUD FILTRATE SAMPLE
MFST.DEGF                 74 : MUD FILTRATE SAMPLE TEMPERATURE
RMC .OHMM                2.4 : RESISTIVITY MUD CAKE
MCST.DEGF                 74 : MUD CAKE SAMPLE TEMPERATURE
MFSS.                   MEAS : MUD FILTRATE SAMPLE SOURCE
MCSS.                   MEAS : MUD CAKE SAMPLE SOURCE
RMB .OHMM                1.2 : RESISTIVITY MUD AT BHT
TCS .HRS                 3.5 : TIME CIRCULATED STOPPED
LUN .                   8038 : LOGGING UNIT NUMBER
LUL .                     SL : LOGGING UNIT LOCATION
ENGI.                 WOOLAM : RECORDING ENGINEER
WITN.                HESKETH : WITNESSED BY
CLNT.                A2DTECH : CLIENT CODE
ORIG.            2" 5" PRINT : ORIGIN OF DATA
UWI .       100122806316W500 : UNIQUE WELL ID
DICO. A2D Technologies, Inc. : DIGITIZING COMPANY
~Other -----------------------------------------------------
~ASCII -----------------------------------------------------
# ...
 5350.00000   71.93610   10.68610  123.06700  123.07090    8.12540   71.93610  102.79140  102.79140    8.12540   10.68610    6.14640    4.79220   11.19070  -55.65680  -12.38630   11.19070
 5400.00000   83.42350   11.14520  139.09450  139.06740    7.19250   83.42350  126.44370  126.44370    7.19250   11.14520    2.20260    2.74320    9.86180  -50.48790   -8.99820    9.86180
 5450.00000   72.89600   10.34060  109.83390  105.73950    9.45720   72.89600  115.54020  115.54020    9.45720   10.34060    8.28950    6.58010   15.58050  -50.23950  -10.54770   15.58050
 5500.00000   69.39360   10.71760  101.93230  101.95860    9.80790   69.39360  105.58180  105.58180    9.80790   10.71760    8.74840    9.10650   16.18460  -48.10130  -10.19810   16.18460
 5550.00000   72.31360   10.34850  110.50650  110.51700    9.04860   72.31360  100.83340  100.83340    9.04860   10.34850    5.77670    8.34500   12.95960  -57.60490  -21.36600   12.95960
 5600.00000   72.16890    9.68750  120.95700  120.95850    8.26730   72.16890   76.05990   76.05990    8.26730    9.68750    3.21600    4.74020   21.79230 -106.04810  -69.96900   21.79230
 5650.00000  127.92740    9.94820   48.15370   44.68630   22.66100  127.92740   69.04770   69.04770   22.66100    9.94820    2.90160    4.58120   27.34490  -58.97880  -23.05840   27.34490
 5700.00000   73.98160    9.82910  201.85710  201.88150    4.95340   73.98160   79.74340   79.74340    4.95340    9.82910    4.86050    4.86710    8.17630  -67.63110  -31.87050    8.17630
 5750.00000   74.92440    9.77540  128.13970  128.10990    7.80580   74.92440   99.29020   99.29020    7.80580    9.77540    9.86980    6.16440   10.54370  -41.52730   -5.92540   10.54370
 5800.00000   57.05490   13.95950  245.50330  245.62660    4.07200   57.05490   87.74110   87.74110    4.07200   13.95950    1.60670    2.25320    4.63510  -37.80920   -2.36610    4.63510
 5850.00000   81.11050   13.09820  129.01650  125.43750    7.97210   81.11050  111.10820  111.10820    7.97210   13.09820    1.83090    2.91860    9.11380  -41.37890   -5.58010    9.11380
 5900.00000   71.92660    9.46010  101.53650  101.53980    9.84840   71.92660   67.65230   67.65230    9.84840    9.46010    2.47990    4.14660   23.82100  -95.47670  -59.03860   23.82100
 5950.00000   49.93530   10.26230   87.75740   86.91340   11.50570   49.93530   91.02870   91.02870   11.50570   10.26230    8.50710    5.34730   17.23570  -58.56200  -21.58810   17.23570
 6000.00000   87.24470    9.05950  147.50500  147.55570    6.77710   87.24470   65.65920   65.65920    6.77710    9.05950    3.26100    5.18540   20.67540 -129.74180  -92.23810   20.67540
 6050.00000  124.50200   14.30280  320.24660  320.24660    3.12270  124.50200   86.34320   86.34320    3.29880   14.30280    1.32560    1.75620    4.00710  -40.55860   -3.43390    4.00710
 6100.00000   96.39200   16.13050  246.17860  246.25080    4.06090   96.39200   78.26090   78.26090    4.06090   16.13050    1.37530    2.57110    5.18710  -39.33630   -4.48220    5.18710
 6150.00000   56.24910   10.62010  147.37020  147.28500    6.79270   56.24910   97.76360   97.76360    6.79270   10.62010    9.20400    6.32340   10.39920  -37.57520   -4.97110   10.39920
 6200.00000   84.42850   15.13470  129.90760  113.17210    8.83610   84.42850   62.47980   62.47980    8.83610   15.13470    1.37700    1.64630   14.22500  -33.90320   -3.56960   14.22500
 6250.00000   61.05300    8.89890    7.44420    8.20580  121.86490   61.05300   48.59100   48.59100  121.86490    8.89890    -999.25    -999.25  167.96770  -51.10590  -21.23420  167.96770
 6300.00000   78.31350    7.88370  125.32970  125.17580    7.98950   78.31350   35.15350   35.15350    7.98950    7.88370    4.76510    7.46760   39.04120 -159.59430 -130.04630   39.04120
 6350.00000   65.56220    9.21340   89.18750   85.24060   11.73150   65.56220   43.07500   43.07500   11.73150    9.21340   10.83700    8.61500   26.59300  -66.45710  -37.23380   26.59300
 6400.00000   62.19900    9.67410  111.20480  111.18970    8.99980   62.19900   57.67340   57.67340    8.99980    9.67410   22.51860   34.40270   15.91970  -49.05180  -20.15200   15.91970
 6450.00000   51.25450    9.51150   78.95040   78.99210   12.65950   51.25450   31.57770   31.57770   12.65950    9.51150   39.97800   14.37040   28.51820  -88.11450  -59.53940   28.51820
 6500.00000   60.83530    9.07730   53.27830   54.65170   18.29770   60.83530   20.73890   20.73890   18.29770    9.07730   39.97710   29.68350   46.35350  -77.14050  -48.88750   46.35350
 6550.00000   59.05850    9.40040  207.06340  183.18710    5.52830   59.05850   30.23470   30.23470    5.52830    9.40040   20.26430   18.22680   24.67500  -89.43400  -61.50470   24.67500
 6600.00000   54.18160    9.71070    6.69390    8.31190  120.30950   54.18160   15.19770   15.19770  120.30950    9.71070   17.30720   39.93620  188.76550 -100.06330  -70.58310  188.76550
 6650.00000   54.15310    8.50700   46.44830   50.42990   19.82980   54.15310   15.26810   15.26810   19.82980    8.50700    2.04500    4.15740   78.01020 -169.50610 -136.59250   78.01020
 6700.00000   55.94720    8.60690   43.31740   43.95300   22.75160   55.94720   16.21170   16.21170   22.75160    8.60690    1.66420    2.92670   95.45900 -182.00690 -145.62620   95.45900
 6750.00000   60.29390    9.30360  110.01580  110.01220    9.08990   60.29390   67.80590   67.80590    9.08990    9.30360   13.75780    8.49640   22.65900  -75.99270  -36.16270   22.65900
 6800.00000   63.49360    9.07940  173.92230  171.60490    5.82860   63.49360   61.22310   61.22310    5.82860    9.07940   17.26860   13.15460   17.76280  -87.09700  -43.83340   17.76280
 6850.00000   63.88590    9.23620  396.16110  396.16110    2.52420   63.88590   62.26480   62.26480    2.84160    9.23620    1.76080    2.99690   15.78520 -141.52010  -95.26870   15.78520
 6900.00000   51.26600    9.45040   33.48310   31.07250   32.24590   51.26600   30.26340   30.26340   32.24590    9.45040   37.23630   27.21920   66.88420  -67.23560  -19.38440   66.88420
 6950.00000   59.02890    9.68690   24.95700   17.39300   57.49440   59.02890   31.62950   31.62950   57.49440    9.68690   14.21540   24.49900   79.35110  -71.60630  -22.46140   79.35110
 7000.00000   54.52330    9.17260   14.15090   10.71680   93.31110   54.52330   19.93030   19.93030   93.31110    9.17260    -999.25    -999.25  102.75540  -65.47720  -15.11030  102.75540
 7050.00000   56.83680    8.58950   19.36010   17.42760   57.38270   56.83680   33.04410   33.04410   57.38270    8.58950   40.64440   33.24630   73.73870  -54.93460   -8.02600   73.73870
 7100.00000   51.25440    8.64520   13.23150   11.30900   88.42530   51.25440   24.54330   24.54330   88.42530    8.64520   40.02210   40.03520   96.52280 -100.72930  -59.55140   96.52280
 7150.00000   53.96600    9.09090   32.34400   32.90440   30.39200   53.96600   13.90960   13.90960   30.39200    9.09090    4.46780    8.73080   40.19770 -115.42310  -79.91920   40.19770
 7200.00000   52.68610    8.81360   10.94160   11.62740   86.00370   52.68610   24.26110   24.26110   86.00370    8.81360    -999.25   40.02430   98.93610  -67.88560  -38.11240   98.93610
 7250.00000   54.24440    8.63750    3.17490    3.02820  330.22960   54.24440   28.05270   28.05270  330.22960    8.63750   24.46800   39.29110  280.36070  -74.82500  -50.75380  280.36070
 7300.00000   67.45640    9.04740   14.20530   15.00940   66.62510   67.45640   93.51270   93.51270   66.62510    9.04740   34.50200   31.61850   79.67710  -24.40790   -6.01060   79.67710
 7350.00000   69.27040    9.11490   57.03290   46.40820   21.54790   69.27040  230.23640  230.23640   21.54790    9.11490   24.05410    6.89110   37.04790  -11.31950    1.34710   37.04790
 7400.00000   52.03220    9.47810    6.68680    7.41390  134.88760   52.03220   10.60860   10.60860  134.88760    9.47810   39.99200   39.28980  114.15290  -66.66840  -50.45550  114.15290
 7450.00000   51.13510    9.42480    3.64740    4.53190  220.65580   51.13510   14.34840   14.34840  220.65580    9.42480   39.68580   36.60180  149.68780  -77.49580  -48.50940  149.68780
