~Version ---------------------------------------------------
VERS.      2.0 : CWLS log ASCII Standard -VERSION 2.0
WRAP.       NO : One line per depth step
CREA. 09/30/14 : LAS Creation Date
~Well ------------------------------------------------------
STRT.FT                      1000.0 : START DEPTH
STOP.FT                      9700.0 : STOP DEPTH
STEP.FT                    50.00000 : STEP LENGTH
NULL.                       -999.25 : NULL VALUE
COMP. HUDSON'S BAY OIL & GAS CO LTD : COMPANY
WELL.         HB MEEKWAP 11-8-66-18 : WELL
FLD .                               : FIELD
LOC .                               : LOCATION
CTRY.                        CANADA : COUNTRY
SRVC.                  Schlumberger : SERVICE COMPANY
DATE.                   20-Feb-1976 : LOGDATE
PROV.                       Alberta : PROVINCE
UWI .              100110806618W500 : UNIQUE WELL ID
SLAT.WGS84                 54.70024 : SURFACE LATITUDE
SLON.WGS84                -116.6871 : SURFACE LONGITUDE
~Curve Information -----------------------------------------
DEPT   .FT    : Depth Curve
CALD   .IN    : CALIPER FROM DENSITY LOG
CALS   .IN    : CALIPER FROM SONIC LOG
CILD   .MMHO  : CONDUCTIVITY FROM RESISTIVITY LOG
DPHI_LS.DEC   : DENSITY POROSITY LIMESTONE [M=2.71,F=1.0] FROM DENSITY LOG
DPHI_SS.DEC   : DENSITY POROSITY SANDSTONE [M=2.65,F=1.0] FROM DENSITY LOG
DRHO   .G/C3  : BULK DENSITY CORRECTION FROM DENSITY LOG
DT     .US/F  : DELTA-T FROM SONIC LOG
GRD    .GAPI  : GAMMA RAY FROM DENSITY LOG
GRS    .GAPI  : GAMMA RAY FROM SONIC LOG
ILD    .OHMM  : DEEP INDUCTION FROM RESISTIVITY LOG
ILM    .OHMM  : MEDIUM INDUCTION FROM RESISTIVITY LOG
LL8    .OHMM  : LATEROLOG 8 FROM RESISTIVITY LOG
NPHI_LS.DEC   : NEUTRON POROSITY LIMESTONE FROM DENSITY LOG
NPHI_SS.DEC   : NEUTRON POROSITY SANDSTONE FROM DENSITY LOG
RHOB   .G/C3  : BULK DENSITY FROM DENSITY LOG
SPR    .MV    : SPONTANEOUS POTENTIAL FROM RESISTIVITY LOG
~Params ----------------------------------------------------
PD  .                     GL : PERMANENT DATUM
EPD .FT                 2674 : ELEVATION PERMANENT DATUM
LMF .                     KB : LOG MEASURED FROM
DAPD.FT                 16.8 : FEET ABOVE PERMANENT DATUM
EKB .FT               2690.8 : KELLY BUSHING
EGL .FT                 2674 : GROUND LEVEL
DATE.               02/20/76 : RUN DATE
RUN .                      1 : RUN NUMBER
DD  .FT                 9730 : DEPTH DRILLER
DL  .FT                 9732 : DEPTH LOGGER
BLI .FT                 9726 : BOTTOM LOG INTERVAL
TLI .FT                  995 : TOP LOG INTERVAL
CBD .FT                  995 : CASING BOTTOM DRILLER
CBL .FT                  995 : CASING BOTTOM LOGGER
BS  .IN                 8.75 : BIT SIZE
BSD .FT                 9730 : BIT SIZE AT DEPTH
DFT .                    GEL : DRILLING FLUID TYPE
DFD .                    9.6 : DRILLING FLUID DENSITY
DFV .                    120 : DRILLING FLUID VISCOSITY
DFPH.                      9 : DRILLING FLUID PH
DFL .                     10 : DRILLING FLUID LOSS
MSS .               FLOWLINE : MUD SAMPLE SOURCE
RMS .OHMM               0.68 : RESISTIVITY MUD SAMPLE
MST .DEGF                199 : MUD SAMPLE TEMPERATURE
RMF .OHMM                1.9 : RESISTIVITY MUD FILTRATE SAMPLE
MFST.DEGF                 60 : MUD FILTRATE SAMPLE TEMPERATURE
RMB .OHMM               0.57 : RESISTIVITY MUD AT BHT
LUN .                   7800 : LOGGING UNIT NUMBER
LUL .                    EDM : LOGGING UNIT LOCATION
ENGI.               BERNLSKY : RECORDING ENGINEER
WITN.                HARDMAN : WITNESSED BY
CLNT.                A2DTECH : CLIENT CODE
ORIG.            2" 5" PRINT : ORIGIN OF DATA
UWI .       100110806618W500 : UNIQUE WELL ID
DICO. A2D Technologies, Inc. : DIGITIZING COMPANY
~Other -----------------------------------------------------
~ASCII -----------------------------------------------------
# ...
 5300.00000   10.19010   10.22410    -999.25    -999.25    0.01930    0.07950   78.07490   82.97760  118.43210   10.54480    9.55880   10.43310    -999.25    0.25110    2.66570  -92.15650
 5350.00000   10.89930   10.18840    -999.25    -999.25    0.03390    0.02390   82.95300   56.01510   82.49480    9.84350    8.87810   11.15370    -999.25    0.24570    2.66500  -93.21510
 5400.00000   13.37080   10.40730    -999.25    -999.25    0.12540    0.25690   89.00430   87.90960   83.12860    4.50560    4.36620    4.69830    -999.25    0.36500    2.40150  -88.69740
 5450.00000   13.02940   11.84130    -999.25    -999.25    0.25860    0.23070   98.82810   89.48870   92.37580    2.96450    2.81540    3.81190    -999.25    0.51250    2.17760  -87.67920
 5500.00000   10.17510    9.50700    -999.25    0.19850    0.14430    0.13050  112.78310  130.11740  159.50330   20.52250   18.43140   33.32120    0.36820    0.44040    2.41490  -86.38970
 5550.00000   11.03000   11.92090    -999.25    0.35990    -999.25    0.25440  102.49210  103.92940   90.42510    7.66890    6.99530    9.70890    0.39160    -999.25    2.15730  -90.01810
 5600.00000    9.24190    9.28980    -999.25    0.10810    -999.25    0.01930   70.58020  206.66250  235.36700  165.86670  209.75150  971.04020    0.16210    -999.25    2.54610 -139.12610
 5650.00000    9.35750    8.91140    -999.25    0.08400    -999.25    0.09660   70.88060   75.94690   75.59020    6.99760    4.84800   21.50440    0.14640    -999.25    2.56250 -171.46340
 5700.00000   10.08400   10.45310    -999.25    0.03220    -999.25    0.03880   67.79250   92.28540   80.66650    7.31620    6.95820    9.91910    0.12070    -999.25    2.63920  -61.99340
 5750.00000    8.96720    9.36730    -999.25   -0.02260    -999.25    0.08530   54.37350   22.17990   48.33590   18.97550   14.46690   94.44760    0.10120    -999.25    2.73480  -82.89020
 5800.00000    8.46310    8.18460    -999.25   -0.05930    -999.25    0.16590   50.65640   20.98760   20.52250   19.96440   14.85650  108.87430    0.07650    -999.25    2.82270 -106.11940
 5850.00000    9.00150    7.98460    -999.25    0.05090    -999.25    0.15020   60.37800   38.39530   24.43920   11.70200    7.10640   35.90810    0.13570    -999.25    2.68740 -109.39250
 5900.00000    8.76910   10.01640    -999.25    0.05560    -999.25    0.13350   55.42750   22.48050   30.22240   21.87730   11.00110  186.05180    0.14620    -999.25    2.66830 -127.78760
 5950.00000    9.38170    9.54220    -999.25    0.00120    -999.25    0.03100   51.63660   18.20170   42.38150   71.88050   54.16990  525.35170    0.01520    -999.25    2.71070  -52.86060
 6000.00000    9.53160    9.63630    -999.25   -0.00040    -999.25    0.02910   60.37150   68.19960   77.96590   25.96580   23.66300   36.19290    0.04850    -999.25    2.68790  -46.54780
 6050.00000    9.35590    9.56550    -999.25    0.00480    -999.25    0.05860   55.66880   35.32820   46.59890   11.69770    9.15810   34.50280    0.06440    -999.25    2.72620 -147.01640
 6100.00000    9.28280    9.17810    -999.25    0.02290    -999.25    0.16910   66.16970   38.01660   42.97310    2.78240    2.56380    9.21600    0.18440    -999.25    2.67320 -175.73370
 6150.00000    9.41010    9.40570    -999.25   -0.01530    -999.25    0.05920   55.93440   38.31050   29.87020    5.85470    5.55900   23.09960    0.09520    -999.25    2.69190 -157.93230
 6200.00000    9.37750    9.50130    -999.25    0.04710    -999.25    0.06760   64.10960   38.37100   88.74680   21.87070   20.63530   41.39580    0.06260    -999.25    2.75220  -98.35160
 6250.00000    9.27590    9.52130    -999.25   -0.02160    -999.25    0.04240   51.46770   14.22490   20.20180   27.50010   19.20770   96.02890    0.01880    -999.25    2.73570 -198.25490
 6300.00000    9.52490   10.01980    -999.25    0.00580    -999.25    0.05500   51.34190   15.67280   13.82480   70.10350   55.68070  206.43650    0.01000    -999.25    2.72030 -182.24120
 6350.00000    9.69010    9.46330    -999.25   -0.03100    -999.25    0.06900   50.21280   17.53650   22.89990  137.11050  110.90710 1107.92570    0.00460    -999.25    2.75710 -143.20560
 6400.00000   10.47330   10.43040    -999.25    0.00930    -999.25    0.03680   65.89950   65.90670   60.86160    2.64590    2.48540    3.74610    0.16920    -999.25    2.66560  -82.47140
 6450.00000    9.87330    9.48800    -999.25   -0.01960    -999.25    0.07180   64.05300   70.91100   84.14620    8.41400    7.37470   18.81200    0.12940    -999.25    2.71130  -76.41670
 6500.00000   10.09690    9.71440    -999.25    0.00780    -999.25    0.07320   54.49630   59.24310   34.94320    5.58630    5.04520    7.24450    0.06960    -999.25    2.71330  -92.80570
 6550.00000   10.23310    9.98660    -999.25    0.01240    -999.25    0.02820   54.87620   15.64290   28.73370   33.08280   31.53920   46.68560    0.02150    -999.25    2.71710 -111.22000
 6600.00000    9.58410    9.33040    -999.25    0.00590    -999.25    0.04460   53.60420   22.96360   27.43220   89.41930   84.19270  197.87550    0.01270    -999.25    2.72100  -96.97700
 6650.00000    9.24310    9.06840    -999.25   -0.00900    -999.25    0.04420   53.59560   26.29510   28.93680   62.79780   57.08590  104.57530    0.01760    -999.25    2.71110 -132.99180
 6700.00000    9.21790    8.99080    -999.25   -0.01340    -999.25    0.02840   54.61800   33.01360   32.47140   53.22540   49.47250   82.18470    0.02280    -999.25    2.70790 -142.10860
 6750.00000    8.98300    8.99950    -999.25    0.00170    -999.25    0.04880   55.30510   37.42190   36.89400   44.46880   41.95590   66.38020    0.03080    -999.25    2.71270 -181.84310
 6800.00000    9.38570    9.11000    -999.25   -0.00750    -999.25    0.06490   56.14940   40.99800   42.88990   42.17830   39.74470   55.29310    0.03270    -999.25    2.74610 -207.92110
 6850.00000    9.07670    9.07460    -999.25    0.01430    -999.25    0.03850   56.50030   44.38610   42.95140   47.01370   45.68200   65.17490    0.03700    -999.25    2.69190 -208.44000
 6900.00000    8.93900    8.89090    -999.25    0.00370    -999.25    0.01540   56.25130   41.53610   40.97170   43.65750   41.82970   55.76630    0.03810    -999.25    2.69250 -149.38840
 6950.00000    9.10210    9.09170    -999.25    0.01400    -999.25    0.02780   56.53150   47.89000   45.19520   42.35820   40.17880   53.01010    0.04440    -999.25    2.69690 -100.40300
 7000.00000    9.23140    9.24070    -999.25   -0.03910    -999.25    0.05760   51.50930   21.64090   20.87830  140.94630  122.57800  365.67650    0.00810    -999.25    2.75940 -112.99400
 7050.00000    9.04160    9.09370    -999.25    0.18350    -999.25    0.11630   85.62300  230.83700  290.00700   10.94320    6.73360    9.04360    0.26040    -999.25    2.33120  -81.67630
 7100.00000    9.49660    9.43000    -999.25    0.01080    -999.25    0.03930   51.13800   15.94310   13.36060  181.01690  134.10850  345.78370    0.00400    -999.25    2.72170 -156.14910
 7150.00000   10.07580    9.29460    -999.25   -0.00980    -999.25    0.03850   50.15100   16.97490   15.94010  198.56330  138.72270  444.85590    0.00170    -999.25    2.73300 -167.50020
 7200.00000    9.70300    9.30840    -999.25   -0.00790    -999.25    0.04790   50.22320   18.61860   16.26740  114.76730   93.15760  238.70600    0.00570    -999.25    2.73690 -171.36940
 7250.00000   10.26200    9.36960    -999.25    0.00620    -999.25    0.02450   51.38680   12.14430   10.93130   82.37170   66.38040  156.99890    0.00500    -999.25    2.71510 -239.87260
 7300.00000   10.17990    9.33530    -999.25    0.02500    -999.25    0.07610   50.03540   12.24860    9.87260  219.17320  164.79160  544.18300    0.00260    -999.25    2.63180 -190.15130
 7350.00000    9.95560    9.37940    -999.25    0.01760    -999.25    0.12080   50.92090   12.63440   10.66340   64.18350   56.75280  153.22240    0.01010    -999.25    2.71930 -237.12230
 7400.00000    9.78820    8.77000    -999.25    0.07280    -999.25    0.23670   51.78180   12.74490   11.82800   53.82350   39.71130  348.13870    0.01350    -999.25    2.56740 -251.86360
