~Version ---------------------------------------------------
VERS.      2.0 : CWLS log ASCII Standard -VERSION 2.0
WRAP.       NO : One line per depth step
CREA. 01/03/18 : LAS Creation Date
~Well ------------------------------------------------------
STRT.FT                         700.0 : START DEPTH
STOP.FT                        9000.0 : STOP DEPTH
STEP.FT                      50.00000 : STEP LENGTH
NULL.                         -999.25 : NULL VALUE
COMP.              IPEX OIL & GAS LTD : COMPANY
WELL. IPEX ET AL VIRGHILLS 15-4-65-12 : WELL
FLD .                                 : FIELD
LOC .                                 : LOCATION
CTRY.                          CANADA : COUNTRY
SRVC.                    Schlumberger : SERVICE COMPANY
DATE.                     08-Nov-1976 : LOGDATE
PROV.                         Alberta : PROVINCE
UWI .                100150406512W500 : UNIQUE WELL ID
SLAT.WGS84                   54.60052 : SURFACE LATITUDE
SLON.WGS84                  -115.7474 : SURFACE LONGITUDE
~Curve Information -----------------------------------------
DEPT  .FT    : Depth Curve
CALSED.IN    : CALIPER FROM SONIC LOG
CALWS .IN    : CALIPER [CALSED]
CILDED.MMHO  : CONDUCTIVITY FROM RESISTIVITY LOG
CONDWS.MMHO  : CONDUCTIVITY [1000/DRESWS]
DRESWS.OHMM  : DEEP RESISTIVITY [IF ILDED<1;THEN 1000/CILDED;ELSE ILDED]
DTED  .US/F  : DELTA TIME FROM SONIC LOG
DTWS  .US/F  : DELTA TIME [DTED]
GRSED .GAPI  : GAMMA RAY FROM SONIC LOG
GRWS  .GAPI  : GAMMA RAY [GRSED]
ILDED .OHMM  : INDUCTION LOG DEEP RESISTIVITY
ILMED .OHMM  : INDUCTION LOG MEDIUM RESISTIVITY
LL8ED .OHMM  : LATEROLOG 8 RESISTIVITY
MRESWS.OHMM  : MEDIUM RESISTIVITY [ILMED]
SPRED .MV    : SPONTANEOUS POTENTIAL FROM RESISTIVITY LOG
SPWS  .MV    : SPONTANEOUS POTENTIAL [BASELINE 0 MV] [SPRED]
SRESWS.OHMM  : SHALLOW RESISTIVITY [LL8ED]
~Params ----------------------------------------------------
PD  .                     GL : PERMANENT DATUM
EPD .FT               3262.9 : ELEVATION PERMANENT DATUM
LMF .                     KB : LOG MEASURED FROM
DAPD.FT                 14.2 : FEET ABOVE PERMANENT DATUM
EKB .FT               3277.1 : KELLY BUSHING
EGL .FT               3262.9 : GROUND LEVEL
DATE.               11/08/76 : RUN DATE
RUN .                      1 : RUN NUMBER
DD  .FT                 9050 : DEPTH DRILLER
DL  .FT                 9050 : DEPTH LOGGER
BLI .FT                 9044 : BOTTOM LOG INTERVAL
TLI .FT                  649 : TOP LOG INTERVAL
CBD .FT                  652 : CASING BOTTOM DRILLER
CBL .FT                  649 : CASING BOTTOM LOGGER
BS  .IN                7.875 : BIT SIZE
BSD .FT                 9050 : BIT SIZE AT DEPTH
DFD .                     90 : DRILLING FLUID DENSITY
DFV .                    150 : DRILLING FLUID VISCOSITY
DFPH.                    9.5 : DRILLING FLUID PH
DFL .                      9 : DRILLING FLUID LOSS
MSS .             CIRCULATED : MUD SAMPLE SOURCE
RMS .OHMM               2.31 : RESISTIVITY MUD SAMPLE
MST .DEGF                 57 : MUD SAMPLE TEMPERATURE
RMF .OHMM               1.54 : RESISTIVITY MUD FILTRATE SAMPLE
MFST.DEGF                 55 : MUD FILTRATE SAMPLE TEMPERATURE
RMC .OHMM               3.55 : RESISTIVITY MUD CAKE
MCST.DEGF                 57 : MUD CAKE SAMPLE TEMPERATURE
TCS .HRS                   2 : TIME CIRCULATED STOPPED
LUN .                   7691 : LOGGING UNIT NUMBER
LUL .                    WCT : LOGGING UNIT LOCATION
ENGI.               CROCFORD : RECORDING ENGINEER
WITN.                NEUFELD : WITNESSED BY
CLNT.                A2DTECH : CLIENT CODE
ORIG.            2" 5" PRINT : ORIGIN OF DATA
UWI .       100150406512W500 : UNIQUE WELL ID
DICO. A2D Technologies, Inc. : DIGITIZING COMPANY
~Other -----------------------------------------------------
~ASCII -----------------------------------------------------
# ...
 5000.00000    9.92540    9.92540    -999.25  171.80360    5.82060   82.77470   82.77470   92.55930   92.55930    5.82060    6.04600    7.02860    6.04600   -9.91110   -3.16310    7.02860
 5050.00000    9.33790    9.33790    -999.25  261.24670    3.82780   79.43790   79.43790   77.86370   77.86370    3.82780    3.80700    6.91640    3.80700   -8.57850   -2.17440    6.91640
 5100.00000    8.34220    8.34220    -999.25  164.92400    6.06340   82.29990   82.29990   47.59960   47.59960    6.06340    5.80910    8.37370    5.80910  -53.93230  -47.87220    8.37370
 5150.00000    8.50810    8.50810    -999.25   78.39570   12.75580   71.15480   71.15480   49.03070   49.03070   12.75580   11.79580   16.13270   11.79580  -21.17130  -15.08700   16.13270
 5200.00000    8.21220    8.21220    -999.25   62.66230   15.95850   66.98720   66.98720   82.41860   82.41860   15.95850   16.44130   19.86620   16.44130  -20.09450  -13.69520   19.86620
 5250.00000    8.47110    8.47110    -999.25  145.92790    6.85270   80.52620   80.52620   75.74460   75.74460    6.85270    6.27370   16.06870    6.27370  -42.73190  -36.02070   16.06870
 5300.00000    8.64850    8.64850    -999.25  143.63070    6.96230   74.83910   74.83910   93.20990   93.20990    6.96230    7.24800    9.00910    7.24800  -23.17990  -16.15530    9.00910
 5350.00000    8.27040    8.27040    -999.25  376.03880    2.65930   59.58300   59.58300   39.89950   39.89950    2.65930    2.42130   22.67430    2.42130  -63.95420  -56.61620   22.67430
 5400.00000    8.11240    8.11240    -999.25   23.84860   41.93110   50.53780   50.53780   17.93250   17.93250   41.93110   56.51140  158.24240   56.51140  -17.24460   -9.59320  158.24240
 5450.00000    8.01280    8.01280    -999.25   27.05890   36.95630   52.06510   52.06510   17.69220   17.69220   36.95630   58.99280  289.56590   58.99280 -102.66230  -95.15950  289.56590
 5500.00000    8.03790    8.03790    -999.25   71.33530   14.01830   56.00150   56.00150   18.20440   18.20440   14.01830   15.06920   43.22590   15.06920  -96.49250  -89.24380   43.22590
 5550.00000    8.07590    8.07590    -999.25   11.49570   86.98900   51.78970   51.78970   13.54300   13.54300   86.98900  119.84810  470.73910  119.84810  -79.04620  -72.05300  470.73910
 5600.00000    9.34200    9.34200    -999.25  367.74170    2.71930   72.35220   72.35220   65.71650   65.71650    2.71930    2.85890    3.85000    2.85890  -27.08780  -20.35000    3.85000
 5650.00000    8.32820    8.32820    -999.25  258.53820    3.86790   66.28810   66.28810   63.66550   63.66550    3.86790    4.39880   10.46200    4.39880  -52.37620  -45.89380   10.46200
 5700.00000    8.54900    8.54900    -999.25  120.21830    8.31820   68.29190   68.29190   62.73200   62.73200    8.31820    7.41410    9.94410    7.41410   -6.49080   -0.26510    9.94410
 5750.00000    8.03450    8.03450    -999.25   12.52800   79.82090   50.32870   50.32870   10.80610   10.80610   79.82090   86.60690  311.36530   86.60690  -48.38980  -42.41830  311.36530
 5800.00000    8.02080    8.02080    -999.25   48.96870   20.42120   55.02110   55.02110   23.86830   23.86830   20.42120   18.85740   33.85900   18.85740   -9.63360   -3.91750   33.85900
 5850.00000    7.99400    7.99400    -999.25   41.73450   23.96100   54.56800   54.56800   24.90790   24.90790   23.96100   27.06500   94.00870   27.06500  -33.81820  -28.35750   94.00870
 5900.00000    7.97370    7.97370    -999.25   54.65530   18.29650   57.29760   57.29760   23.81650   23.81650   18.29650   18.98610   24.99380   18.98610  -43.90540  -38.70020   24.99380
 5950.00000    8.01400    8.01400    -999.25   46.54300   21.48550   56.38520   56.38520   26.68150   26.68150   21.48550   22.59000   31.17990   22.59000  -46.65400  -41.70550   31.17990
 6000.00000    8.00540    8.00540    -999.25   42.30370   23.63860   57.42930   57.42930   35.27760   35.27760   23.63860   22.65980   30.10970   22.65980  -37.26650  -32.57210   30.10970
 6050.00000    8.18050    8.18050    -999.25   80.94610   12.35390   66.44530   66.44530   75.40740   75.40740   12.35390   11.51060   19.52850   11.51060  -27.32280  -22.88390   19.52850
 6100.00000    8.40130    8.40130    -999.25   95.41710   10.48030   75.79780   75.79780  111.64800  111.64800   10.48030   13.52020   24.32620   13.52020  -25.76590  -21.58240   24.32620
 6150.00000    8.06690    8.06690    -999.25   69.43960   14.40100   60.54350   60.54350   66.09480   66.09480   14.40100   14.60560   19.01100   14.60560  -40.85170  -36.92360   19.01100
 6200.00000    8.00270    8.00270    -999.25   23.64380   42.29430   90.97760   90.97760  300.22610  300.22610   42.29430   45.01450   95.66160   45.01450  -28.89230  -25.22090   95.66160
 6250.00000    7.94150    7.94150    -999.25    7.37100  135.66770   49.96640   49.96640   19.17110   19.17110  135.66770  223.98980  593.78630  223.98980  -74.78540  -71.36820  593.78630
 6300.00000    7.99220    7.99220    -999.25    3.56990  280.11800   49.84520   49.84520   16.83980   16.83980  280.11800  383.99790  544.58910  383.99790  -48.02810  -44.86630  544.58910
 6350.00000    8.04090    8.04090    -999.25    3.19200  313.27910   51.71240   51.71240   14.94080   14.94080  313.27910  328.49650  637.37000  328.49650  -75.35140  -72.44500  637.37000
 6400.00000    8.10860    8.10860    -999.25    4.20490  237.81580   50.01200   50.01200   10.31240   10.31240  237.81580  210.44090  365.60180  210.44090 -101.75330  -99.10240  365.60180
 6450.00000    8.01320    8.01320    -999.25   11.19200   89.34920   50.85040   50.85040   17.23570   17.23570   89.34920   84.31270  100.58080   84.31270  -77.50060  -75.10640  100.58080
 6500.00000    7.97450    7.97450    -999.25   25.03980   39.93650   54.80120   54.80120   14.69580   14.69580   39.93650   65.72890  177.95390   65.72890 -146.35540 -144.21530  177.95390
 6550.00000    7.94730    7.94730    -999.25    9.01040  110.98300   48.82030   48.82030   10.35720   10.35720  110.98300  193.35780 1357.78380  193.35780 -120.65340 -118.76880 1357.78380
 6600.00000    7.82630    7.82630    -999.25   26.22210   38.13580   52.38830   52.38830   15.59630   15.59630   38.13580   57.67820  271.29090   57.67820 -137.06320 -135.43400  271.29090
 6650.00000    7.89150    7.89150    -999.25   11.92600   83.85060   49.62790   49.62790   13.41830   13.41830   83.85060  101.26940  160.70130  101.26940 -106.73630 -105.36250  160.70130
 6700.00000    7.97030    7.97030    -999.25    4.00450  249.71890   49.20660   49.20660   14.91440   14.91440  249.71890  251.21740  297.30090  251.21740  -95.89370  -94.77660  297.30090
 6750.00000    7.91950    7.91950    -999.25    3.94070  253.76210   48.53060   48.53060   11.29300   11.29300  253.76210  271.57500  722.21720  271.57500 -103.82990 -102.96700  722.21720
 6800.00000    7.91030    7.91030    -999.25   17.42970   57.37320   53.75400   53.75400   14.24780   14.24780   57.37320   76.31020  259.42540   76.31020 -123.07650 -122.46900  259.42540
 6850.00000    7.94120    7.94120    -999.25   81.61200   12.25310   53.53320   53.53320   12.46730   12.46730   12.25310   15.96420  107.88510   15.96420 -142.67690 -142.32480  107.88510
 6900.00000    7.93290    7.93290    -999.25   37.33990   26.78100   56.46190   56.46190   13.82940   13.82940   26.78100   40.00880  146.97700   40.00880 -148.47800 -148.38140  146.97700
 6950.00000    8.05830    8.05830    -999.25   26.35320   37.94610   50.68110   50.68110   14.63000   14.63000   37.94610   45.06310  143.97270   45.06310  -96.82290  -96.98300  143.97270
 7000.00000    9.55740    9.55740    -999.25  334.59360    2.98870   68.46970   68.46970   85.82890   85.82890    2.98870    3.13230    4.00620    3.13230  -42.81800  -43.23220    4.00620
 7050.00000    7.92070    7.92070    -999.25   86.64080   11.54190   54.56340   54.56340   21.05290   21.05290   11.54190   15.75370   46.69510   15.75370 -116.77110 -117.44080   46.69510
 7100.00000    7.99500    7.99500    -999.25   26.37610   37.91310   47.34990   47.34990   26.58080   26.58080   37.91310   47.18050   80.00070   47.18050  -65.61770  -66.54280   80.00070
