~Version ---------------------------------------------------
VERS.      2.0 : CWLS log ASCII Standard -VERSION 2.0
WRAP.       NO : One line per depth step
CREA. 11/20/17 : LAS Creation Date
~Well ------------------------------------------------------
STRT.FT                          850.0 : START DEPTH
STOP.FT                         9050.0 : STOP DEPTH
STEP.FT                       50.00000 : STEP LENGTH
NULL.                          -999.25 : NULL VALUE
COMP.      BLUEMOUNT RESOURCES LIMITED : COMPANY
WELL. BLUEMOUNT WHITECOURT 10-36-59-13 : WELL
FLD .                                  : FIELD
LOC .                                  : LOCATION
CTRY.                           CANADA : COUNTRY
SRVC.                          Unknown : SERVICE COMPANY
DATE.                      30-Jan-1973 : LOGDATE
PROV.                          Alberta : PROVINCE
UWI .                 100103605913W500 : UNIQUE WELL ID
SLAT.WGS84                    54.14792 : SURFACE LATITUDE
SLON.WGS84                   -115.8081 : SURFACE LONGITUDE
~Curve Information -----------------------------------------
DEPT    .FT    : Depth Curve
CALDED  .IN    : CALIPER FROM DENSITY LOG [ADJ. TO RESISTIVITY LOG]
CALSED  .IN    : CALIPER FROM SONIC LOG [ADJ. TO RESISTIVITY LOG]
CALWS   .IN    : CALIPER [CALSED SPL. TO CALDED @ 2283']
CONDWS  .MMHO  : CONDUCTIVITY [1000/DRESWS]
DCORED  .G/C3  : DENSITY CORRECTION FROM DENSITY LOG [ADJ. TO RESISTIVITY LOG]
DCORWS  .G/C3  : DENSITY CORRECTION [DCORED]
DENWS   .G/C3  : FORMATION BULK DENSITY [CALC. FROM DPOLSWS, M=2.71, F=1.00]
DPHILSED.V/V   : DENSITY POROSITY LIMESTONE [M=2.71, F=1.00] FROM DENSITY LOG [ADJ. TO RESISTIVITY LOG]
DPOLSWS .V/V   : DENSITY POROSITY LIMESTONE [DPHILSED]
DRESWS  .OHMM  : DEEP RESISTIVITY [ILDED]
DTED    .US/F  : DELTA-T FROM SONIC LOG [ADJ. TO RESISTIVITY LOG]
DTWS    .US/F  : COMPRESSIONAL SONIC [DTED]
GRDED   .GAPI  : GAMMA RAY FROM DENSITY LOG [ADJ. TO RESISTIVITY LOG]
GRSED   .GAPI  : GAMMA RAY FROM SONIC LOG [ADJ. TO RESISTIVITY LOG]
GRWS    .GAPI  : GAMMA RAY [GRSED SPL. TO GRDED @ 2280'] GRSED IN CSG TOP-914' ADDED 40 GAPI
ILDED   .OHMM  : DEEP INDUCTION RESISTIVITY FROM RESISTIVITY LOG
ILMED   .OHMM  : MEDIUM INDUCTION RESISTIVITY FROM RESISTIVITY LOG
LL8ED   .OHMM  : LATEROLOG 8 RESISTIVITY FROM RESISTIVITY LOG
MRESWS  .OHMM  : MEDIUM RESISTIVITY [ILMED]
NPHILSED.V/V   : NEUTRON POROSITY LIMESTONE FROM DENSITY LOG [ADJ. TO RESISTIVITY LOG]
NPOLSWS .V/V   : NEUTRON POROSITY LIMESTONE [NPHILSED]
RHOBED  .G/C3  : BULK DENSITY FROM DENSITY LOG [ADJ. TO RESISTIVITY LOG]
SPRED   .MV    : SPONTANEOUS POTENTIAL FROM RESISTIVITY LOG
SPWS    .MV    : SPONTANEOUS POTENTIAL [BASELINE 0 MV, SPRED]
SRESWS  .OHMM  : SHALLOW RESISTIVITY [LL8ED]
~Params ----------------------------------------------------
PD  .                     GL : PERMANENT DATUM
EPD .FT                 2542 : ELEVATION PERMANENT DATUM
LMF .                     KB : LOG MEASURED FROM
DAPD.FT                 17.3 : FEET ABOVE PERMANENT DATUM
EKB .FT               2559.3 : KELLY BUSHING
EGL .FT                 2542 : GROUND LEVEL
DATE.               01/30/73 : RUN DATE
RUN .                      1 : RUN NUMBER
DD  .FT                 9060 : DEPTH DRILLER
DL  .FT                 9056 : DEPTH LOGGER
BLI .FT                 9053 : BOTTOM LOG INTERVAL
TLI .FT                  911 : TOP LOG INTERVAL
CBD .FT                  912 : CASING BOTTOM DRILLER
CBL .FT                  911 : CASING BOTTOM LOGGER
BS  .IN                 8.75 : BIT SIZE
BSD .FT                 9060 : BIT SIZE AT DEPTH
DFT .               GEL CHEM : DRILLING FLUID TYPE
DFD .                    9.2 : DRILLING FLUID DENSITY
DFV .                     80 : DRILLING FLUID VISCOSITY
DFPH.                   10.5 : DRILLING FLUID PH
DFL .                    8.8 : DRILLING FLUID LOSS
MSS .             CIRCULATED : MUD SAMPLE SOURCE
RMS .OHMM               1.83 : RESISTIVITY MUD SAMPLE
MST .DEGF                 76 : MUD SAMPLE TEMPERATURE
RMF .OHMM               1.59 : RESISTIVITY MUD FILTRATE SAMPLE
MFST.DEGF                 57 : MUD FILTRATE SAMPLE TEMPERATURE
RMC .OHMM                3.6 : RESISTIVITY MUD CAKE
MCST.DEGF                 76 : MUD CAKE SAMPLE TEMPERATURE
RMB .OHMM                0.9 : RESISTIVITY MUD AT BHT
TCS .HRS                   4 : TIME CIRCULATED STOPPED
LUN .                   5671 : LOGGING UNIT NUMBER
LUL .                    EDM : LOGGING UNIT LOCATION
ENGI.                 CALVIN : RECORDING ENGINEER
WITN.         SCHWAB DRYDALE : WITNESSED BY
CLNT.                A2DTECH : CLIENT CODE
ORIG.            2" 5" PRINT : ORIGIN OF DATA
UWI .       100103605913W500 : UNIQUE WELL ID
DICO. A2D Technologies, Inc. : DIGITIZING COMPANY
~Other -----------------------------------------------------
DI-LL-CNFD-SONIC LOG RUN
RHOBED & DCORED FROM 2" LOG
~ASCII -----------------------------------------------------
# ...
 5050.00000    9.05070   10.01100    9.05070  186.70300    0.15360    0.15360    2.46750    0.14180    0.14180    5.35610   78.24470   78.24470   51.59390   66.03390   51.59390    5.35610    6.81010   15.01640    6.81010    0.23810    0.23810    2.46230  -74.86480  -36.28710   15.01640
 5100.00000    9.37560    9.92580    9.37560  131.54430    0.07730    0.07730    2.50930    0.11740    0.11740    7.60200   73.93770   73.93770   43.49850   55.00060   43.49850    7.60200    8.58740   17.78700    8.58740    0.20850    0.20850    2.50880  -65.43870  -27.03830   17.78700
 5150.00000    8.99690    9.81140    8.99690  194.79130    0.01580    0.01580    2.44020    0.15780    0.15780    5.13370   72.43690   72.43690   82.13470  105.85110   82.13470    5.13370    5.88890   11.38570    5.88890    0.27440    0.27440    2.44150  -39.26100   -1.03780   11.38570
 5200.00000    8.71610   10.02510    8.71610  130.78480    0.01360    0.01360    2.54870    0.09430    0.09430    7.64620   81.52390   81.52390   63.38080   87.57460   63.38080    7.64620    7.96950   11.35830    7.96950    0.25100    0.25100    2.54270  -50.68810  -13.01400   11.35830
 5250.00000   11.60810   10.78910   11.60810  247.04170    0.16990    0.16990    2.13520    0.33620    0.33620    4.04790   93.92370   93.92370   86.79590  108.31890   86.79590    4.04790    4.87540    9.28130    4.87540    0.37710    0.37710    2.11660  -40.41130   -3.38360    9.28130
 5300.00000    9.47430    9.81590    9.47430  156.24510    0.28600    0.28600    2.34210    0.21520    0.21520    6.40020   80.45530   80.45530   80.79940  110.15120   80.79940    6.40020    6.93210    9.87850    6.93210    0.28600    0.28600    2.34430  -36.35220    0.02580    9.87850
 5350.00000    9.15690    9.47520    9.15690   99.23980    0.08840    0.08840    2.54690    0.09540    0.09540   10.07660   73.40870   73.40870   82.21500  103.04710   82.21500   10.07660   11.65730   18.87920   11.65730    0.19990    0.19990    2.54150  -39.09760   -3.36930   18.87920
 5400.00000    7.95020    8.72080    7.95020   60.82390    0.11250    0.11250    2.54340    0.09740    0.09740   16.44090   69.52220   69.52220   26.31930   36.35380   26.31930   16.44090   19.68610   41.27020   19.68610    0.09430    0.09430    2.54910  -88.40600  -53.32740   41.27020
 5450.00000   10.88270   10.02370   10.88270  422.34660    0.18840    0.18840    2.32380    0.22580    0.22580    2.36880   95.69220   95.69220  106.53370  138.33260  106.53370    2.36880    2.52240    4.06630    2.52240    0.39600    0.39600    2.32880  -39.15390   -4.72830    4.06630
 5500.00000   10.84350   11.01610   10.84350  234.19200    0.20890    0.20890    2.32050    0.22780    0.22780    4.27000  101.87060  101.87060   89.02230  108.99310   89.02230    4.27000    4.54650    8.73750    4.54650    0.32130    0.32130    2.31590  -37.22410   -3.44490    8.73750
 5550.00000    7.60460    8.49180    7.60460  203.74070    0.09090    0.09090    2.24540    0.27170    0.27170    4.90820  111.80960  111.80960   21.39760   29.55940   21.39760    4.90820    7.78380   34.37750    7.78380    0.22080    0.22080    2.24730 -143.54230 -109.03040   34.37750
 5600.00000    7.75760    8.74060    7.75760    1.77060    0.03510    0.03510    2.63190    0.04570    0.04570  564.78550   57.03610   57.03610   34.63860   47.41950   34.63860  564.78550  930.55360 1166.54360  930.55360    0.07400    0.07400    2.63150  -70.98060  -35.67840 1166.54360
 5650.00000    7.98530    8.76460    7.98530    3.88940    0.01620    0.01620    2.65460    0.03240    0.03240  257.10820   59.26850   59.26850   27.90110   36.36860   27.90110  257.10820  279.28940  330.09040  279.28940    0.10090    0.10090    2.65370  -63.51210  -27.41960  330.09040
 5700.00000    8.08230    8.78040    8.08230   91.08260    0.01370    0.01370    2.73270   -0.01330   -0.01330   10.98980   56.10830   56.10830   39.62200   52.01100   39.62200   10.98980   13.47840   22.86790   13.47840    0.14800    0.14800    2.72840  -73.55630  -36.66960   22.86790
 5750.00000    7.63660    8.64470    7.63660  104.82180    0.10230    0.10230    2.63460    0.04410    0.04410    9.54000   55.78040   55.78040   10.22670   13.80160   10.22670    9.54000   10.50420   59.69070   10.50420    0.12160    0.12160    2.62580 -166.90070 -129.22760   59.69070
 5800.00000    7.47250    8.58860    7.47250   40.26830    0.11350    0.11350    2.61830    0.05360    0.05360   24.83340   50.42560   50.42560   13.30400   16.25440   13.30400   24.83340   42.43000  280.60690   42.43000    0.09700    0.09700    2.62460 -165.80490 -127.34150  280.60690
 5850.00000    8.06930    8.81660    8.06930  317.78310    0.01750    0.01750    2.66580    0.02590    0.02590    3.14680   61.98380   61.98380   49.03240   59.92150   49.03240    3.14680    3.68260    9.57690    3.68260    0.16820    0.16820    2.66330  -78.68810  -39.43440    9.57690
 5900.00000    8.08470    8.77670    8.08470   69.68540    0.03390    0.03390    2.71190   -0.00110   -0.00110   14.35020   61.25630   61.25630   87.17920  113.48810   87.17920   14.35020   15.86120   23.43240   15.86120    0.12840    0.12840    2.70200  -51.01790  -10.97390   23.43240
 5950.00000    8.20270    8.79220    8.20270   83.58100    0.02670    0.02670    2.74690   -0.02160   -0.02160   11.96700   62.87610   62.87610   56.30270   77.61720   56.30270   11.96700   12.70700   19.36700   12.70700    0.12900    0.12900    2.73960  -54.68590  -15.23320   19.36700
 6000.00000    8.26480    8.81410    8.26480    8.88310    0.12770    0.12770    2.78230   -0.04230   -0.04230  112.57320   50.62740   50.62740   13.16290   17.56950   13.16290  112.57320  132.59160  643.12870  132.59160    0.02170    0.02170    2.77240  -70.33530  -32.58010  643.12870
 6050.00000    8.04280    8.83940    8.04280   10.62930    0.00590    0.00590    2.71390   -0.00230   -0.00230   94.07950   51.27890   51.27890   19.88620   24.09070   19.88620   94.07950  124.11530  245.46150  124.11530    0.02660    0.02660    2.71020  -83.43850  -47.38940  245.46150
 6100.00000    7.97960    8.82760    7.97960   36.84710    0.01570    0.01570    2.72850   -0.01080   -0.01080   27.13920   53.65400   53.65400   24.88680   33.96170   24.88680   27.13920   32.08850   70.26100   32.08850    0.04770    0.04770    2.72360  -60.77820  -26.43520   70.26100
 6150.00000    8.03910    8.77580    8.03910   15.47360    0.00690    0.00690    2.70760    0.00140    0.00140   64.62630   53.76460   53.76460   32.13980   41.03130   32.13980   64.62630   67.40280   98.56340   67.40280    0.04020    0.04020    2.70000  -45.04540  -12.40840   98.56340
 6200.00000    8.10750    8.80860    8.10750   16.79010    0.00460    0.00460    2.69850    0.00680    0.00680   59.55940   54.41600   54.41600   36.96290   43.96760   36.96290   59.55940   63.59280   85.80690   63.59280    0.04550    0.04550    2.69250  -42.50310  -11.58070   85.80690
 6250.00000    8.09760    8.83690    8.09760   19.41190    0.01000    0.01000    2.72730   -0.01010   -0.01010   51.51470   54.74700   54.74700   32.63330   42.83420   32.63330   51.51470   54.89370   72.64530   54.89370    0.04980    0.04980    2.71670  -40.00730  -10.78250   72.64530
 6300.00000    8.02740    8.73820    8.02740    9.90320    0.02440    0.02440    2.70660    0.00200    0.00200  100.97720   54.22050   54.22050   33.30150   42.35820   33.30150  100.97720  105.24740  169.17040  105.24740    0.04680    0.04680    2.71800  -48.96150  -21.44270  169.17040
 6350.00000    8.18240    8.86630    8.18240   39.08340    0.01490    0.01490    2.62660    0.04880    0.04880   25.58630   71.26140   71.26140  121.58950  164.50040  121.58950   25.58630   29.23810   51.02160   29.23810    0.16990    0.16990    2.62380  -29.74450   -3.93180   51.02160
 6400.00000    8.05440    8.81700    8.05440   54.91190    0.00690    0.00690    2.66400    0.02690    0.02690   18.21100   63.40960   63.40960  166.20800  215.38180  166.20800   18.21100   19.47610   23.35220   19.47610    0.13250    0.13250    2.65840  -37.47940  -12.36150   23.35220
