~Version ---------------------------------------------------
VERS. 2.0 : CWLS log ASCII Standard -VERSION 2.0
WRAP.  NO : One line per depth step
~Well ------------------------------------------------------
STRT.m                          300.0 : START DEPTH
STOP.m                         4550.0 : STOP DEPTH
STEP.m                       50.00000 : STEP LENGTH
NULL.                         -999.25 : NULL VALUE
COMP.       GULF CANADA RESOURCES INC : COMPANY
WELL. GULF ET AL WILD RIVER 5-7-56-24 : WELL
FLD .                                 : FIELD
LOC .                                 : LOCATION
CTRY.                          CANADA : COUNTRY
SRVC.                    Schlumberger : SERVICE COMPANY
DATE.                     01-Jan-1981 : LOGDATE
PROV.                         Alberta : PROVINCE
UWI .                100050705624W502 : UNIQUE WELL ID
SLAT.WGS84                   53.82225 : SURFACE LATITUDE
SLON.WGS84                   -117.563 : SURFACE LONGITUDE
~Curve Information -----------------------------------------
DEPT    .m      : Depth Curve
CALDED  .MM     : CALIPER  CNFD (ADJ TO RES.)
CALSED  .MM     : CALIPER  SONIC
CALWS   .MM     : CALIPER (CALDED)
CILDED  .MMHO   : CONDUCTIVITY FROM LOG
CONDWS  .MMHO   : CONDUCTIVITY (1000/DRESWS)
DCORWS  .KG/M3  : DENSITY CORRECTION (DRHOED)
DENWS   .KG/M3  : BULK DENSITY  (RHOBED<3440>FROM DPHILSED
DPHILSED.V/V    : DENSITY POROSITY SANDSTONE  (ADJ TO RES.)
DPHISSED.V/V    : DENSITY POROSITY LIMESTONE (ADJ TO RES.)
DPOLSWS .V/V    : DENSITY POROSITY (M=2710 F=1000 DPHILSED<3440>FROM DENWS)
DRESWS  .OHMM   : DEEP RESISTIVITY (ILDED)
DRHOED  .KG/M3  : DENSITY CORRECTION (ADJ TO RES.)
DTED    .US/F   : DELTA TIME
DTWS    .US/F   : DELTA TIME  (DTED)
GRDED   .GAPI   : GAMMA RAY  CNFD (ADJ TO RES.)
GRSED   .GAPI   : GAMMA RAY  SONIC
GRWS    .GAPI   : GAMMA RAY (GRDED/GRSED/GRDED @ 2647,2807)ADJUSTED IN CASING
ILDED   .OHMM   : DEEP INDUCTION RESISTIVITY
ILMED   .OHMM   : MEDIUM INDUCTION RESISTIVITY
MRESWS  .OHMM   : MEDIUM RESISTIVITY (ILMED)
NPHILSED.V/V    : NEUTRON POROSITY LIMESTONE (ADJ TO RES.)
NPHISSED.V/V    : NEUTRON POROSITY SANDSTONE (ADJ TO RES.)
NPOLSWS .V/V    : NEUTRON POROSITY LIMESTONE (NPHISSED CONVERTED TO LS<3440>NPHILSED)
RHOBED  .KG/M3  : BULK DENSITY ADJUSTED TO DPHISSED AND DPHILSED
SFLED   .OHMM   : SPHERICALLY FOCUSED RESISTIVITY
SPRED   .MV     : Spontaneous Potential  DIL
SPWS    .MV     : SPONTANEOUS POTENTIAL (SPRED) BASELINE 0 MV
SRESWS  .OHMM   : SHALLOW RESISTIVITY (SFLED)
~Params ----------------------------------------------------
PD  .                         GL : PERMANENT DATUM
EPD .M                    1096.4 : ELEVATION PERMANENT DATUM
LMF .                         KB : LOG MEASURED FROM
DAPD.M                       7.3 : FEET ABOVE PERMANENT DATUM
DMF .                         KB : DRILLING MEASURED FROM
EKB .M                    1103.7 : KELLY BUSHING
EGL .M                    1096.4 : GROUND LEVEL
DATE.                   01/01/81 : RUN DATE
RUN .                          2 : RUN NUMBER
DD  .M                      4578 : DEPTH DRILLER
DL  .M                      4576 : DEPTH LOGGER
BLI .M                      4575 : BOTTOM LOG INTERVAL
TLI .M                      2808 : TOP LOG INTERVAL
CS  .MM                      244 : CASING SIZE
CBD .M                      2810 : CASING BOTTOM DRILLER
CBL .M                      2808 : CASING BOTTOM LOGGER
BS  .MM                      215 : BIT SIZE
BSD .M                      4578 : BIT SIZE AT DEPTH
DFT .                   GEL CHEM : DRILLING FLUID TYPE
DFD .                       1285 : DRILLING FLUID DENSITY
DFV .                         95 : DRILLING FLUID VISCOSITY
DFPH.                         10 : DRILLING FLUID PH
DFL .                        7.5 : DRILLING FLUID LOSS
MSS .                CIRCULATION : MUD SAMPLE SOURCE
RMS .OHMM                   1.45 : RESISTIVITY MUD SAMPLE
MST .DEGC                   21.1 : MUD SAMPLE TEMPERATURE
RMF .OHMM                   0.89 : RESISTIVITY MUD FILTRATE SAMPLE
MFST.DEGC                   21.1 : MUD FILTRATE SAMPLE TEMPERATURE
RMC .OHMM                    1.6 : RESISTIVITY MUD CAKE
MCST.DEGC                   20.0 : MUD CAKE SAMPLE TEMPERATURE
MFSS.                      PRESS : MUD FILTRATE SAMPLE SOURCE
MCSS.                       MEAS : MUD CAKE SAMPLE SOURCE
RMB .OHMM                    0.4 : RESISTIVITY MUD AT BHT
TCS .HRS                    1630 : TIME CIRCULATED STOPPED
TLAB.HRS                     700 : TIME LOGGER AT BOTTOM
LUN .                       8108 : LOGGING UNIT NUMBER
LUL .                      EDSON : LOGGING UNIT LOCATION
ENGI.                   CHALMERS : RECORDING ENGINEER
WITN.           ELLIS TODDINGTON : WITNESSED BY
CLNT.                    A2DTECH : CLIENT CODE
ORIG. 6.5"/100M 16.5"/100M PRINT : ORIGIN OF DATA
UWI .           100050705624W502 : UNIQUE WELL ID
DICO.     A2D Technologies, Inc. : DIGITIZING COMPANY
~Other -----------------------------------------------------
~ASCII -----------------------------------------------------
# ...
 2800.00000    -999.25  369.68110    -999.25    -999.25  269.83270    -999.25    -999.25    -999.25    -999.25    -999.25    3.70600    -999.25  314.68080  314.68080   32.30450   30.73920   70.73920    3.70600    3.24890    3.24890    -999.25    0.72490    0.73990    -999.25    3.91850  -36.72800  -13.37760    3.91850
 2850.00000  328.09970  267.22310  328.09970    -999.25   82.54710   82.25170 2496.62260    -999.25    0.07830    0.12480   12.11430   82.25170  241.64210  241.64210   63.81020   59.13690   63.81020   12.11430    9.43490    9.43490    -999.25    0.24000    0.30580 2496.62260   10.40730  -52.60980  -29.60600   10.40730
 2900.00000  361.48850  276.55250  361.48850    -999.25   67.84350   38.60730 2671.78740    -999.25    0.01200    0.02230   14.73980   38.60730  228.90880  228.90880   54.02060   54.40330   54.02060   14.73980   15.15210   15.15210    -999.25    0.15120    0.22670 2671.78740   16.65840  -55.18610  -32.52890   16.65840
 2950.00000  330.30390  273.02510  330.30390    -999.25   94.88300  111.17460 2398.43550    -999.25    0.12830    0.18220   10.53930  111.17460  247.58470  247.58470   67.77450   65.16320   67.77450   10.53930   11.36520   11.36520    -999.25    0.28310    0.34140 2398.43550   12.59180  -53.17560  -30.86500   12.59180
 3000.00000  346.16980  294.21860  346.16980    -999.25    6.81090  -48.33970 1407.12330    -999.25    0.74510    0.76190  146.82450  -48.33970  431.78670  431.78670   14.39990   17.26870   14.39990  146.82450  156.78040  156.78040    -999.25    0.61620    0.63120 1407.12330 1568.08200  -57.22130  -35.25730 1568.08200
 3050.00000  278.99390  257.44310  278.99390    -999.25   61.14300   41.64190 2569.29250    -999.25    0.04990    0.08230   16.35510   41.64190  216.75250  216.75250   48.57920   44.34600   48.57920   16.35510   17.53660   17.53660    -999.25    0.13040    0.20670 2569.29250   22.66350  -50.04660  -28.42930   22.66350
 3100.00000  298.69160  271.70810  298.69160    -999.25   71.14100   69.75070 2008.61780    -999.25    0.29220    0.41020   14.05660   69.75070  263.04530  263.04530   69.99550   63.24960   69.99550   14.05660    9.77550    9.77550    -999.25    0.18960    0.26160 2008.61780   10.34200  -51.84230  -30.57160   10.34200
 3150.00000  295.11290  260.18240  295.11290    -999.25   24.44030  162.13490 2554.56760    -999.25    0.07050    0.09090   40.91600  162.13490  214.91810  214.91810   67.59320   71.22920   67.59320   40.91600   52.67130   52.67130    -999.25    0.24410    0.30920 2554.56760   61.67050  -48.74030  -27.81620   61.67050
 3200.00000  327.17640  261.01970  327.17640    -999.25   26.60290  181.51730 2308.01100    -999.25    0.22400    0.23510   37.58990  181.51730  225.08590  225.08590   47.06890   52.25570   47.06890   37.58990   40.49320   40.49320    -999.25    0.15140    0.22690 2308.01100   38.63270  -43.78000  -23.20250   38.63270
 3250.00000  299.32380  240.06030  299.32380    -999.25   24.97160  132.55990 2233.29980    -999.25    0.25390    0.27880   40.04550  132.55990  228.82990  228.82990   89.55810   82.80580   89.55810   40.04550   43.34470   43.34470    -999.25    0.21260    0.28220 2233.29980   51.45820  -53.42690  -33.19600   51.45820
 3300.00000  373.18980  327.24740  373.18980    -999.25  246.35400 -113.18580 1445.63200    -999.25    0.73750    0.73940    4.05920 -113.18580  584.78240  584.78240   43.81010   42.98750   43.81010    4.05920    2.49190    2.49190    -999.25    0.63690    0.65190 1445.63200    4.66800  -41.59210  -21.70790    4.66800
 3350.00000  235.60970  225.28210  235.60970    -999.25    9.93010   -1.54730 2707.95170    -999.25   -0.02990    0.00120  100.70430   -1.54730  180.20370  180.20370   75.37940   72.34640   75.37940  100.70430  512.76320  512.76320    -999.25    0.06040    0.13100 2707.95170  200.31300  -67.02810  -47.49050  200.31300
 3400.00000  257.56270  234.36570  257.56270    -999.25    7.30760  218.15170 2597.11130    -999.25   -0.03290    0.06600  136.84420  218.15170  180.35750  180.35750   74.13790   66.99450   74.13790  136.84420  666.26350  666.26350    -999.25    0.06600    0.13810 2597.11130  262.35240  -79.10030  -59.90930  262.35240
 3450.00000  274.90660  227.49510  274.90660    -999.25    4.96710  192.94970 2414.17000    0.17300    0.13810    0.17300  201.32290  192.94970  190.68700  190.68700   62.01250   55.76910   62.01250  201.32290  484.81330  484.81330    0.01410    0.04680    0.01410 2413.75880  366.35260  -95.77760  -76.93320  366.35260
 3500.00000  255.65420  235.63760  255.65420    -999.25    5.63950  249.72800 2529.59500    0.10550    0.07550    0.10550  177.31950  249.72800  168.42610  168.42610   35.46970   31.39810   35.46970  177.31950  297.53950  297.53950    0.03410    0.06960    0.03410 2526.67530  595.53740 -121.46430 -102.96660  595.53740
 3550.00000  268.83940  229.85780  268.83940    -999.25   17.51970  118.74090 2460.16900    0.14610    -999.25    0.14610   57.07850  118.74090  169.05590  169.05590   32.59790   38.10370   32.59790   57.07850   95.42300   95.42300    0.03130    -999.25    0.03130 2466.74830  148.16730  -37.15260  -19.00150  148.16730
 3600.00000  224.97360  227.21140  224.97360    -999.25    8.06380   -0.16920 2907.67600   -0.11560    -999.25   -0.11560  124.01120   -0.16920  164.53290  164.53290   11.26690   13.36110   11.26690  124.01120  926.77490  926.77490    0.00550    -999.25    0.00550 2904.03520 1727.51760  -26.15150   -8.34700 1727.51760
 3650.00000  217.24120  228.35730  217.24120    -999.25   31.06540    6.14690 2772.24400   -0.03640    -999.25   -0.03640   32.19020    6.14690  174.26840  174.26840   45.33540   44.22460   45.33540   32.19020   36.32390   36.32390    0.06410    -999.25    0.06410 2767.04130   44.38480  -43.20110  -25.74320   44.38480
 3700.00000  223.85520  226.14270  223.85520    -999.25   41.47330   20.05600 2736.50500   -0.01550    -999.25   -0.01550   24.11190   20.05600  187.20600  187.20600   30.99850   31.40430   30.99850   24.11190   28.52670   28.52670    0.02670    -999.25    0.02670 2746.47290   51.52590   -4.30850   12.80280   51.52590
 3750.00000  220.46070  222.97750  220.46070    -999.25   10.77230    7.72540 2733.59800   -0.01380    -999.25   -0.01380   92.83040    7.72540  173.88930  173.88930   26.97790   33.37310   26.97790   92.83040  191.30340  191.30340    0.01260    -999.25    0.01260 2730.65360  191.29090    9.24730   26.01190  191.29090
 3800.00000  220.39360  223.18230  220.39360    -999.25   37.67740   10.13890 2702.81800    0.00420    -999.25    0.00420   26.54110   10.13890  189.06270  189.06270   48.55620   47.73370   48.55620   26.54110   32.10820   32.10820    0.04580    -999.25    0.04580 2702.92870   51.24420    7.38710   23.80510   51.24420
 3850.00000  258.66430  235.93780  258.66430    -999.25    1.81020  236.17900 2621.59300    0.05170    -999.25    0.05170  552.41590  236.17900  159.86970  159.86970   14.47720   13.10860   14.47720  552.41590 1975.33690 1975.33690   -0.00430    -999.25   -0.00430 2621.16360 2008.93270 -133.87890 -117.80750 2008.93270
 3900.00000  246.05850  228.48320  246.05850    -999.25    2.79140  166.96840 2670.49900    0.02310    -999.25    0.02310  358.24170  166.96840  159.41990  159.41990   11.56200   11.02580   11.56200  358.24170 2000.00000 2000.00000   -0.00270    -999.25   -0.00270 2686.04690 1979.67720 -204.88470 -189.15990 1979.67720
 3950.00000  236.53050  228.90530  236.53050    -999.25    3.53150  195.53670 2713.76200   -0.00220    -999.25   -0.00220  283.16490  195.53670  162.36840  162.36840    8.10420    9.45030    8.10420  283.16490 2000.00000 2000.00000   -0.00170    -999.25   -0.00170 2718.51830 1866.69590 -205.39000 -190.01180 1866.69590
 4000.00000  246.57180  228.69450  246.57180    -999.25    2.02860  164.15650 2706.40900    0.00210    -999.25    0.00210  492.94820  164.15650  159.39240  159.39240    9.29920    9.14800    9.29920  492.94820 2000.00000 2000.00000   -0.00450    -999.25   -0.00450 2727.68140 2000.00000 -196.47810 -181.44660 2000.00000
