~Version ---------------------------------------------------
VERS.      2.0 : CWLS log ASCII Standard -VERSION 2.0
WRAP.       NO : One line per depth step
CREA. 12/22/12 : LAS Creation Date
~Well ------------------------------------------------------
STRT.M                             500.0 : START DEPTH
STOP.M                            3500.0 : STOP DEPTH
STEP.M                          50.00000 : STEP LENGTH
NULL.                            -999.25 : NULL VALUE
COMP.               CHEVRON STANDARD LTD : COMPANY
WELL. CHEVRON ET AL ROSEVEAR 14-20-53-15 : WELL
FLD .                                    : FIELD
LOC .                                    : LOCATION
CTRY.                             CANADA : COUNTRY
SRVC.             Schlumberger of Canada : SERVICE COMPANY
DATE.                        28-Jul-1979 : LOGDATE
PROV.                            Alberta : PROVINCE
UWI .                   100142005315W500 : UNIQUE WELL ID
SLAT.WGS84                      53.59838 : SURFACE LATITUDE
SLON.WGS84                     -116.1761 : SURFACE LONGITUDE
~Curve Information -----------------------------------------
DEPT    .M      : DEPTH METER
CALDED  .MM     : CALIPER FROM FDC-CNL-GR LOG [ADJ. TO GRSED]
CALSED  .MM     : CALIPER FROM SL-GR-CAL LOG
CALWS   .MM     : CALIPER [CALSED]
CONDWS  .MMHO   : CONDUCTIVITY [1000/DRESWS]
DCORWS  .KG/M3  : DENSITY CORRECTION [DRHOED]
DENWS   .KG/M3  : FORMATION BULK DENSITY [RHOBED]
DPHILSED.V/V    : DENSITY POROSITY LIMESTONE [M=2.71,F=1.0] FROM FDC-CNL-GR LOG [ADJ. TO GRSED]
DPHISSED.V/V    : DENSITY POROSITY SANDSTONE [M=2.65,F=1.0] FROM FDC-CNL-GR LOG [ADJ. TO GRSED]
DPOWS   .V/V    : DENSITY POROSITY LIMESTONE [CALCULATED FRON DENWS, M=2.71, F=1.0]
DRESWS  .OHMM   : DEEP RESISTIVITY [ILDED]
DRHOED  .KG/M3  : DENSITY CORRECTION FROM FDC-CNL-GR LOG [ADJ. TO GRSED]
DTED    .US/M   : DELTA-T (INTERVAL TRANSIT TIME) FROM SL-GR-CAL LOG
DTWS    .US/M   : COMPRESSIONAL  SONIC [DTED]
GRDED   .GAPI   : GAMMA RAY FROM FDC-CNL-GR LOG [ADJ. TO GRSED]
GRSED   .GAPI   : GAMMA RAY FROM SL-GR-CAL LOG
GRWS    .GAPI   : GAMMA RAY [GRSED]
ILDED   .OHMM   : DEEP INDUCTION FROM DIL-SFL LOG
ILMED   .OHMM   : MEDIUM INDUCTION FROM DIL-SFL LOG
MRESWS  .OHMM   : MEDIUM RESISTIVITY [ILMED]
NPHILSED.V/V    : NEUTRON POROSITY LIMESTONE FROM FDC-CNL-GR LOG [ADJ. TO GRSED]
NPHISSED.V/V    : NEUTRON POROSITY SANDSTONE FROM FDC-CNL-GR LOG [ADJ. TO GRSED]
NPOWS   .V/V    : NEUTRON POROSITY LIMESTONE [NPHISSED MATRIX CONVERSION FOR LIMESTONE, SPL. TO NPHILSED @2389.8']
RHOBED  .KG/M3  : BULK DENSITY FROM FDC-CNL-GR LOG [ADJ. TO GRSED]
SFLED   .OHMM   : SPHERICALLY FOCUSED INDUCTION FROM DIL-SFL LOG
SPRED   .MV     : SPONTANEOUS POTENTIAL FROM DIL-SFL LOG
SPWS    .MV     : SPONTANEOUS POTENTIAL [BASELINE 0 MV, SPRED]
SRESWS  .OHMM   : SHALLOW RESISTIVITY [SFLED]
TENDED  .N      : TENSION FROM FDC-CNL-GR LOG [ADJ. TO GRSED]
TENSED  .N      : TENSION FROM SL-GR-CAL LOG
~Params ----------------------------------------------------
PD  .                         GL : PERMANENT DATUM
EPD .M                     935.6 : ELEVATION PERMANENT DATUM
LMF .                         KB : LOG MEASURED FROM
DAPD.M                       4.4 : FEET ABOVE PERMANENT DATUM
DMF .                         KB : DRILLING MEASURED FROM
EKB .M                       940 : KELLY BUSHING
EGL .M                     935.6 : GROUND LEVEL
DATE.                   07/28/79 : RUN DATE
RUN .                          1 : RUN NUMBER
DD  .M                      3520 : DEPTH DRILLER
DL  .M                      3522 : DEPTH LOGGER
BLI .M                      3521 : BOTTOM LOG INTERVAL
TLI .M                       474 : TOP LOG INTERVAL
CS  .MM                    244.5 : CASING SIZE
CBD .M                     473.7 : CASING BOTTOM DRILLER
CBL .M                       474 : CASING BOTTOM LOGGER
BS  .MM                    222.3 : BIT SIZE
BSD .M                      3520 : BIT SIZE AT DEPTH
DFT .                   GEL CHEM : DRILLING FLUID TYPE
DFD .                       1120 : DRILLING FLUID DENSITY
DFV .                        160 : DRILLING FLUID VISCOSITY
DFPH.                       10.5 : DRILLING FLUID PH
DFL .                          8 : DRILLING FLUID LOSS
MSS .                CIRCULATION : MUD SAMPLE SOURCE
RMS .OHMM                   1.28 : RESISTIVITY MUD SAMPLE
MST .DEGC                  15.55 : MUD SAMPLE TEMPERATURE
RMF .OHMM                   1.11 : RESISTIVITY MUD FILTRATE SAMPLE
MFST.DEGC                  18.88 : MUD FILTRATE SAMPLE TEMPERATURE
MFSS.                      PRESS : MUD FILTRATE SAMPLE SOURCE
RMB .OHMM                   0.45 : RESISTIVITY MUD AT BHT
TCS .HRS                    1200 : TIME CIRCULATED STOPPED
TLAB.HRS                    1830 : TIME LOGGER AT BOTTOM
LUN .                       8112 : LOGGING UNIT NUMBER
LUL .                     EDSOLL : LOGGING UNIT LOCATION
ENGI.                   ALVARADO : RECORDING ENGINEER
WITN.                    BARROWS : WITNESSED BY
CLNT.                    A2DTECH : CLIENT CODE
ORIG. 6.5"/100M 16.5"/100M PRINT : ORIGIN OF DATA
UWI .           100142005315W500 : UNIQUE WELL ID
DICO.     A2D Technologies, Inc. : DIGITIZING COMPANY
~Other -----------------------------------------------------
~ASCII -----------------------------------------------------
  500.00000  357.19190  259.59350  259.59350  145.32560   22.40940 1747.83180    -999.25    0.40350    0.56270    6.88110   22.40940  385.07580  385.07580   82.24410   80.42700   80.42700    6.88110    5.24410    5.24410    -999.25    0.37810    0.33480 1931.71510    4.86560  -86.12190  -13.36830    4.86560 1324.96470    -999.25
  550.00000  363.49560  269.07920  269.07920  250.70830   19.18230 1664.57860    -999.25    0.53930    0.61140    3.98870   19.18230  348.70320  348.70320   90.11160   95.30600   95.30600    3.98870    3.41100    3.41100    -999.25    0.43960    0.39760 1745.08590    2.86370  -81.30240   -8.54880    2.86370 1434.62000    -999.25
  600.00000  234.81580  272.24980  272.24980  228.85910   32.00130 2308.80590    -999.25    0.28490    0.23460    4.36950   32.00130  321.44620  321.44620   73.00310   81.77520   81.77520    4.36950    3.72790    3.72790    -999.25    0.46540    0.42370 2069.70460    5.36680  -81.31230   -8.35830    5.36680 1437.68960    -999.25
  650.00000  260.67000  265.08040  265.08040  130.23550  114.81360 2422.73580    -999.25    0.12240    0.16800    7.67840  114.81360  259.28560  259.28560   73.77060   69.40090   69.40090    7.67840    7.09230    7.09230    -999.25    0.23500    0.19120 2422.73580    6.49840  -89.71130  -16.33820    6.49840 1504.38450    -999.25
  700.00000  327.32160  255.21920  255.21920  170.18670  118.24970 2028.68770    -999.25    0.34840    0.39840    5.87590  118.24970  297.69830  297.69830  103.65730   89.16550   89.16550    5.87590    5.38090    5.38090    -999.25    0.34370    0.30000 2055.11600    4.85570  -85.76760  -11.97530    4.85570 1568.76750    -999.25
  750.00000  322.89130  274.85810  274.85810  177.42450    0.08710 2398.44560    -999.25    0.16810    0.18220    5.63620    0.08710  285.05110  285.05110   81.71710   79.59050   79.59050    5.63620    5.23190    5.23190    -999.25    0.29430    0.25030 2390.55130    5.94240  -78.70200   -4.49050    5.94240 1609.85620    -999.25
  800.00000  280.79040  275.77080  275.77080  164.47370    5.54560 2350.79960    -999.25    0.15560    0.21010    6.08000    5.54560  316.46530  316.46530   98.07530  103.98640  103.98640    6.08000    5.62910    5.62910    -999.25    0.32610    0.28220 2391.40840    5.14590  -87.17910  -12.54850    5.14590 1631.25520    -999.25
  850.00000  269.66610  259.04170  259.04170   86.24480    4.72240 2438.48630    -999.25    0.06920    0.15880   11.59490    4.72240  265.54570  265.54570   57.52800   54.77290   54.77290   11.59490   11.36660   11.36660    -999.25    0.21420    0.17060 2503.10470   12.28260  -88.06530  -13.01550   12.28260 1736.63700    -999.25
  900.00000  230.27930  243.09360  243.09360   67.52560   97.05180 2508.18630    -999.25    0.07290    0.11800   14.80920   97.05180  244.81420  244.81420   48.80000   53.68650   53.68650   14.80920   15.35340   15.35340    -999.25    0.22850    0.18480 2531.78390   16.51070  -84.24800   -8.77910   16.51070 1761.53330    -999.25
  950.00000  241.28960  237.96420  237.96420   90.85290  179.84220 2424.70700    -999.25    0.11560    0.16680   11.00680  179.84220  279.87780  279.87780   98.84040  100.73320  100.73320   11.00680   10.19760   10.19760    -999.25    0.29720    0.25320 2452.19820    8.87310  -85.53010   -9.84110    8.87310 1867.93950    -999.25
 1000.00000  261.57200  246.46800  246.46800  176.24560  146.04640 2217.32450    -999.25    0.30490    0.28810    5.67390  146.04640  272.06040  272.06040   84.72180   86.82060   86.82060    5.67390    5.49730    5.49730    -999.25    0.27580    0.23180 2181.97050    6.44990  -84.91980   -9.13490    6.44990 1860.41480    -999.25
 1050.00000  265.86270  244.70130  244.70130  135.35100  123.91870 2098.35790    -999.25    0.36540    0.35770    7.38820  123.91870  281.99690  281.99690   98.77720   95.59570   95.59570    7.38820    7.75910    7.75910    -999.25    0.31490    0.27100 2052.66650    7.02400  -83.92500   -8.04420    7.02400 1970.64180    -999.25
 1100.00000  237.99710  245.72540  245.72540  104.52930   64.64930 2378.34330    -999.25    0.16360    0.19400    9.56670   64.64930  265.41610  265.41610   74.86060   69.36630   69.36630    9.56670    9.18870    9.18870    -999.25    0.27110    0.22710 2378.78150    8.26300  -86.41070  -10.43400    8.26300 1959.83410    -999.25
 1150.00000  296.87000  259.36780  259.36780  121.66630  106.29820 2370.33740    -999.25    0.16570    0.19860    8.21920  106.29820  261.72640  261.72640   68.71600   71.19070   71.19070    8.21920    7.80860    7.80860    -999.25    0.28370    0.23970 2370.33740    7.01240  -81.39290   -5.32030    7.01240 2021.18140    -999.25
 1200.00000  283.39520  259.53850  259.53850  115.28710  190.88460 2383.02610    -999.25    0.27020    0.19120    8.67400  190.88460  280.18320  280.18320   76.10810   77.98660   77.98660    8.67400    8.06950    8.06950    -999.25    0.34620    0.30250 2224.44510    7.20330  -84.78620   -8.61770    7.20330 2100.83110    -999.25
 1250.00000  256.62230  266.44480  266.44480  112.09380  157.92750 2355.11380    -999.25    0.22080    0.20750    8.92110  157.92750  258.02430  258.02430   63.71880   65.66540   65.66540    8.92110    8.32550    8.32550    -999.25    0.28540    0.24140 2311.62650    9.47120  -79.69070   -3.42630    9.47120 2121.78710    -999.25
 1300.00000  288.52030  252.99350  252.99350  135.73130   76.84320 2194.19870    -999.25    0.23570    0.30160    7.36750   76.84320  259.56200  259.56200   67.94540   66.70860   66.70860    7.36750    6.33870    6.33870    -999.25    0.30430    0.26030 2280.25900    7.17120  -84.01110   -7.65080    7.17120 2163.59860    -999.25
 1350.00000  264.87390  267.29090  267.29090  113.09150  203.81200 2398.74150    -999.25    0.28310    0.18200    8.84240  203.81200  254.65920  254.65920   58.40820   62.86090   62.86090    8.84240    8.11250    8.11250    -999.25    0.35490    0.31130 2170.54470    6.31410  -84.70260   -8.24640    6.31410 2196.22530    -999.25
 1400.00000  242.24170  252.38510  252.38510   69.47820    7.05820 2306.85420    -999.25    0.20610    0.23580   14.39300    7.05820  274.70440  274.70440   59.81970   51.70490   51.70490   14.39300   17.72450   17.72450    -999.25    0.40990    0.36720 2306.85420   23.77620  -86.72390  -10.17170   23.77620 2297.44380    -999.25
 1450.00000  238.52100  257.28310  257.28310   86.55760   28.44140 2349.24830    -999.25    0.18460    0.21100   11.55300   28.44140  265.15120  265.15120   94.92430   96.28370   96.28370   11.55300   11.55140   11.55140    -999.25    0.33470    0.29090 2338.27510   11.73530  -84.12370   -7.86260   11.73530 2319.31570    -999.25
 1500.00000  264.71060  271.76550  271.76550   63.12250  137.72880 2359.74980    -999.25    0.16640    0.20480   15.84220  137.72880  244.40870  244.40870   96.07250   96.42320   96.42320   15.84220   15.45260   15.45260    -999.25    0.26360    0.21960 2374.14720   14.81360  -86.93430  -11.20140   14.81360 2431.15210    -999.25
 1550.00000  239.33080  263.15940  263.15940  100.61070   63.64570 2371.33030    -999.25    0.15860    0.19810    9.93930   63.64570  296.31010  296.31010  127.92690  135.30660  135.30660    9.93930    8.56660    8.56660    -999.25    0.36160    0.31810 2389.58620    9.46780  -81.26790   -6.06320    9.46780 2425.92550    -999.25
 1600.00000  231.55450  254.64100  254.64100  107.85740   97.95660 2374.90160    -999.25    0.15720    0.19600    9.27150   97.95660  258.14280  258.14280  102.93980  109.64440  109.64440    9.27150    9.06900    9.06900    -999.25    0.29460    0.25060 2386.16060    8.87800  -82.52480   -7.84830    8.87800 2479.53590 2576.49630
 1650.00000  234.71860  264.57360  264.57360   83.93700  197.90590 2390.51610    -999.25    0.20960    0.18680   11.91370  197.90590  252.57990  252.57990  104.19130  111.04050  111.04050   11.91370   11.53510   11.53510    -999.25    0.27520    0.23120 2308.48170   10.54860  -83.60030   -9.45190   10.54860 2566.78250 2642.91890
 1700.00000  237.16230  251.40740  251.40740  135.67970   97.79550 2381.44240    -999.25    0.16030    0.19210    7.37030   97.79550  269.29080  269.29080  117.66330  110.21780  110.21780    7.37030    7.56390    7.56390    -999.25    0.32020    0.27630 2394.54660    7.69410  -79.85510   -6.23490    7.69410 2595.85350 2690.41600
