~Version ---------------------------------------------------
VERS. 2.0 : CWLS log ASCII Standard -VERSION 2.0
WRAP.  NO : One line per depth step
~Well ------------------------------------------------------
STRT.m                           300.0 : START DEPTH
STOP.m                          3450.0 : STOP DEPTH
STEP.m                        50.00000 : STEP LENGTH
NULL.                          -999.25 : NULL VALUE
COMP. AMOCO CANADA PETROLEUM CO., LTD. : COMPANY
WELL.   AMOCO ET AL PEMBINA 14-20-47-9 : WELL
FLD .                                  : FIELD
LOC .                                  : Location
CTRY.                           CANADA : COUNTRY
SRVC.                     Schlumberger : SERVICE COMPANY
DATE.                      14-Mar-1979 : LOGDATE
LOC1.                                  : Location 1
SECT.                                  : Section
TOWN.                                  : Township
RNGE.                                  : Range
PDAT.                                  : Perm Datum
EPD .                           950.23 : Elevation
LMF .                               KB : Log Measured From
DMF .                               KB : Drill Measured From
APD .                                  : Above Perm Datum
EKB .                           956.33 : Elev-Kelly Bushing.
EDF .                                  : Elev-Drill Floor
EGL .                           950.23 : Elev-Ground Level
PROV.                          Alberta : PROVINCE
UWI .                 102142004709W500 : UNIQUE WELL ID
SLAT.WGS84                    53.07231 : SURFACE LATITUDE
SLON.WGS84                   -115.2847 : SURFACE LONGITUDE
~Curve Information -----------------------------------------
DEPT    .m      : Depth Curve
CALDED  .MM     : CALIPER FROM DENSITY LOG [ADJ. TO GRSED]
CALSED  .MM     : CALIPER FROM SONIC LOG
CALWS   .MM     : CALIPER [CALSED]
CONDWS  .MMHO   : CONDUCTIVITY [1000/DRESWS]
DCORED  .KG/M3  : DENSITY CORRECTION FROM DENSITY LOG [ADJ. TO GRSED]
DCORWS  .KG/M3  : DENSITY CORRECTION [DCORED]
DENWS   .KG/M3  : FORMATION BULK DENSITY [RHOBED]
DPHILSED.V/V    : DENSITY POROSITY LIMESTONE [M=2710,F=1000, ADJ. TO GRSED] FROM DENSITY LOG
DPHISSED.V/V    : DENSITY POROSITY SANDSTONE [M=2650,F=1000, ADJ. TO GRSED] FROM DENSITY LOG
DPOLSWS .V/V    : DENSITY POROSITY LIMESTONE [CALC FROM DENWS, M=2710,F=1000]
DRESWS  .OHMM   : DEEP RESISTIVITY [ILDED]
DTED    .US/M   : DELTA TIME FROM SONIC LOG
DTWS    .US/M   : COMPRESSIONAL SONIC [DTED]
GRDED   .GAPI   : GAMMA RAY FROM DENSITY LOG [ADJ. TO GRSED]
GRSED   .GAPI   : GAMMA RAY FROM SONIC LOG
GRWS    .GAPI   : GAMMA RAY [GRSED]
ILDED   .OHMM   : DEEP INDUCTION RESISTIVITY FROM RESISTIVITY LOG
ILMED   .OHMM   : MEDIUM NDUCTION RESISTIVITY FROM RESISTIVITY LOG
MLLED   .OHMM   : MICRO-LATEROLOG RESISTIVITY FROM MICRO LOG
MRESWS  .OHMM   : MEDIUM RESISTIVITY [ILMED]
NPHILSED.V/V    : NEUTRON POROSITY LIMESTONE FROM DENSITY LOG [ADJ. TO GRSED]
NPHISSED.V/V    : NEUTRON POROSITY SANDSTONE FROM DENSITY LOG [ADJ. TO GRSED]
NPOLSWS .V/V    : NEUTRON POROSITY LIMESTONE [NPHISSED MATRIX CONVERSION FOR LIMESTONE, SPL. TO NPHILSED @ 2302.2M]
RHOBED  .KG/M3  : BULK DENSITY FROM DENSITY LOG [ADJ. TO DPHISSED/DPHILSED/GRSED]
SFLED   .OHMM   : SPHERICALLY FOCUSED LOG FROM RESISTIVITY LOG [ADJ. TO ILDED]
SPRED   .MV     : SPONTANEOUS POTENTIAL FROM RESISTIVITY LOG
SPWS    .MV     : SPONTANEOUS POTENTIAL [BASELINE 0 MV, SPRED]
SRESWS  .OHMM   : SHALLOW RESISTIVITY [SFLED]
~Params ----------------------------------------------------
RUN .           2 : Run #
DATE.             : Date log was run
TDD .        3454 : Depth - Driller
TDL .        3453 : Depth - Logger
BLI .      3451.2 : Bottom Log Interval
TLI .      2555.5 : Top Log Interval
CBD .        2756 : Casing - Driller
CBL .      2555.5 : Casing - Logger
BS  .       215.9 : Bit Size
DFT .         GEL : Type of Fluid In Hole
DFD .        1310 : Drilling Fluid Density
DFV .          60 : Drilling Fluid Viscosity
DFPH.          11 : Drilling Fluid pH
DFL .         5.2 : Drilling Fluid Loss
MSS . CIRCULATION : Source of Sample
RMS .       0.933 : Mud Resitivity
RMFS.       0.687 : Mud Filtrate Resistivity
RMCS.             : Mud Cake Resitivity
MFSS.       PRESS : Source of Rmf
MCSS.             : Source of Rmc
RMBH.             : Rm at BHT
MRT .        87.8 : Max Recorded Temperature
CLNT.     A2DTECH : CLIENT CODE
~Other -----------------------------------------------------
DIL-SFL & CNL-LDT & SONIC LOG RUN
~ASCII -----------------------------------------------------
# ...
 2800.00000  223.87920  219.94310  219.94310    6.62770   29.91000   29.91000 2810.17090   -0.05540    -999.25   -0.05860  150.88170  164.83210  164.83210   16.77480   16.52790   16.52790  150.88170 1823.93240  484.90780 1823.93240    0.02880    -999.25    0.02880 2810.17090 1424.73850  -99.75610  -73.95010 1424.73850
 2850.00000  307.78970  238.97720  238.97720    3.09150  117.73410  117.73410 2698.98490    0.00480    -999.25    0.00640  323.46420  165.25210  165.25210   16.12720   15.90780   15.90780  323.46420  344.07630    8.15820  344.07630    0.06280    -999.25    0.06280 2698.98490 1507.82820 -114.20060  -85.81790 1507.82820
 2900.00000  232.26740  229.62570  229.62570    4.00180   29.77190   29.77190 2716.25810   -0.00500    -999.25   -0.00370  249.89050  162.78610  162.78610   26.71800   27.21470   27.21470  249.89050  228.06840  700.87130  228.06840    0.02410    -999.25    0.02410 2716.25810 1497.54130  -66.27940  -35.32010 1497.54130
 2950.00000  324.27910  245.20020  245.20020  100.13020  151.54370  151.54370 2500.18480    0.13000    -999.25    0.12270    9.98700  222.78150  222.78150   72.71450   75.01700   75.01700    9.98700   13.05120    -999.25   13.05120    0.22800    -999.25    0.22800 2500.18480   14.25550  -40.13380   -4.04730   14.25550
 3000.00000  359.17020  265.54390  265.54390  150.77500  137.91540  137.91540 2429.63350    0.17270    -999.25    0.16400    6.63240  236.01190  236.01190   79.64130   82.17810   82.17810    6.63240    7.72860    -999.25    7.72860    0.24350    -999.25    0.24350 2429.63350    7.54030  -37.61450   -4.19490    7.54030
 3050.00000  340.13250  276.62160  276.62160  177.76510  155.51710  155.51710 2589.50460    0.07410    -999.25    0.07050    5.62540  243.82190  243.82190   76.01980   77.29170   77.29170    5.62540    6.13520    -999.25    6.13520    0.26990    -999.25    0.26990 2589.50460    7.41710  -29.80620   -4.34610    7.41710
 3100.00000  245.59350  244.65260  244.65260  108.77960   31.41080   31.41080 2674.28710    0.01880    -999.25    0.02090    9.19290  218.53420  218.53420   65.38640   65.40440   65.40440    9.19290   10.02410    -999.25   10.02410    0.16100    -999.25    0.16100 2674.28710   12.50510  -21.87230   -1.08090   12.50510
 3150.00000  229.33310  230.85340  230.85340    6.42740   19.29670   19.29670 2688.65430    0.01350    -999.25    0.01250  155.58390  173.09930  173.09930   27.63170   28.57580   28.57580  155.58390  254.56710    -999.25  254.56710    0.02750    -999.25    0.02750 2688.65430  306.09860  -41.70850  -22.35290  306.09860
 3200.00000  260.07790  245.73850  245.73850   13.23940   16.45640   16.45640 2512.64110    0.11590    -999.25    0.11540   75.53210  218.34990  218.34990   54.44830   31.11500   31.11500   75.53210   80.43470    -999.25   80.43470    0.18970    -999.25    0.18970 2512.64110  138.37650  -33.43830  -14.58530  138.37650
 3250.00000  248.50680  233.81950  233.81950   27.59690   13.05060   13.05060 2690.67500    0.01290    -999.25    0.01130   36.23600  179.43000  179.43000   39.70990   33.33670   33.33670   36.23600   40.28780    -999.25   40.28780    0.03490    -999.25    0.03490 2690.67500   43.22610  -32.70300  -14.35250   43.22610
 3300.00000  235.31140  227.11950  227.11950   23.74670   10.99510   10.99510 2719.86040   -0.00460    -999.25   -0.00580   42.11110  168.83480  168.83480   28.83390   28.05590   28.05590   42.11110   37.00340    -999.25   37.00340    0.01190    -999.25    0.01190 2719.86040   60.64030  -34.84050  -16.70170   60.64030
 3350.00000  223.91720  214.34930  214.34930    3.06410   61.29320   61.29320 2736.86790   -0.01970    -999.25   -0.01570  326.35820  161.75580  161.75580   22.77410   19.22630   19.22630  326.35820 1334.39290    -999.25 1334.39290    0.00980    -999.25    0.00980 2736.86790  513.21040  -70.95780  -51.85220  513.21040
 3400.00000  219.14920  213.46070  213.46070   78.88490   24.81450   24.81450 2723.84250   -0.02780    -999.25   -0.00810   12.67670  183.91740  183.91740   60.54090   62.37970   62.37970   12.67670   11.83770    -999.25   11.83770    0.10680    -999.25    0.10680 2723.84250   14.34420  -55.31810  -35.24580   14.34420
 3450.00000  215.00830  211.56210  211.56210   17.46760   41.14610   41.14610 2759.38400   -0.04000    -999.25   -0.02890   57.24890    -999.25    -999.25   37.25030    -999.25    -999.25   57.24890  116.09950    -999.25  116.09950    -999.25    -999.25    -999.25 2759.38400  122.86200  -45.52560  -24.88100  122.86200
