~Version ---------------------------------------------------
VERS. 2.0 : CWLS log ASCII Standard -VERSION 2.0
WRAP.  NO : ONE LINE PER DEPTH STEP
~Well ------------------------------------------------------
STRT.M                             300.0 : START DEPTH
STOP.M                            3600.0 : STOP DEPTH
STEP.M                          50.00000 : STEP LENGTH
NULL.                            -999.25 : NULL VALUE
COMP.             EXXONMOBIL CANADA LTD. : COMPANY
WELL. MOBIL ET AL PEMBINA 11-27-49-8 #11 : WELL
FLD .                                    : FIELD
LOC .                                    : LOCATION
CTRY.                             CANADA : COUNTRY
SRVC.                      Dresser Atlas : SERVICE COMPANY
DATE.                        27-May-1980 : LOGDATE
PROV.                            Alberta : PROVINCE
UWI .                   100112704908W500 : UNIQUE WELL ID
SLAT.WGS84                      53.26067 : SURFACE LATITUDE
SLON.WGS84                     -115.0887 : SURFACE LONGITUDE
~Curve Information -----------------------------------------
DEPT    .M      : DEPTH METERS
ACED    .US/M   : DELTA TIME (ACOUSTIC) FROM SONIC LOG [DEP ADJ TO ILDED]
BITED   .MM     : BIT SIZE FROM LOG HEADER
CALDED  .MM     : CALIPER FROM DENSITY LOG [DEP ADJ TO GRSED]
CALSED  .MM     : CALIPER FROM SONIC LOG [DEP ADJ TO ILDED]
CALWS   .MM     : CALIPER [0 CALSED 781.2 CALDED 1001.4 CALSED 1144 CALDED 1320.9 CALSED 1900.1 CALDED 1977.1 CALSED 2023.6 CALDED 2082.1 CALSED 3535.3 CALDED]
CONDWS  .MMHO   : CONDUCTIVITY [1000/DRESWS]
CORRED  .KG/M3  : DENSITY CORRECTION FROM DENSITY LOG [DEP ADJ TO GRSED]
DCORWS  .KG/M3  : DENSITY CORRECTION [CORRED]
DENWS   .KG/M3  : BULK DENSITY [M=2710 F=1000 ASSUMED] [RHOBED]
DPHILSED.V/V    : DENSITY POROSITY [M=2710 F=1000 ASSUMED] FROM DENSITY LOG [DEP ADJ TO GRSED]
DPHISSED.V/V    : DENSITY POROSITY [M=2650 F=1000 ASSUMED] FROM DENSITY LOG [DEP ADJ TO GRSED]
DPOLSWS .V/V    : DENSITY POROSITY [M=2710 F=1000 ASSUMED] [CAL. FROM DENWS]
DRESWS  .OHMM   : DEEP RESISTIVITY [ILDED]
DTWS    .US/M   : DELTA TIME [ACED]
GRDED   .GAPI   : GAMMA RAY FROM DENSITY LOG [DEP ADJ TO GRSED]
GRSED   .GAPI   : GAMMA RAY FROM SONIC LOG [DEP ADJ TO ILDED]
GRWS    .GAPI   : GAMMA RAY [0 GRDED 1693.6 GRSED 1751.1 GRDED 1986.7 GRSED 1993.7 GRDED]
ILDED   .OHMM   : INDUCTION LOG DEEP RESISTIVITY
ILMED   .OHMM   : INDUCTION LOG MEDIUM RESISTIVITY
MRESWS  .OHMM   : MEDIUM RESISTIVITY [ILMED]
NPHILSED.V/V    : NEUTRON POROSITY LIMESTONE FROM DENSITY LOG [DEP ADJ TO GRSED]
NPHISSED.V/V    : NEUTRON POROSITY SANDSTONE FROM DENSITY LOG [DEP ADJ TO GRSED]
NPOLSWS .V/V    : NEUTRON POROSITY LIMESTONE [0 NPOLSCAL 2001.2 NPHILSED] [NPOLSCAL IS COMPUTED FROM NPHISSED USING POWERLOG MODULE]
RHOBED  .KG/M3  : BULK DENSITY FROM DENSITY LOG [DEP ADJ TO GRSED]
SFLED   .OHMM   : SPHERICALLY FOCUSED LOG RESISTIVITY
SPRED   .MV     : SPONTANEOUS POTENTIAL FROM RESISTIVITY LOG [SHIFTS ARE REMOVED]
SPWS    .MV     : SPONTANEOUS POTENTIAL [BASELINE 0 MV] [SPRED]
SRESWS  .OHMM   : SHALLOW RESISTIVITY [SFLED]
TENDED  .N      : TENSION FROM DENSITY LOG [DEP ADJ TO GRSED]
TENSED  .N      : TENSION FROM SONIC LOG [DEP ADJ TO ILDED]
~Params ----------------------------------------------------
PD  .                         GL : PERMANENT DATUM
EPD .FT                    869.6 : ELEVATION PERMANENT DATUM
LMF .                         KB : LOG MEASURED FROM
DAPD.FT                     5.15 : FEET ABOVE PERMANENT DATUM
DMF .                         KB : DRILLING MEASURED FROM
EKB .FT                   874.75 : KELLY BUSHING
EGL .FT                    869.6 : GROUND LEVEL
DATE.                   05/27/80 : RUN DATE
RUN .                          1 : RUN NUMBER
DD  .FT                     3590 : DEPTH DRILLER
DL  .FT                   3590.6 : DEPTH LOGGER
BLI .FT                     3590 : BOTTOM LOG INTERVAL
TLI .FT                      510 : TOP LOG INTERVAL
CS  .IN                      245 : CASING SIZE
CBD .FT                   511.82 : CASING BOTTOM DRILLER
CBL .FT                      510 : CASING BOTTOM LOGGER
BS  .IN                      222 : BIT SIZE
BSD .FT                     3590 : BIT SIZE AT DEPTH
DFT .                  GEL BENEX : DRILLING FLUID TYPE
DFD .                       1200 : DRILLING FLUID DENSITY
DFV .                         82 : DRILLING FLUID VISCOSITY
DFPH.                       10.5 : DRILLING FLUID PH
DFL .                          8 : DRILLING FLUID LOSS
MSS .                       CIRC : MUD SAMPLE SOURCE
RMS .OHMM                    1.5 : RESISTIVITY MUD SAMPLE
MST .DEGF                     26 : MUD SAMPLE TEMPERATURE
RMF .OHMM                    1.3 : RESISTIVITY MUD FILTRATE SAMPLE
MFST.DEGF                     21 : MUD FILTRATE SAMPLE TEMPERATURE
RMC .OHMM                    1.9 : RESISTIVITY MUD CAKE
MCST.DEGF                     21 : MUD CAKE SAMPLE TEMPERATURE
MFSS.                       MEAS : MUD FILTRATE SAMPLE SOURCE
MCSS.                       MEAS : MUD CAKE SAMPLE SOURCE
RMB .OHMM                   0.73 : RESISTIVITY MUD AT BHT
TCS .HRS                      11 : TIME CIRCULATED STOPPED
LUN .                    HL 6214 : LOGGING UNIT NUMBER
LUL .                        EDM : LOGGING UNIT LOCATION
ENGI.                     BRODDY : RECORDING ENGINEER
WITN.              DICKIE LEPAGE : WITNESSED BY
CLNT.                    A2DTECH : CLIENT CODE
ORIG. 6.5"/100M 16.5"/100M PRINT : ORIGIN OF DATA
UWI .           100112704908W500 : UNIQUE WELL ID
DICO.     A2D Technologies, Inc. : DIGITIZING COMPANY
~Other -----------------------------------------------------
~ASCII -----------------------------------------------------
  300.00000    -999.25    -999.25    -999.25    -999.25    -999.25    -999.25    -999.25    -999.25    -999.25    -999.25    -999.25    -999.25    -999.25    -999.25   40.94950    -999.25   40.94950    -999.25    -999.25    -999.25    -999.25    0.39230    0.35310    -999.25    -999.25    -999.25    -999.25    -999.25    -999.25    -999.25
  350.00000    -999.25    -999.25    -999.25    -999.25    -999.25    -999.25    -999.25    -999.25    -999.25    -999.25    -999.25    -999.25    -999.25    -999.25   36.58470    -999.25   36.58470    -999.25    -999.25    -999.25    -999.25    0.41820    0.37900    -999.25    -999.25    -999.25    -999.25    -999.25    -999.25    -999.25
  400.00000    -999.25    -999.25    -999.25    -999.25    -999.25    -999.25    -999.25    -999.25    -999.25    -999.25    -999.25    -999.25    -999.25    -999.25   56.13650    -999.25   56.13650    -999.25    -999.25    -999.25    -999.25    0.40030    0.36110    -999.25    -999.25    -999.25    -999.25    -999.25    -999.25    -999.25
  450.00000    -999.25    -999.25    -999.25    -999.25    -999.25    -999.25    -999.25    -999.25    -999.25    -999.25    -999.25    -999.25    -999.25    -999.25   61.85280    -999.25   61.85280    -999.25    -999.25    -999.25    -999.25    0.39590    0.35670    -999.25    -999.25    -999.25    -999.25    -999.25    -999.25    -999.25
  500.00000    -999.25    -999.25    -999.25    -999.25    -999.25    -999.25    -999.25    -999.25    -999.25    -999.25    -999.25    -999.25    -999.25    -999.25   53.04320    -999.25   53.04320    -999.25    -999.25    -999.25    -999.25    0.38250    0.34330    -999.25    -999.25    -999.25    -999.25    -999.25    -999.25    -999.25
  550.00000  345.01290  222.00000  289.46450  298.09770  298.09770  121.19740   36.23530   36.23530 2155.81080    -999.25    0.29830    0.32410    8.25100  345.01290   88.85110   82.91270   88.85110    8.25100    6.79610    6.79610    -999.25    0.39140    0.35220 2155.81080    8.91170 -110.26170   -5.24680    8.91170 1009.81930 1027.90530
  600.00000  309.18320  222.00000  280.86610  280.83060  280.83060  122.99060  108.66940  108.66940 2308.88750    -999.25    0.20170    0.23460    8.13070  309.18320  100.99700  110.62610  100.99700    8.13070    7.21650    7.21650    -999.25    0.34320    0.30400 2308.88750    6.17090 -112.39070   -6.32760    6.17090 1042.40330 1054.18850
  650.00000  349.50530  222.00000  256.30960  253.51390  253.51390  141.28090   89.03870   89.03870 2206.28150    -999.25    0.25610    0.29460    7.07810  349.50530   71.08310   84.76280   71.08310    7.07810    6.33770    6.33770    -999.25    0.36510    0.32590 2206.28150    7.92910 -114.80090   -7.42690    7.92910  992.89840 1065.29490
  700.00000  286.70870  222.00000  268.77860  260.52760  260.52760  110.01340   59.69150   59.69150 2348.47830    -999.25    0.17720    0.21140    9.08980  286.70870   84.99060   84.89930   84.99060    9.08980    7.69030    7.69030    -999.25    0.28750    0.24830 2348.47830    8.21190 -115.50390   -6.37540    8.21190 1071.87110 1076.49610
  750.00000  320.48670  222.00000  263.48710  254.76920  254.76920  197.21920   54.39120   54.39120 2374.88090    -999.25    0.16400    0.19600    5.07050  320.48670   79.51210   86.28420   79.51210    5.07050    4.94270    4.94270    -999.25    0.34990    0.31070 2374.88090    5.75750 -116.98100   -6.09800    5.75750 1021.84470 1056.37010
  800.00000  323.56510  222.00000  262.15370  252.96870  262.15370  149.40090  -18.08290  -18.08290 1864.48170    -999.25    0.46000    0.49450    6.69340  323.56510   87.69130  108.95740   87.69130    6.69340    6.20010    6.20010    -999.25    0.35930    0.32010 1864.48170    5.54840 -115.20200   -2.56450    5.54840 1035.97270 1061.81640
  850.00000  315.72600  222.00000  311.27900  257.36900  311.27900  192.86780    6.79000    6.79000 1981.88310    -999.25    0.40100    0.42580    5.18490  315.72600   87.19640   94.01490   87.19640    5.18490    4.77370    4.77370    -999.25    0.35590    0.31670 1981.88310    5.82400 -116.88650   -4.37400    5.82400  950.94430 1020.90920
  900.00000  295.76690  222.00000  243.27060  238.80320  243.27060  167.95430  114.54140  114.54140 2271.67190    -999.25    0.22090    0.25630    5.95400  295.76690   96.65560  111.39310   96.65560    5.95400    5.57890    5.57890    -999.25    0.32590    0.28670 2271.67190    6.09220 -116.37790   -3.21050    6.09220 1012.77540 1042.00980
  950.00000  266.36780  222.00000  267.52740  244.66040  267.52740   40.69900   36.61210   36.61210 2373.76680    -999.25    0.16030    0.19660   24.57060  266.36780   64.37580   57.69020   64.37580   24.57060   20.88510   20.88510    -999.25    0.26400    0.22480 2373.76680   16.34750 -133.20710  -19.11980   16.34750  925.21580  954.97660
 1000.00000  263.92210  222.00000  240.25250  237.08940  240.25250   88.04210   37.02140   37.02140 2397.94190    -999.25    0.14870    0.18250   11.35820  263.92210   72.81230   76.12390   72.81230   11.35820    8.67620    8.67620    -999.25    0.29900    0.25980 2397.94190    9.31400 -119.71670   -4.81940    9.31400 1116.33300 1073.17580
 1050.00000  273.84230  222.00000  276.86830  276.40350  276.40350   77.36290   74.44590   74.44590 2408.73240    -999.25    0.14080    0.17620   12.92610  273.84230   62.65800   75.96200   62.65800   12.92610    9.18330    9.18330    -999.25    0.34530    0.30610 2408.73240   10.14310 -119.64580   -4.10760   10.14310 1051.45700 1101.63090
 1100.00000  267.45260  222.00000  274.28140  258.73170  258.73170  155.36150  111.14990  111.14990 2292.48800    -999.25    0.23230    0.24420    6.43660  267.45260   69.58560   77.47870   69.58560    6.43660    6.03090    6.03090    -999.25    0.39030    0.35110 2292.48800    6.73580 -118.39640   -2.21730    6.73580 1035.27440 1094.16700
 1150.00000  271.19450  222.00000  266.29330  254.33980  266.29330  171.65320   90.51660   90.51660 2412.64650    -999.25    0.12640    0.17390    5.82570  271.19450   76.80020   69.09950   76.80020    5.82570    5.23290    5.23290    -999.25    0.26800    0.22880 2412.64650    5.99880 -118.41090   -2.78920    5.99880 1095.10450 1056.10840
 1200.00000  272.31660  222.00000  321.01970  250.39860  321.01970   74.55060   26.44520   26.44520 2071.89790    -999.25    0.37000    0.37320   13.41370  272.31660   93.25470   96.82240   93.25470   13.41370   11.05800   11.05800    -999.25    0.35470    0.31550 2071.89790   10.88860 -117.91790   -2.88000   10.88860  954.86330 1092.53120
 1250.00000  279.63100  222.00000  279.80560  393.41900  279.80560   85.71260 -205.17480 -205.17480 1567.74710    -999.25    0.64570    0.66800   11.66690  279.63100   84.68360   89.79360   84.68360   11.66690    8.73490    8.73490    -999.25    0.43400    0.39480 1567.74710    9.73710 -121.99790   -5.88960    9.73710  927.06150  994.14260
 1300.00000  284.24620  222.00000  395.84400  343.07440  395.84400   72.78660   76.80030   76.80030 2155.32420    -999.25    0.29830    0.32440   13.73880  284.24620  110.77270  110.00540  110.77270   13.73880   11.29530   11.29530    -999.25    0.39270    0.35350 2155.32420   12.91170 -120.25520   -3.31000   12.91170 1259.17380 1062.82710
 1350.00000  274.99270  222.00000  396.69990  396.39720  396.39720  102.12210   10.96350   10.96350 2130.84200    -999.25    0.30730    0.33870    9.79220  274.99270   96.18680   92.92130   96.18680    9.79220    7.80330    7.80330    -999.25    0.39950    0.36030 2130.84200    9.05320 -123.63400   -8.95420    9.05320  944.77440 1092.68160
 1400.00000  285.94320  222.00000  296.43720  260.71980  260.71980  120.52550   69.03400   69.03400 2332.40550    -999.25    0.20180    0.22080    8.29700  285.94320  114.13720  119.36800  114.13720    8.29700    7.88310    7.88310    -999.25    0.37090    0.33170 2332.40550    9.09030 -120.35560   -7.94120    9.09030 1014.02540 1021.18070
 1450.00000  279.12970  222.00000  351.79050  285.57060  285.57060   72.46690  -15.34230  -15.34230 2027.52760    -999.25    0.37660    0.39910   13.79940  279.12970  102.67660   96.05610  102.67660   13.79940    9.57420    9.57420    -999.25    0.36500    0.32580 2027.52760   11.56270 -119.99630   -9.84730   11.56270 1220.93650 1006.91110
