~Version ---------------------------------------------------
VERS.      2.0 : CWLS log ASCII Standard -VERSION 2.0
WRAP.       NO : One line per depth step
CREA. 10/25/17 : LAS Creation Date
~Well ------------------------------------------------------
STRT.FT                     1050.0 : START DEPTH
STOP.FT                     9700.0 : STOP DEPTH
STEP.FT                   50.00000 : STEP LENGTH
NULL.                      -999.25 : NULL VALUE
COMP. IMPERIAL OIL ENTERPRISES LTD : COMPANY
WELL.    IOE SAKWATAMAU 4-17-62-14 : WELL
FLD .                              : FIELD
LOC .                              : LOCATION
CTRY.                       CANADA : COUNTRY
SRVC.                 Schlumberger : SERVICE COMPANY
DATE.                  08-Dec-1969 : LOGDATE
PROV.                      Alberta : PROVINCE
UWI .             100041706214W500 : UNIQUE WELL ID
SLAT.WGS84                54.35923 : SURFACE LATITUDE
SLON.WGS84               -116.0706 : SURFACE LONGITUDE
~Curve Information -----------------------------------------
DEPT    .FT    : Depth Curve
CALD1ED .IN    : CALIPER  FROM SYNGENETIC LOG [ADJ. TO RESISTIVITY LOG]
CALDED  .IN    : CALIPER FROM DENSITY LOG [ADJ. TO RESISTIVITY LOG]
CALNED  .IN    : CALIPER FROM SNP LOG [ADJ. TO RESISTIVITY LOG]
CALSED  .IN    : CALIPER FROM SONIC LOG
CALWS   .IN    : CALIPER [CALSED]
CONDWS  .MMHO  : CONDUCTIVITY [1000/DRESWS]
DCORWS  .G/C3  : DENSITY CORRECTION [DRHOED]
DENWS   .G/C3  : FORMATION BULK DENSITY [RHOBED]
DPHILSED.V/V   : DENSITY POROSITY LIMESTONE [M=2.71, F=1.0] FROM DENSITY LOG [ADJ. TO RESISTIVITY LOG]
DPOLSWS .V/V   : DENSITY POROSITY LIMESTONE [CALC. FROM DENWS, M=2.71, F=1.0]
DRESWS  .OHMM  : DEEP RESISTIVITY [RILDED]
DRHOED  .G/C3  : DENSITY CORRECTION FROM DENSITY LOG [ADJ. TO RESISTIVITY LOG]
DTED    .US/F  : DELTA TIME FROM SONIC LOG [ADJ. TO RESISTIVITY LOG]
DTWS    .US/F  : COMPRESSIONAL SONIC [DTED]
GRD1ED  .GAPI  : GAMMA RAY FROM SYNGENETIC LOG [ADJ. TO RESISTIVITY LOG]
GRDED   .GAPI  : GAMMA RAY FROM DENSITY LOG [ADJ. TO RESISTIVITY LOG]
GRNED   .GAPI  : GAMMA RAY FROM SNP LOG [ADJ. TO RESISTIVITY LOG]
GRSED   .GAPI  : GAMMA RAY FROM SONIC LOG [ADJ. TO RESISTIVITY LOG]
GRWS    .GAPI  : GAMMA RAY [GRSED SPL. TO GRDED @ 2955.41M]
MRESWS  .OHMM  : MEDIUM RESISTIVITY [RILMED]
NPOLSWS .V/V   : NEUTRON POROSITY LIMESTONE [SNPLSED]
RHOBED  .G/C3  : BULK DENSITY FROM DENSITY LOG [ADJ. TO RESISTIVITY LOG]
RILDED  .OHMM  : DEEP RESISTIVITY FROM RESISTIVITY LOG
RILMED  .OHMM  : MEDIUM RESISTIVITY FROM RESISTIVITY LOG
RLL8ED  .OHMM  : SHALLOW RESISTIVITY FROM RESISTIVITY LOG
SNPLSED .V/V   : SIDEWALL NEUTRON POROSITY LIMESTONE FROM SNP LOG [ADJ. TO RESISTIVITY LOG]
SPRED   .MV    : SPONTANEOUS POTENTIAL FROM RESISTIVITY LOG
SPWS    .MV    : SPONTANEOUS POTENTIAL [BASELINE 0 MV, SPRED]
SRESWS  .OHMM  : SHALLOW RESISTIVITY [RLL8ED]
~Params ----------------------------------------------------
PD  .                     GL : PERMANENT DATUM
EPD .FT               3124.9 : ELEVATION PERMANENT DATUM
LMF .                     KB : LOG MEASURED FROM
DAPD.FT                 14.5 : FEET ABOVE PERMANENT DATUM
EKB .FT               3139.4 : KELLY BUSHING
EGL .FT               3124.9 : GROUND LEVEL
DATE.               12/08/69 : RUN DATE
RUN .                      1 : RUN NUMBER
DD  .FT                 9730 : DEPTH DRILLER
DL  .FT                 9730 : DEPTH LOGGER
BLI .FT                 9126 : BOTTOM LOG INTERVAL
TLI .FT                 1007 : TOP LOG INTERVAL
CBD .FT                 1007 : CASING BOTTOM DRILLER
CBL .FT                 1007 : CASING BOTTOM LOGGER
BS  .IN                 8.75 : BIT SIZE
BSD .FT                 9730 : BIT SIZE AT DEPTH
DFT .            GEL CAUSTIC : DRILLING FLUID TYPE
DFD .                      9 : DRILLING FLUID DENSITY
DFV .                     85 : DRILLING FLUID VISCOSITY
DFPH.                     10 : DRILLING FLUID PH
DFL .                      9 : DRILLING FLUID LOSS
MSS .               FLOWLINE : MUD SAMPLE SOURCE
RMS .OHMM               2.56 : RESISTIVITY MUD SAMPLE
MST .DEGF                 72 : MUD SAMPLE TEMPERATURE
RMF .OHMM               2.38 : RESISTIVITY MUD FILTRATE SAMPLE
MFST.DEGF                 65 : MUD FILTRATE SAMPLE TEMPERATURE
RMC .OHMM               2.19 : RESISTIVITY MUD CAKE
MCST.DEGF                 72 : MUD CAKE SAMPLE TEMPERATURE
RMB .OHMM               0.84 : RESISTIVITY MUD AT BHT
TCS .HRS                   5 : TIME CIRCULATED STOPPED
LUN .                   7501 : LOGGING UNIT NUMBER
LUL .                    EDM : LOGGING UNIT LOCATION
ENGI.                JOHNSON : RECORDING ENGINEER
WITN.               KRAWCHUK : WITNESSED BY
CLNT.                A2DTECH : CLIENT CODE
ORIG.        2" 5" 25" PRINT : ORIGIN OF DATA
UWI .       100041706214W500 : UNIQUE WELL ID
DICO. A2D Technologies, Inc. : DIGITIZING COMPANY
~Other -----------------------------------------------------
DIL-FDC-SNP-BHC LOG RUN
DT,CALS,GRS DATA FROM 2" LOG @ TOP-5450'
~ASCII -----------------------------------------------------
# ...
 7300.00000    -999.25    -999.25    -999.25    9.54470    -999.25   18.53310    -999.25    -999.25    -999.25    -999.25   53.95750    -999.25   58.34150   58.34150    -999.25    -999.25    -999.25    7.06180    7.06180   84.21870    -999.25    -999.25   53.95750   84.21870  239.63210    -999.25 -173.55860 -124.28040  239.63210
 7350.00000    -999.25    -999.25    -999.25    9.19510    -999.25    7.11920    -999.25    -999.25    -999.25    -999.25  140.47150    -999.25   57.65860   57.65860    -999.25    -999.25    -999.25    8.28620    8.28620  188.60140    -999.25    -999.25  140.47150  188.60140  448.82500    -999.25 -165.63910 -113.99310  448.82500
 7400.00000    -999.25    -999.25    -999.25    9.60770    -999.25    8.68930    -999.25    -999.25    -999.25    -999.25  115.08390    -999.25   54.64090   54.64090    -999.25    -999.25    -999.25    7.92140    7.92140  127.37700    -999.25    -999.25  115.08390  127.37700  168.56820    -999.25 -157.08750 -103.08920  168.56820
 7450.00000    -999.25    -999.25    -999.25    9.71100    -999.25    8.70840    -999.25    -999.25    -999.25    -999.25  115.36680    -999.25   54.22350   54.22350    -999.25    -999.25    -999.25    9.42400    9.42400  127.37020    -999.25    -999.25  115.36680  127.37020  155.53550    -999.25 -147.91250  -91.54640  155.53550
 7500.00000    -999.25    -999.25    -999.25    9.80970    -999.25    4.68240    -999.25    -999.25    -999.25    -999.25  213.56570    -999.25   54.26160   54.26160    -999.25    -999.25    -999.25   10.89890   10.89890  226.45280    -999.25    -999.25  213.56570  226.45280  253.19330    -999.25 -143.54710  -84.82860  253.19330
 7550.00000    -999.25    -999.25    -999.25   10.00350    -999.25    8.74530    -999.25    -999.25    -999.25    -999.25  114.34740    -999.25   53.51470   53.51470    -999.25    -999.25    -999.25   10.69710   10.69710  150.05560    -999.25    -999.25  114.34740  150.05560  205.16830    -999.25 -157.11750  -96.04670  205.16830
 7600.00000    -999.25    -999.25    -999.25   10.01650    -999.25   16.53840    -999.25    -999.25    -999.25    -999.25   60.51400    -999.25   53.73190   53.73190    -999.25    -999.25    -999.25   11.15800   11.15800   78.59410    -999.25    -999.25   60.51400   78.59410  198.13400    -999.25 -175.02300 -111.58440  198.13400
 7650.00000    -999.25    -999.25    -999.25    9.75620    -999.25   25.84090    -999.25    -999.25    -999.25    -999.25   38.69830    -999.25   53.88150   53.88150    -999.25    -999.25    -999.25   11.43150   11.43150   62.08610    -999.25    -999.25   38.69830   62.08610  220.88080    -999.25 -191.99830 -126.20730  220.88080
 7700.00000    -999.25    -999.25    -999.25    9.50080    -999.25   12.83530    -999.25    -999.25    -999.25    -999.25   78.15270    -999.25   53.66490   53.66490    -999.25    -999.25    -999.25   11.83990   11.83990   91.37450    -999.25    -999.25   78.15270   91.37450  181.52980    -999.25 -158.25440  -90.09560  181.52980
 7750.00000    -999.25    -999.25    -999.25    9.61040    -999.25   29.92500    -999.25    -999.25    -999.25    -999.25   33.41690    -999.25   63.87670   63.87670    -999.25    -999.25    -999.25   41.45240   41.45240   37.30380    -999.25    -999.25   33.41690   37.30380   66.23620    -999.25 -115.51440  -45.00330   66.23620
 7800.00000    -999.25    -999.25    -999.25    9.29650    -999.25   88.01890    -999.25    -999.25    -999.25    -999.25   11.36120    -999.25   66.86140   66.86140    -999.25    -999.25    -999.25   41.43500   41.43500   13.08510    -999.25    -999.25   11.36120   13.08510   26.40340    -999.25 -139.51370  -72.45390   26.40340
 7850.00000    -999.25    -999.25    -999.25   10.22700    -999.25    4.69460    -999.25    -999.25    -999.25    -999.25  213.42460    -999.25   53.51040   53.51040    -999.25    -999.25    -999.25   11.66770   11.66770  315.73360    -999.25    -999.25  213.42460  315.73360  497.63820    -999.25 -145.10580  -82.45650  497.63820
 7900.00000    -999.25    -999.25    -999.25   10.09440    -999.25   49.84870    -999.25    -999.25    -999.25    -999.25   20.06070    -999.25   61.14750   61.14750    -999.25    -999.25    -999.25   33.08250   33.08250   22.66780    -999.25    -999.25   20.06070   22.66780   24.36760    -999.25 -120.72320  -62.45550   24.36760
 7950.00000    -999.25    -999.25    -999.25    9.76780    -999.25   55.63540    -999.25    -999.25    -999.25    -999.25   17.99830    -999.25   61.86180   61.86180    -999.25    -999.25    -999.25   28.80700   28.80700   19.06570    -999.25    -999.25   17.99830   19.06570   24.20000    -999.25  -96.45270  -42.59550   24.20000
 8000.00000    -999.25    -999.25    -999.25   10.68310    -999.25   11.38360    -999.25    -999.25    -999.25    -999.25   87.84550    -999.25   58.99460   58.99460    -999.25    -999.25    -999.25   23.67520   23.67520   93.67230    -999.25    -999.25   87.84550   93.67230  185.66410    -999.25  -58.42970   -8.95410  185.66410
 8050.00000    -999.25    -999.25    -999.25   10.51560    -999.25   20.09860    -999.25    -999.25    -999.25    -999.25   49.75480    -999.25   62.88400   62.88400    -999.25    -999.25    -999.25   30.51770   30.51770   52.75490    -999.25    -999.25   49.75480   52.75490   82.63930    -999.25  -49.94260   -4.84870   82.63930
 8100.00000    -999.25    -999.25    -999.25   10.32670    -999.25   16.18430    -999.25    -999.25    -999.25    -999.25   61.78840    -999.25   61.64630   61.64630    -999.25    -999.25    -999.25   29.38190   29.38190   64.93720    -999.25    -999.25   61.78840   64.93720  115.12810    -999.25  -57.80760  -13.32000  115.12810
 8150.00000    -999.25    -999.25    -999.25   10.97120    -999.25   34.59870    -999.25    -999.25    -999.25    -999.25   28.90280    -999.25   64.75270   64.75270    -999.25    -999.25    -999.25   28.06240   28.06240   30.45930    -999.25    -999.25   28.90280   30.45930   37.08450    -999.25  -52.55100   -8.53810   37.08450
 8200.00000    -999.25    -999.25    -999.25   10.93320    -999.25   83.38210    -999.25    -999.25    -999.25    -999.25   11.99320    -999.25   74.95070   74.95070    -999.25    -999.25    -999.25   45.84060   45.84060   12.85330    -999.25    -999.25   11.99320   12.85330   14.76180    -999.25  -47.82180   -4.28670   14.76180
 8250.00000   11.11440   12.62920   11.50010   11.21190   11.50010  115.36550    0.00930    2.70160    0.01030    0.00490    8.66810    0.00930   80.88090   80.88090   48.10620   47.92020   45.19450   44.10520   44.10520    9.54730    0.17930    2.70160    8.66810    9.54730   11.55730    0.17930  -46.11620   -3.05570   11.55730
 8300.00000   10.86480   11.55180   11.01350   10.73100   11.01350  112.41010    0.01270    2.70920    0.01140    0.00040    8.89600    0.01270   79.39610   79.39610   46.34770   46.07340   48.59590   53.50270   53.50270    9.79140    0.05300    2.70920    8.89600    9.79140   11.26630    0.05300  -50.86420   -7.04390   11.26630
 8350.00000   11.31570   11.79000   10.99570   10.59270   10.99570  143.54880    0.03380    2.63370    0.05030    0.04460    6.96630    0.03380   86.38140   86.38140   56.72020   56.81050   55.37150   56.83670   56.83670    7.61340    0.11570    2.63370    6.96630    7.61340    9.77580    0.11570  -53.76400   -9.10070    9.77580
 8400.00000   14.91590   16.00030   14.88920   13.95150   14.88920  273.68770    0.15020    1.77360    0.58040    0.54760    3.65380    0.15020  119.29240  119.29240   72.55830   70.58320   67.86710   74.46850   74.46850    3.30810    0.48280    1.77360    3.65380    3.30810    5.10230    0.48280  -72.23010  -26.72930    5.10230
 8450.00000   11.47460   12.12020   10.16710   10.41250   10.16710  171.90990    0.18870    2.57500    0.08370    0.07890    5.81700    0.18870   99.91890   99.91890   77.93210   75.13840   75.10290   78.03820   78.03820    6.35750    0.19600    2.57500    5.81700    6.35750    7.50870    0.19600  -52.83890   -6.49500    7.50870
 8500.00000   10.38500   10.50440    9.44410    9.59390    9.44410   71.75710    0.05550    2.72900   -0.00300   -0.01110   13.93590    0.05550   71.65790   71.65790   35.80820   36.81080   35.79790   33.09060   33.09060   16.11150    0.03380    2.72900   13.93590   16.11150   23.47760    0.03380  -47.10230   -0.32910   23.47760
