~Version ---------------------------------------------------
VERS.      2.0 : CWLS log ASCII Standard -VERSION 2.0
WRAP.       NO : One line per depth step
CREA. 08/16/13 : LAS Creation Date
~Well ------------------------------------------------------
STRT.M                         300.0 : START DEPTH
STOP.M                        2750.0 : STOP DEPTH
STEP.M                      50.00000 : STEP LENGTH
NULL.                        -999.25 : NULL VALUE
COMP.         FOREST OIL CORPORATION : COMPANY
WELL. FOREST ET AL JUDY CREEK 6-25-6 : WELL
FLD .                                : FIELD
LOC .                                : LOCATION
CTRY.                         CANADA : COUNTRY
SRVC.                        Unknown : SERVICE COMPANY
DATE.                    11-Dec-1982 : LOGDATE
PROV.                        Alberta : PROVINCE
UWI .               100062506412W500 : UNIQUE WELL ID
SLAT.WGS84                  54.56351 : SURFACE LATITUDE
SLON.WGS84                 -115.6804 : SURFACE LONGITUDE
~Curve Information -----------------------------------------
DEPT   .M      : DEPTH METER
CALD   .MM     : CALIPER FROM DENSITY LOG
CALS   .MM     : CALIPER FROM SONIC LOG
DPHI_LS.DEC    : DENSITY POROSITY LIMESTONE [M=2710, F=1000] FROM DENSITY LOG
DPHI_SS.DEC    : DENSITY POROSITY SANDSTONE [M=2650, F=1000] FROM DENSITY LOG
DRHO   .KG/M3  : DENSITY CORRECTION FROM DENSITY LOG
DT     .US/M   : DELTA TIME FROM SONIC LOG
GRD    .GAPI   : GAMMA RAY FROM DENSITY LOG
GRS    .GAPI   : GAMMA RAY FROM SONIC LOG
ILD    .OHMM   : DEEP INDUCTION FROM RESISTIVITY LOG
ILM    .OHMM   : MEDIUM INDUCTION FROM RESISTIVITY LOG
NPHI_LS.DEC    : NEUTRON POROSITY LIMESTONE FROM DENSITY LOG
NPHI_SS.DEC    : NEUTRON POROSITY SANDSTONE FROM DENSITY LOG
RHOB   .KG/M3  : BULK DENSITY FROM DENSITY LOG
SFLU   .OHMM   : SHALLOW FOCUSED FROM RESISTIVITY LOG
SPR    .MV     : SPONTANEOUS POTENTIAL FROM RESISTIVITY LOG
~Params ----------------------------------------------------
PD  .                         GL : PERMANENT DATUM
EPD .M                    1024.2 : ELEVATION PERMANENT DATUM
LMF .                         KB : LOG MEASURED FROM
DAPD.M                       5.2 : FEET ABOVE PERMANENT DATUM
DMF .                         KB : DRILLING MEASURED FROM
EKB .M                    1029.4 : KELLY BUSHING
EGL .M                    1024.2 : GROUND LEVEL
DATE.                   12/11/82 : RUN DATE
RUN .                          1 : RUN NUMBER
DD  .M                      2765 : DEPTH DRILLER
DL  .M                      2758 : DEPTH LOGGER
BLI .M                      2757 : BOTTOM LOG INTERVAL
TLI .M                       186 : TOP LOG INTERVAL
CS  .MM                      244 : CASING SIZE
CBD .M                       186 : CASING BOTTOM DRILLER
CBL .M                       186 : CASING BOTTOM LOGGER
BS  .MM                      200 : BIT SIZE
BSD .M                      2765 : BIT SIZE AT DEPTH
DFT .                   GEL CHEM : DRILLING FLUID TYPE
DFD .                       1085 : DRILLING FLUID DENSITY
DFV .                         65 : DRILLING FLUID VISCOSITY
DFPH.                         10 : DRILLING FLUID PH
DFL .                        9.4 : DRILLING FLUID LOSS
MSS .                   FLOWLINE : MUD SAMPLE SOURCE
RMS .OHMM                   2.47 : RESISTIVITY MUD SAMPLE
MST .DEGC                   25.5 : MUD SAMPLE TEMPERATURE
RMF .OHMM                   2.75 : RESISTIVITY MUD FILTRATE SAMPLE
MFST.DEGC                   15.5 : MUD FILTRATE SAMPLE TEMPERATURE
MFSS.                      PRESS : MUD FILTRATE SAMPLE SOURCE
TCS .HRS                    2200 : TIME CIRCULATED STOPPED
TLAB.HRS                     830 : TIME LOGGER AT BOTTOM
LUN .                       8037 : LOGGING UNIT NUMBER
LUL .                        EDM : LOGGING UNIT LOCATION
ENGI.                     CSIKOS : RECORDING ENGINEER
WITN.                    WORONUK : WITNESSED BY
CLNT.                    A2DTECH : CLIENT CODE
ORIG. 6.5"/100M 16.5"/100M PRINT : ORIGIN OF DATA
UWI .           100062506412W500 : UNIQUE WELL ID
DICO.     A2D Technologies, Inc. : DIGITIZING COMPANY
~Other -----------------------------------------------------
~ASCII -----------------------------------------------------
  300.00000  231.98460  226.87520    -999.25    0.27990   29.97300  359.68330   72.65700   64.17550    9.02060    8.27280    -999.25    0.40950 2195.07760    7.94820  -31.23690
  350.00000  227.99110  236.78120    -999.25    0.35010  136.41260  424.85340   80.80380   82.31490    3.39160    3.17690    -999.25    0.51510 2084.29910    2.82180  -13.66990
  400.00000  238.38210  239.04180    -999.25    0.32600  112.88200  388.97310   66.72930   66.24130    3.77010    3.45270    -999.25    0.51260 2089.25830    3.13730  -13.35390
  450.00000  238.47070  235.76930    -999.25    0.44640  172.10000  335.02710   76.18320   79.00100    4.75240    4.55910    -999.25    0.44720 1897.35620    4.35020  -13.26370
  500.00000  250.54700  220.93430    -999.25    0.29180  155.69760  369.58190   90.11350   77.86400    3.66700    3.29600    -999.25    0.43250 2162.74410    3.13800  -13.04180
  550.00000  198.51280  190.78850    -999.25    0.26840   45.88060  344.89390   69.79660   58.27580    7.62410    7.39670    -999.25    0.38760 2206.25200    7.28280  -19.83540
  600.00000  282.03340  276.58430    -999.25    0.66040   54.56290  508.46070   63.14600   49.51760    2.68300    2.47540    -999.25    0.57560 1546.64920    2.38390   -6.92750
  650.00000  233.88010  217.10830    -999.25    0.26620   56.63930  338.65810   58.31820   50.46040    6.61100    6.32460    -999.25    0.38980 2146.64040    6.88920   -9.73150
  700.00000  227.93420  226.08770    -999.25    0.32950  156.14350  333.89090   64.79090   53.28640    3.89730    3.69590    -999.25    0.47030 2086.33330    3.51350   -1.45170
  750.00000  234.50700  223.07030    -999.25    0.23650   68.05450  363.43820   70.31640   64.14450    3.20230    3.10780    -999.25    0.46750 2254.97660    3.59620   -0.08120
  800.00000  210.19470  203.74200    -999.25    0.25190   90.45910  301.46400   51.90330   34.46650    6.57930    6.01500    -999.25    0.35980 2237.67750    9.73050  -12.63530
  850.00000  223.72600  202.25650    -999.25    0.36840  192.71800  362.29060   70.85970   50.13030    3.01850    2.97610    -999.25    0.43720 2045.24770    3.13430    1.21690
  900.00000  266.59830  302.25530    -999.25    0.46020  122.79900  336.50020   71.58130   68.76230    5.96020    5.17590    -999.25    0.54340 1867.93190    5.02360   -4.21020
  950.00000  283.30660  239.78410    -999.25    0.19680  144.35550  314.21280  105.42210  102.11640    7.76900    7.45620    -999.25    0.41360 2286.80420    9.31610    1.14810
 1000.00000  369.93730  289.80090    -999.25    0.69960   42.79950  333.43260   79.32800   81.09840    5.94250    5.10290    -999.25    0.52210 1488.83400    5.24790   -1.77940
 1050.00000  347.73880  275.51080    -999.25    0.59190   78.15840  310.93540   83.94640   71.30450    6.30700    5.91080    -999.25    0.48950 1640.80300    5.58080   -1.55110
 1100.00000  354.92870  300.32870    -999.25    0.59820   90.71000  296.11910   84.62800   64.66400    6.43970    5.57620    -999.25    0.51800 1655.02540    5.90810   -0.48920
 1150.00000  223.81850  209.50040    -999.25    0.17830  130.08830  335.41340  123.27790   96.66990    6.36550    6.14240    -999.25    0.42790 2355.02150    7.20380    8.20180
 1200.00000  224.92690  227.43750    -999.25    0.09060  163.33290  279.29710   98.50890   84.87750    5.70740    5.91560    -999.25    0.35090 2499.70170    7.78140    7.58980
 1250.00000  290.22320  239.02150    -999.25    0.22980  197.63750  308.16400  102.64050   95.38200    4.46930    4.32160    -999.25    0.39850 2273.95340    4.99800   12.32890
 1300.00000  309.77980  254.82990    -999.25    0.22240  215.95680  311.44190  117.08840  109.53060    4.95180    4.78160    -999.25    0.39680 2272.61790    5.77950   15.18660
 1350.00000  292.61210  266.07360    -999.25    0.37480  119.89690  314.96800  103.03630   94.46580    3.05950    3.21030    -999.25    0.41590 2003.84670    3.68430   18.44390
 1400.00000  247.28270  245.39160    -999.25    0.20150   78.18910  274.11580   45.37760   41.18810    9.67690   11.69300    -999.25    0.26400 2315.22310   16.16360  -18.83690
 1450.00000  258.61010  261.20360    -999.25    0.13080   54.66590  255.29490   47.24440   51.52890    7.73560   10.34750    -999.25    0.34210 2475.80810   17.13980  -33.91290
 1500.00000  275.73170  287.97370    -999.25    0.16800   48.81570  263.16820   66.44400   62.73420    4.31560    4.68350    -999.25    0.36980 2374.16210    4.56310    9.14770
 1550.00000  238.37710  236.28380    -999.25   -0.01480   36.57930  203.76300   66.49190   58.73180    8.51930   11.21740    -999.25    0.19350 2678.12330   29.47530   26.09550
 1600.00000  262.36130  263.07510    -999.25    0.09970   34.79980  245.11500   77.03160   68.77620   11.73470   12.42880    -999.25    0.25820 2484.17500   14.40130   25.06060
 1650.00000  270.54920  259.00070    0.08980    0.04290   17.42200  200.86270   37.41310   25.41950    4.65400    5.47370    0.18910    0.24790 2565.95730   14.72570   73.16360
 1700.00000  243.56410  240.78810    0.07160    -999.25  117.78890  179.06480   12.97810   11.83260   53.54220   77.98520    0.08320    -999.25 2584.70920  295.59360 -227.74000
 1750.00000  233.68750  241.63600    0.02330    -999.25    2.83720  185.48680   32.20970   29.32120   20.02160   23.62170    0.05940    -999.25 2661.86400   57.97980  -85.02010
 1800.00000  233.06750  238.23590    0.03400    -999.25    8.70120  182.27330   15.93620   17.37370   14.05790   15.29790    0.03710    -999.25 2657.24880   26.30710 -117.69010
 1850.00000  244.85840  246.86550    0.04750    -999.25   15.10300  197.20140   48.62700   49.23760   15.28940   16.04220    0.10510    -999.25 2623.27690   21.97770  -75.96950
 1900.00000  229.56690  222.50430    0.13770    -999.25   69.44820  274.00860  253.24090  193.97580   14.75920   15.88240    0.23320    -999.25 2477.89820   27.15390  -63.88680
 1950.00000  248.28280  226.42960    0.06180    -999.25    3.40320  165.33400   13.80200   13.00280  257.23800  185.47340    0.02130    -999.25 2603.41480  242.01250 -139.97650
 2000.00000  226.44320  202.91840    0.05250    -999.25  113.82010  180.20260   10.94820   12.58190   17.63100   36.38520    0.06820    -999.25 2622.90750  231.45000 -209.35500
 2050.00000  217.80580  201.47180    0.08450    -999.25   43.54900  177.36880   15.24780   12.17290   30.41980   50.66990    0.06400    -999.25 2565.49510  182.32400 -198.39100
 2100.00000  218.17470  211.67120    0.00550    -999.25  106.07710  176.75410   11.94140   11.57040   20.84080   36.55090    0.07820    -999.25 2693.52610  213.11920 -203.60020
 2150.00000  237.66000  240.41330   -0.12030    -999.25   36.17030  160.78320   11.38690    8.74070   65.17250  127.00650    0.01000    -999.25 2912.09160 1801.76430  -98.80470
 2200.00000  232.43780  225.35050    0.04290    -999.25    6.46010  194.39910   39.79260   37.90810    3.83390    4.24490    0.16770    -999.25 2637.85010    7.11870 -109.33640
 2250.00000  253.17780  240.09360    0.05790    -999.25  156.98670  213.75360   75.33580   59.96910    9.86790   10.72500    0.14320    -999.25 2581.17410   14.08280  -41.26930
 2300.00000  246.67230  235.08910    0.06180    -999.25   42.52080  214.41820   59.16330   53.41330    8.92890   10.07460    0.15490    -999.25 2603.09720   13.45930  -32.22220
 2350.00000  253.30100  229.87920    0.02490    -999.25  219.48900  200.50740   61.44900   50.57710   10.92080   11.36130    0.14340    -999.25 2665.05880   15.64700  -39.37300
 2400.00000  229.33580  218.51410    0.03790    -999.25   -7.79420  214.43230   65.41950   65.42020    9.40770   10.86570    0.13700    -999.25 2648.47390   15.23910  -30.10050
 2450.00000  236.60020  224.35190    0.01370    -999.25   14.52700  205.53500   60.35030   57.31330   11.24150   12.49430    0.12930    -999.25 2686.78440   17.90160  -15.97080
 2500.00000  253.91600  228.81200    0.09260    -999.25  231.54190  235.96450   84.22370   66.87560    5.60620    6.13230    0.21320    -999.25 2571.81810    7.68200  -18.69640
 2550.00000  199.60600  203.59070    0.14320    -999.25  117.90700  225.87730   53.18040   51.60370    6.78550    7.37680    0.16720    -999.25 2473.90280    9.59540  -10.28850
