~Version ---------------------------------------------------
VERS. 2.0 : CWLS log ASCII Standard -VERSION 2.0
WRAP.  NO : ONE LINE PER DEPTH STEP
~Well ------------------------------------------------------
STRT.F                               950.0 : START DEPTH
STOP.F                              9900.0 : STOP DEPTH
STEP.F                            50.00000 : STEP LENGTH
NULL.                              -999.25 : NULL VALUE
COMP.        HUDSON'S BAY OIL & GAS CO LTD : COMPANY
WELL. HB QUINTANA UNION GIROUX 10-25-66-20 : WELL
FLD .                                      : FIELD
LOC .                                      : LOCATION
CTRY.                               CANADA : COUNTRY
SRVC.                         Schlumberger : SERVICE COMPANY
DATE.                          21-Feb-1973 : LOGDATE
PROV.                              Alberta : PROVINCE
UWI .                     100102506620W500 : UNIQUE WELL ID
SLAT.WGS84                        54.74426 : SURFACE LATITUDE
SLON.WGS84                       -116.8814 : SURFACE LONGITUDE
~Curve Information -----------------------------------------
DEPT.F    0   1   0  0 : 1 MEASURED DEPTH
DT  .US/F 60 500 32 00 : DELTA-T (INTERVAL TRANSIT TIME)
GRS .GAPI 60 310 01 00 : GAMMA RAY FROM SONIC LOG
CALS.IN   60 280 50 00 : CALIPER FROM SONIC LOG
SPR .MV   07 010 01 00 : SPONTANEOUS POTENTIAL FROM RESISTIVITY LOG
ILD .OHMM 07 120 46 00 : INDUCTION DEEP RESISTIVITY
ILM .OHMM 07 120 44 00 : INDUCTION MEDIUM RESISTIVITY
LL8 .OHMM 07 220 08 00 : LATEROLOG 8
CILD.MMHO 07 110 46 00 : INDUCTION DEEP CONDUCTIVITY
~Params ----------------------------------------------------
PD  .                     GL : PERMANENT DATUM
EPD .FT                 2603 : ELEVATION PERMANENT DATUM
LMF .                     KB : LOG MEASURED FROM
DAPD.FT                   15 : FEET ABOVE PERMANENT DATUM
EKB .FT                 2618 : KELLY BUSHING
EGL .FT                 2603 : GROUND LEVEL
DATE.               02/21/73 : RUN DATE
RUN .                      1 : RUN NUMBER
DD  .FT                 9904 : DEPTH DRILLER
DL  .FT                 9905 : DEPTH LOGGER
BLI .FT                 9902 : BOTTOM LOG INTERVAL
TLI .FT                  994 : TOP LOG INTERVAL
CBD .FT                  993 : CASING BOTTOM DRILLER
CBL .FT                  994 : CASING BOTTOM LOGGER
BS  .IN                 8.75 : BIT SIZE
BSD .FT                 9904 : BIT SIZE AT DEPTH
DFT .                    GEL : DRILLING FLUID TYPE
DFD .                    9.4 : DRILLING FLUID DENSITY
DFV .                    310 : DRILLING FLUID VISCOSITY
DFPH.                   10.5 : DRILLING FLUID PH
DFL .                    7.2 : DRILLING FLUID LOSS
MSS .             CIRCULATED : MUD SAMPLE SOURCE
RMS .OHMM               1.85 : RESISTIVITY MUD SAMPLE
MST .DEGF                 58 : MUD SAMPLE TEMPERATURE
RMF .OHMM               1.56 : RESISTIVITY MUD FILTRATE SAMPLE
MFST.DEGF                 68 : MUD FILTRATE SAMPLE TEMPERATURE
RMC .OHMM                1.5 : RESISTIVITY MUD CAKE
MCST.DEGF                 58 : MUD CAKE SAMPLE TEMPERATURE
RMB .OHMM               0.56 : RESISTIVITY MUD AT BHT
TCS .HRS                   3 : TIME CIRCULATED STOPPED
LUN .                   7667 : LOGGING UNIT NUMBER
LUL .                  LLOYD : LOGGING UNIT LOCATION
ENGI.                  LEWIS : RECORDING ENGINEER
WITN.                 HARRIS : WITNESSED BY
CLNT.                A2DTECH : CLIENT CODE
ORIG.            2" 5" PRINT : ORIGIN OF DATA
UWI .       100102506620W500 : UNIQUE WELL ID
DICO. A2D Technologies, Inc. : DIGITIZING COMPANY
~Other -----------------------------------------------------
~ASCII -----------------------------------------------------
# ...
 4950.00000   67.47940   66.16280    9.72480 -119.43930    5.92060    7.95140   16.83350    -999.25
 5000.00000   68.17300   75.08400   10.11770  -86.01450    5.49870    5.81210    7.44270    -999.25
 5050.00000   69.90530   65.71540   10.14050 -139.56880    4.57440    6.43730   17.87660    -999.25
 5100.00000   69.30280   70.19680    9.98570  -90.14650    4.78640    5.03920    5.69690    -999.25
 5150.00000   72.41440  108.97520    9.67430  -74.99350    6.22910    6.51190    8.20290    -999.25
 5200.00000   75.53600   99.81760    9.89430  -72.99470    5.37380    5.89710    7.99420    -999.25
 5250.00000   74.25020   42.36850    9.10470 -132.80370   11.16260   16.14620   25.24000    -999.25
 5300.00000   64.06180   66.85190    9.50140  -75.55490   19.14430   23.78840   37.68290    -999.25
 5350.00000   63.90500   91.61470    9.26140  -89.61140    7.66310    8.75990   11.99090    -999.25
 5400.00000  103.94150   85.64040   11.35960  -74.12920    4.10740    4.62190    5.56080    -999.25
 5450.00000   76.48670   98.17680   10.05110  -66.85850    3.44960    3.57790    4.54890    -999.25
 5500.00000   68.01710  102.45450   11.21780  -65.21840    2.58710    2.63940    3.87900    -999.25
 5550.00000   70.27610  173.62280    9.53350  -62.57590   16.25290   18.60320   46.37310    -999.25
 5600.00000   61.33360  288.37620    8.88600  -64.54360   76.15090   88.43510 1459.26930    -999.25
 5650.00000   75.20840  185.22080    9.12390  -93.17790    7.15040    9.26720   11.67820    -999.25
 5700.00000   60.32640   66.92470    8.94850 -136.21900    4.81930    6.62710   20.09550    -999.25
 5750.00000   59.19600   66.24910    8.97430 -127.56200    4.49250    6.09450   19.18180    -999.25
 5800.00000   60.07170   71.46730    9.24710 -111.00390    5.08430    7.09970   26.48020    -999.25
 5850.00000   60.58850   80.63670    9.39850 -140.48720    5.59440    6.06580   18.78220    -999.25
 5900.00000   45.85350   27.82980    8.88210 -171.33870   14.76350   22.42040  140.31770    -999.25
 5950.00000   44.86120   41.68550    9.24300   23.71500   12.48450   14.49010   22.30310    -999.25
 6000.00000   43.98790   39.07220    9.02870  -47.38580   34.84460   42.54100  136.11620    -999.25
 6050.00000   48.92840   18.70630    9.15270 -158.70290    7.89600    9.31300  216.46290    -999.25
 6100.00000   48.48760   28.75550    9.31620 -202.73820   10.41120    9.51780   59.32020    -999.25
 6150.00000   46.27680   51.20730    9.16860  -62.37520   38.02100   44.07770  130.32970    -999.25
 6200.00000   47.87700   65.13100    9.17130  -50.48980   42.28240   35.38890  132.87160    -999.25
 6250.00000   52.86240   35.43250    9.17280  -49.34550    3.23180    4.17030   15.21580    -999.25
 6300.00000   45.40270   20.31350    9.19510 -103.11350    1.92040    2.55500    9.05930    -999.25
 6350.00000   43.34710   25.81130    9.04030 -183.61300    3.69810    9.43550   18.11320    -999.25
 6400.00000   43.91370   19.10280    9.05200 -185.79400   28.24810   36.66910  163.91460    -999.25
 6450.00000   44.53860   19.10390    9.15750 -156.98160   15.67870   23.03030  152.94840    -999.25
 6500.00000   42.98370   17.50020    9.20740 -135.15430   40.15450   41.51960  121.00800    -999.25
 6550.00000   42.53910   21.03900    9.26480 -109.33550    6.65560    8.42290   17.04230    -999.25
 6600.00000   58.77940   60.86680    9.49190 -115.07130    2.30680    2.21690    3.54710    -999.25
 6650.00000   60.87580   61.31030    9.27570 -116.67150    2.51010    2.95630    6.37000    -999.25
 6700.00000   54.72150   65.50230    9.21960  -83.32010   13.00780   14.41920   40.21180    -999.25
 6750.00000   43.32870   18.83720    9.16250  -30.19360   12.88670   14.63470   93.69510    -999.25
 6800.00000   44.63720   21.66540    9.04480  -45.80450   30.52470   42.67620   87.48150    -999.25
 6850.00000   45.38980   35.19820    8.87450 -115.21230   41.23820   48.51990  104.50980    -999.25
 6900.00000   46.95510   48.96650    8.90730 -140.89400   35.65780   43.35140   82.00570    -999.25
 6950.00000   47.41870   48.28000    8.96840 -162.99730   31.40510   37.46390   66.24910    -999.25
 7000.00000   52.66420   49.92240    9.02670 -175.20830   25.61400   30.82170   53.22650    -999.25
 7050.00000   50.51140   46.47470    8.93230 -164.77310   31.61640   38.69430   74.57630    -999.25
 7100.00000   51.72450   45.43060    8.94440 -129.57020   31.30760   36.40220   68.36710    -999.25
 7150.00000   51.24940   45.86550    8.96340  -71.97340   36.83830   45.86250   93.79720    -999.25
 7200.00000   46.07210   22.36570    9.05450  -70.97610   52.55800   68.51760  238.04350    -999.25
 7250.00000   48.91760  276.53380    9.00030  -58.56680   52.76440   71.07570  464.85080    -999.25
 7300.00000   47.59820   14.50780    9.27760  -11.86540   48.58550   56.16800  253.72130    -999.25
 7350.00000   45.70250   18.14550    9.31190  -10.28320   75.90160   94.73220  627.34480    -999.25
 7400.00000   45.07540   14.69350    9.11700  -35.39240   61.13980  104.78220  877.59190    -999.25
 7450.00000   46.04200   12.02930    9.49630  -60.57810   76.04810   88.07130  541.69780    -999.25
 7500.00000   45.10960   17.66690    9.43120 -201.31430   84.51040   98.44870 1335.81120    -999.25
 7550.00000   45.65720   11.01880    9.25580 -190.74560   51.86650   67.59560  199.53970    -999.25
 7600.00000   45.07930   16.17410    9.28940 -130.86360   83.88000   91.10300 1480.94570    -999.25
 7650.00000   45.48970   12.67670    9.27050 -177.92740   70.80430   71.09160  315.06830    -999.25
 7700.00000   44.97720   12.63740    9.30620 -176.88580   77.48810   90.88790  433.42820    -999.25
 7750.00000   44.92220    9.11860    9.27330 -181.42250   68.69940   83.63240  315.24900    -999.25
 7800.00000   44.75960   13.66470    9.21210 -127.69640   92.60630  111.20650 1421.78820    -999.25
 7850.00000   47.14480   15.46300    9.26900  -21.03950   41.63390   66.24770  217.47220    -999.25
 7900.00000   49.08810   13.03630    8.71320  -68.10420   19.71460   31.41600  148.45790    -999.25
 7950.00000   53.24480   11.05200    8.50020   -9.05610    5.99770    8.98050   82.63170    -999.25
 8000.00000   48.16560   14.68200    8.84800  -92.80470   14.54180   26.39650  240.45560    -999.25
 8050.00000   48.74970   21.74830    8.88840  -75.71720   13.12520   13.79360   63.01090    -999.25
 8100.00000   47.51090   21.24530    9.07440 -107.96710   43.80460   51.41960   97.61900    -999.25
 8150.00000   48.04230   32.49360    9.04590  -78.19770    5.07510    7.67810   11.40800    -999.25
 8200.00000   46.29540   33.61590    8.91060 -125.08520   54.95150   66.36740  255.75660    -999.25
 8250.00000   52.16960   58.90080    9.18410  -75.23690   19.94200   18.17670   30.67930    -999.25
 8300.00000   50.16330   36.81000    8.91640 -118.30050   33.55540   36.45170   67.61320    -999.25
 8350.00000   49.49270   28.85640    8.94140 -125.34950   29.11010   37.23560   93.80470    -999.25
 8400.00000   47.30680   40.96670    9.26750 -121.33410   13.21040   17.80720   39.92190    -999.25
 8450.00000   53.06140   49.67440    9.29240   -2.49740   13.86140   15.00550   23.50190    -999.25
 8500.00000   76.44390   95.92560   12.08980  -99.09710    3.70060    3.80350    5.40590    -999.25
 8550.00000   76.82380   77.39100   13.79130 -151.47800    3.61680    3.76740    4.77920    -999.25
 8600.00000   71.98590   72.47000   12.56980  -88.20730    4.36300    4.12070    5.45170    -999.25
 8650.00000   75.64090   70.27680   13.83780 -140.84160    4.02440    3.72570    4.83340    -999.25
 8700.00000   74.75130   62.47050   14.33750  -55.91480    3.90840    3.41540    4.73030    -999.25
 8750.00000   77.87090   64.08570   14.33790  -27.80790    3.51090    3.37470    4.50010    -999.25
 8800.00000   79.35430   84.95640   13.24390  -43.30540    3.33630    3.39430    4.84680    -999.25
 8850.00000   58.89170   70.21710    8.94280  -69.36370   10.07190   11.61950   17.39050    -999.25
 8900.00000   61.08520   69.79300    8.94380 -152.09420    8.61550    9.91780   14.72360    -999.25
