~Version ---------------------------------------------------
VERS.      2.0 : CWLS log ASCII Standard -VERSION 2.0
WRAP.       NO : One line per depth step
CREA. 08/31/17 : LAS Creation Date
~Well ------------------------------------------------------
STRT.FT                         1000.0 : START DEPTH
STOP.FT                        10100.0 : STOP DEPTH
STEP.FT                       50.00000 : STEP LENGTH
NULL.                          -999.25 : NULL VALUE
COMP.             PETROFINA CANADA LTD : COMPANY
WELL. FINA AMOCO HB PASS CK 6-33-62-17 : WELL
FLD .                                  : FIELD
LOC .                                  : LOCATION
CTRY.                           CANADA : COUNTRY
SRVC.                     Schlumberger : SERVICE COMPANY
DATE.                      14-Feb-1977 : LOGDATE
PROV.                          Alberta : PROVINCE
UWI .                 100063306217W500 : UNIQUE WELL ID
SLAT.WGS84                    54.40414 : SURFACE LATITUDE
SLON.WGS84                   -116.4922 : SURFACE LONGITUDE
~Curve Information -----------------------------------------
DEPT    .FT    : Depth Curve
CALDED  .IN    : CALIPER FROM CNFD LOG
CALSED  .IN    : CALIPER FROM BCS LOG [ADJ.TO GRDED]
CALWS   .IN    : CALIPER [CALSED]
CILDED  .MMHO  : CONDUCTIVITY FROM DIL-LAT LOG
CONDWS  .MMHO  : CONDUCTIVITY [CILDED SPL.TO 1000/ILDED @ 1035.5' TO 1151.5' & 4943' TO 10143']
DCORED  .G/C3  : DENSITY CORRECTION FROM CNFD LOG
DCORWS  .G/C3  : DENSITY CORRECTION [DCORED]
DENWS   .G/C3  : FORMATION BULK DENSITY [RHOBED]
DPHILSED.V/V   : DENSITY POROSITY LIMESTONE [M=2.71, F=1.0] FROM CNFD LOG [ADJ.TO RHOBED]
DPHISSED.V/V   : DENSITY POROSITY SANDSTONE [M=2.65, F=1.0] FROM CNFD LOG [ADJ.TO RHOBED]
DPOLSWS .V/V   : DENSITY POROSITY LIMESTONE [CALCULATED FROM DENWS, M=2.71, F=1.0]
DRESWS  .OHMM  : DEEP RESISTIVITY [1000/CONDWS, IF ILDED <=4 THEN ILDED]
DTED    .US/F  : DELTA-T FROM BCS LOG [ADJ.TO GRDED]
DTWS    .US/F  : COMPRESSIONAL SONIC [DTED]
GRDED   .GAPI  : GAMMA RAY FROM CNFD LOG
GRSED   .GAPI  : GAMMA RAY FROM SONIC LOG [ADJ.TO GRDED]
GRWS    .GAPI  : GAMMA RAY [GRSED]
ILDED   .OHMM  : DEEP INDUCTION FROM DIL-LAT LOG
ILMED   .OHMM  : MEDIUM INDUCTION FROM DIL-LAT LOG
LL8ED   .OHMM  : LATEROLOG 8 FROM DIL-LAT LOG
MRESWS  .OHMM  : MEDIUM RESISTIVITY [ILMED]
NPHILSED.V/V   : NEUTRON POROSITY LIMESTONE FROM CNFD LOG [ADJ.TO RHOBED]
NPHISSED.V/V   : NEUTRON POROSITY SANDSTONE FROM CNFD LOG [ADJ.TO RHOBED]
NPOLSWS .V/V   : NEUTRON POROSITY LIMESTONE [NPHISSED CONVERTED TO LIMESTONE MATRIX & SPL.TO NPHILSED @ 6299.5']
RHOBED  .G/C3  : FORMATION BULK DENSITY FROM CNFD LOG
SPHIED  .V/V   : SONIC POROSITY [DTM=55.6, DTF=189 & DTM=45.5 @ 6250 TO TD] FROM BCS LOG [ADJ.TO GRDED]
SPOWS   .V/V   : SONIC POROSITY [SPHIED]
SPRED   .MV    : SPONTANEOUS POTENTIAL FROM DIL-LAT LOG
SPWS    .MV    : SPONTANEOUS POTENTIAL [BASELINE 0 MV, SPRED]
SRESWS  .OHMM  : SHALLOW RESISTIVITY [LL8ED]
~Params ----------------------------------------------------
PD  .                     GL : PERMANENT DATUM
EPD .FT                 2942 : ELEVATION PERMANENT DATUM
LMF .                     KB : LOG MEASURED FROM
DAPD.FT                13.15 : FEET ABOVE PERMANENT DATUM
DMF .                     KB : DRILLING MEASURED FROM
EKB .FT              2955.15 : KELLY BUSHING
EGL .FT               2942.0 : GROUND LEVEL
DATE.               02/14/77 : RUN DATE
RUN .                      1 : RUN NUMBER
DD  .FT                10160 : DEPTH DRILLER
DL  .FT                10155 : DEPTH LOGGER
BLI .FT                10149 : BOTTOM LOG INTERVAL
TLI .FT                 1027 : TOP LOG INTERVAL
CBD .FT                 1028 : CASING BOTTOM DRILLER
CBL .FT                 1027 : CASING BOTTOM LOGGER
BS  .IN                 8.75 : BIT SIZE
BSD .FT                10160 : BIT SIZE AT DEPTH
DFT .               GEL CHEM : DRILLING FLUID TYPE
DFD .                    9.0 : DRILLING FLUID DENSITY
DFV .                     93 : DRILLING FLUID VISCOSITY
DFPH.                   11.0 : DRILLING FLUID PH
DFL .                    5.6 : DRILLING FLUID LOSS
RMF .OHMM               2.08 : RESISTIVITY MUD FILTRATE SAMPLE
MFST.DEGF                 70 : MUD FILTRATE SAMPLE TEMPERATURE
RMC .OHMM               0.94 : RESISTIVITY MUD CAKE
MCST.DEGF                 70 : MUD CAKE SAMPLE TEMPERATURE
RMB .OHMM               0.85 : RESISTIVITY MUD AT BHT
TCS .HRS                 3.5 : TIME CIRCULATED STOPPED
LUN .                   7803 : LOGGING UNIT NUMBER
LUL .                     DC : LOGGING UNIT LOCATION
ENGI.                   WATT : RECORDING ENGINEER
WITN.                 NELSON : WITNESSED BY
CLNT.                A2DTECH : CLIENT CODE
ORIG.            2" 5" PRINT : ORIGIN OF DATA
UWI .       100063306217W500 : UNIQUE WELL ID
DICO. A2D Technologies, Inc. : DIGITIZING COMPANY
~Other -----------------------------------------------------
~ASCII -----------------------------------------------------
# ...
 5800.00000    9.80280    9.33220    9.33220    -999.25  125.29440    0.04640    0.04640    2.55980    -999.25    0.05330    0.08780    7.98120   73.73470   73.73470  107.48100  100.40150  100.40150    7.98120    8.36770    9.85730    8.36770    -999.25    0.24210    0.19820    2.55980    0.13840    0.13840  -59.54030   -7.46890    9.85730
 5850.00000    9.16110    9.21480    9.21480    -999.25  115.16090    0.02310    0.02310    2.63450    -999.25    0.01060    0.04420    8.68350   74.20280   74.20280  127.84510  115.97650  115.97650    8.68350    9.09410   11.82950    9.09410    -999.25    0.25370    0.20980    2.63450    0.14180    0.14180  -57.97360   -4.71320   11.82950
 5900.00000    9.40730    9.13780    9.13780    -999.25  107.61140    0.14890    0.14890    2.61260    -999.25    0.01410    0.05700    9.29270   70.96640   70.96640  133.92270  119.58580  119.58580    9.29270    9.96620   12.76650    9.96620    -999.25    0.24280    0.19890    2.61260    0.11620    0.11620  -60.48600   -6.01440   12.76650
 5950.00000   10.37130    9.40330    9.40330    -999.25  155.21520    0.20160    0.20160    2.37880    -999.25    0.14930    0.19370    6.44370   79.32510   79.32510  144.94440  138.48960  138.48960    6.44370    6.85420    9.09900    6.85420    -999.25    0.27870    0.23470    2.37880    0.18100    0.18100  -58.73980   -4.15880    9.09900
 6000.00000    8.71060    8.89390    8.89390    -999.25   69.05740    0.10310    0.10310    2.51140    -999.25    0.08340    0.11610   14.48070   73.95060   73.95060   55.80570   53.07570   53.07570   14.48070   18.24940   44.13760   18.24940    -999.25    0.14620    0.10370    2.51140    0.14050    0.14050  -87.40110  -36.29000   44.13760
 6050.00000    9.75800    8.98960    8.98960    -999.25   68.00780    0.17040    0.17040    2.48850    -999.25    0.09610    0.12950   14.70420   71.84460   71.84460   92.13180   93.97110   93.97110   14.70420   17.51420   28.82610   17.51420    -999.25    0.22790    0.18420    2.48850    0.12420    0.12420  -70.04150  -22.46480   28.82610
 6100.00000   10.86460    9.38910    9.38910    -999.25   97.67910    0.25450    0.25450    2.43870    -999.25    0.13070    0.15870   10.23760   80.85470   80.85470  139.93440  135.10840  135.10840   10.23760   10.63790   15.12760   10.63790    -999.25    0.29710    0.25310    2.43870    0.18800    0.18800  -46.63720   -2.59480   15.12760
 6150.00000   12.50450   10.40550   10.40550    -999.25  257.69210    0.23340    0.23340    2.23120    -999.25    0.25890    0.28000    3.88060   87.26390   87.26390  135.87050  134.37450  134.37450    3.88060    4.20700    5.41190    4.20700    -999.25    0.39110    0.34810    2.23120    0.24090    0.24090  -47.56920   -2.61430    5.41190
 6200.00000   10.61560    9.21770    9.21770    -999.25   81.21350    0.08380    0.08380    2.47180    -999.25    0.10330    0.13930   12.31970   95.46300   95.46300  184.11770  184.53510  184.53510   12.31970   12.16120   18.27990   12.16120    -999.25    0.32240    0.27850    2.47180    0.30360    0.30360  -53.82290   -6.56970   18.27990
 6250.00000   11.32450    9.82760    9.82760    -999.25   68.66150    0.10060    0.10060    2.28660    -999.25    0.19660    0.24760   14.56420   82.66810   82.66810   96.62790   80.82940   80.82940   14.56420   20.28000   65.70980   20.28000    -999.25    0.31550    0.27160    2.28660    0.20630    0.20630  -57.03530   -7.37650   65.70980
 6300.00000    9.13480    9.06920    9.06920    -999.25   10.40240    0.03220    0.03220    2.62350    0.05150    -999.25    0.05060   96.13160   63.31870   63.31870   71.16430   68.20940   68.20940   96.13160   94.29070  283.36380   94.29070    0.09840    -999.25    0.09840    2.62350    0.05880    0.05880  -61.99830  -10.23320  283.36380
 6350.00000    9.13860    9.07950    9.07950    -999.25    3.88610    0.00430    0.00430    2.49780    0.11990    -999.25    0.12410  257.32960   67.77900   67.77900  272.84850  272.84850  272.84850  257.32960 1140.95970  980.63700 1140.95970    0.15490    -999.25    0.15490    2.49780    0.09270    0.09270 -117.57640  -65.61850  980.63700
 6400.00000    8.64210    8.79370    8.79370    -999.25  509.76190    0.16880    0.16880    2.50640    0.12350    -999.25    0.11910    1.96170   72.30550   72.30550   61.42470   62.06410   62.06410    1.96170    3.59950   24.23350    3.59950    0.15010    -999.25    0.15010    2.50640    0.18860    0.18860 -168.98310 -116.83250   24.23350
 6450.00000    8.88680    8.88100    8.88100    -999.25  107.92380    0.11130    0.11130    2.68990    0.00770    -999.25    0.01170    9.26580   54.64770   54.64770   21.72620   27.32220   27.32220    9.26580   11.65790   37.48730   11.65790    0.12730    -999.25    0.12730    2.68990    0.07160    0.07160 -154.61720 -102.27290   37.48730
 6500.00000    9.89680    9.27120    9.27120    -999.25   60.75080    0.11180    0.11180    2.75450   -0.03650    -999.25   -0.02600   16.46070   53.99120   53.99120   35.19190   36.09100   36.09100   16.46070   17.87370   34.26270   17.87370    0.07240    -999.25    0.07240    2.75450    0.05950    0.05950  -96.53370  -43.99760   34.26270
 6550.00000    9.57760    9.23670    9.23670    -999.25   32.88730    0.00140    0.00140    2.66310    0.01590    -999.25    0.02740   30.40690   56.35460   56.35460  103.40600   99.02020   99.02020   30.40690   32.11580   40.50820   32.11580    0.04660    -999.25    0.04660    2.66310    0.07760    0.07760  -55.02620   -2.29740   40.50820
 6600.00000    9.87070    9.07180    9.07180    -999.25  209.26190    0.12870    0.12870    2.62220    0.05610    -999.25    0.05130    4.77870   58.75430   58.75430   58.94470   58.34260   58.34260    4.77870    8.31300   34.99030    8.31300    0.13730    -999.25    0.13730    2.62220    0.09500    0.09500 -139.69030  -86.46310   34.99030
 6650.00000    9.47830    9.20150    9.20150    -999.25   74.85870    0.03760    0.03760    2.69390    0.00750    -999.25    0.00940   13.35850   50.19010   50.19010   38.28360   34.71480   34.71480   13.35850   14.30080  263.37050   14.30080    0.02570    -999.25    0.02570    2.69390    0.03250    0.03250  -90.44520  -36.67790  263.37050
 6700.00000    9.44950    9.26560    9.26560    -999.25  105.60590    0.04160    0.04160    2.75790   -0.02910    -999.25   -0.02800    9.61190   55.42490   55.42490   82.22320   90.10260   90.10260    9.61190   11.10780   42.01890   11.10780    0.06150    -999.25    0.06150    2.75790    0.06810    0.06810  -89.30840  -34.99840   42.01890
 6750.00000    9.42970    9.28630    9.28630    -999.25    5.00150    0.02530    0.02530    2.73890   -0.02790    -999.25   -0.01690  199.94020   48.42350   48.42350   16.51710   20.88110   20.88110  199.94020  757.41270 1346.76340  757.41270    0.00720    -999.25    0.00720    2.73890    0.02100    0.02100 -141.21860  -86.37120 1346.76340
 6800.00000    8.83620    8.92820    8.92820    -999.25   64.11410    0.12390    0.12390    2.67490    0.02050    -999.25    0.02050   15.59720   52.01750   52.01750   19.85600   19.57330   19.57330   15.59720   25.62110  152.29570   25.62110    0.06360    -999.25    0.06360    2.67490    0.04460    0.04460 -182.07630 -126.68880  152.29570
 6850.00000    9.37370    9.12890    9.12890    -999.25   31.43290   -0.00520   -0.00520    2.69500    0.00240    -999.25    0.00880   31.81380   49.63520   49.63520   18.66170   17.70480   17.70480   31.81380   43.60530  255.09970   43.60530    0.02360    -999.25    0.02360    2.69500    0.02910    0.02910 -161.01970 -105.09220  255.09970
 6900.00000    9.28770    9.12580    9.12580    -999.25   94.10880    0.04420    0.04420    2.64400    0.03660    -999.25    0.03860   10.62600   59.62910   59.62910   91.06970   80.50560   80.50560   10.62600   12.74210   31.59340   12.74210    0.03610    -999.25    0.03610    2.64400    0.10000    0.10000  -67.36910  -10.90150   31.59340
 6950.00000    9.25500    9.10660    9.10660    -999.25  185.79510    0.04510    0.04510    2.69880    0.01180    -999.25    0.00650    5.39430   60.10740   60.10740  121.92580  113.69910  113.69910    5.39430    5.48350    9.15390    5.48350    0.11150    -999.25    0.11150    2.69880    0.10310    0.10310  -74.98430  -22.05660    9.15390
