~Version ---------------------------------------------------
VERS. 2.0 : CWLS log ASCII Standard -VERSION 2.0
WRAP.  NO : ONE LINE PER DEPTH STEP
~Well ------------------------------------------------------
STRT.M                       300.0 : START DEPTH
STOP.M                      1700.0 : STOP DEPTH
STEP.M                    50.00000 : STEP LENGTH
NULL.                      -999.25 : NULL VALUE
COMP.         TALISMAN ENERGY INC. : COMPANY
WELL. PANCON ET AL NIPISI 4-8-80-7 : WELL
FLD .                       NIPISI : FIELD
LOC .                              : LOCATION
CTRY.                       CANADA : COUNTRY
SRVC.                Dresser Atlas : SERVICE COMPANY
DATE.                  06-Mar-1981 : LOGDATE
PROV.                      Alberta : PROVINCE
UWI .             100040808007W500 : UNIQUE WELL ID
SLAT.WGS84           55.9147415161 : SURFACE LATITUDE
SLON.WGS84         -115.0668487549 : SURFACE LONGITUDE
~Curve Information -----------------------------------------
DEPT  .M      : DEPTH METERS
AC    .US/M   : ACOUSTIC FROM SONIC LOG
CALS  .MM     : CALIPER FROM SONIC LOG
CORR  .KG/M3  : DENSITY CORRECTION FROM DENSITY LOG
DPHILS.V/V    : DENSITY POROSITY LIMESTONE FROM DENSITY LOG
GRS   .GAPI   : GAMMA RAY FROM SONIC LOG
ILD   .OHMM   : INDUCTION LOG DEEP RESISTIVITY
ILM   .OHMM   : INDUCTION LOG MEDIUM RESISTIVITY
NPHILS.V/V    : NEUTRON POROSITY LIMESTONE FROM DENSITY LOG
RHOB  .KG/M3  : BULK DENSITY FROM DENSITY LOG
SFL   .OHMM   : SPHERICALLY FOCUSED LOG RESISTIVITY
SPR   .MV     : SPONTANEOUS POTENTIAL FROM RESISTIVITY LOG
~Params ----------------------------------------------------
PD  .                         GL : PERMANENT DATUM
EPD .M                    661.35 : ELEVATION PERMANENT DATUM
LMF .                         KB : LOG MEASURED FROM
DAPD.M                       4.1 : FEET ABOVE PERMANENT DATUM
DMF .                         KB : DRILLING MEASURED FROM
EKB .M                    665.45 : KELLY BUSHING
EGL .M                    661.35 : GROUND LEVEL
DATE.                  3-06-1981 : RUN DATE
RUN .                          1 : RUN NUMBER
DD  .M                      1710 : DEPTH DRILLER
DL  .M                    1711.5 : DEPTH LOGGER
BLI .M                    1710.8 : BOTTOM LOG INTERVAL
TLI .M                      1650 : TOP LOG INTERVAL
CBD .M                     187.4 : CASING BOTTOM DRILLER
BS  .MM                      200 : BIT SIZE
BSD .M                      1710 : BIT SIZE AT DEPTH
DFT .                   GEL CHEM : DRILLING FLUID TYPE
DFD .                         17 : DRILLING FLUID DENSITY
DFV .                         60 : DRILLING FLUID VISCOSITY
DFPH.                         10 : DRILLING FLUID PH
DFL .                         11 : DRILLING FLUID LOSS
MSS .                   FLOWLINE : MUD SAMPLE SOURCE
RMS .OHMM                   1.25 : RESISTIVITY MUD SAMPLE
MST .DEGC                     10 : MUD SAMPLE TEMPERATURE
RMF .OHMM                   0.94 : RESISTIVITY MUD FILTRATE SAMPLE
MFST.DEGC                     10 : MUD FILTRATE SAMPLE TEMPERATURE
RMC .OHMM                   1.75 : RESISTIVITY MUD CAKE
MCST.DEGC                     10 : MUD CAKE SAMPLE TEMPERATURE
MFSS.                       MEAS : MUD FILTRATE SAMPLE SOURCE
MCSS.                       MEAS : MUD CAKE SAMPLE SOURCE
RMB .OHMM                   0.59 : RESISTIVITY MUD AT BHT
TCS .HRS                    1500 : TIME CIRCULATED STOPPED
LUN .                     HL6163 : LOGGING UNIT NUMBER
LUL .                      LLOYD : LOGGING UNIT LOCATION
ENGI.                 MURRAY LEE : RECORDING ENGINEER
WITN.                MOLDENHAUER : WITNESSED BY
CLNT.                    A2DTECH : CLIENT CODE
ORIG. 6.5"/100M 16.5"/100M PRINT : ORIGIN OF DATA
UWI .           100040808007W500 : UNIQUE WELL ID
DICO.     A2D Technologies, Inc. : DIGITIZING COMPANY
~Other -----------------------------------------------------
~ASCII -----------------------------------------------------
  300.00000  511.73880  214.16520    -999.25    -999.25  138.90810    -999.25    -999.25    -999.25    -999.25    -999.25    -999.25
  350.00000  419.59140  206.80980    -999.25    -999.25   51.89640    -999.25    -999.25    -999.25    -999.25    -999.25    -999.25
  400.00000  363.69020  208.95420    -999.25    -999.25   63.28580    -999.25    -999.25    -999.25    -999.25    -999.25    -999.25
  450.00000  372.00920  188.42990    -999.25    -999.25   57.28180    -999.25    -999.25    -999.25    -999.25    -999.25    -999.25
  500.00000  383.68310  212.58740   42.20330    0.29360   53.79500    -999.25    -999.25    0.40550 2239.05660    -999.25    -999.25
  550.00000  340.24480  273.42920   30.31110    0.24880   68.40470    -999.25    -999.25    0.42400 2421.17040    -999.25    -999.25
  600.00000  293.71180  213.89580   56.40480    0.18170   44.83780    -999.25    -999.25    0.22260 2210.58670    -999.25    -999.25
  650.00000  225.86010  218.28540   46.96110    0.10550   24.38040    -999.25    -999.25    0.16610 2648.32860    -999.25    -999.25
  700.00000  246.51130  246.73370   27.45220    0.03300   23.91270    -999.25    -999.25    0.21730 2650.63870    -999.25    -999.25
  750.00000  243.73200  246.12400   27.32560    0.04360   27.11800    -999.25    -999.25    0.21080 2638.47460    -999.25    -999.25
  800.00000  177.99510  244.87360   13.05110   -0.01820   12.30250    -999.25    -999.25    0.09440 2727.60770    -999.25    -999.25
  850.00000  177.75390  228.28080   31.34070   -0.00830    8.58220    -999.25    -999.25    0.09070 2729.59330    -999.25    -999.25
  900.00000  170.83760  225.41310   18.23450   -0.01100    6.97560    -999.25    -999.25    0.08220 2703.76660    -999.25    -999.25
  950.00000  179.10420  220.50290   63.75020   -0.01000    9.63120    -999.25    -999.25    0.13430 2734.19530    -999.25    -999.25
 1000.00000  158.81100  215.02300   39.86860   -0.06350   10.27560    -999.25    -999.25    0.05410 2837.54200    -999.25    -999.25
 1050.00000  184.53840  199.43610   34.55270    0.14340   12.54240    -999.25    -999.25    0.34380 2532.15260    -999.25    -999.25
 1100.00000  201.01330  205.69210   44.61500   -0.01160   38.30850    -999.25    -999.25    0.20440 2651.40580    -999.25    -999.25
 1150.00000  184.15060  203.50560   69.10250    0.02030   16.25870    -999.25    -999.25    0.22370 2650.30030    -999.25    -999.25
 1200.00000  285.00400  248.59690  151.01870    0.14960   71.59420    -999.25    -999.25    0.35700 2475.29000    -999.25    -999.25
 1250.00000  391.48430  228.63570   60.01840    0.14300   94.52820    -999.25    -999.25    0.23840 2367.59030    -999.25    -999.25
 1300.00000  238.30280  238.01020   35.40770   -0.02610   66.66410    -999.25    -999.25    0.23740 2725.38480    -999.25    -999.25
 1350.00000  245.08290  216.23960  133.98720    0.19780   55.70780    -999.25    -999.25    0.24690 2345.95650    -999.25    -999.25
 1400.00000  262.53020  207.36350   69.64340    0.10400   61.04530    -999.25    -999.25    0.29590 2453.49150    -999.25    -999.25
 1450.00000  346.37800  248.25510  133.60180    0.19510  101.82180    -999.25    -999.25    0.39850 2402.92990    -999.25    -999.25
 1500.00000  296.44390  215.78520  172.45740    0.20330   88.13830    -999.25    -999.25    0.38050 2371.52930    -999.25    -999.25
 1550.00000  194.05020  213.67930    6.53490   -0.02650   30.17910    -999.25    -999.25    0.11290 2732.35450    -999.25    -999.25
 1600.00000  212.48340  209.99480   47.91260   -0.03840   69.09780    -999.25    -999.25    0.18380 2756.88330    -999.25    -999.25
 1650.00000  262.25770  219.53400   19.04980    0.00490  101.16710    5.12680    6.28630    0.28750 2680.20630    7.26870  -19.96160
 1700.00000  231.40220  232.35990   53.85690    0.25490   89.03180    2.25880    2.52170    0.30800 2580.99880    4.31080  -38.50790
