~Version ---------------------------------------------------
VERS.      2.0 : CWLS log ASCII Standard -VERSION 2.0
WRAP.       NO : One line per depth step
CREA. 12/21/17 : LAS Creation Date
~Well ------------------------------------------------------
STRT.FT                    1250.0 : START DEPTH
STOP.FT                    9750.0 : STOP DEPTH
STEP.FT                  50.00000 : STEP LENGTH
NULL.                     -999.25 : NULL VALUE
COMP.  PHILLIPS PETROLEUM COMPANY : COMPANY
WELL. PHILLIPS KAYBOB 10-34-64-19 : WELL
FLD .                             : FIELD
LOC .                             : LOCATION
CTRY.                      CANADA : COUNTRY
SRVC.                       Welex : SERVICE COMPANY
DATE.                 14-Dec-1960 : LOGDATE
PROV.                     Alberta : PROVINCE
UWI .            100103406419W500 : UNIQUE WELL ID
SLAT.WGS84               54.58335 : SURFACE LATITUDE
SLON.WGS84               -116.782 : SURFACE LONGITUDE
~Curve Information -----------------------------------------
DEPT  .FT    : Depth Curve
CALWS .IN    : CALIPER [MCALED]
CONDWS.MMHO  : CONDUCTIVITY [1000/DRESWS]
DRESWS.OHMM  : DEEP RESISTIVITY [LT16ED]
GRNED .CPS   : GAMMA RAY FROM GRN LOG [ADJ. TO RESISTIVITY LOG]
GRWS  .CPS   : GAMMA RAY [GRNED]
LAT9ED.OHMM  : LATERAL 9' (3IZ)  FROM RESISTIVITY LOG
LT16ED.OHMM  : LATERAL 16' (3IZ)  FROM RESISTIVITY LOG
MCALED.IN    : CALIPER FROM CONTACT CALIPER LOG
MRESWS.OHMM  : MEDIUM RESISTIVITY [LT9ED]
NEUTED.CPS   : NEUTRON FROM GRN LOG [ADJ. TO RESISTIVITY LOG]
NEUTWS.CPS   : NEUTRON [NEUTED]
SNED  .OHMM  : SHORT NORMAL 18" (2Z) FROM RESISTIVITY LOG
SPRED .MV    : SPONTANEOUS POTENTIAL FROM RESISTIVITY LOG
SPWS  .MV    : SPONTANEOUS POTENTIAL [BASELINE 0 MV, SPRED]
SRESWS.OHMM  : SHALLOW RESISTIVITY [SNED]
~Params ----------------------------------------------------
PD  .                             SCF : PERMANENT DATUM
LMF .                              KB : LOG MEASURED FROM
DAPD.FT                         14.41 : FEET ABOVE PERMANENT DATUM
DMF .                              KB : DRILLING MEASURED FROM
EKB .FT                          2452 : KELLY BUSHING
EGL .FT                          2437 : GROUND LEVEL
DATE.                        12/14/60 : RUN DATE
RUN .                               1 : RUN NUMBER
DD  .FT                          9756 : DEPTH DRILLER
DL  .FT                          9757 : DEPTH LOGGER
BLI .FT                          9756 : BOTTOM LOG INTERVAL
TLI .FT                          1245 : TOP LOG INTERVAL
CS  .IN                         9.625 : CASING SIZE
CBD .FT                          1253 : CASING BOTTOM DRILLER
CBL .FT                          1245 : CASING BOTTOM LOGGER
BS  .IN                         7.875 : BIT SIZE
BSD .FT                          9756 : BIT SIZE AT DEPTH
DFT . OIL EMULSION GEL CAUSTIC TANNEX : DRILLING FLUID TYPE
DFD .                            10.5 : DRILLING FLUID DENSITY
DFV .                             115 : DRILLING FLUID VISCOSITY
DFPH.                             9.5 : DRILLING FLUID PH
DFL .                             5.3 : DRILLING FLUID LOSS
MSS .                      CIRCULATED : MUD SAMPLE SOURCE
RMS .OHMM                        2.73 : RESISTIVITY MUD SAMPLE
MST .DEGF                          72 : MUD SAMPLE TEMPERATURE
RMF .OHMM                        1.07 : RESISTIVITY MUD FILTRATE SAMPLE
MFST.DEGF                         195 : MUD FILTRATE SAMPLE TEMPERATURE
RMC .OHMM                        1.14 : RESISTIVITY MUD CAKE
MCST.DEGF                         195 : MUD CAKE SAMPLE TEMPERATURE
RMB .OHMM                        1.09 : RESISTIVITY MUD AT BHT
ENGI.                          DOWHAN : RECORDING ENGINEER
WITN.                        WILLIAMS : WITNESSED BY
CLNT.                         A2DTECH : CLIENT CODE
ORIG.                     2" 5" PRINT : ORIGIN OF DATA
UWI .                100103406419W500 : UNIQUE WELL ID
DICO.          A2D Technologies, Inc. : DIGITIZING COMPANY
~Other -----------------------------------------------------
~ASCII -----------------------------------------------------
 1250.00000   11.07040    -999.25    -999.25    -999.25    -999.25    -999.25    -999.25   11.07040    -999.25  311.03150  311.03150    3.65850  -69.14850   -3.12840    3.65850
 1300.00000   13.44980  157.97820    6.33020   81.64020   81.64020    4.56190    6.33020   13.44980    4.56190  315.26750  315.26750    4.05490  -70.37350   -4.35340    4.05490
 1350.00000    9.01360   84.45950   11.84000   56.83010   56.83010   15.58450   11.84000    9.01360   15.58450  339.61750  339.61750    5.52330  -71.63790   -5.61780    5.52330
 1400.00000    9.38710  166.78620    5.99570   68.29630   68.29630    5.70050    5.99570    9.38710    5.70050  381.75250  381.75250    8.79690  -76.92470  -10.90460    8.79690
 1450.00000   11.39530  169.87730    5.88660   51.73250   51.73250    5.26810    5.88660   11.39530    5.26810  300.43760  300.43760    3.78620  -71.29420   -5.27410    3.78620
 1500.00000   12.38750  293.60820    3.40590   77.00030   77.00030    3.12010    3.40590   12.38750    3.12010  297.17330  297.17330    4.59280  -72.41670   -6.16420    4.59280
 1550.00000    9.39870  106.63850    9.40370   51.80160   51.80160    8.53480    9.40370    9.39870    8.53480  341.02730  341.02730    6.31140  -78.93930  -12.45430    6.31140
 1600.00000   10.60320  226.23410    4.42020   73.58710   73.58710    2.91290    4.42020   10.60320    2.91290  308.83890  308.83890    3.89880  -71.74950   -5.03050    3.89880
 1650.00000    8.62100   76.76720   13.02640   44.16620   44.16620   16.31320   13.02640    8.62100   16.31320  360.95750  360.95750   14.65510  -85.72960  -18.77810   14.65510
 1700.00000    8.19450   49.26670   20.29770   57.00260   57.00260   20.04710   20.29770    8.19450   20.04710  371.37960  371.37960   15.60530  -85.08480  -17.89930   15.60530
 1750.00000   10.43660   38.75950   25.80010   63.58210   63.58210   30.10830   25.80010   10.43660   30.10830  358.58580  358.58580    6.43950  -74.62520   -7.20720    6.43950
 1800.00000    9.88820  185.13000    5.40250   69.91530   69.91530    4.31810    5.40250    9.88820    4.31810  319.71380  319.71380    4.74470  -73.37730   -5.72680    4.74470
 1850.00000    8.30540  172.64900    5.79210   52.14450   52.14450    5.91910    5.79210    8.30540    5.91910  369.85230  369.85230    7.84700  -73.32860   -5.44410    7.84700
 1900.00000    9.69260  157.18330    6.36200   58.20580   58.20580    6.51110    6.36200    9.69260    6.51110  341.01350  341.01350    5.93970  -72.14750   -3.86890    5.93970
 1950.00000    9.52540  196.73420    5.08300   63.35060   63.35060    4.85750    5.08300    9.52540    4.85750  310.61600  310.61600    4.23700  -74.01430   -5.08240    4.23700
 2000.00000    9.66980   79.71810   12.54420   57.22920   57.22920    9.16520   12.54420    9.66980    9.16520  306.71010  306.71010    6.43050  -75.74260   -6.16180    6.43050
 2050.00000   10.90250  236.31470    4.23180   60.45690   60.45690    5.84320    4.23180   10.90250    5.84320  315.18590  315.18590    5.03150  -74.27850   -4.27020    5.03150
 2100.00000   10.82490  182.93910    5.46630   59.35120   59.35120    6.71670    5.46630   10.82490    6.71670  312.32450  312.32450    4.77430  -74.05360   -4.12880    4.77430
 2150.00000    9.53400  251.70530    3.97290   51.19880   51.19880    3.17140    3.97290    9.53400    3.17140  308.93200  308.93200    5.39910  -74.41150   -4.56960    5.39910
 2200.00000    8.63070   51.23870   19.51650   49.72060   49.72060   26.77830   19.51650    8.63070   26.77830  388.78770  388.78770   17.13570  -89.53330  -19.77480   17.13570
 2250.00000    8.62560   99.96300   10.00370   46.41140   46.41140   12.35850   10.00370    8.62560   12.35850  405.00390  405.00390   17.78850  -84.07660  -14.40110   17.78850
 2300.00000    9.88560  170.86140    5.85330   58.84920   58.84920    5.99330    5.85330    9.88560    5.99330  314.32680  314.32680    5.57360  -73.79210   -4.19950    5.57360
 2350.00000   11.90460  174.88940    5.71790   60.88890   60.88890    4.15810    5.71790   11.90460    4.15810  315.64250  315.64250    5.40360  -73.93720   -4.42800    5.40360
 2400.00000    9.86010   94.63870   10.56650   48.71260   48.71260   15.80550   10.56650    9.86010   15.80550  398.02030  398.02030   14.39180  -89.37360  -19.94740   14.39180
 2450.00000   10.47310  184.74730    5.41280   63.00760   63.00760    7.56930    5.41280   10.47310    7.56930  330.56880  330.56880    7.06470  -74.06920   -4.72640    7.06470
 2500.00000   10.23890  127.13430    7.86570   64.62080   64.62080    6.37320    7.86570   10.23890    6.37320  315.19260  315.19260    5.81060  -74.29830   -5.03840    5.81060
 2550.00000   10.57200  176.81560    5.67300   70.86660   70.86660    6.54640    5.67300   10.57200    6.54640  315.07080  315.07080    6.05950  -75.06800   -5.89110    6.05950
 2600.00000   10.92230  163.72780    6.10770   73.20390   73.20390    7.22940    6.10770   10.92230    7.22940  309.18850  309.18850    7.28800  -78.65010   -9.55660    7.28800
 2650.00000    9.38090  120.97310    8.26630   74.58030   74.58030    8.86490    8.26630    9.38090    8.86490  320.93350  320.93350    9.20350  -78.84500   -9.83440    9.20350
 2700.00000   10.01710  123.03150    8.12800   84.57080   84.57080    7.91110    8.12800   10.01710    7.91110  303.59090  303.59090    7.44930  -79.64030  -10.71320    7.44930
 2750.00000   10.89900  123.58950    8.09130  115.25040  115.25040    9.40390    8.09130   10.89900    9.40390  321.72740  321.72740    8.40690  -76.32250   -7.47830    8.40690
 2800.00000   11.28170   85.55190   11.68900  100.03990  100.03990   13.42360   11.68900   11.28170   13.42360  322.25200  322.25200   10.88860  -79.48880  -10.72750   10.88860
 2850.00000   11.86930  115.32160    8.67140   97.88190   97.88190    9.44060    8.67140   11.86930    9.44060  312.29840  312.29840    8.41130  -77.59790   -8.92010    8.41130
 2900.00000   12.12920  124.03560    8.06220   91.04240   91.04240    9.35980    8.06220   12.12920    9.35980  305.49340  305.49340    7.04720  -80.99910  -12.40420    7.04720
 2950.00000   10.52830  135.10770    7.40150   98.85450   98.85450    8.00750    7.40150   10.52830    8.00750  312.36670  312.36670    8.73210  -80.19240  -11.68100    8.73210
 3000.00000    9.80100   90.07950   11.10130   91.87520   91.87520   10.53300   11.10130    9.80100   10.53300  298.34170  298.34170    8.75000  -81.73950  -13.31100    8.75000
 3050.00000   10.47300   89.03460   11.23280   94.05260   94.05260   11.33770   11.23280   10.47300   11.33770  321.60400  321.60400    9.17790  -79.15050  -10.80490    9.17790
 3100.00000   11.31710  116.72560    8.56710   87.97560   87.97560   10.00860    8.56710   11.31710   10.00860  288.19820  288.19820    8.28750  -79.66800  -11.40590    8.28750
 3150.00000    9.52020  122.19860    8.18340   96.22110   96.22110    9.07450    8.18340    9.52020    9.07450  319.01090  319.01090    8.83350  -79.60150  -11.42230    8.83350
 3200.00000    9.09550  112.60500    8.88060   93.74810   93.74810   10.43170    8.88060    9.09550   10.43170  307.96400  307.96400    9.82620  -79.66670  -11.57100    9.82620
 3250.00000   10.61250  109.92030    9.09750   87.41580   87.41580    9.88510    9.09750   10.61250    9.88510  293.78510  293.78510    8.48650  -78.96190  -10.94910    8.48650
 3300.00000    9.80990   96.96460   10.31390   81.57730   81.57730   12.02220   10.31390    9.80990   12.02220  304.95180  304.95180   10.94580  -79.03770  -11.10780   10.94580
 3350.00000   10.38150  115.03910    8.69270   96.21100   96.21100    9.63640    8.69270   10.38150    9.63640  343.68400  343.68400    9.37790  -78.65460  -10.80820    9.37790
 3400.00000   10.75970  111.08770    9.00190   96.90640   96.90640   10.70890    9.00190   10.75970   10.70890  337.74630  337.74630    9.89560  -77.17140   -9.40790    9.89560
 3450.00000   10.82560  110.64760    9.03770   96.17640   96.17640    8.74570    9.03770   10.82560    8.74570  332.52800  332.52800    9.84640  -78.02840  -10.34830    9.84640
 3500.00000   10.70300  124.21740    8.05040  102.07030  102.07030    8.82240    8.05040   10.70300    8.82240  322.24050  322.24050    8.13280  -77.40220   -9.80510    8.13280
