~Version ---------------------------------------------------
VERS.      2.0 : CWLS log ASCII Standard -VERSION 2.0
WRAP.       NO : One line per depth step
CREA. 01/03/18 : LAS Creation Date
~Well ------------------------------------------------------
STRT.FT                     650.0 : START DEPTH
STOP.FT                    7900.0 : STOP DEPTH
STEP.FT                  50.00000 : STEP LENGTH
NULL.                     -999.25 : NULL VALUE
COMP.       CALGARY CRUDE OIL LTD : COMPANY
WELL. CCOL ET AL SWAN H 4-2-70-11 : WELL
FLD .                             : FIELD
LOC .                             : LOCATION
CTRY.                      CANADA : COUNTRY
SRVC.      Schlumberger of Canada : SERVICE COMPANY
DATE.                 24-Jan-1969 : LOGDATE
PROV.                     Alberta : PROVINCE
UWI .            100040207011W500 : UNIQUE WELL ID
SLAT.WGS84               55.02638 : SURFACE LATITUDE
SLON.WGS84              -115.5739 : SURFACE LONGITUDE
~Curve Information -----------------------------------------
DEPT  .FT    : Depth Curve
CALSED.IN    : CALIPER FROM SONIC LOG [DEPTH ADJ. TO ILDED]
CALWS .IN    : CALIPER [CALSED]
CILDED.MMHO  : CONDUCTIVITY FROM IEL
CONDWS.MMHO  : CONDUCTIVITY [1000/DRESWS]
DRESWS.OHMM  : DEEP RESISTIVITY [IF ILDED<1;THEN 1000/CILDED;ELSE ILDED]
DTED  .US/F  : DELTA TIME FROM SONIC LOG [DEPTH ADJ. TO ILDED]
DTWS  .US/F  : DELTA TIME [DTED]
GRSED .GAPI  : GAMMA RAY FROM SONIC LOG [DEPTH ADJ. TO ILDED]
GRWS  .GAPI  : GAMMA RAY [GRSED]
ILDED .OHMM  : INDUCTION LOG DEEP RESISTIVITY FROM IEL
SNED  .OHMM  : 16 INCH SHORT NORMAL RESISTIVITY FROM IEL
SPRED .MV    : SPONTANEOUS POTENTIAL FROM IEL
SPWS  .MV    : SPONTANEOUS POTENTIAL [BASELINE 0 MV] [SPRED]
SRESWS.OHMM  : SHALLOW RESISTIVITY [SNED]
~Params ----------------------------------------------------
PD  .                     GL : PERMANENT DATUM
EPD .FT                 3088 : ELEVATION PERMANENT DATUM
LMF .                     KB : LOG MEASURED FROM
DAPD.FT                   15 : FEET ABOVE PERMANENT DATUM
EKB .FT                 3103 : KELLY BUSHING
EGL .FT                 3088 : GROUND LEVEL
DATE.               01/24/69 : RUN DATE
RUN .                      1 : RUN NUMBER
DD  .FT                 7915 : DEPTH DRILLER
DL  .FT                 7916 : DEPTH LOGGER
BLI .FT                 7915 : BOTTOM LOG INTERVAL
TLI .FT                  622 : TOP LOG INTERVAL
CBD .FT                  622 : CASING BOTTOM DRILLER
CBL .FT                  622 : CASING BOTTOM LOGGER
BS  .IN                7.875 : BIT SIZE
BSD .FT                 7915 : BIT SIZE AT DEPTH
DFT .                    GEL : DRILLING FLUID TYPE
DFD .                    9.9 : DRILLING FLUID DENSITY
DFV .                     92 : DRILLING FLUID VISCOSITY
DFPH.                    8.5 : DRILLING FLUID PH
DFL .                    9.6 : DRILLING FLUID LOSS
RMS .OHMM               2.35 : RESISTIVITY MUD SAMPLE
MST .DEGF                 40 : MUD SAMPLE TEMPERATURE
RMF .OHMM               1.61 : RESISTIVITY MUD FILTRATE SAMPLE
MFST.DEGF                 56 : MUD FILTRATE SAMPLE TEMPERATURE
RMC .OHMM               2.12 : RESISTIVITY MUD CAKE
MCST.DEGF                 58 : MUD CAKE SAMPLE TEMPERATURE
TCS .HRS                 2.5 : TIME CIRCULATED STOPPED
LUN .                   4508 : LOGGING UNIT NUMBER
LUL .                    EDM : LOGGING UNIT LOCATION
ENGI.               CHADDOCK : RECORDING ENGINEER
WITN.                   SABO : WITNESSED BY
CLNT.                A2DTECH : CLIENT CODE
ORIG.            2" 5" PRINT : ORIGIN OF DATA
UWI .       100040207011W500 : UNIQUE WELL ID
DICO. A2D Technologies, Inc. : DIGITIZING COMPANY
~Other -----------------------------------------------------
~ASCII -----------------------------------------------------
# ...
 3100.00000    -999.25    -999.25  425.46580  370.04140    2.70240    -999.25    -999.25    -999.25    -999.25    2.70240    4.09990  -64.95690   -6.90780    4.09990
 3150.00000    -999.25    -999.25  345.69850  309.23370    3.23380    -999.25    -999.25    -999.25    -999.25    3.23380    4.89530  -71.48260  -12.77950    4.89530
 3200.00000    -999.25    -999.25  613.77800  523.58760    1.90990    -999.25    -999.25    -999.25    -999.25    1.90990    3.37740  -62.90970   -3.55250    3.37740
 3250.00000    -999.25    -999.25  385.92080  341.36680    2.92940    -999.25    -999.25    -999.25    -999.25    2.92940    4.90260  -81.98060  -21.42370    4.90260
 3300.00000    -999.25    -999.25  441.29840  387.73220    2.57910    -999.25    -999.25    -999.25    -999.25    2.57910    5.91960 -112.41120  -50.46300    5.91960
 3350.00000    -999.25    -999.25  523.17820  463.26320    2.15860    -999.25    -999.25    -999.25    -999.25    2.15860    3.71040  -86.22060  -22.88110    3.71040
 3400.00000    -999.25    -999.25  457.96480  407.49800    2.45400    -999.25    -999.25    -999.25    -999.25    2.45400    6.01160 -118.30260  -53.57180    6.01160
 3450.00000    -999.25    -999.25  768.44240  547.64510    1.82600    -999.25    -999.25    -999.25    -999.25    1.82600    6.75530 -149.20260  -83.08040    6.75530
 3500.00000    -999.25    -999.25  564.40550  495.66290    2.01750    -999.25    -999.25    -999.25    -999.25    2.01750    8.01720 -138.95410  -71.44060    8.01720
 3550.00000    -999.25    -999.25  510.05660  441.28680    2.26610    -999.25    -999.25    -999.25    -999.25    2.26610    8.11880 -139.68720  -70.78240    8.11880
 3600.00000    -999.25    -999.25  497.67650  453.57650    2.20470    -999.25    -999.25    -999.25    -999.25    2.20470    8.20500 -142.03310  -71.73700    8.20500
 3650.00000    -999.25    -999.25  374.80100  356.79880    2.80270    -999.25    -999.25    -999.25    -999.25    2.80270    4.45770  -83.84490  -12.15740    4.45770
 3700.00000    -999.25    -999.25  371.20420  337.65530    2.96160    -999.25    -999.25    -999.25    -999.25    2.96160    4.90920  -92.27340  -19.19460    4.90920
 3750.00000    -999.25    -999.25  504.16370  460.15090    2.17320    -999.25    -999.25    -999.25    -999.25    2.17320    7.76390 -143.15250  -68.68240    7.76390
 3800.00000    -999.25    -999.25  457.89730  420.02690    2.38080    -999.25    -999.25    -999.25    -999.25    2.38080    9.14060 -143.80390  -67.94250    9.14060
 3850.00000    -999.25    -999.25  256.52040  249.28330    4.01150    -999.25    -999.25    -999.25    -999.25    4.01150   12.69190 -152.28370  -75.03090   12.69190
 3900.00000    -999.25    -999.25  382.72360  344.49500    2.90280    -999.25    -999.25    -999.25    -999.25    2.90280    4.72860  -93.92680  -15.28270    4.72860
 3950.00000    -999.25    -999.25  327.14270  295.65680    3.38230    -999.25    -999.25    -999.25    -999.25    3.38230    5.04820  -93.65090  -13.61550    5.04820
 4000.00000    -999.25    -999.25  259.09320  244.27180    4.09380    -999.25    -999.25    -999.25    -999.25    4.09380    6.13670  -87.82850   -6.40180    6.13670
 4050.00000    -999.25    -999.25  236.65390  228.55050    4.37540    -999.25    -999.25    -999.25    -999.25    4.37540    7.40180  -87.55140   -5.85730    7.40180
 4100.00000    -999.25    -999.25  258.26170  243.91430    4.09980    -999.25    -999.25    -999.25    -999.25    4.09980    6.86730  -90.26370   -9.18530    6.86730
 4150.00000    -999.25    -999.25  256.86730  242.00770    4.13210    -999.25    -999.25    -999.25    -999.25    4.13210   16.19270 -156.32860  -75.86590   16.19270
 4200.00000    -999.25    -999.25  263.08320  248.71290    4.02070    -999.25    -999.25    -999.25    -999.25    4.02070   15.95360 -152.00750  -72.16050   15.95360
 4250.00000    -999.25    -999.25  267.58890  250.62030    3.99010    -999.25    -999.25    -999.25    -999.25    3.99010   14.38570 -144.54010  -65.30880   14.38570
 4300.00000    -999.25    -999.25   21.18750   17.57580   56.89630    -999.25    -999.25    -999.25    -999.25   56.89630  156.42240 -159.74820  -81.13260  156.42240
 4350.00000    -999.25    -999.25   18.34100   13.58810   73.59400    -999.25    -999.25    -999.25    -999.25   73.59400  198.03710 -133.99090  -55.99100  198.03710
 4400.00000    -999.25    -999.25  397.61720  359.77690    2.77950    -999.25    -999.25    -999.25    -999.25    2.77950    4.79760  -89.70300  -12.31880    4.79760
 4450.00000    -999.25    -999.25  298.75860  277.51570    3.60340    -999.25    -999.25    -999.25    -999.25    3.60340   10.29270 -104.14440  -27.37590   10.29270
 4500.00000    -999.25    -999.25  107.54830  104.33290    9.58470    -999.25    -999.25    -999.25    -999.25    9.58470   20.56200  -86.97600  -10.82320   20.56200
 4550.00000    -999.25    -999.25  105.39930  103.53680    9.65840    -999.25    -999.25    -999.25    -999.25    9.65840   44.84560 -180.69240 -105.15530   44.84560
 4600.00000    -999.25    -999.25   55.97620   49.74410   20.10290    -999.25    -999.25    -999.25    -999.25   20.10290   35.26780  -76.17660   -1.25520   35.26780
 4650.00000    -999.25    -999.25   84.82030   77.77500   12.85760    -999.25    -999.25    -999.25    -999.25   12.85760   41.11680 -125.85190  -51.42810   41.11680
 4700.00000    -999.25    -999.25   67.89160   62.80420   15.92250    -999.25    -999.25    -999.25    -999.25   15.92250   21.66010  -80.05750   -6.11200   21.66010
 4750.00000    -999.25    -999.25   93.24680   90.40770   11.06100    -999.25    -999.25    -999.25    -999.25   11.06100   49.35630 -139.67980  -66.21270   49.35630
 4800.00000    -999.25    -999.25  195.86820  186.54630    5.36060    -999.25    -999.25    -999.25    -999.25    5.36060    8.49840  -81.55890   -8.57010    8.49840
 4850.00000    -999.25    -999.25  294.97810  273.94260    3.65040    -999.25    -999.25    -999.25    -999.25    3.65040    5.18280  -83.25050  -10.74000    5.18280
 4900.00000    -999.25    -999.25  257.79870  243.41560    4.10820    -999.25    -999.25    -999.25    -999.25    4.10820    6.07880  -87.68860  -15.65650    6.07880
 4950.00000    -999.25    -999.25  120.39260  123.27420    8.11200    -999.25    -999.25    -999.25    -999.25    8.11200   12.50150  -84.85560  -13.30180   12.50150
 5000.00000    -999.25    -999.25  429.26530  398.05750    2.51220    -999.25    -999.25    -999.25    -999.25    2.51220    4.19480  -85.30070  -17.15660    4.19480
 5050.00000    -999.25    -999.25   44.61680   40.80720   24.50550    -999.25    -999.25    -999.25    -999.25   24.50550   49.77970 -104.97240  -46.18960   49.77970
 5100.00000    -999.25    -999.25   71.84290   67.25900   14.86790    -999.25    -999.25    -999.25    -999.25   14.86790   78.29350 -149.95440  -97.40860   78.29350
 5150.00000    -999.25    -999.25   18.01490   14.72700   67.90260    -999.25    -999.25    -999.25    -999.25   67.90260   83.94530  -76.95040  -23.68760   83.94530
 5200.00000    -999.25    -999.25   79.82180   73.71100   13.56650    -999.25    -999.25    -999.25    -999.25   13.56650   80.54650 -189.92420 -135.94430   80.54650
 5250.00000    -999.25    -999.25   31.47020   26.40530   37.87120    -999.25    -999.25    -999.25    -999.25   37.87120   76.61880 -114.45180  -59.75490   76.61880
 5300.00000    -999.25    -999.25   35.64060   31.26620   31.98340    -999.25    -999.25    -999.25    -999.25   31.98340   49.48260  -88.13080  -32.71680   49.48260
 5350.00000    -999.25    -999.25  105.59480  102.62200    9.74450    -999.25    -999.25    -999.25    -999.25    9.74450   62.28890 -182.37360 -126.24250   62.28890
 5400.00000    -999.25    -999.25  114.42740  114.92270    8.70150    -999.25    -999.25    -999.25    -999.25    8.70150   59.09300 -184.36770 -127.51960   59.09300
 5450.00000    -999.25    -999.25  106.14440  108.81390    9.19000    -999.25    -999.25    -999.25    -999.25    9.19000   62.79880 -191.65770 -134.09250   62.79880
 5500.00000    -999.25    -999.25  122.20500  121.85910    8.20620    -999.25    -999.25    -999.25    -999.25    8.20620   62.48410 -189.68270 -131.40050   62.48410
