~Version ---------------------------------------------------
VERS.      2.0 : CWLS log ASCII Standard -VERSION 2.0
WRAP.       NO : One line per depth step
CREA. 12/07/17 : LAS Creation Date
~Well ------------------------------------------------------
STRT.FT                     1150.0 : START DEPTH
STOP.FT                    11250.0 : STOP DEPTH
STEP.FT                   50.00000 : STEP LENGTH
NULL.                      -999.25 : NULL VALUE
COMP. PAN AMERICAN PETROLEUM CORP. : COMPANY
WELL. PAN AM MOBIL ANTE 10-5-65-23 : WELL
FLD .                              : FIELD
LOC .                              : LOCATION
CTRY.                       CANADA : COUNTRY
SRVC.                        Welex : SERVICE COMPANY
DATE.                  21-Nov-1966 : LOGDATE
PROV.                      Alberta : PROVINCE
UWI .             100100506523W500 : UNIQUE WELL ID
SLAT.WGS84                54.59785 : SURFACE LATITUDE
SLON.WGS84               -117.4379 : SURFACE LONGITUDE
~Curve Information -----------------------------------------
DEPT  .FT    : Depth Curve
CALWS .IN    : CALIPER [MCALED]
CILDED.MMHO  : CONDUCTIVITY FROM RESISTIVITY LOG
CONDWS.MMHO  : CONDUCTIVITY [1000/DRESWS]
DRESWS.OHMM  : DEEP RESISTIVITY [1000/CILDED IF ILDED<1, ILDED]
DT1ED .US/F  : DELTA TIME (1' SPAN) FROM SONIC LOG [ADJ. TO RESISTIVITY LOG]
DTED  .US/F  : DELTA TIME (3' SPAN) FROM SONIC LOG [ADJ. TO RESISTIVITY LOG]
DTWS  .US/F  : COMPRESSIONAL SONIC [DTED]
GRED  .CU    : GAMMA RAY FROM GR LOG [ADJ. TO RESISTIVITY LOG]
GRSED .GAPI  : GAMMA RAY FROM SONIC LOG [ADJ. TO RESISTIVITY LOG]
GRWS  .GAPI  : GAMMA RAY [GRSED SPL. TO GRED @ 11256']
ILDED .OHMM  : DEEP INDUCTION FROM RESISTIVITY LOG
LT16ED.OHMM  : LATERAL 16' FROM RESISTIVITY LOG
MCALED.IN    : CALIPER FROM MICROLOG
SNED  .OHMM  : 18 INCH SHORT NORMAL RESISTIVITY FROM RESISTIVITY LOG
SPRED .MV    : SPONTANEOUS POTENTIAL FROM RESISTIVITY LOG
SPWS  .MV    : SPONTANEOUS POTENTIAL [BASELINE 0 MV, SPRED]
SRESWS.OHMM  : SHALLOW RESISTIVITY [SNED]
~Params ----------------------------------------------------
PD  .                     GL : PERMANENT DATUM
EPD .FT                 2595 : ELEVATION PERMANENT DATUM
LMF .                     KB : LOG MEASURED FROM
DAPD.FT                14.25 : FEET ABOVE PERMANENT DATUM
DMF .                     KB : DRILLING MEASURED FROM
EKB .FT              2609.25 : KELLY BUSHING
EGL .FT                 2595 : GROUND LEVEL
DATE.               10/21/66 : RUN DATE
RUN .                      1 : RUN NUMBER
DD  .FT                11278 : DEPTH DRILLER
DL  .FT                11279 : DEPTH LOGGER
BLI .FT                11274 : BOTTOM LOG INTERVAL
TLI .FT                 1125 : TOP LOG INTERVAL
CS  .IN                9.625 : CASING SIZE
CBD .FT                 1138 : CASING BOTTOM DRILLER
CBL .FT                 1125 : CASING BOTTOM LOGGER
BS  .IN                7.875 : BIT SIZE
BSD .FT                11278 : BIT SIZE AT DEPTH
DFT .             WATER BASE : DRILLING FLUID TYPE
DFD .                     10 : DRILLING FLUID DENSITY
DFV .                     94 : DRILLING FLUID VISCOSITY
DFPH.                     12 : DRILLING FLUID PH
DFL .                    9.6 : DRILLING FLUID LOSS
MSS .                   CIRC : MUD SAMPLE SOURCE
RMS .OHMM               1.48 : RESISTIVITY MUD SAMPLE
MST .DEGF                 84 : MUD SAMPLE TEMPERATURE
RMF .OHMM               1.35 : RESISTIVITY MUD FILTRATE SAMPLE
MFST.DEGF                 71 : MUD FILTRATE SAMPLE TEMPERATURE
RMC .OHMM                1.3 : RESISTIVITY MUD CAKE
MCST.DEGF                 61 : MUD CAKE SAMPLE TEMPERATURE
MFSS.                   MEAS : MUD FILTRATE SAMPLE SOURCE
MCSS.                   MEAS : MUD CAKE SAMPLE SOURCE
RMB .OHMM               0.72 : RESISTIVITY MUD AT BHT
TCS .HRS                   5 : TIME CIRCULATED STOPPED
ENGI.                 RLSTON : RECORDING ENGINEER
WITN.                WOOTTON : WITNESSED BY
CLNT.                A2DTECH : CLIENT CODE
ORIG.            2" 5" PRINT : ORIGIN OF DATA
UWI .       100100506523W500 : UNIQUE WELL ID
DICO. A2D Technologies, Inc. : DIGITIZING COMPANY
~Other -----------------------------------------------------
~ASCII -----------------------------------------------------
# ...
 9350.00000    8.08720   14.58610   18.64360   53.63770    -999.25   50.99660   50.99660    -999.25   10.95380   10.95380   53.63770  415.59830    8.08720   83.18090 -138.09880 -117.82700   83.18090
 9400.00000    8.18680   16.05740   17.26630   57.91640    -999.25   50.66990   50.66990    -999.25   14.83920   14.83920   57.91640  111.62830    8.18680   45.14720 -138.85450 -118.99170   45.14720
 9450.00000    8.14950    9.26030   12.28690   81.38760    -999.25   49.41100   49.41100    -999.25   10.86510   10.86510   81.38760   45.11060    8.14950   97.94330 -151.24130 -131.78750   97.94330
 9500.00000    7.16430   13.11100   16.56360   60.37320    -999.25   40.22450   40.22450    -999.25   13.06370   13.06370   60.37320  288.06310    7.16430  110.51470 -182.52870 -163.48380  110.51470
 9550.00000    7.79020    2.78600    2.53250  394.86900    -999.25   47.67720   47.67720    -999.25   12.71870   12.71870  394.86900  223.04760    7.79020  145.25340 -175.39170 -156.75580  145.25340
 9600.00000   10.16870   22.19050   24.78390   40.34870    -999.25   51.38650   51.38650    -999.25   25.81460   25.81460   40.34870  114.57060   10.16870   33.46820 -106.88630  -88.65940   33.46820
 9650.00000    7.82460    1.70220    2.46740  405.29210    -999.25   51.42310   51.42310    -999.25   26.80730   26.80730  405.29210  288.23360    7.82460  241.83750  -81.68030  -63.86240  241.83750
 9700.00000    8.17660    5.90070    6.23970  160.26400    -999.25   50.98920   50.98920    -999.25   36.00620   36.00620  160.26400 1191.34580    8.17660   91.25340  -94.62710  -77.21820   91.25340
 9750.00000    8.01250   69.75770   82.85280   12.06960    -999.25   55.15360   55.15360    -999.25   30.40020   30.40020   12.06960  408.82200    8.01250   18.97690 -113.83940  -96.83950   18.97690
 9800.00000    8.04540    2.42440    4.24170  235.75410    -999.25   49.77860   49.77860    -999.25   23.82600   23.82600  235.75410  188.48100    8.04540  141.11780 -106.04600  -89.45500  141.11780
 9850.00000    8.03040    4.72880    3.19570  312.92430    -999.25   50.13170   50.13170    -999.25   24.31710   24.31710  312.92430  654.75640    8.03040  212.37220  -79.62590  -63.44390  212.37220
 9900.00000    8.03360    1.61630    2.05550  486.49150    -999.25   51.15800   51.15800    -999.25   28.67000   28.67000  486.49150 1018.92350    8.03360  213.67950  -60.35900  -44.58600  213.67950
 9950.00000    7.80280    1.01700    2.60920  383.26230    -999.25   51.83970   51.83970    -999.25   30.48330   30.48330  383.26230  628.29990    7.80280  140.00120  -54.97710  -39.61310  140.00120
 10000.00000    7.83160   18.39680   20.71240   48.28030    -999.25   55.69110   55.69110    -999.25   28.79340   28.79340   48.28030  103.72230    7.83160   65.71440  -57.74320  -42.78820   65.71440
 10050.00000    8.18210   53.28360   59.85840   16.70610    -999.25   60.16140   60.16140    -999.25   35.94490   35.94490   16.70610   20.01770    8.18210   22.37450  -55.81470  -41.26870   22.37450
 10100.00000    8.26190   28.16870   30.22320   33.08720    -999.25   56.09350   56.09350    -999.25   29.93160   29.93160   33.08720   70.01220    8.26190   37.49830  -61.62000  -47.48290   37.49830
 10150.00000    8.52880   60.79320   68.38780   14.62250    -999.25   65.77100   65.77100    -999.25   65.92370   65.92370   14.62250   41.22150    8.52880   16.70090  -57.02470  -43.29660   16.70090
 10200.00000   14.11310  170.27320  187.97350    5.31990    -999.25   74.19390   74.19390    -999.25   71.69290   71.69290    5.31990    5.15800   14.11310    6.59630  -28.94300  -15.62390    6.59630
 10250.00000   17.86800  246.19290  296.12080    3.37700    -999.25   75.74490   75.74490    -999.25   63.02340   63.02340    3.37700    5.15430   17.86800    4.93150  -16.41800   -3.50790    4.93150
 10300.00000   14.28570  233.25370  293.36700    3.40870    -999.25   76.74860   76.74860    -999.25   73.67140   73.67140    3.40870    5.36530   14.28570    5.35480  -42.53660  -29.80230    5.35480
 10350.00000   16.78180  194.22530  219.71260    4.55140    -999.25   91.90430   91.90430    -999.25   77.60030   77.60030    4.55140    3.75340   16.78180    6.08780  -39.40370  -26.66940    6.08780
 10400.00000   10.22120   97.92540  103.42440    9.66890    -999.25   63.79650   63.79650    -999.25   59.53380   59.53380    9.66890    7.30650   10.22120   10.02940  -33.15330  -20.41900   10.02940
 10450.00000    9.90790  103.81380  110.13340    9.07990    -999.25   69.84250   69.84250    -999.25   74.77050   74.77050    9.07990    8.47950    9.90790   10.04560  -38.28600  -25.55170   10.04560
 10500.00000    9.26410  123.56750  134.21560    7.45070    -999.25   68.48860   68.48860    -999.25   76.19870   76.19870    7.45070    5.52340    9.26410    9.10080  -34.86710  -22.13280    9.10080
 10550.00000    9.83740  174.84010  206.01570    4.85400    -999.25   71.99240   71.99240    -999.25   73.03070   73.03070    4.85400    5.38780    9.83740    6.61610  -44.94000  -32.20570    6.61610
 10600.00000   11.21320  230.94940  287.39760    3.47950    -999.25   77.47730   77.47730    -999.25   93.66020   93.66020    3.47950    4.75660   11.21320    5.42950  -50.42680  -37.69250    5.42950
 10650.00000    9.14010  159.99380  178.87810    5.59040    -999.25   71.95780   71.95780    -999.25   90.22530   90.22530    5.59040    4.54410    9.14010    7.64980  -46.50270  -33.76840    7.64980
 10700.00000   10.76000  144.01170  147.60150    6.77500    -999.25   78.61220   78.61220    -999.25   96.34060   96.34060    6.77500    5.52210   10.76000    7.34640  -50.52360  -37.78930    7.34640
 10750.00000    7.99500   29.78380   25.51110   39.19870    -999.25   73.78460   73.78460   64.97230  138.31910  138.31910   39.19870    5.62470    7.99500   47.33210  -38.94910  -26.21480   47.33210
 10800.00000    7.98700   27.40240   23.64380   42.29430    -999.25   63.00170   63.00170   39.83170   62.81230   62.81230   42.29430  104.28920    7.98700   43.77730  -35.28920  -22.55490   43.77730
 10850.00000    8.24630   22.29930   21.05350   47.49800    -999.25   56.49450   56.49450   24.84430   45.86840   45.86840   47.49800  227.46060    8.24630   49.39570  -45.44180  -32.70750   49.39570
 10900.00000   10.24600  107.15150  110.80460    9.02490    -999.25   59.91610   59.91610   53.55250   87.39440   87.39440    9.02490   12.41580   10.24600   12.40070  -51.94780  -39.21350   12.40070
 10950.00000    7.95620   11.31330    7.05500  141.74440    -999.25   60.00920   60.00920   34.88750   50.45510   50.45510  141.74440  275.57300    7.95620  104.13600  -40.46860  -27.73430  104.13600
 11000.00000    8.08250   12.76710    7.97300  125.42350   55.68430   55.96840   55.96840   33.27420   32.41710   32.41710  125.42350  320.21590    8.08250   99.51680  -32.69870  -19.96440   99.51680
 11050.00000    7.98670   10.06440    6.20500  161.16060   57.13610   57.30420   57.30420   31.10240   36.75380   36.75380  161.16060  319.83120    7.98670   87.51380  -34.80390  -22.06960   87.51380
 11100.00000    8.13230   12.83520    9.02870  110.75780   49.28270   52.48420   52.48420   16.23720    6.74180    6.74180  110.75780  257.41370    8.13230  157.99360 -142.31500 -129.58070  157.99360
 11150.00000    8.08830    8.13420    4.71310  212.17450   47.41260   48.12820   48.12820   22.13640    9.09580    9.09580  212.17450 1204.47190    8.08830  215.47520 -108.07430  -95.34000  215.47520
 11200.00000    7.72100   12.73070    9.31390  107.36680   64.24130   60.58620   60.58620   58.03440  111.20850  111.20850  107.36680 1149.86240    7.72100   60.97850  -58.22340  -45.48910   60.97850
 11250.00000    7.61970   84.00490   78.95090   12.66610   47.81940   52.75760   52.75760   71.12490   72.49970   72.49970   12.66610   28.61930    7.61970   42.98660 -130.30980 -117.57550   42.98660
