~Version ---------------------------------------------------
VERS.      2.0 : CWLS log ASCII Standard -VERSION 2.0
WRAP.       NO : One line per depth step
CREA. 08/27/14 : LAS Creation Date
~Well ------------------------------------------------------
STRT.FT                          1000.0 : START DEPTH
STOP.FT                          9700.0 : STOP DEPTH
STEP.FT                        50.00000 : STEP LENGTH
NULL.                           -999.25 : NULL VALUE
COMP.                      GUYER OIL CO : COMPANY
WELL. GUYER ET AL SAKWATAMAU 2-15-63-15 : WELL
FLD .                                WC : FIELD
LOC .                                   : LOCATION
CTRY.                            CANADA : COUNTRY
SRVC.                      Schlumberger : SERVICE COMPANY
DATE.                       13-Nov-1969 : LOGDATE
PROV.                           Alberta : PROVINCE
UWI .                  100021506315W500 : UNIQUE WELL ID
SLAT.WGS84                     54.44702 : SURFACE LATITUDE
SLON.WGS84                     -116.175 : SURFACE LONGITUDE
~Curve Information -----------------------------------------
DEPT   .FT    : Depth Curve
CALN   .IN    : CALIPER FROM SNP LOG
CALS   .IN    : CALIPER FROM SONIC LOG
DT     .US/F  : DELTA TIME FROM SONIC LOG
GRS    .GAPI  : GAMMA RAY FROM SONIC LOG
ILD    .OHMM  : DEEP INDUCTION RESISTIVITY FROM RESISTIVITY LOG
ILM    .OHMM  : MEDIUM INDUCTION RESISTIVITY FROM RESISTIVITY LOG
LL8    .OHMM  : LATEROLOG-8 RESISTIVITY FROM RESISTIVITY LOG
SNP_LS .DEC   : SIDEWALL NEUTRON POROSITY LIMESTONE FROM SNP LOG
SPHI_LS.DEC   : SONIC POROSITY LIMESTONE [DTM=47.6, DTF=189] FROM SONIC LOG
SPHI_SS.DEC   : SONIC POROSITY SANDSTONE [DTM=55.6, DTF=189] FROM SONIC LOG
SPR    .MV    : SPONTANEOUS POTENTIAL FROM RESISTIVITY LOG
~Params ----------------------------------------------------
PD  .                     GL : PERMANENT DATUM
EPD .FT                 3072 : ELEVATION PERMANENT DATUM
LMF .                     KB : LOG MEASURED FROM
DAPD.FT                   13 : FEET ABOVE PERMANENT DATUM
EKB .FT                 3085 : KELLY BUSHING
EGL .FT                 3072 : GROUND LEVEL
DATE.               11/13/69 : RUN DATE
RUN .                      1 : RUN NUMBER
DD  .FT                 9704 : DEPTH DRILLER
DL  .FT                 9705 : DEPTH LOGGER
BLI .FT                 9701 : BOTTOM LOG INTERVAL
TLI .FT                 1005 : TOP LOG INTERVAL
CBD .FT                 1005 : CASING BOTTOM DRILLER
CBL .FT                 1005 : CASING BOTTOM LOGGER
BS  .IN                7.875 : BIT SIZE
BSD .FT                 9704 : BIT SIZE AT DEPTH
DFT .                    GEL : DRILLING FLUID TYPE
DFD .                    9.1 : DRILLING FLUID DENSITY
DFV .                     70 : DRILLING FLUID VISCOSITY
DFPH.                    8.5 : DRILLING FLUID PH
DFL .                      9 : DRILLING FLUID LOSS
MSS .                DRILLER : MUD SAMPLE SOURCE
RMS .OHMM               2.61 : RESISTIVITY MUD SAMPLE
MST .DEGF                 74 : MUD SAMPLE TEMPERATURE
RMF .OHMM               2.12 : RESISTIVITY MUD FILTRATE SAMPLE
MFST.DEGF                 75 : MUD FILTRATE SAMPLE TEMPERATURE
RMC .OHMM               2.91 : RESISTIVITY MUD CAKE
MCST.DEGF                 75 : MUD CAKE SAMPLE TEMPERATURE
TCS .HRS                   6 : TIME CIRCULATED STOPPED
LUN .                   7501 : LOGGING UNIT NUMBER
LUL .                    EDM : LOGGING UNIT LOCATION
ENGI.                 EDGSON : RECORDING ENGINEER
WITN.              ZASEYBIDA : WITNESSED BY
CLNT.                A2DTECH : CLIENT CODE
ORIG.            2" 5" PRINT : ORIGIN OF DATA
UWI .       100021506315W500 : UNIQUE WELL ID
DICO. A2D Technologies, Inc. : DIGITIZING COMPANY
~Other -----------------------------------------------------
~ASCII -----------------------------------------------------
 1000.00000    -999.25    -999.25  141.38920   47.51910    -999.25    -999.25    -999.25    -999.25    -999.25    -999.25    -999.25
 1050.00000    -999.25   10.18140  120.87790   61.08320    3.86630    3.55950    4.15500    -999.25    -999.25    -999.25  -95.19420
 1100.00000    -999.25    9.55140  132.41750   75.06480    5.58230    4.47700    7.87730    -999.25    -999.25    -999.25  -95.07160
 1150.00000    -999.25   10.87310  126.84870   62.03480    3.84550    3.35090    5.34930    -999.25    -999.25    -999.25  -95.14720
 1200.00000    -999.25   10.55400  107.21720   59.99780    7.09490    6.31310    6.02230    -999.25    -999.25    -999.25  -97.84340
 1250.00000    -999.25   10.05220  109.50410   72.76800    4.33620    3.48850    3.94270    -999.25    -999.25    -999.25  -97.55240
 1300.00000    -999.25    9.40280  110.64520   41.39200    8.01820    8.91480    7.69710    -999.25    -999.25    -999.25  -96.87870
 1350.00000    -999.25    9.77780  118.05790   64.74210    4.17120    3.64060    4.39320    -999.25    -999.25    -999.25  -93.67560
 1400.00000    -999.25    9.38520  105.16090   60.35930    9.15370    8.09580    7.38470    -999.25    -999.25    -999.25  -97.05710
 1450.00000    -999.25   12.13930  125.82600   65.66840    3.96590    3.42320    3.83530    -999.25    -999.25    -999.25  -93.81870
 1500.00000    -999.25   10.33990  131.51050   68.98660    3.47970    2.91180    4.52600    -999.25    -999.25    -999.25  -92.49670
 1550.00000    -999.25   13.00120  125.22140   60.12080    4.11810    3.68090    4.32180    -999.25    -999.25    -999.25  -94.13820
 1600.00000    -999.25   13.77870  137.55650   58.19530    3.78420    3.38160    4.00380    -999.25    -999.25    -999.25  -91.90950
 1650.00000    -999.25   11.92220  137.97180   69.97760    4.36720    3.83690    4.56940    -999.25    -999.25    -999.25  -92.96540
 1700.00000    -999.25   12.37350  124.95890   69.66270    3.58710    3.15020    3.95610    -999.25    -999.25    -999.25  -94.62590
 1750.00000    -999.25    9.66660  106.30020   65.30180    4.16440    3.75550    4.30620    -999.25    -999.25    -999.25  -97.94850
 1800.00000    -999.25    9.12560  105.85020   74.84150    3.73300    3.34700    3.92590    -999.25    -999.25    -999.25  -94.50250
 1850.00000    -999.25    9.22740   97.17320   86.17190    6.60630    6.30090    6.96940    -999.25    -999.25    -999.25  -91.55930
 1900.00000    -999.25    9.79670  103.72610   64.15590    4.11940    3.73000    4.27140    -999.25    -999.25    -999.25  -89.10580
 1950.00000    -999.25    9.96410  111.63900   73.94080    3.85970    3.35640    4.11200    -999.25    -999.25    -999.25  -89.39020
 2000.00000    -999.25    9.82850  134.26420   54.83680    6.07210    5.61270    6.26700    -999.25    -999.25    -999.25  -90.26940
 2050.00000    -999.25    9.77970  105.97540   67.14050    4.05650    3.77700    4.53070    -999.25    -999.25    -999.25  -92.92860
 2100.00000    -999.25   10.75340  122.21860   65.57400    4.67740    4.27660    5.12550    -999.25    -999.25    -999.25  -93.72460
 2150.00000    -999.25    9.39000  147.19410   74.25770    2.04340    1.85440    2.62880    -999.25    -999.25    -999.25  -93.38680
 2200.00000    -999.25    8.82540   97.21230   68.22000    7.03170    6.33100    7.35220    -999.25    -999.25    -999.25  -99.21770
 2250.00000    -999.25    9.65860  113.51880   41.94080    4.31120    3.69110    4.36740    -999.25    -999.25    -999.25  -94.93190
 2300.00000    -999.25    8.15850  105.36940   36.06820   15.73700   14.72500   13.76140    -999.25    -999.25    -999.25 -111.92440
 2350.00000    -999.25    9.29070  100.88820   56.32930    6.71860    5.91080    7.00900    -999.25    -999.25    -999.25 -100.61510
 2400.00000    -999.25    8.25730   96.29540   47.62200   11.35090   10.75620   10.25180    -999.25    -999.25    -999.25 -107.50750
 2450.00000    -999.25   10.97940  115.42010   52.53010    4.11500    3.64090    4.59870    -999.25    -999.25    -999.25  -92.51710
 2500.00000    -999.25    8.80550   96.01550   62.79990    6.38720    5.99910    6.65060    -999.25    -999.25    -999.25  -97.34030
 2550.00000    -999.25    8.78300   92.32300   48.34580    7.61940    6.60120    6.77560    -999.25    -999.25    -999.25  -98.68700
 2600.00000    -999.25    8.68930  103.04670   57.42990    3.98300    3.72410    4.20190    -999.25    -999.25    -999.25  -97.41810
 2650.00000    -999.25    8.24260   91.06930   49.04530    5.80390    5.05580    6.23970    -999.25    -999.25    -999.25 -100.06470
 2700.00000    -999.25    9.41450  109.73980   54.27300    6.34940    5.60980    6.16080    -999.25    -999.25    -999.25  -98.91500
 2750.00000    -999.25    8.66120  104.61620   38.15060   11.29730    9.44050    8.15500    -999.25    -999.25    -999.25 -106.96390
 2800.00000    -999.25   12.14590  134.87350   46.66160    2.71350    2.55830    3.52940    -999.25    -999.25    -999.25  -98.36690
 2850.00000    -999.25   10.69050  106.15910   54.59250    4.57800    4.05320    4.80980    -999.25    -999.25    -999.25  -95.67160
 2900.00000    -999.25    7.99910  108.10400   36.66820   14.83790   15.72600   18.17680    -999.25    -999.25    -999.25 -120.87830
 2950.00000    -999.25   10.43120   98.44850   66.75660    4.97390    4.64420    5.14740    -999.25    -999.25    -999.25  -95.03700
 3000.00000    -999.25    9.85740  103.15290   54.81410    3.85810    3.62560    4.42140    -999.25    -999.25    -999.25  -85.43240
 3050.00000    -999.25    8.22900   82.33380   46.94440   10.36920    9.74630   11.30730    -999.25    -999.25    -999.25  -91.07000
 3100.00000    -999.25    9.18810  100.39070   61.51440    4.61410    4.23040    4.86400    -999.25    -999.25    -999.25  -87.15980
 3150.00000    -999.25   11.31500   97.14340   73.02340    5.89710    5.34770    6.21700    -999.25    -999.25    -999.25  -93.88170
 3200.00000    -999.25   11.21210   89.45220   71.77840    8.02740    7.40240    8.32730    -999.25    -999.25    -999.25  -96.30090
 3250.00000    -999.25   11.07720   96.88870   85.35200    6.38990    5.40030    6.67090    -999.25    -999.25    -999.25  -96.21240
 3300.00000    -999.25   11.60600  101.70740   93.91430    5.94890    5.16290    6.66920    -999.25    -999.25    -999.25  -91.51760
 3350.00000    -999.25   10.05680   92.53170   94.49450    9.08720    8.44890   10.65640    -999.25    -999.25    -999.25  -91.35220
 3400.00000    -999.25   10.21040   94.33680   91.75770    7.30480    6.79780    7.54260    -999.25    -999.25    -999.25  -89.64830
 3450.00000    -999.25   10.17830   95.35310   79.81030    7.55860    7.00200    8.01220    -999.25    -999.25    -999.25  -89.35130
 3500.00000    -999.25   12.07370   96.22290   78.81430    6.72020    5.87860    7.12260    -999.25    -999.25    -999.25  -91.79390
 3550.00000    -999.25   11.72750   90.25970   88.96630    6.44610    5.88350    6.65670    -999.25    -999.25    -999.25  -94.69710
 3600.00000    -999.25   10.77950   92.82740   80.40100    7.31410    6.85890    7.58060    -999.25    -999.25    -999.25  -93.65770
 3650.00000    -999.25   10.67760   93.84170   86.47980    6.69460    6.26280    6.90120    -999.25    -999.25    -999.25  -89.79320
 3700.00000    -999.25   10.93070   94.89900   87.87050    5.60210    5.97460    6.59290    -999.25    -999.25    -999.25  -89.83160
 3750.00000    -999.25   12.11950   94.36930   82.06590    6.30130    6.70790    7.38560    -999.25    -999.25    -999.25  -90.39220
 3800.00000    -999.25   11.12370   91.70850   88.37690    5.90610    5.19310    6.37600    -999.25    -999.25    -999.25  -89.36690
 3850.00000    -999.25   10.54810   88.31760   89.76100    8.61160    7.99700    8.87380    -999.25    -999.25    -999.25  -86.23280
 3900.00000    -999.25   11.62550   92.32280   94.73600    7.44450    6.87150    7.79360    -999.25    -999.25    -999.25  -70.57480
 3950.00000    -999.25   10.87900   96.06410   97.20900    7.42540    6.72840    7.65790    -999.25    -999.25    -999.25  -66.10680
 4000.00000    -999.25   10.38780   93.66790   92.68690    7.53300    6.96590    7.78940    -999.25    -999.25    -999.25  -62.92310
