~Version ---------------------------------------------------
VERS. 2.0 : CWLS log ASCII Standard -VERSION 2.0
WRAP.  NO : ONE LINE PER DEPTH STEP
~Well ------------------------------------------------------
STRT.F                      557.7428 : START DEPTH
STOP.F                    10838.7428 : STOP DEPTH
STEP.F                       0.50000 : STEP LENGTH
NULL.                        -999.25 : NULL VALUE
COMP.           PETROFINA CANADA LTD : COMPANY
WELL. FINA AMOCO HB FOXCK 6-35-60-18 : WELL
FLD .                                : FIELD
LOC .                                : LOCATION
CTRY.                         CANADA : COUNTRY
SRVC.         Schlumberger of Canada : SERVICE COMPANY
DATE.                    29-Aug-1976 : LOGDATE
PROV.                        Alberta : PROVINCE
UWI .               100063506018W500 : UNIQUE WELL ID
SLAT.WGS84                  54.22952 : SURFACE LATITUDE
SLON.WGS84                 -116.5928 : SURFACE LONGITUDE
~Curve Information -----------------------------------------
DEPT   .F                 : 
SPR    .MV                : SPONTANEOUS POTENTIAL FROM RESISTIVITY
ILD    .OHMM              : DEEP INDUCTION RESISTIVITY
ILM    .OHMM              : INDUCTION MEDIUM RESISTIVITY
LL8    .OHMM              : LATEROLOG-8 RESISTIVITY
CALD   .IN   70 280 01 00 : CALIPER
DCOR   .G/C3 45 356 01 00 : DENSITY CORRECTION
GRD    .GAPI 45 310 01 00 : GAMMA RAY FROM DENSITY LOG
RHOB   .G/C3 45 350 01 00 : BULK DENSITY
DPOR_SS.DEC               : DENSITY POROSITY SANDSTONE
NPOR_S .DEC               : ENCHANCED THERMAL NEUTRON POROSITY IN SELECTED LITHOLOGY SANDSTONE
DPOR_LS.DEC               : DENSITY POROSITY LIMESTONE
NPOR_LS.DEC               : ENCHANCED THERMAL NEUTRON POROSITY IN SELECTED LITHOLOGY SANDSTONE
DT     .US/F 60 520 00 00 : ACOUSTIC TRANSIT TIME SLOWNESS, DELTA T
CALS   .IN                : 
GRS    .GAPI              : GAMMA RAY FROM SONIC LOG
GR     .GAPI              : GAMMA RAY
~Params ----------------------------------------------------
PD  .                     GL : PERMANENT DATUM
EPD .FT                 3085 : ELEVATION PERMANENT DATUM
LMF .                     KB : LOG MEASURED FROM
DAPD.FT                 15.7 : FEET ABOVE PERMANENT DATUM
EKB .FT               3100.9 : KELLY BUSHING
EDF .FT               3085.2 : DRILLING FLOOR
EGL .FT               3085.5 : GROUND LEVEL
DATE.               08/29/76 : RUN DATE
RUN .                      1 : RUN NUMBER
DD  .FT                10843 : DEPTH DRILLER
DL  .FT                10840 : DEPTH LOGGER
BLI .FT                10834 : BOTTOM LOG INTERVAL
TLI .FT                 1119 : TOP LOG INTERVAL
CBD .FT                 1119 : CASING BOTTOM DRILLER
CBL .FT                 1119 : CASING BOTTOM LOGGER
BS  .IN                 8.75 : BIT SIZE
BSD .FT                10843 : BIT SIZE AT DEPTH
DFT .               GEL CHEM : DRILLING FLUID TYPE
DFD .                    9.3 : DRILLING FLUID DENSITY
DFV .                    150 : DRILLING FLUID VISCOSITY
DFPH.                   10.5 : DRILLING FLUID PH
DFL .                    7.0 : DRILLING FLUID LOSS
MSS .            CIRCULATION : MUD SAMPLE SOURCE
RMS .OHMM               2.43 : RESISTIVITY MUD SAMPLE
MST .DEGF                 76 : MUD SAMPLE TEMPERATURE
RMF .OHMM               2.33 : RESISTIVITY MUD FILTRATE SAMPLE
MFST.DEGF                 73 : MUD FILTRATE SAMPLE TEMPERATURE
RMC .OHMM               2.22 : RESISTIVITY MUD CAKE
MCST.DEGF                 67 : MUD CAKE SAMPLE TEMPERATURE
RMB .OHMM               0.86 : RESISTIVITY MUD AT BHT
TCS .HRS                   3 : TIME CIRCULATED STOPPED
LUN .                   7691 : LOGGING UNIT NUMBER
LUL .                    WCT : LOGGING UNIT LOCATION
ENGI.              CROCKFORD : RECORDING ENGINEER
WITN.                 HALKOW : WITNESSED BY
CLNT.                A2DTECH : CLIENT CODE
ORIG.            2" 5" PRINT : ORIGIN OF DATA
UWI .       100063506018W500 : UNIQUE WELL ID
DICO. A2D Technologies, Inc. : DIGITIZING COMPANY
~Other -----------------------------------------------------
~ASCII -----------------------------------------------------
# ...
 4470.74280  -29.08000    7.68890    6.85070    8.02240    9.62990    0.20860  105.90880    2.01670    0.40910    0.37570    -999.25    -999.25   84.75860   11.68900   91.68820    -999.25
 4471.24280  -29.10580    7.76000    6.93630    8.05490   10.27350    0.22370  106.96470    2.06280    0.39220    0.36520    -999.25    -999.25   85.74660   11.86190   92.02580    -999.25
 4471.74280  -29.13740    7.83170    7.09430    8.22130   10.80080    0.21340  107.41240    2.12700    0.36950    0.35700    -999.25    -999.25   87.51750   11.67950   92.67750    -999.25
 4472.24280  -29.13310    7.90420    7.25620    8.52230   11.18190    0.20940  107.80640    2.18240    0.33130    0.35420    -999.25    -999.25   88.42330   11.47180   93.39740    -999.25
 4472.74280  -29.19100    7.97720    7.42160    8.81180   11.30510    0.20970  109.31290    2.22340    0.30050    0.35820    -999.25    -999.25   87.86020   11.31330   94.12500    -999.25
 4473.24280  -29.29060    8.04740    7.56730    9.07390   11.06080    0.20310  111.46640    2.22950    0.27070    0.36770    -999.25    -999.25   87.02280   11.03700   94.85260    -999.25
 4473.74280  -29.27930    8.09970    7.61380    9.15700   10.71370    0.20570  113.20210    2.21620    0.25230    0.38100    -999.25    -999.25   85.86290   11.04430   95.43340    -999.25
 4474.24280  -29.16890    8.12410    7.53170    9.03580   10.55580    0.19700  114.20380    2.20500    0.25710    0.39060    -999.25    -999.25   84.85340   11.18400   96.06990    -999.25
 4474.74280  -29.11480    8.12770    7.40380    8.87280   10.37180    0.18570  114.08210    2.19950    0.26580    0.38890    -999.25    -999.25   84.62660   11.25440   97.42650    -999.25
 4475.24280  -29.10810    8.12330    7.28210    8.67190   10.23410    0.20780  113.32850    2.22980    0.27610    0.37960    -999.25    -999.25   84.90620   11.13310  100.00500    -999.25
 4475.74280  -29.10190    8.11890    7.18640    8.51110   10.33740    0.23310  112.52530    2.25350    0.27390    0.36790    -999.25    -999.25   85.57230   10.90490  103.18510    -999.25
 4476.24280  -29.07900    8.11450    7.14930    8.46260   10.59650    0.23150  111.98030    2.23280    0.24950    0.36060    -999.25    -999.25   87.01630   10.82090  106.45930    -999.25
 4476.74280  -29.27360    8.12350    7.17270    8.53510   11.04590    0.22070  111.10550    2.21220    0.24050    0.35950    -999.25    -999.25   89.16790   10.90950  109.28330    -999.25
 4477.24280  -29.50180    8.15310    7.25750    8.77010   11.50810    0.20080  109.29480    2.19410    0.25620    0.36360    -999.25    -999.25   91.42410   10.88180  110.53870    -999.25
 4477.74280  -29.49670    8.18960    7.37870    9.08040   11.68330    0.19870  107.27870    2.16490    0.26720    0.37130    -999.25    -999.25   92.36540   10.75450  110.46090    -999.25
 4478.24280  -29.48720    8.22630    7.50160    9.31160   11.70630    0.21680  106.74750    2.11740    0.28010    0.37950    -999.25    -999.25   91.97080   10.64600  109.88400    -999.25
 4478.74280  -29.45390    8.26310    7.57810    9.32070   12.13880    0.21240  107.59970    2.03770    0.30140    0.38840    -999.25    -999.25   91.16930   10.72200  108.35900    -999.25
 4479.24280  -29.36910    8.30010    7.60000    9.10180   12.46220    0.19550  108.08770    2.00270    0.33370    0.39550    -999.25    -999.25   90.07670   11.01270  105.48760    -999.25
 4479.74280  -29.21670    8.33730    7.62520    8.93270   11.99380    0.19950  107.44370    2.05900    0.37450    0.39590    -999.25    -999.25   89.67350   11.09590  102.75990    -999.25
 4480.24280  -29.02130    8.37680    7.65910    9.07310   11.30440    0.22250  106.20640    2.12220    0.37940    0.39010    -999.25    -999.25   90.33510   10.98570  101.65850    -999.25
 4480.74280  -28.97400    8.42380    7.67990    9.34110   10.93250    0.22490  105.42210    2.13090    0.33670    0.38680    -999.25    -999.25   91.25580   11.02250  102.33540    -999.25
 4481.24280  -29.12560    8.47640    7.67620    9.46060   10.96440    0.20840  105.07030    2.11630    0.30820    0.39050    -999.25    -999.25   92.03840   11.24940  103.30740    -999.25
 4481.74280  -29.42450    8.52920    7.66100    9.35400   11.25260    0.20740  104.93110    2.12780    0.31890    0.40050    -999.25    -999.25   91.73970   11.36860  103.85680    -999.25
 4482.24280  -29.74110    8.57350    7.64580    9.05810   11.44690    0.20870  104.50460    2.13630    0.32020    0.40930    -999.25    -999.25   90.23540   11.24210  104.16740    -999.25
 4482.74280  -29.88570    8.59200    7.63070    8.87390   11.33720    0.20230  103.80610    2.11680    0.30770    0.40850    -999.25    -999.25   88.99880   11.08830  104.05280    -999.25
 4483.24280  -29.94070    8.59300    7.60600    9.02690   10.99810    0.20270  103.36010    2.08350    0.31560    0.40290    -999.25    -999.25   88.99330   11.08160  103.75310    -999.25
 4483.74280  -29.94470    8.58770    7.54550    9.29490   11.02950    0.20790  102.44100    2.04420    0.33210    0.39540    -999.25    -999.25   90.01890   11.23230  103.25800    -999.25
 4484.24280  -29.89620    8.53750    7.47550    9.43580   11.46590    0.20320  101.01220    2.01230    0.35220    0.39440    -999.25    -999.25   90.76240   11.39140  102.20990    -999.25
 4484.74280  -29.83740    8.43480    7.42450    9.28160   11.91930    0.19760  100.22630    1.99570    0.37240    0.40230    -999.25    -999.25   90.47830   11.42390  100.45090    -999.25
 4485.24280  -29.78770    8.32030    7.37370    8.91390   12.31350    0.19630   99.99370    1.98380    0.38500    0.40730    -999.25    -999.25   89.66000   11.34110   98.14360    -999.25
 4485.74280  -29.76270    8.20740    7.31660    8.66230   12.41320    0.18360   99.83810    1.99350    0.39490    0.40850    -999.25    -999.25   88.76600   11.14220   96.33140    -999.25
 4486.24280  -29.75690    8.09600    7.25240    8.58760   12.37480    0.18220  100.15900    2.02600    0.40130    0.40960    -999.25    -999.25   89.00290   11.03630   95.81700    -999.25
 4486.74280  -29.68390    7.98610    7.18810    8.55070   12.36720    0.19470  101.40370    2.03760    0.39260    0.41190    -999.25    -999.25   89.97200   11.26090   96.08100    -999.25
 4487.24280  -29.54220    7.87760    7.12470    8.46030   12.16050    0.19170  103.43110    2.02140    0.37300    0.41470    -999.25    -999.25   89.50550   11.60110   96.50540    -999.25
 4487.74280  -29.37630    7.77070    7.06180    8.30920   11.76330    0.18960  105.52840    2.01480    0.37120    0.41600    -999.25    -999.25   88.21340   11.65680   96.79840    -999.25
 4488.24280  -29.20050    7.66390    6.99920    8.14840   11.14690    0.19210  106.88770    2.03440    0.38230    0.41510    -999.25    -999.25   87.20840   11.32660   96.88060    -999.25
 4488.74280  -29.06850    7.55140    6.93050    7.99070   10.81440    0.19700  107.31970    2.07210    0.38140    0.41400    -999.25    -999.25   87.14970   11.05750   96.93040    -999.25
 4489.24280  -28.97250    7.43460    6.83150    7.88260   10.80970    0.20510  106.90390    2.09410    0.35720    0.41740    -999.25    -999.25   88.17120   11.03830   97.06280    -999.25
 4489.74280  -28.95140    7.31950    6.70210    7.82920   10.58700    0.19200  105.96470    2.07520    0.33310    0.42190    -999.25    -999.25   90.01150   11.11250   97.77630    -999.25
 4490.24280  -29.00100    7.20620    6.56670    7.76840   10.41830    0.16760  104.42870    2.05130    0.33740    0.41890    -999.25    -999.25   91.04440   11.20040   99.16670    -999.25
 4490.74280  -29.10590    7.10630    6.44000    7.60430   10.69540    0.15830  102.48130    2.03790    0.35350    0.41520    -999.25    -999.25   90.62270   11.27330  100.51230    -999.25
 4491.24280  -29.28330    7.04140    6.32420    7.36370   11.23720    0.17580  100.87700    2.00510    0.36310    0.41650    -999.25    -999.25   90.78220   11.27530  101.44780    -999.25
 4491.74280  -29.43610    6.99970    6.22660    7.23560   11.65930    0.18600   99.81470    1.95310    0.37120    0.41750    -999.25    -999.25   91.60620   11.20050  102.49040    -999.25
