~Version ---------------------------------------------------
VERS.      2.0 : CWLS log ASCII Standard -VERSION 2.0
WRAP.       NO : One line per depth step
CREA. 01/02/18 : LAS Creation Date
~Well ------------------------------------------------------
STRT.FT                          1500.0 : START DEPTH
STOP.FT                         13000.0 : STOP DEPTH
STEP.FT                        50.00000 : STEP LENGTH
NULL.                           -999.25 : NULL VALUE
COMP.  AMOCO CANADA PETROLEUM CO., LTD. : COMPANY
WELL. AMOCO ET AL BERLAND D-1 6-7-60-22 : WELL
FLD .                                   : FIELD
LOC .                                   : LOCATION
CTRY.                            CANADA : COUNTRY
SRVC.                      Schlumberger : SERVICE COMPANY
DATE.                       10-Dec-1976 : LOGDATE
PROV.                           Alberta : PROVINCE
UWI .                  100060706022W500 : UNIQUE WELL ID
SLAT.WGS84                     54.17117 : SURFACE LATITUDE
SLON.WGS84                    -117.2921 : SURFACE LONGITUDE
~Curve Information -----------------------------------------
DEPT    .FT    : Depth Curve
CALDED  .IN    : CALIPER FROM DENSITY LOG
CALSED  .IN    : CALIPER FROM SONIC LOG
CALWS   .IN    : CALIPER [CALDED]
CONDWS  .MMHO  : CONDUCTIVITY [1000/DRESWS]
DCORED  .G/C3  : DENSITY CORRECTION FROM DENSITY LOG
DCORWS  .G/C3  : DENSITY CORRECTION [DCORED]
DENWS   .G/C3  : BULK DENSITY [M=2.71 F=1.00] [TOP RHOBED 2287.5 M CALC. DPHISSED 7505' DPHILSED]
DPHILSED.V/V   : DENSITY POROSITY [M=2.71 F=1.00] FROM DENSITY LOG
DPHISSED.V/V   : DENSITY POROSITY [M=2.65 F=1.00] FROM DENSITY LOG
DPOLSWS .V/V   : DENSITY POROSITY [M=2.71 F=1.00] [CALC. FROM DENWS]
DRESWS  .OHMM  : DEEP RESISTIVITY [ILDED]
DTED    .US/F  : DELTA TIME FROM SONIC LOG [DEPTH ADJ TO LL8]
DTWS    .US/F  : DELTA TIME [DTED]
GRDED   .GAPI  : GAMMA RAY FROM DENSITY LOG
GRSED   .GAPI  : GAMMA RAY FROM SONIC LOG
GRWS    .GAPI  : GAMMA RAY [GRSED]
ILDED   .OHMM  : INDUCTION LOG DEEP RESISTIVITY
ILMED   .OHMM  : INDUCTION LOG MEDIUM RESISTIVITY
LL8ED   .OHMM  : 8 INCH LATEROLOG RESISTIVITY
MRESWS  .OHMM  : MEDIUM RESISTIVITY [ILMED]
NPHILSED.V/V   : NEUTRON POROSITY LIMESTONE FROM DENSITY LOG
NPHISSED.V/V   : NEUTRON POROSITY SANDSTONE FROM DENSITY LOG
NPOLSWS .V/V   : NEUTRON POROSITY LIMESTONE [TOP NPHISSED CONVERTED TO LIME FROM POWER LOG, 8750' NPHILSED]
RHOBED  .G/C3  : BULK DENSITY FROM DENSITY LOG [DEPTH ADJ TO LL8]
SPRED   .MV    : SPONTANEOUS POTENTIAL FROM RESISTIVITY LOG
SPWS    .MV    : SPONTANEOUS POTENTIAL [BASELINE 0 MV] [SPRED]
SRESWS  .OHMM  : SHALLOW RESISTIVITY [LL8ED]
~Params ----------------------------------------------------
PD  .                     GL : PERMANENT DATUM
EPD .M                  3639 : ELEVATION PERMANENT DATUM
LMF .                     KB : LOG MEASURED FROM
DAPD.M                    16 : FEET ABOVE PERMANENT DATUM
EKB .M                  3655 : KELLY BUSHING
EGL .M                  3639 : GROUND LEVEL
DATE.             12/10/1976 : RUN DATE
RUN .                      2 : RUN NUMBER
DD  .M                 12990 : DEPTH DRILLER
DL  .M                 13000 : DEPTH LOGGER
BLI .M                 12994 : BOTTOM LOG INTERVAL
TLI .M                  7504 : TOP LOG INTERVAL
CBD .M                  7499 : CASING BOTTOM DRILLER
CBL .M                  7504 : CASING BOTTOM LOGGER
BS  .MM                  8.5 : BIT SIZE
BSD .M                 13000 : BIT SIZE AT DEPTH
DFT .             GEL BARITE : DRILLING FLUID TYPE
DFD .                    9.1 : DRILLING FLUID DENSITY
DFV .                     73 : DRILLING FLUID VISCOSITY
DFPH.                    9.5 : DRILLING FLUID PH
DFL .                    8.9 : DRILLING FLUID LOSS
MSS .               FLOWLINE : MUD SAMPLE SOURCE
RMS .OHMM               1.44 : RESISTIVITY MUD SAMPLE
MST .DEGC                 60 : MUD SAMPLE TEMPERATURE
RMF .OHMM               1.12 : RESISTIVITY MUD FILTRATE SAMPLE
MFST.DEGC                 55 : MUD FILTRATE SAMPLE TEMPERATURE
RMB .OHMM               0.26 : RESISTIVITY MUD AT BHT
TCS .HRS                 6.5 : TIME CIRCULATED STOPPED
LUN .                   7635 : LOGGING UNIT NUMBER
LUL .                    EDM : LOGGING UNIT LOCATION
ENGI.                 MACKAY : RECORDING ENGINEER
WITN.                SHIRLEY : WITNESSED BY
CLNT.                A2DTECH : CLIENT CODE
ORIG.            2" 5" PRINT : ORIGIN OF DATA
UWI .       100060706022W500 : UNIQUE WELL ID
DICO. A2D Technologies, Inc. : DIGITIZING COMPANY
~Other -----------------------------------------------------
SPRED INTERFERENCE CAUSING RANDOM DRIFTING OF THE BASE LINE ABOVE 7218'
~ASCII -----------------------------------------------------
# ...
 6700.00000   12.93960   12.64000   12.93960   97.00920    0.03840    0.03840    2.60290    -999.25    0.02920    0.06260   10.30830   87.24920   87.24920  119.42690  103.88510  103.88510   10.30830   10.62610   12.96410   10.62610    -999.25    0.36130    0.31320    2.60290  -43.04970   -9.16440   12.96410
 6750.00000   12.98510   12.73500   12.98510   62.42820    0.05020    0.05020    2.52780    -999.25    0.07790    0.10650   16.01840   94.71480   94.71480  125.20240  110.33850  110.33850   16.01840   16.34240   19.46780   16.34240    -999.25    0.40330    0.35860    2.52780  -32.90910   -2.29070   19.46780
 6800.00000   13.03550   12.08900   13.03550   69.19650    0.02810    0.02810    2.50850    -999.25    0.08860    0.11780   14.45160   73.60100   73.60100   78.51110   60.42150   60.42150   14.45160   14.89620   15.27310   14.89620    -999.25    0.21610    0.16440    2.50850  -32.24100   -4.88950   15.27310
 6850.00000   13.25060   12.52100   13.25060  139.60240    0.05020    0.05020    2.57740    -999.25    0.04510    0.07750    7.16320   81.89070   81.89070  112.72510  100.83190  100.83190    7.16320    7.38460    8.56630    7.38460    -999.25    0.31030    0.25930    2.57740  -32.99270   -6.39890    8.56630
 6900.00000   12.94090   12.16100   12.94090   81.83980    0.04660    0.04660    2.62960    -999.25    0.01310    0.04700   12.21900   69.54440   69.54440  104.82680   88.36260   88.36260   12.21900   12.57790   13.16950   12.57790    -999.25    0.25360    0.20090    2.62960  -33.70190   -7.49090   13.16950
 6950.00000   12.85870   12.23700   12.85870   89.75450    0.03600    0.03600    2.58660    -999.25    0.03980    0.07220   11.14150   73.02210   73.02210  101.21320   86.84570   86.84570   11.14150   11.48730   12.57940   11.48730    -999.25    0.22110    0.16910    2.58660  -30.40910   -4.58080   12.57940
 7000.00000   12.96460   12.26700   12.96460   69.84650    0.02400    0.02400    2.54090    -999.25    0.07320    0.09890   14.31710   77.75080   77.75080  101.98410   93.48310   93.48310   14.31710   14.92350   12.30230   14.92350    -999.25    0.25300    0.20030    2.54090  -28.99730   -3.55180   12.30230
 7050.00000   12.87450   12.46900   12.87450  101.25350    0.00300    0.00300    2.57130    -999.25    0.04410    0.08110    9.87620   75.87600   75.87600  104.43010   93.62080   93.62080    9.87620   10.24040   11.70940   10.24040    -999.25    0.27060    0.21820    2.57130  -27.02060   -1.95780   11.70940
 7100.00000   13.07710   12.64900   13.07710  139.99520    0.03510    0.03510    2.59810    -999.25    0.03500    0.06540    7.14310   79.67510   79.67510  104.38750   95.87790   95.87790    7.14310    7.37090    9.06970    7.37090    -999.25    0.31300    0.26210    2.59810  -37.57550  -16.33610    9.06970
 7150.00000   12.98340   12.42400   12.98340  117.79400    0.00110    0.00110    2.55840    -999.25    0.06200    0.08870    8.48940   74.70290   74.70290  103.26550   92.10420   92.10420    8.48940    8.75200   10.67590    8.75200    -999.25    0.30980    0.25880    2.55840  -43.62220  -29.51190   10.67590
 7200.00000   13.72790   12.79500   13.72790  171.10100    0.17360    0.17360    2.39810    -999.25    0.15800    0.18240    5.84450   93.78650   93.78650  164.42020  165.02150  165.02150    5.84450    6.13660    8.24840    6.13660    -999.25    0.44250    0.40180    2.39810   -8.78070   -1.79950    8.24840
 7250.00000   13.21800   12.36700   13.21800  278.46620    0.15500    0.15500    2.47700    -999.25    0.10790    0.13630    3.59110   91.51080   91.51080  100.70450   87.46260   87.46260    3.59110    3.76280    5.15140    3.76280    -999.25    0.38740    0.34130    2.47700  -12.14140   -3.15670    5.15140
 7300.00000   14.59610   12.99400   14.59610  231.47080    0.22820    0.22820    2.35290    -999.25    0.18790    0.20880    4.32020   86.18000   86.18000  105.15790   93.91480   93.91480    4.32020    4.47460    5.68200    4.47460    -999.25    0.38810    0.34200    2.35290  -12.10130   -2.34850    5.68200
 7350.00000   13.80900   12.82600   13.80900  130.69850    0.21490    0.21490    2.33690    -999.25    0.19680    0.21820    7.65120   81.35290   81.35290  110.62690   98.56040   98.56040    7.65120    7.90570    9.49110    7.90570    -999.25    0.32490    0.27460    2.33690  -13.22970   -3.15430    9.49110
 7400.00000   14.59460   12.92200   14.59460  126.60310    0.25220    0.25220    2.33380    -999.25    0.19230    0.22000    7.89870   81.07370   81.07370  102.18930  100.45380  100.45380    7.89870    8.30780    9.71180    8.30780    -999.25    0.33450    0.28470    2.33380  -12.80080   -2.40280    9.71180
 7450.00000   12.86270   11.97600   12.86270   44.35380    0.03740    0.03740    2.59800    -999.25    0.03090    0.06550   22.54600   67.55160   67.55160   83.64630   82.48210   82.48210   22.54600   21.65310   20.08460   21.65310    -999.25    0.24150    0.18890    2.59800  -19.40450  -10.43150   20.08460
 7500.00000   12.65040   11.36400   12.65040    -999.25    0.11680    0.11680    2.61220    -999.25    0.05890    0.05720    -999.25   40.81600   40.81600   39.28690   40.18500   40.18500    -999.25    -999.25    -999.25    -999.25    -999.25    0.29110    0.23950    2.61220    -999.25    -999.25    -999.25
 7550.00000   11.57270   11.94400   11.57270  195.17150    0.18490    0.18490    2.25960    -999.25    0.23660    0.26340    5.12370   71.17880   71.17880  108.61980  108.18570  108.18570    5.12370    6.15650   11.17880    6.15650    -999.25    0.37360    0.32640    2.27260   -4.63510    0.75000   11.17880
 7600.00000    9.79440   10.11700    9.79440  144.00510    0.20680    0.20680    2.50430    -999.25    0.08830    0.12030    6.94420   70.21770   70.21770  108.29950  105.57570  105.57570    6.94420   10.73780   10.32530   10.73780    -999.25    0.22810    0.17590    2.49690  -11.61900   -6.23390   10.32530
 7650.00000    9.05830    9.59800    9.05830   58.72610   -0.00650   -0.00650    2.69940    -999.25   -0.00030    0.00620   17.02820   61.68130   61.68130   47.03450   49.56390   49.56390   17.02820   18.32870   19.49040   18.32870    -999.25    0.09520    0.05810    2.69940  -16.07120  -10.68610   19.49040
 7700.00000   10.60650   11.14200   10.60650   65.32570    0.18410    0.18410    2.27940    -999.25    0.22460    0.25180   15.30790   70.47310   70.47310  105.27190  102.32420  102.32420   15.30790   16.37010   19.52290   16.37010    -999.25    0.29790    0.24640    2.27700  -10.41740   -5.19350   19.52290
 7750.00000    9.78460   10.69400    9.78460  161.06430    0.07510    0.07510    2.22230    -999.25    0.25920    0.28520    6.20870   75.54540   75.54540  105.73920  110.59240  110.59240    6.20870    8.95500   10.25540    8.95500    -999.25    0.36790    0.32030    2.17950   -7.94240   -4.18390   10.25540
 7800.00000    9.01310   10.15000    9.01310   71.18000    0.01420    0.01420    2.64440    -999.25    0.00770    0.03840   14.04890   68.57470   68.57470   95.79850   97.63940   97.63940   14.04890   14.63870   17.90580   14.63870    -999.25    0.24370    0.19110    2.64440   -7.19640   -4.90340   17.90580
 7850.00000   13.45760   12.79900   13.45760  122.18810    0.11040    0.11040    1.88420    -999.25    0.46410    0.48290    8.18410   83.05180   83.05180  109.47530  107.32560  107.32560    8.18410    8.95520   10.41140    8.95520    -999.25    0.43540    0.39390    2.00010   -8.59410   -7.76650   10.41140
 7900.00000    9.17960   10.56200    9.17960   73.39340    0.00850    0.00850    2.61060    -999.25    0.01950    0.05810   13.62520   70.16170   70.16170   88.59710   91.09130   91.09130   13.62520   14.17600   17.66370   14.17600    -999.25    0.23230    0.17990    2.61060  -14.58450  -15.22230   17.66370
 7950.00000    9.96620   10.67300    9.96620   99.40650    0.06840    0.06840    2.51900    -999.25    0.07940    0.11170   10.05970   70.24030   70.24030  102.62190   99.75040   99.75040   10.05970   10.75280   12.89470   10.75280    -999.25    0.25380    0.20110    2.51330   -3.38570   -5.18120   12.89470
