~Version ---------------------------------------------------
VERS.      2.0 : CWLS log ASCII Standard -VERSION 2.0
WRAP.       NO : One line per depth step
CREA. 12/29/17 : LAS Creation Date
~Well ------------------------------------------------------
STRT.FT                   1050.0 : START DEPTH
STOP.FT                   9900.0 : STOP DEPTH
STEP.FT                 50.00000 : STEP LENGTH
NULL.                    -999.25 : NULL VALUE
COMP.     PACIFIC PETROLEUMS LTD : COMPANY
WELL. PACIFIC KAYBOB 10-25-63-18 : WELL
FLD .                     KAYBOB : FIELD
LOC .                            : LOCATION
CTRY.                     CANADA : COUNTRY
SRVC.                 Lane Wells : SERVICE COMPANY
DATE.                15-Mar-1963 : LOGDATE
PROV.                    Alberta : PROVINCE
UWI .           100102506318W500 : UNIQUE WELL ID
SLAT.WGS84              54.48159 : SURFACE LATITUDE
SLON.WGS84             -116.5805 : SURFACE LONGITUDE
~Curve Information -----------------------------------------
DEPT  .FT    : Depth Curve
CALWS .IN    : CALIPER [MCALED]
CILDED.MMHO  : CONDUCTIVITY FROM IEL LOG
CONDWS.MMHO  : CONDUCTIVITY [1000/DRESWS]
DRESWS.OHMM  : DEEP RESISTIVITY [1000/CILDED IF ILDED<4, ILDED]
DTED  .US/F  : DELTA TIME FROM SONIC LOG
DTWS  .US/F  : COMPRESSIONAL SONIC [DTED]
GRED  .GAPI  : GAMMA RAY FROM GR LOG
GRSED .GAPI  : GAMMA RAY FROM SONIC LOG
GRWS  .GAPI  : GAMMA RAY [GRSED SPL. TO GRED @ 1395'-1770']
ILDED .OHMM  : DEEP INDUCTION FROM IEL LOG
MCALED.IN    : CALIPER FROM MINILOG
SNED  .OHMM  : 16 INCH SHORT NORMAL RESISTIVITY FROM IEL LOG
SPRED .MV    : SPONTANEOUS POTENTIAL FROM IEL LOG
SPWS  .MV    : SPONTANEOUS POTENTIAL [BASELINE 0 MV, SPRED]
SRESWS.OHMM  : SHALLOW RESISTIVITY [SNED]
~Params ----------------------------------------------------
PD  .                     GL : PERMANENT DATUM
EPD .FT                 2676 : ELEVATION PERMANENT DATUM
LMF .                     KB : LOG MEASURED FROM
DAPD.FT                   16 : FEET ABOVE PERMANENT DATUM
DMF .                     KB : DRILLING MEASURED FROM
EKB .FT                 2692 : KELLY BUSHING
EGL .FT                 2676 : GROUND LEVEL
DATE.               03/15/63 : RUN DATE
RUN .                      1 : RUN NUMBER
DD  .FT                 9920 : DEPTH DRILLER
DL  .FT                 9923 : DEPTH LOGGER
BLI .FT                 9919 : BOTTOM LOG INTERVAL
TLI .FT                  992 : TOP LOG INTERVAL
CS  .IN                 10.3 : CASING SIZE
CBD .FT                  993 : CASING BOTTOM DRILLER
CBL .FT                  992 : CASING BOTTOM LOGGER
BS  .IN                 8.75 : BIT SIZE
BSD .FT                 9920 : BIT SIZE AT DEPTH
DFT .                MUD GEL : DRILLING FLUID TYPE
DFD .                    9.8 : DRILLING FLUID DENSITY
DFV .                    120 : DRILLING FLUID VISCOSITY
DFPH.                    9.5 : DRILLING FLUID PH
DFL .                    6.8 : DRILLING FLUID LOSS
MSS .                   CIRC : MUD SAMPLE SOURCE
RMS .OHMM                2.6 : RESISTIVITY MUD SAMPLE
MST .DEGF                 50 : MUD SAMPLE TEMPERATURE
RMF .OHMM                2.4 : RESISTIVITY MUD FILTRATE SAMPLE
MFST.DEGF                 44 : MUD FILTRATE SAMPLE TEMPERATURE
RMC .OHMM                1.6 : RESISTIVITY MUD CAKE
MCST.DEGF                 58 : MUD CAKE SAMPLE TEMPERATURE
MFSS.                   MEAS : MUD FILTRATE SAMPLE SOURCE
MCSS.                   MEAS : MUD CAKE SAMPLE SOURCE
RMB .OHMM              0.715 : RESISTIVITY MUD AT BHT
TCS .HRS                   5 : TIME CIRCULATED STOPPED
LUN .                   8035 : LOGGING UNIT NUMBER
LUL .                    EDM : LOGGING UNIT LOCATION
ENGI.                  BLAND : RECORDING ENGINEER
WITN.                 CHUNTA : WITNESSED BY
CLNT.                A2DTECH : CLIENT CODE
ORIG.            2" 5" PRINT : ORIGIN OF DATA
UWI .       100102506318W500 : UNIQUE WELL ID
DICO. A2D Technologies, Inc. : DIGITIZING COMPANY
~Other -----------------------------------------------------
IEL-GR-MINILOG
~ASCII -----------------------------------------------------
 1050.00000    -999.25  255.06670  219.99780    4.54550    -999.25    -999.25    -999.25    -999.25    -999.25    4.54550    -999.25    3.79770  -54.41520   -9.12720    3.79770
 1100.00000    -999.25  193.07040  179.84320    5.56040    -999.25    -999.25    -999.25    -999.25    -999.25    5.56040    -999.25    5.07210  -54.71510   -9.82450    5.07210
 1150.00000    -999.25  246.27140  195.85950    5.10570    -999.25    -999.25    -999.25    -999.25    -999.25    5.10570    -999.25    4.95610  -50.24390   -5.74810    4.95610
 1200.00000    -999.25  183.32260  180.73380    5.53300    -999.25    -999.25    -999.25    -999.25    -999.25    5.53300    -999.25    4.58980  -46.81560   -2.71710    4.58980
 1250.00000    -999.25   91.89650  108.58000    9.20980    -999.25    -999.25    -999.25    -999.25    -999.25    9.20980    -999.25    7.34560  -46.58900   -2.88530    7.34560
 1300.00000    -999.25  132.54110  138.29920    7.23070    -999.25    -999.25    -999.25    -999.25    -999.25    7.23070    -999.25    6.02000  -43.95740   -0.64840    6.02000
 1350.00000    -999.25  146.95940  143.61630    6.96300    -999.25    -999.25    -999.25    -999.25    -999.25    6.96300    -999.25    5.93830  -46.74490   -3.10160    5.93830
 1400.00000    -999.25  188.07430  181.05450    5.52320    -999.25    -999.25   78.30790    -999.25   78.30790    5.52320    -999.25    4.75610  -45.25920   -1.26420    4.75610
 1450.00000    -999.25  130.71420  143.31580    6.97760    -999.25    -999.25  126.98170    -999.25  126.98170    6.97760    -999.25    5.92160  -45.87050   -1.52150    5.92160
 1500.00000    -999.25  336.05510  323.50940    3.09110    -999.25    -999.25    -999.25    -999.25    -999.25    3.60370    -999.25    4.26750  -47.73730   -3.03670    4.26750
 1550.00000    -999.25  163.29700  170.47680    5.86590    -999.25    -999.25    -999.25    -999.25    -999.25    5.88070    -999.25    4.75750  -46.98190   -1.92960    4.75750
 1600.00000    -999.25  334.73380  249.38280    4.00990    -999.25    -999.25    -999.25    -999.25    -999.25    4.00990    -999.25    3.35250  -48.81530   -3.40900    3.35250
 1650.00000    -999.25  239.84390  206.50490    4.84250    -999.25    -999.25    -999.25    -999.25    -999.25    4.84250    -999.25    4.06050  -48.67520   -2.91730    4.06050
 1700.00000    -999.25   66.34700   84.85220   11.78520    -999.25    -999.25   34.51010    -999.25   34.51010   11.78520    -999.25    9.88100  -52.43120   -6.31930    9.88100
 1750.00000    -999.25  237.71850  212.82030    4.69880    -999.25    -999.25  180.88620    -999.25  180.88620    4.69880    -999.25    3.97950  -49.12440   -2.63630    3.97950
 1800.00000    -999.25  159.17860  159.37270    6.27460    -999.25    -999.25    -999.25    -999.25    -999.25    6.27460    -999.25    5.14310  -47.91220   -1.03160    5.14310
 1850.00000    -999.25  312.93870  219.07720    4.56460    -999.25    -999.25    -999.25    -999.25    -999.25    4.56460    -999.25    3.65720  -48.67690   -1.40110    3.65720
 1900.00000    -999.25   40.71550   62.34100   16.04080    -999.25    -999.25    -999.25    -999.25    -999.25   16.04080    -999.25   12.39830  -58.06370  -10.39530   12.39830
 1950.00000    -999.25   34.70020   56.01830   17.85130    -999.25    -999.25    -999.25    -999.25    -999.25   17.85130    -999.25   14.76820  -57.72980   -9.66620   14.76820
 2000.00000    -999.25  214.08110  193.70840    5.16240    -999.25    -999.25    -999.25    -999.25    -999.25    5.16240    -999.25    4.45620  -50.69190   -2.36470    4.45620
 2050.00000    -999.25  158.90150  158.37570    6.31410    -999.25    -999.25    -999.25    -999.25    -999.25    6.31410    -999.25    5.35430  -50.58260   -2.16900    5.35430
 2100.00000    -999.25  218.60930  192.24110    5.20180    -999.25    -999.25    -999.25    -999.25    -999.25    5.20180    -999.25    4.89480  -50.78580   -2.28540    4.89480
 2150.00000    -999.25   43.34750   60.96450   16.40300    -999.25    -999.25    -999.25    -999.25    -999.25   16.40300    -999.25   15.90310  -54.40200   -5.81520   15.90310
 2200.00000    -999.25  144.24130  146.80190    6.81190    -999.25    -999.25    -999.25    -999.25    -999.25    6.81190    -999.25    5.88750  -50.53870   -1.86500    5.88750
 2250.00000    -999.25  193.50330  173.08220    5.77760    -999.25    -999.25    -999.25    -999.25    -999.25    5.77760    -999.25    5.05190  -50.76870   -2.00870    5.05190
 2300.00000    -999.25   20.27920   42.58560   23.48210    -999.25    -999.25    -999.25    -999.25    -999.25   23.48210    -999.25   20.12460  -56.92540   -8.07910   20.12460
 2350.00000    -999.25  197.49540  174.98120    5.71490    -999.25    -999.25    -999.25    -999.25    -999.25    5.71490    -999.25    5.21110  -49.80330   -0.87010    5.21110
 2400.00000    -999.25  174.16150  168.69950    5.92770    -999.25    -999.25    -999.25    -999.25    -999.25    5.92770    -999.25    5.30420  -50.41050   -1.39100    5.30420
 2450.00000    -999.25  152.99090  158.12280    6.32420    -999.25    -999.25    -999.25    -999.25    -999.25    6.32420    -999.25    5.55440  -50.40890   -1.30250    5.55440
 2500.00000    -999.25  129.26500  134.34000    7.44380    -999.25    -999.25    -999.25    -999.25    -999.25    7.44380    -999.25    5.97140  -50.47330   -1.26840    5.97140
 2550.00000    -999.25  169.22720  152.59720    6.55320    -999.25    -999.25    -999.25    -999.25    -999.25    6.55320    -999.25    5.53030  -50.87180   -1.51210    5.53030
 2600.00000    -999.25  138.08670  139.80340    7.15290    -999.25    -999.25    -999.25    -999.25    -999.25    7.15290    -999.25    6.31530  -51.81870   -2.30330    6.31530
 2650.00000    -999.25  180.70340  169.99000    5.88270    -999.25    -999.25    -999.25    -999.25    -999.25    5.88270    -999.25    5.10950  -51.05860   -1.38840    5.10950
 2700.00000    -999.25   60.04060   78.97960   12.66150    -999.25    -999.25    -999.25    -999.25    -999.25   12.66150    -999.25   11.28260  -59.10290   -9.27690   11.28260
 2750.00000    -999.25  180.07900  172.51490    5.79660    -999.25    -999.25    -999.25    -999.25    -999.25    5.79660    -999.25    5.97650  -51.99690   -2.01620    5.97650
 2800.00000    -999.25  228.64810  187.07320    5.34550    -999.25    -999.25    -999.25    -999.25    -999.25    5.34550    -999.25    4.71250  -53.12740   -2.99190    4.71250
 2850.00000    -999.25  112.90220  119.28330    8.38340    -999.25    -999.25    -999.25    -999.25    -999.25    8.38340    -999.25    9.07090  -52.57840   -2.28720    9.07090
 2900.00000    -999.25  144.55600  144.23980    6.93290    -999.25    -999.25    -999.25    -999.25    -999.25    6.93290    -999.25    6.38340  -52.17690   -1.73090    6.38340
 2950.00000    -999.25  124.49640  124.09570    8.05830    -999.25    -999.25    -999.25    -999.25    -999.25    8.05830    -999.25    7.46710  -54.41240   -3.81060    7.46710
 3000.00000    -999.25   98.08310  106.36710    9.40140    -999.25    -999.25    -999.25    -999.25    -999.25    9.40140    -999.25    7.82470  -59.17690   -8.42040    7.82470
 3050.00000    -999.25  112.38150  119.09020    8.39700    -999.25    -999.25    -999.25    -999.25    -999.25    8.39700    -999.25    7.51790  -57.92260   -7.01130    7.51790
 3100.00000    -999.25  114.12640  120.28770    8.31340    -999.25    -999.25    -999.25    -999.25    -999.25    8.31340    -999.25    7.81430  -57.79700   -6.72990    7.81430
 3150.00000    -999.25   81.32860   90.31870   11.07190    -999.25    -999.25    -999.25    -999.25    -999.25   11.07190    -999.25   12.55010  -56.80200   -5.57850   12.55010
 3200.00000    -999.25   95.38180  106.88790    9.35560    -999.25    -999.25    -999.25    -999.25    -999.25    9.35560    -999.25    9.76490  -55.55880   -4.17500    9.76490
 3250.00000    -999.25   94.94870  102.73480    9.73380    -999.25    -999.25    -999.25    -999.25    -999.25    9.73380    -999.25    9.21680  -56.59260   -5.04940    9.21680
 3300.00000    -999.25  113.54870  117.91340    8.48080    -999.25    -999.25    -999.25    -999.25    -999.25    8.48080    -999.25    7.35530  -57.46890   -5.76640    7.35530
