~Version ---------------------------------------------------
VERS.      2.0 : CWLS log ASCII Standard -VERSION 2.0
WRAP.       NO : One line per depth step
CREA. 12/21/17 : LAS Creation Date
~Well ------------------------------------------------------
STRT.FT                         1250.0 : START DEPTH
STOP.FT                        12650.0 : STOP DEPTH
STEP.FT                       50.00000 : STEP LENGTH
NULL.                          -999.25 : NULL VALUE
COMP. AMOCO CANADA PETROLEUM CO., LTD. : COMPANY
WELL. AMOCO A-1 DEEP VALLEY 6-32-61-23 : WELL
FLD .                                  : FIELD
LOC .                                  : LOCATION
CTRY.                           CANADA : COUNTRY
SRVC.           Schlumberger of Canada : SERVICE COMPANY
DATE.                      06-Sep-1970 : LOGDATE
PROV.                          Alberta : PROVINCE
UWI .                 100063206123W500 : UNIQUE WELL ID
SLAT.WGS84                    54.31655 : SURFACE LATITUDE
SLON.WGS84                   -117.4164 : SURFACE LONGITUDE
~Curve Information -----------------------------------------
DEPT    .FT    : Depth Curve
CALDED  .IN    : CALIPER FROM DENSITY LOG [ADJ. TO RESISTIVITY LOG]
CALNED  .IN    : CALIPER FROM SNP LOG [ADJ. TO RESISTIVITY LOG]
CALSED  .IN    : CALIPER FROM SONIC LOG
CALWS   .IN    : CALIPER [CALSED]
CONDWS  .MMHO  : CONDUCTIVITY [1000/DRESWS]
CORRED  .G/C3  : DENSITY CORRECTION FROM DENSITY LOG [ADJ. TO RESISTIVITY LOG]
DCORWS  .G/C3  : DENSITY CORRECTION [CORRED]
DENWS   .G/C3  : FORMATION BULK DENSITY [RHOBED]
DPHILSED.V/V   : DENSITY POROSITY LIMESTONE [M=2.71, F=1.00] FROM DENSITY LOG [ADJ. TO RESISTIVITY LOG]
DPOLSWS .V/V   : DENSITY POROSITY LIMESTONE [CALC FROM DENWS,M=2.71, F=1.00]
DRESWS  .OHMM  : DEEP RESISTIVITY [ILDED]
DTED    .US/F  : DELTA-T FROM SONIC LOG [ADJ. TO RESISTIVITY LOG]
DTWS    .US/F  : COMPRESSIONAL SONIC [DTED]
GRDED   .GAPI  : GAMMA RAY FROM DENSITY LOG [ADJ. TO RESISTIVITY LOG]
GRNED   .GAPI  : GAMMA RAY FROM SNP LOG [ADJ. TO RESISTIVITY LOG]
GRSED   .GAPI  : GAMMA RAY FROM SONIC LOG
GRWS    .GAPI  : GAMMA RAY [GRSED SPL. TO GRDED @ 1502'& SPL. TO GRNED @ 12657']
ILDED   .OHMM  : DEEP INDUCTION RESISTIVITY FROM RESISTIVITY LOG
ILMED   .OHMM  : MEDIUM INDUCTION FROM RESISTIVITY LOG
LL8ED   .OHMM  : LATEROLOG 8 FROM RESISTIVITY LOG
MRESWS  .OHMM  : MEDIUM RESISTIVITY [ILMED]
NPHILSED.V/V   : NEUTRON POROSITY LIMESTONE FROM SNP LOG [ADJ. TO RESISTIVITY LOG]
NPOLSWS .V/V   : NEUTRON POROSITY LIMESTONE [NPHILSED]
RHOBED  .G/C3  : BULK DENSITY FROM DENSITY LOG [ADJ. TO RESISTIVITY LOG]
SPRED   .MV    : SPONTANEOUS POTENTIAL FROM RESISTIVITY LOG
SPWS    .MV    : SPONTANEOUS POTENTIAL [BASELINE 0 MV,SPRED]
SRESWS  .OHMM  : SHALLOW RESISTIVITY [LLBED]
~Params ----------------------------------------------------
PD  .                     GL : PERMANENT DATUM
EPD .FT                 3450 : ELEVATION PERMANENT DATUM
LMF .                     KB : LOG MEASURED FROM
DAPD.FT                   14 : FEET ABOVE PERMANENT DATUM
EKB .FT                 3464 : KELLY BUSHING
EGL .FT                 3450 : GROUND LEVEL
DATE.               11/06/70 : RUN DATE
RUN .                      1 : RUN NUMBER
DD  .FT                12700 : DEPTH DRILLER
DL  .FT                12697 : DEPTH LOGGER
BLI .FT                12691 : BOTTOM LOG INTERVAL
TLI .FT                 1513 : TOP LOG INTERVAL
CBD .FT                 1514 : CASING BOTTOM DRILLER
CBL .FT                 1513 : CASING BOTTOM LOGGER
BS  .IN                 8.75 : BIT SIZE
BSD .FT                12700 : BIT SIZE AT DEPTH
DFT .                    GEL : DRILLING FLUID TYPE
DFD .                    9.1 : DRILLING FLUID DENSITY
DFV .                     85 : DRILLING FLUID VISCOSITY
DFPH.                    8.5 : DRILLING FLUID PH
DFL .                   11.8 : DRILLING FLUID LOSS
MSS .               MEASURED : MUD SAMPLE SOURCE
RMS .OHMM               2.56 : RESISTIVITY MUD SAMPLE
MST .DEGF                 59 : MUD SAMPLE TEMPERATURE
RMF .OHMM               2.14 : RESISTIVITY MUD FILTRATE SAMPLE
MFST.DEGF                 58 : MUD FILTRATE SAMPLE TEMPERATURE
RMC .OHMM               2.35 : RESISTIVITY MUD CAKE
MCST.DEGF                 62 : MUD CAKE SAMPLE TEMPERATURE
TCS .HRS                 500 : TIME CIRCULATED STOPPED
TLAB.HRS                  30 : TIME LOGGER AT BOTTOM
LUN .                   7501 : LOGGING UNIT NUMBER
LUL .                    EDM : LOGGING UNIT LOCATION
ENGI.                HAYWOOD : RECORDING ENGINEER
WITN.                   DION : WITNESSED BY
CLNT.                A2DTECH : CLIENT CODE
ORIG.            2" 5" PRINT : ORIGIN OF DATA
UWI .       100063206123W500 : UNIQUE WELL ID
DICO. A2D Technologies, Inc. : DIGITIZING COMPANY
~Other -----------------------------------------------------
DIL-LAT,FDC-SNP-BCS LOG RAN
~ASCII -----------------------------------------------------
# ...
 7750.00000    -999.25    -999.25   11.19610   11.19610   75.26320    -999.25    -999.25    -999.25    -999.25    -999.25   13.28670   71.66460   71.66460    -999.25    -999.25   87.18710   87.18710   13.28670   13.72530   16.03880   13.72530    -999.25    -999.25    -999.25  -65.34450   -4.34140   16.03880
 7800.00000    -999.25    -999.25   11.43850   11.43850  209.47230    -999.25    -999.25    -999.25    -999.25    -999.25    4.77390   68.89710   68.89710    -999.25    -999.25   65.34540   65.34540    4.77390    4.59180    5.83890    4.59180    -999.25    -999.25    -999.25  -79.61460  -25.18820    5.83890
 7850.00000    -999.25    -999.25   11.70330   11.70330   67.13080    -999.25    -999.25    -999.25    -999.25    -999.25   14.89630   68.24350   68.24350    -999.25    -999.25   79.01750   79.01750   14.89630   15.65980   22.68760   15.65980    -999.25    -999.25    -999.25  -75.97010  -28.12070   22.68760
 7900.00000    -999.25    -999.25   10.60770   10.60770   30.42040    -999.25    -999.25    -999.25    -999.25    -999.25   32.87270   65.21380   65.21380    -999.25    -999.25   66.80810   66.80810   32.87270   34.62190   39.56130   34.62190    -999.25    -999.25    -999.25  -78.67670  -37.40400   39.56130
 7950.00000    -999.25    -999.25   10.78420   10.78420   51.93910    -999.25    -999.25    -999.25    -999.25    -999.25   19.25330   64.95320   64.95320    -999.25    -999.25   66.13500   66.13500   19.25330   27.11390   34.03030   27.11390    -999.25    -999.25    -999.25  -74.74220  -40.04640   34.03030
 8000.00000    -999.25    -999.25   10.16410   10.16410   33.30820    -999.25    -999.25    -999.25    -999.25    -999.25   30.02260   66.24700   66.24700    -999.25    -999.25   78.58250   78.58250   30.02260   33.67700   54.47840   33.67700    -999.25    -999.25    -999.25  -62.68580  -34.56670   54.47840
 8050.00000    -999.25    -999.25   10.27030   10.27030   48.07810    -999.25    -999.25    -999.25    -999.25    -999.25   20.79950   65.03470   65.03470    -999.25    -999.25   62.23260   62.23260   20.79950   23.20120   31.35340   23.20120    -999.25    -999.25    -999.25  -53.33200  -31.78970   31.35340
 8100.00000    -999.25    -999.25   11.06310   11.06310   35.82090    -999.25    -999.25    -999.25    -999.25    -999.25   27.91670   80.51390   80.51390    -999.25    -999.25   96.62900   96.62900   27.91670   28.54230   29.03740   28.54230    -999.25    -999.25    -999.25  -47.68820  -32.72280   29.03740
 8150.00000    -999.25    -999.25   10.30260   10.30260   26.78480    -999.25    -999.25    -999.25    -999.25    -999.25   37.33460   63.06020   63.06020    -999.25    -999.25   64.44270   64.44270   37.33460   44.99190   44.19150   44.99190    -999.25    -999.25    -999.25  -60.02850  -51.63980   44.19150
 8200.00000    -999.25    -999.25   10.31800   10.31800   53.30660    -999.25    -999.25    -999.25    -999.25    -999.25   18.75940   63.01100   63.01100    -999.25    -999.25   63.69820   63.69820   18.75940   20.66640   16.53900   20.66640    -999.25    -999.25    -999.25  -28.71260  -22.28010   16.53900
 8250.00000    -999.25    -999.25   10.06830   10.06830   61.15010    -999.25    -999.25    -999.25    -999.25    -999.25   16.35320   64.01620   64.01620    -999.25    -999.25   68.44550   68.44550   16.35320   19.54280   20.41520   19.54280    -999.25    -999.25    -999.25  -18.24860   -7.64660   20.41520
 8300.00000    -999.25    -999.25   10.32280   10.32280   20.66510    -999.25    -999.25    -999.25    -999.25    -999.25   48.39070   59.87070   59.87070    -999.25    -999.25   41.19650   41.19650   48.39070   79.64560   78.24570   79.64560    -999.25    -999.25    -999.25  -51.35990  -36.58850   78.24570
 8350.00000    -999.25    -999.25   11.73070   11.73070  248.36080    -999.25    -999.25    -999.25    -999.25    -999.25    4.02640  114.69170  114.69170    -999.25    -999.25   90.53500   90.53500    4.02640    3.18790    3.54940    3.18790    -999.25    -999.25    -999.25  -21.03510   -2.09460    3.54940
 8400.00000    -999.25    -999.25   12.34020   12.34020   28.79650    -999.25    -999.25    -999.25    -999.25    -999.25   34.72650   84.47390   84.47390    -999.25    -999.25  120.94940  120.94940   34.72650   35.86960   11.51930   35.86960    -999.25    -999.25    -999.25  -28.72130   -5.61130   11.51930
 8450.00000    -999.25    -999.25    9.86820    9.86820    1.83550    -999.25    -999.25    -999.25    -999.25    -999.25  544.82510   80.55510   80.55510    -999.25    -999.25  217.08150  217.08150  544.82510  203.31670  457.31240  203.31670    -999.25    -999.25    -999.25  -57.36540  -30.34520  457.31240
 8500.00000    -999.25    -999.25    9.92830    9.92830    0.98230    -999.25    -999.25    -999.25    -999.25    -999.25 1018.03770   88.90230   88.90230    -999.25    -999.25  300.46460  300.46460 1018.03770  450.10800 1241.09380  450.10800    -999.25    -999.25    -999.25  -66.61010  -35.80240 1241.09380
 8550.00000    -999.25    -999.25   10.04790   10.04790   40.20150    -999.25    -999.25    -999.25    -999.25    -999.25   24.87470   64.15120   64.15120    -999.25    -999.25   99.93490   99.93490   24.87470   25.45440   39.70850   25.45440    -999.25    -999.25    -999.25  -55.04650  -20.45140   39.70850
 8600.00000    -999.25    -999.25    9.50180    9.50180   33.12040    -999.25    -999.25    -999.25    -999.25    -999.25   30.19290   61.44390   61.44390    -999.25    -999.25   74.03060   74.03060   30.19290   31.22710   37.85260   31.22710    -999.25    -999.25    -999.25  -96.17640  -60.42540   37.85260
 8650.00000    -999.25    -999.25    9.24880    9.24880   34.39750    -999.25    -999.25    -999.25    -999.25    -999.25   29.07190   52.90450   52.90450    -999.25    -999.25   76.76210   76.76210   29.07190   30.36080   37.84530   30.36080    -999.25    -999.25    -999.25  -97.52710  -61.11810   37.84530
 8700.00000    -999.25    -999.25    9.60840    9.60840   15.60050    -999.25    -999.25    -999.25    -999.25    -999.25   64.10040   58.19670   58.19670    -999.25    -999.25   70.97260   70.97260   64.10040   58.85400   76.59870   58.85400    -999.25    -999.25    -999.25  -60.91790  -23.85370   76.59870
 8750.00000    -999.25    -999.25    9.50740    9.50740   22.68400    -999.25    -999.25    -999.25    -999.25    -999.25   44.08390   58.66230   58.66230    -999.25    -999.25   75.76150   75.76150   44.08390   45.60190   53.77560   45.60190    -999.25    -999.25    -999.25  -75.76570  -38.04350   53.77560
 8800.00000    -999.25    -999.25    9.43520    9.43520   54.96380    -999.25    -999.25    -999.25    -999.25    -999.25   18.19380   65.11630   65.11630    -999.25    -999.25   77.14300   77.14300   18.19380   18.85710   22.52440   18.85710    -999.25    -999.25    -999.25  -95.25440  -56.87420   22.52440
 8850.00000    -999.25    -999.25    9.42480    9.42480   21.44600    -999.25    -999.25    -999.25    -999.25    -999.25   46.62870   60.27750   60.27750    -999.25    -999.25   94.02290   94.02290   46.62870   52.37920   63.72730   52.37920    -999.25    -999.25    -999.25  -60.76560  -21.73030   63.72730
 8900.00000    -999.25    -999.25    9.02780    9.02780    5.55900    -999.25    -999.25    -999.25    -999.25    -999.25  179.88800   45.36790   45.36790    -999.25    -999.25   16.52310   16.52310  179.88800  233.82170 1497.89810  233.82170    -999.25    -999.25    -999.25 -160.98850 -121.29520 1497.89810
 8950.00000    -999.25    -999.25    9.39370    9.39370    4.14770    -999.25    -999.25    -999.25    -999.25    -999.25  241.09610   44.50320   44.50320    -999.25    -999.25   36.05620   36.05620  241.09610  158.55290  800.16120  158.55290    -999.25    -999.25    -999.25 -148.30890 -107.96030  800.16120
 9000.00000    -999.25    -999.25   10.36960   10.36960    4.37310    -999.25    -999.25    -999.25    -999.25    -999.25  228.66850   48.88180   48.88180    -999.25    -999.25   24.72970   24.72970  228.66850   75.72300   88.46610   75.72300    -999.25    -999.25    -999.25 -116.35970  -75.35320   88.46610
