~Version ---------------------------------------------------
VERS.      2.0 : CWLS log ASCII Standard -VERSION 2.0
WRAP.       NO : One line per depth step
CREA. 12/14/17 : LAS Creation Date
~Well ------------------------------------------------------
STRT.FT                   850.0 : START DEPTH
STOP.FT                 12200.0 : STOP DEPTH
STEP.FT                50.00000 : STEP LENGTH
NULL.                   -999.25 : NULL VALUE
COMP. ATLANTIC REFINING COMPANY : COMPANY
WELL.  HB ET AL MARL 6-16-55-18 : WELL
FLD .                           : FIELD
LOC .                           : LOCATION
CTRY.                    CANADA : COUNTRY
SRVC.              Schlumberger : SERVICE COMPANY
DATE.               23-Apr-1959 : LOGDATE
PROV.                   Alberta : PROVINCE
UWI .          100061605518W500 : UNIQUE WELL ID
SLAT.WGS84             53.75017 : SURFACE LATITUDE
SLON.WGS84            -116.6167 : SURFACE LONGITUDE
~Curve Information -----------------------------------------
DEPT   .FT      : Depth Curve
CALWS  .IN      : CALIPER [MCALED]
CILDED .MMHO    : CONDUCTIVITY FROM IE LOG
CNCLSED.V/V     : NEUTRON POROSITY LIMESTONE FROM DENSITY LOG
CONDWS .MMHO    : CONDUCTIVITY [1000/DRESWS]
DRESWS .OHMM    : DEEP RESISTIVITY [ILDED] IF ILDED<1;1000/CILDED;ELSE ILDED
DTED   .US/F    : DELTA TIME FROM SONIC LOG [ADJ TO GRNED]
DTWS   .US/F    : DELTA TIME [DTED]
GRDED  .GAPI    : GAMMA RAY FROM DENSITY LOG
GRED   .GAPI    : GAMMA RAY FROM CBL LOG [ADJ TO GRDED]
GRNED  .CU      : GAMMA RAY FROM GRN LOG LOG [ADJ TO GRDED]
GRSED  .MG/TON  : GAMMA RAY FROM SONIC LOG LOG [ADJ TO GRNED]
GRWS   .GAPI    : GAMMA RAY [SPL GRED 5480' GRDED 8374' GRNED 10882' GRDED, CONVERTED TO GAPI UNIT (8374'-10880')*2.16, (10882'-FR)*16.5]
ILDED  .OHMM    : INDUCTION LOG DEEP RESISTIVITY FROM IE LOG
LL7ED  .OHMM    : LATEROLOG 7 FROM LATEROLOG [ADJ TO ILDED]
LNED   .OHMM    : 64 INCH LONG NORMAL RESISTIVITY FROM EL
LT18ED .OHMM    : LATERAL 18' 8" FROM EL LOG
MCALED .IN      : CALIPER MICROLOG
NEUTED .CU      : NEUTRON FROM GRN LOG [ADJ TO CNCLSED]
NEUTWS .CU      : NEUTRON [NEUTED]
NPOLSWS.V/V     : NEUTRON POROSITY LIMESTONE [CNCLSED]
SN1ED  .OHMM    : 16 INCH SHORT NORMAL RESISTIVITY FROM EL
SNED   .OHMM    : 16 INCH SHORT NORMAL RESISTIVITY FROM IE
SPR1ED .MV      : SPONTANEOUS POTENTIAL FROM EL LOG
SPRED  .MV      : SPONTANEOUS POTENTIAL FROM IE LOG
SPSED  .MV      : SPONTANEOUS POTENTIAL FROM SONIC LOG [ADJ TO GRNED]
SPWS   .MV      : SPONTANEOUS POTENTIAL [BASELINE 0 MV] [SPRED]
SRESWS .OHMM    : SHALLOW RESISTIVITY [SNED]
~Params ----------------------------------------------------
LMF .                     KB : LOG MEASURED FROM
DMF .                     KB : DRILLING MEASURED FROM
EKB .FT                 3203 : KELLY BUSHING
EGL .FT                 3190 : GROUND LEVEL
DATE.               04/23/59 : RUN DATE
RUN .                      3 : RUN NUMBER
DD  .FT                12230 : DEPTH DRILLER
DL  .FT                12233 : DEPTH LOGGER
BLI .FT                12228 : BOTTOM LOG INTERVAL
TLI .FT                10500 : TOP LOG INTERVAL
BS  .IN                8.625 : BIT SIZE
BSD .FT                12230 : BIT SIZE AT DEPTH
DFT .                    GYP : DRILLING FLUID TYPE
DFD .                    9.3 : DRILLING FLUID DENSITY
DFV .                     68 : DRILLING FLUID VISCOSITY
DFPH.                   12.5 : DRILLING FLUID PH
DFL .                    6.8 : DRILLING FLUID LOSS
RMS .OHMM               0.75 : RESISTIVITY MUD SAMPLE
MST .DEGF                 54 : MUD SAMPLE TEMPERATURE
RMF .OHMM               0.35 : RESISTIVITY MUD FILTRATE SAMPLE
MFST.DEGF                 80 : MUD FILTRATE SAMPLE TEMPERATURE
RMC .OHMM               0.72 : RESISTIVITY MUD CAKE
MCST.DEGF                 80 : MUD CAKE SAMPLE TEMPERATURE
RMB .OHMM               0.75 : RESISTIVITY MUD AT BHT
TCS .HRS                 3.5 : TIME CIRCULATED STOPPED
LUN .                   1571 : LOGGING UNIT NUMBER
LUL .                    EDM : LOGGING UNIT LOCATION
ENGI.                REBYRNA : RECORDING ENGINEER
WITN.                  EVANS : WITNESSED BY
CLNT.                A2DTECH : CLIENT CODE
ORIG.            2" 5" PRINT : ORIGIN OF DATA
UWI .       100061605518W500 : UNIQUE WELL ID
DICO. A2D Technologies, Inc. : DIGITIZING COMPANY
~Other -----------------------------------------------------
IE-EL-LL/ML/CNL/GRN/CBL/SONIC LOGS RUN
~ASCII -----------------------------------------------------
# ...
 11250.00000    8.52620    9.01270    -999.25    2.68570  372.34360   54.92030   54.92030    -999.25    -999.25    -999.25    5.41520   21.91520  372.34360 2035.06680    -999.25    -999.25    8.52620    -999.25    -999.25    -999.25    -999.25   76.45190    -999.25 -126.11560 -195.26640  -82.68880   76.45190
 11300.00000    8.77490   17.29300    -999.25   13.05410   76.60450   63.83220   63.83220    -999.25    -999.25    -999.25    0.72180   17.22180   76.60450  406.96890    -999.25    -999.25    8.77490    -999.25    -999.25    -999.25    -999.25   43.26560    -999.25  -72.59480    -999.25  -24.45730   43.26560
 11350.00000    8.97890   13.14090    -999.25    5.64890  177.02700   71.76040   71.76040    -999.25    -999.25    -999.25    0.70260   17.20260  177.02700  111.94300    -999.25    -999.25    8.97890    -999.25    -999.25    -999.25    -999.25   34.88950    -999.25  -86.70770    -999.25  -44.26900   34.88950
 11400.00000    9.32290   14.39420    -999.25    8.83880  113.13800   58.41480   58.41480    -999.25    -999.25    -999.25    0.52380   17.02380  113.13800  160.92860    -999.25    -999.25    9.32290    -999.25    -999.25    -999.25    -999.25   32.59140    -999.25  -80.56490    -999.25  -43.79660   32.59140
 11450.00000    9.10780   16.66330    -999.25   16.94660   59.00900   77.20320   77.20320    -999.25    -999.25    -999.25    0.63500   17.13500   59.00900  100.01460    -999.25    -999.25    9.10780    -999.25    -999.25    -999.25    -999.25   31.50990    -999.25  -73.25080    -999.25  -42.15280   31.50990
 11500.00000    8.77950   12.35630    -999.25   11.06090   90.40840   74.53720   74.53720    -999.25    -999.25    -999.25    0.44920   16.94920   90.40840  156.78580    -999.25    -999.25    8.77950    -999.25    -999.25    -999.25    -999.25   36.35190    -999.25  -58.64210    -999.25  -33.21450   36.35190
 11550.00000    9.55840   16.84500    -999.25   17.04090   58.68240   55.06740   55.06740    -999.25    -999.25    -999.25    0.71620   17.21620   58.68240  204.60580    -999.25    -999.25    9.55840    -999.25    -999.25    -999.25    -999.25   26.66250    -999.25  -41.88400    -999.25  -22.09840   26.66250
 11600.00000    8.97200    9.32770    -999.25    6.51030  153.60360   56.37940   56.37940    -999.25    -999.25    -999.25    0.62150   17.12150  153.60360  248.92130    -999.25    -999.25    8.97200    -999.25    -999.25    -999.25    -999.25   42.30780    -999.25  -33.45870    -999.25  -19.37180   42.30780
 11650.00000    8.37120   15.23260    -999.25   15.03420   66.51490   52.59260   52.59260    -999.25    -999.25    -999.25    0.63700   17.13700   66.51490  103.35020    -999.25    -999.25    8.37120    -999.25    -999.25    -999.25    -999.25   32.81560    -999.25  -28.38490    -999.25  -19.96840   32.81560
 11700.00000    8.27260   20.12300    -999.25   20.20020   49.50450   55.43760   55.43760    -999.25    -999.25    -999.25    0.63850   17.13850   49.50450   95.94730    -999.25    -999.25    8.27260    -999.25    -999.25    -999.25    -999.25   28.87370    -999.25  -16.54120    -999.25  -13.79510   28.87370
 11750.00000    8.25450   43.25000    -999.25   43.10680   23.19820   57.66370   57.66370    -999.25    -999.25    -999.25    0.59600   17.09600   23.19820   38.96510    -999.25    -999.25    8.25450    -999.25    -999.25    -999.25    -999.25   23.19820    -999.25  -21.91350    -999.25  -24.83770   23.19820
 11800.00000    9.03450   21.88210    -999.25   22.34030   44.76220   53.76490   53.76490    -999.25    -999.25    -999.25    0.53900   17.03890   44.76220  184.46140    -999.25    -999.25    9.03450    -999.25    -999.25    -999.25    -999.25   42.25490    -999.25  -26.14160    -999.25  -34.70790   42.25500
 11850.00000    8.42300    9.19460    -999.25    2.64600  377.92790   53.51760   53.51760    -999.25    -999.25    -999.25    0.56830   17.06830  377.92790  227.81910    -999.25    -999.25    8.42300    -999.25    -999.25    -999.25    -999.25   46.73120    -999.25  -27.28550    -999.25  -41.55050   46.73120
 11900.00000   10.10160    9.15440    -999.25    4.94430  202.25230   56.08050   56.08050    -999.25    -999.25    -999.25    0.81690   17.31690  202.25230 1372.09020    -999.25    -999.25   10.10160    -999.25    -999.25    -999.25    -999.25   41.01980    -999.25  -30.66600    -999.25  -50.60130   41.01980
 11950.00000    8.84580   10.75410    -999.25    8.03090  124.51840   56.13140   56.13140    -999.25    -999.25    -999.25    0.27840   16.77840  124.51840  185.39890    -999.25    -999.25    8.84580    -999.25    -999.25    -999.25    -999.25   37.25760    -999.25  -34.91900    -999.25  -60.52470   37.25760
 12000.00000    8.25750   15.61250    -999.25   17.04990   58.65150   54.55630   54.55630    -999.25    -999.25    -999.25    0.38490   16.88490   58.65150  109.66170    -999.25    -999.25    8.25750    -999.25    -999.25    -999.25    -999.25   30.40540    -999.25  -39.38470    -999.25  -70.66080   30.40540
 12050.00000   12.75920    9.56990    -999.25   10.61670   94.19160   54.05270   54.05270    -999.25    -999.25    -999.25    0.86140   17.36140   94.19160 3887.76850    -999.25    -999.25   12.75920    -999.25    -999.25    -999.25    -999.25   55.74810    -999.25  -34.23780    -999.25  -71.15590   55.74820
 12100.00000    -999.25   44.90000    -999.25   44.31130   22.56760   52.67910   52.67910    -999.25    -999.25    -999.25    1.00030   17.50030   22.56760 6635.56490    -999.25    -999.25    -999.25    -999.25    -999.25    -999.25    -999.25   26.47000    -999.25    0.22700    -999.25  -42.38980   26.47000
 12150.00000    8.60750   12.07770    -999.25   11.87170   84.23420   72.35530   72.35530    -999.25    -999.25    -999.25    4.16560   20.66560   84.23420  122.78730    -999.25    -999.25    8.60750    -999.25    -999.25    -999.25    -999.25   34.96620    -999.25   37.61520    -999.25  -10.67200   34.96620
 12200.00000    8.48990   27.94790    -999.25   20.05420   49.86490   57.37210   57.37210    -999.25    -999.25    -999.25    6.41830   22.91830   49.86490   48.29660    -999.25    -999.25    8.48990    -999.25    -999.25    -999.25    -999.25   25.36380    -999.25    7.23530    -999.25  -42.51150   25.36380
