~Version ---------------------------------------------------
VERS.      2.0 : CWLS log ASCII Standard -VERSION 2.0
WRAP.       NO : One line per depth step
CREA. 07/23/13 : LAS Creation Date
~Well ------------------------------------------------------
STRT.FT                    300.0 : START DEPTH
STOP.FT                  13950.0 : STOP DEPTH
STEP.FT                 50.00000 : STEP LENGTH
NULL.                    -999.25 : NULL VALUE
COMP.   PENN WEST PETROLEUM LTD. : COMPANY
WELL. CONOCO WEB PECO 6-26-47-15 : WELL
FLD .                       PECO : FIELD
LOC .                            : LOCATION
CTRY.                     CANADA : COUNTRY
SRVC.     Schlumberger of Canada : SERVICE COMPANY
DATE.                03-May-1960 : LOGDATE
PROV.                    Alberta : PROVINCE
UWI .           100062604715W500 : UNIQUE WELL ID
SLAT.WGS84         53.0817985535 : SURFACE LATITUDE
SLON.WGS84       -116.0888900757 : SURFACE LONGITUDE
~Curve Information -----------------------------------------
DEPT .FT            : DEPTH FEET
CALM .IN            : CALIPER FROM MICRO LOG
CILD .MMHO          : CONDUCTIVITY FROM IL LOG
DT   .US/F          : DELTA-T 3 FEET SPACING FROM SONIC LOG
DT_1 .US/F          : DELTA-T 1 FEET SPACING FROM SONIC LOG
GRS  .UG_RA-EQ/TON  : GAMMA RAY FROM SONIC LOG
ILD  .OHMM          : DEEP INDUCTION FROM IL LOG
LN   .OHMM          : LONG NORMAL FROM EL LOG
LT18 .OHMM          : LATERAL 18 FROM EL LOG
MCAL .IN            : CALIPER FROM MICRO LOG
MLL  .OHMM          : MICRO LATEROLOG FROM MICRO LOG
SN   .OHMM          : SHORT NORMAL FROM EL LOG
SPR  .MV            : SPONTANEOUS POTENTIAL FROM EL LOG
SPR_1.MV            : SPONTANEOUS POTENTIAL FROM IL LOG
~Params ----------------------------------------------------
PD  .                    GND : PERMANENT DATUM
LMF .                    GND : LOG MEASURED FROM
DMF .                    GND : DRILLING MEASURED FROM
EGL .FT                 3857 : GROUND LEVEL
DATE.               05/03/60 : RUN DATE
RUN .                      2 : RUN NUMBER
DD  .FT                13975 : DEPTH DRILLER
DL  .FT                13965 : DEPTH LOGGER
BLI .FT                13960 : BOTTOM LOG INTERVAL
TLI .FT                 9389 : TOP LOG INTERVAL
CBD .FT                 9386 : CASING BOTTOM DRILLER
CBL .FT                 9389 : CASING BOTTOM LOGGER
BS  .IN                8.875 : BIT SIZE
BSD .FT                13975 : BIT SIZE AT DEPTH
DFT .                   LIME : DRILLING FLUID TYPE
DFD .                     10 : DRILLING FLUID DENSITY
DFV .                     96 : DRILLING FLUID VISCOSITY
DFPH.                     13 : DRILLING FLUID PH
RMS .OHMM               0.69 : RESISTIVITY MUD SAMPLE
MST .DEGF                 58 : MUD SAMPLE TEMPERATURE
RMF .OHMM                0.4 : RESISTIVITY MUD FILTRATE SAMPLE
MFST.DEGF                 70 : MUD FILTRATE SAMPLE TEMPERATURE
RMC .OHMM                0.7 : RESISTIVITY MUD CAKE
MCST.DEGF                 70 : MUD CAKE SAMPLE TEMPERATURE
RMB .OHMM               0.16 : RESISTIVITY MUD AT BHT
TCS .HRS                   5 : TIME CIRCULATED STOPPED
LUN .               DSU C 72 : LOGGING UNIT NUMBER
ENGI.                  JAMES : RECORDING ENGINEER
WITN.               SHERRIFF : WITNESSED BY
CLNT.                A2DTECH : CLIENT CODE
ORIG.            2" 5" PRINT : ORIGIN OF DATA
UWI .       100062604715W500 : UNIQUE WELL ID
DICO. A2D Technologies, Inc. : DIGITIZING COMPANY
~Other -----------------------------------------------------
~ASCII -----------------------------------------------------
# ...
 5500.00000    -999.25  117.34400   81.54580    -999.25    4.43860    8.89390   14.74860   10.10800   16.50190    -999.25    8.40580  -45.15440  -25.56400
 5550.00000    -999.25   87.27980   72.90230    -999.25    4.08670   12.00480   14.86380   13.48870   16.62010    -999.25    8.74320  -41.14790  -24.74440
 5600.00000    -999.25  146.32390   81.52740    -999.25    3.44660    6.75830   15.02650   18.36490   16.62230    -999.25    7.01500  -40.77070  -23.64660
 5650.00000    -999.25  317.15710   89.11090    -999.25    4.56880    2.85050    7.25360   16.63850   16.50620    -999.25    3.67050  -42.31450  -24.80020
 5700.00000    -999.25  129.88190   88.57270   77.45420    5.26370    7.98520   10.23380    6.78070   16.60100    -999.25    6.12200  -41.24210  -25.52420
 5750.00000    -999.25   63.77710   73.44750   74.65830    3.36530   16.80340   33.11740   19.82220   13.57920    -999.25   15.23690  -54.58350  -38.06020
 5800.00000    -999.25  195.65270   81.95050   80.06050    4.58580    5.40650   12.41970   19.33260   16.23040    -999.25    5.69070  -41.42450  -24.51110
 5850.00000    -999.25   64.27260   72.90530   75.56650    3.48900   16.78640   30.00160   32.60230   12.93180    -999.25   15.27420  -50.15180  -33.96420
 5900.00000    -999.25  118.83120   77.47520   79.82010    4.36930    8.61870   17.50580   22.67370   13.76910    -999.25    8.40250  -41.67910  -24.75750
 5950.00000    -999.25  106.57450   81.74600   78.20860    3.77070    9.58770   14.99940   21.08330   16.68520    -999.25    7.57960  -39.11560  -20.24420
 6000.00000    -999.25   91.33060   80.32250   82.16550    4.19650   11.17560   15.52570   18.77100   16.75700    -999.25    8.27630  -38.23230  -23.54760
 6050.00000    -999.25  139.34350   90.20440    -999.25    3.55860    7.40350   15.11510   14.79520   16.62630    -999.25    7.28740  -37.91400  -19.92730
 6100.00000    -999.25  141.43550   77.88700    -999.25    2.89610    7.20980   14.15060   31.95890   15.96100    -999.25    7.39150  -40.28880  -27.91790
 6150.00000    -999.25  149.97070   90.20600    -999.25    3.97630    7.64400   15.91970   25.93110   16.65890    -999.25    6.55730  -36.20700  -23.58760
 6200.00000    -999.25  121.24060   76.22370    -999.25    3.49490    8.60820   14.97470   19.30030   16.61160    -999.25    7.36410  -37.56120  -24.61460
 6250.00000    -999.25   50.76060   62.66940   56.24900    2.72340   20.65170   43.09300   28.99650   13.73190    -999.25   18.78000  -44.89400  -34.17190
 6300.00000    -999.25   54.02910   74.61080   77.39710    2.93120   23.14070   39.91980   25.24230   12.95530    -999.25   19.15660  -48.32590  -36.47860
 6350.00000    -999.25   86.14000   73.29240   76.87510    3.68090   11.96670   19.64710   35.14900   16.54040    -999.25    9.85820  -38.62700  -27.17180
 6400.00000    -999.25   46.49160   71.28870   70.22020    4.00010   24.48510   40.86920   29.33850   14.97410    -999.25   18.11650  -47.89460  -34.05980
 6450.00000    -999.25  108.38110   73.55950   77.35620    2.64720    9.86550   21.51010   63.26570   16.43330    -999.25    9.37740  -45.42540  -27.63410
 6500.00000    -999.25  114.15590   80.73710   81.00460    3.76470    9.30440   19.72280   30.32500   16.79260    -999.25    8.78110  -40.60740  -24.69580
 6550.00000    -999.25   65.01700   82.17340   55.91480    3.71340   16.52340   17.21620   22.88650   16.63850    -999.25    8.43290  -34.88830  -19.37580
 6600.00000    -999.25   95.43690   82.19870    -999.25    4.03110   11.30890   17.29050   18.32780   16.60700    -999.25    8.68690  -39.30910  -21.18800
 6650.00000    -999.25   96.97610   63.64440   60.07220    3.10880   10.79310   28.31260   36.72480   16.53060    -999.25   12.14720  -40.33960  -23.17690
 6700.00000    -999.25   46.72550   74.18070   75.12200    2.49590   25.99240   57.25850   34.37580   13.26930    -999.25   21.45090  -59.49420  -39.57430
 6750.00000    -999.25  126.47050   77.11290    -999.25    4.08170    8.51840   17.00820   19.48190   15.88140    -999.25    8.29780  -38.05890  -22.21300
 6800.00000    -999.25  163.21950   82.65990    -999.25    3.84950    6.42440   11.73350   13.00360   16.55040    -999.25    6.71010  -35.00460  -19.72550
 6850.00000    -999.25    -999.25   82.75290    -999.25    4.61460    -999.25   18.99000   19.51520   16.21900    -999.25    9.32780  -41.56900    -999.25
 6900.00000    -999.25    -999.25   74.29080    -999.25    4.70290    -999.25   18.97250   19.20630   16.61360    -999.25    9.01920  -43.40520    -999.25
 6950.00000    -999.25    -999.25   81.72550    -999.25    5.14300    -999.25   18.92090   21.93200   16.39820    -999.25    9.14220  -45.89870    -999.25
 7000.00000    -999.25    -999.25   74.79740    -999.25    5.07670    -999.25   17.98500   22.44350   15.58110    -999.25    8.96380  -46.02440    -999.25
 7050.00000    -999.25    -999.25   76.61880    -999.25    5.31420    -999.25   18.27550   20.87320   15.98430    -999.25    9.06600  -45.30150    -999.25
 7100.00000    -999.25    -999.25   75.75830    -999.25    5.19770    -999.25   16.52400   23.72640   16.35840    -999.25    8.37310  -44.09590    -999.25
 7150.00000    -999.25    -999.25   82.40200    -999.25    5.34220    -999.25   16.89920   20.17300   16.17710    -999.25    8.39160  -41.88020    -999.25
 7200.00000    -999.25    -999.25   77.29080    -999.25    5.06130    -999.25   23.88490   26.47090   15.50640    -999.25   10.92290  -43.36400    -999.25
 7250.00000    -999.25    -999.25   81.60290    -999.25    5.12340    -999.25   20.13220   26.51900   16.19710    -999.25    9.58520  -43.20650    -999.25
 7300.00000    -999.25    -999.25   82.54120    -999.25    5.48580    -999.25   24.27390   26.37350   16.30630    -999.25   11.10580  -40.81100    -999.25
 7350.00000    -999.25    -999.25   76.85330    -999.25    4.97850    -999.25   17.88480   25.44620   16.64680    -999.25    8.48040  -39.71860    -999.25
 7400.00000    -999.25    -999.25   82.84130    -999.25    5.27630    -999.25   12.63120   14.65440   16.54780    -999.25    6.46000  -39.66280    -999.25
 7450.00000    -999.25    -999.25   85.62350    -999.25    5.38940    -999.25   10.92450   14.53540   16.61250    -999.25    5.87500  -40.06500    -999.25
 7500.00000    -999.25    -999.25   78.48360    -999.25    5.03300    -999.25   10.87450   12.24870   16.68800    -999.25    6.19680  -41.43070    -999.25
 7550.00000    -999.25    -999.25   80.21490    -999.25    5.30210    -999.25   10.98700   12.22670   16.46830    -999.25    6.49490  -45.52170    -999.25
 7600.00000    -999.25    -999.25   81.92500    -999.25    5.13200    -999.25   10.30160   11.69380   16.06480    -999.25    6.21740  -11.78120    -999.25
 7650.00000    -999.25    -999.25   77.41250    -999.25    5.01990    -999.25   13.52770   13.49990   16.51020    -999.25    7.55160  -15.11970    -999.25
 7700.00000    -999.25    -999.25   80.52910    -999.25    5.25930    -999.25   10.68430   17.89040   16.55440    -999.25    6.05540  -14.41390    -999.25
 7750.00000    -999.25    -999.25   80.14530    -999.25    5.41730    -999.25   12.49070   15.26140   16.56500    -999.25    7.15060  -14.42610    -999.25
 7800.00000    -999.25    -999.25   83.12940    -999.25    5.80130    -999.25   10.94620   14.86710   16.67090    -999.25    6.73620  -13.74490    -999.25
 7850.00000    -999.25  188.83480   83.12350    -999.25    5.64120    5.17180   10.65890   14.01180   16.71500    -999.25    6.27150  -12.08040  -26.46520
 7900.00000    -999.25  200.23850   86.13800   91.18520    5.31560    5.12070    9.13300   10.12230   16.71390    -999.25    5.58380  -11.78550  -25.56270
 7950.00000    -999.25  137.22410   79.95770   81.97290    5.11830    7.72230   12.71930   16.78130   16.69870    -999.25    6.90640  -14.34800  -26.69560
 8000.00000    -999.25  116.96840   76.02440   76.23260    5.58180    9.34610   15.13340   16.49660   16.62370    -999.25    7.88420  -13.39120  -27.00500
 8050.00000    -999.25  101.82350   74.70990   75.47210    4.62730   10.05260   18.29220   24.19850   13.72020    -999.25    9.55110  -15.40040  -27.62480
