~Version ---------------------------------------------------
VERS. 2.0 : CWLS log ASCII Standard -VERSION 2.0
WRAP.  NO : ONE LINE PER DEPTH STEP
~Well ------------------------------------------------------
STRT.M                          450.0 : START DEPTH
STOP.M                         3450.0 : STOP DEPTH
STEP.M                       50.00000 : STEP LENGTH
NULL.                         -999.25 : NULL VALUE
COMP.          CHEVRON CANADA LIMITED : COMPANY
WELL. CHEVRON ET AL STURLS 5-10-68-26 : WELL
FLD .                                 : FIELD
LOC .                                 : LOCATION
CTRY.                          CANADA : COUNTRY
SRVC.                    Schlumberger : SERVICE COMPANY
DATE.                     08-Mar-1981 : LOGDATE
PROV.                         Alberta : PROVINCE
UWI .                100051006826W500 : UNIQUE WELL ID
SLAT.WGS84                   54.87124 : SURFACE LATITUDE
SLON.WGS84                  -117.8893 : SURFACE LONGITUDE
~Curve Information -----------------------------------------
DEPT    .M      : DEPTH METERS
CALDED  .MM     : CALIPER FROM CNFD LOG, DEPTH ADJUSTED WITH [GRRED]
CALSED  .MM     : CALIPER FROM SONIC LOG, DEPTH ADJUSTED WITH [GRRED]
CALWS   .MM     : CALIPER [CALDED]
CILDED  .MMHO   : CONDUCTIVITY FROM RESISTIVITY LOG
CONDWS  .MMHO   : CONDUCTIVITY [1000/DRESWS]
CORRED  .KG/M3  : DENSITY CORRECTION FROM CNFD LOG, DEPTH ADJUSTED WITH [GRRED]
DCORWS  .KG/M3  : DENSITY CORRECTION [CORRED]
DENWS   .KG/M3  : BULK DENSITY [RHOBED]
DPHILSED.V/V    : DENSITY POROSITY [M=2710 F=1000] FROM CNFD LOG, DEPTH ADJUSTED WITH [GRRED]
DPHISSED.V/V    : DENSITY POROSITY [M=2650 F=1000] FROM CNFD LOG, DEPTH ADJUSTED WITH [GRRED]
DPOLSWS .V/V    : DENSITY POROSITY LIMESTONE [CALCULATED FROM DENWS]
DRESWS  .OHMM   : DEEP RESISTIVITY [ILDED]
DTED    .US/M   : DELTA TIME FROM SONIC LOG, DEPTH ADJUSTED WITH [GRRED]
DTWS    .US/M   : DELTA TIME [DTED]
GRDED   .GAPI   : GAMMA RAY FROM CNFD LOG, DEPTH ADJUSTED WITH [GRRED]
GRSED   .GAPI   : GAMMA RAY FROM SONIC LOG, DEPTH ADJUSTED WITH [GRRED]
GRWS    .GAPI   : GAMMA RAY [GRDED], SPLICED WITH [GRSED] FROM 429-452
ILDED   .OHMM   : INDUCTION LOG DEEP RESISTIVITY
ILMED   .OHMM   : INDUCTION LOG MEDIUM RESISTIVITY
MRESWS  .OHMM   : MEDIUM RESISTIVITY [ILMED]
NPHILSED.V/V    : NEUTRON POROSITY LIMESTONE FROM CNFD LOG, DEPTH ADJUSTED WITH [GRRED]
NPOLSWS .V/V    : NEUTRON POROSITY [M=2710 F=1000] FROM CNFD LOG, DEPTH ADJUSTED WITH [GRRED]
NPORSSED.V/V    : NEUTRON POROSITY [M=2650 F=1000] FROM CNFD LOG, DEPTH ADJUSTED WITH [GRRED]
RHOBED  .KG/M3  : BULK DENSITY FROM CNFD LOG, DEPTH ADJUSTED WITH [GRRED]
SFLED   .OHMM   : SPHERICALLY FOCUSED LOG RESISTIVITY
SPRED   .MV     : SPONTANEOUS POTENTIAL FROM RESISTIVITY LOG
SPWS    .MV     : SPONTANEOUS POTENTIAL [BASELINE 0 MV] [SPRED]
SRESWS  .OHMM   : SHALLOW RESISTIVITY [SFLED]
TENDED  .N      : TENSION FROM CNFD LOG, DEPTH ADJUSTED WITH [GRRED]
TENSED  .N      : TENSION FROM SONIC LOG, DEPTH ADJUSTED WITH [GRRED]
~Params ----------------------------------------------------
PD  .                     GL : PERMANENT DATUM
EPD .M                 679.3 : ELEVATION PERMANENT DATUM
LMF .                     KB : LOG MEASURED FROM
DAPD.M                   9.4 : FEET ABOVE PERMANENT DATUM
DMF .                     KB : DRILLING MEASURED FROM
EKB .M                 688.7 : KELLY BUSHING
EGL .M                 679.3 : GROUND LEVEL
DATE.               03/08/81 : RUN DATE
RUN .                      1 : RUN NUMBER
DD  .M                  3458 : DEPTH DRILLER
DL  .M                  3461 : DEPTH LOGGER
BLI .M                  3459 : BOTTOM LOG INTERVAL
TLI .M                   466 : TOP LOG INTERVAL
CS  .IN                226.6 : CASING SIZE
CBD .M                466.13 : CASING BOTTOM DRILLER
CBL .M                   466 : CASING BOTTOM LOGGER
BS  .IN                  222 : BIT SIZE
BSD .M                  3458 : BIT SIZE AT DEPTH
DFT .               CHEM GEL : DRILLING FLUID TYPE
DFD .                   1100 : DRILLING FLUID DENSITY
DFV .                    110 : DRILLING FLUID VISCOSITY
DFPH.                   10.5 : DRILLING FLUID PH
DFL .                    8.4 : DRILLING FLUID LOSS
MSS .               FLOWLINE : MUD SAMPLE SOURCE
RMS .OHMM               0.91 : RESISTIVITY MUD SAMPLE
RMF .OHMM               0.72 : RESISTIVITY MUD FILTRATE SAMPLE
MFST.DEGC               23.5 : MUD FILTRATE SAMPLE TEMPERATURE
RMC .OHMM                0.9 : RESISTIVITY MUD CAKE
MCST.DEGC               23.0 : MUD CAKE SAMPLE TEMPERATURE
MFSS.           FILTER PRESS : MUD FILTRATE SAMPLE SOURCE
RMB .OHMM                0.3 : RESISTIVITY MUD AT BHT
TCS .HRS                 100 : TIME CIRCULATED STOPPED
TLAB.HRS                1330 : TIME LOGGER AT BOTTOM
LUN .                   8155 : LOGGING UNIT NUMBER
LUL .                     GP : LOGGING UNIT LOCATION
ENGI.                 BRYDON : RECORDING ENGINEER
WITN.               ANDERSON : WITNESSED BY
CLNT.                A2DTECH : CLIENT CODE
ORIG.                      1 : 6" 1:240" PRINT:   ORIGIN OF DATA
UWI .       100051006826W500 : UNIQUE WELL ID
DICO. A2D Technologies, Inc. : DIGITIZING COMPANY
~Other -----------------------------------------------------
~ASCII -----------------------------------------------------
  450.00000    -999.25    -999.25    -999.25    -999.25    -999.25    -999.25    -999.25    -999.25    -999.25    -999.25    -999.25    -999.25    -999.25    -999.25    -999.25   40.50710   40.50710    -999.25    -999.25    -999.25    -999.25    -999.25    -999.25    -999.25    -999.25    -999.25    -999.25    -999.25    -999.25 5245.50680
  500.00000  298.68710  270.15430  298.68710   72.50640   66.41910    7.15350    7.15350 2289.13920    -999.25    0.21880    0.24610   15.05590  334.33280  334.33280   53.54940   48.68780   53.54940   15.05590   15.52460   15.52460    -999.25    0.32080    0.36430 2289.13920   14.39160  -23.22390   -3.11040   14.39160 5720.93850 5671.74900
  550.00000  279.74400  261.15360  279.74400  108.10530  105.68700   29.48140   29.48140 2388.02930    -999.25    0.15970    0.18830    9.46190  324.96550  324.96550   57.06390   59.94160   57.06390    9.46190    8.42060    8.42060    -999.25    0.29900    0.34270 2388.02930    8.07230  -31.02120   -9.20740    8.07230 6087.14210 5923.41890
  600.00000  224.61300  225.18980  224.61300   96.89800   94.72120    3.82630    3.82630 2293.74710    -999.25    0.21590    0.24340   10.55730  352.67400  352.67400   50.15490   45.44930   50.15490   10.55730   10.39700   10.39700    -999.25    0.33350    0.37680 2293.74710   13.97990  -28.34670   -4.23520   13.97990 6188.13180 6104.34720
  650.00000  282.76830  235.77130  282.76830  212.71560  214.10070   40.64040   40.64040 2323.03030    -999.25    0.19890    0.22630    4.67070  346.84080  346.84080   69.98790   68.32210   69.98790    4.67070    4.34550    4.34550    -999.25    0.40660    0.44830 2323.03030    4.21510  -33.01620   -6.60690    4.21510 6747.25780 6433.66750
  700.00000  311.97780  242.41860  311.97780  117.51420  113.94580   15.16930   15.16930 2345.37180    -999.25    0.18440    0.21320    8.77610  337.17080  337.17080  113.22280  104.73710  113.22280    8.77610    7.50080    7.50080    -999.25    0.33170    0.37500 2345.37180    8.69510  -38.41320   -9.70610    8.69510 6767.79390 6646.67770
  750.00000  288.37980  228.84930  288.37980  133.64180  131.09080   40.34240   40.34240 2320.58980    -999.25    0.20780    0.22770    7.62830  344.76210  344.76210   98.54410  102.99870   98.54410    7.62830    6.24030    6.24030    -999.25    0.40210    0.44400 2320.58980    7.08390  -33.56940   -2.56450    7.08390 7138.80130 6945.28660
  800.00000  282.25740  233.85020  282.25740  131.68680  129.13060   27.52030   27.52030 2293.54860    -999.25    0.22340    0.24350    7.74410  318.87010  318.87010  103.73790  103.74620  103.73790    7.74410    6.52590    6.52590    -999.25    0.38410    0.42640 2293.54860    7.63410  -35.73340   -2.94940    7.63410 7417.08200 7203.36720
  850.00000  270.97430  246.56500  270.97430   80.85960   79.17340   58.39460   58.39460 2382.57690    -999.25    0.17640    0.19150   12.63050  306.05000  306.05000  100.51580  101.08090  100.51580   12.63050   10.62990   10.62990    -999.25    0.30200    0.34570 2382.57690   10.94690  -40.58030   -6.87790   10.94690 7874.87260 7561.18990
  900.00000  310.04560  238.67880  310.04560  118.45600  119.17810   24.93140   24.93140 2311.67580    -999.25    0.21020    0.23290    8.39080  309.61430  309.61430  108.80930  110.17350  108.80930    8.39080    7.34830    7.34830    -999.25    0.33280    0.37610 2311.67580    7.44170  -39.35060   -4.72990    7.44170 8485.92870 7845.50050
  950.00000  365.84350  241.54650  365.84350  122.56180  123.04510   54.92880   54.92880 2416.43480    -999.25    0.14280    0.17170    8.12710  331.44530  331.44530  113.77560  109.10320  113.77560    8.12710    7.52370    7.52370    -999.25    0.33880    0.38200 2416.43480    8.71920  -39.88050   -4.34140    8.71920 8447.76070 8094.26710
 1000.00000  310.48110  244.16870  310.48110  132.21950  132.05850   58.35730   58.35730 2442.25120    -999.25    0.13180    0.15660    7.57240  338.51180  338.51180  113.00630  112.36920  113.00630    7.57240    7.00340    7.00340    -999.25    0.36400    0.40670 2442.25120    8.28940  -40.12550   -3.66800    8.28940 9205.90920 8463.97070
 1050.00000  255.54940  240.18590  255.54940  135.63120  134.28590   33.53190   33.53190 2430.63750    -999.25    0.13630    0.16340    7.44680  328.93240  328.93240  108.93760  107.08610  108.93760    7.44680    7.04360    7.04360    -999.25    0.39250    0.43460 2430.63750    8.20880  -39.74270   -2.61230    8.20880 9015.72070 8549.35450
 1100.00000  227.74990  226.05940  227.74990  175.70150  169.48000  157.21280  157.21280 2231.56200    -999.25    0.26160    0.27980    5.90040  299.68330  299.68330  101.97670   95.79030  101.97670    5.90040    5.32920    5.32920    -999.25    0.39190    0.43400 2231.56200    5.94030  -38.21430   -0.87090    5.94030 8951.25390 8757.09960
 1150.00000  237.10340  230.13000  237.10340  105.85220  105.84140   30.37430   30.37430 2383.82030    -999.25    0.13680    0.19070    9.44810  263.46230  263.46230   94.06450   92.53280   94.06450    9.44810    9.06620    9.06620    -999.25    0.25850    0.30250 2383.82030    9.08780  -36.93560    0.62090    9.08780 9776.44240 9196.40920
 1200.00000  269.83430  235.74870  269.83430  139.12610  138.78290   49.26500   49.26500 2397.23070    -999.25    0.14800    0.18290    7.20550  294.19990  294.19990  107.14090  107.00970  107.14090    7.20550    7.08160    7.08160    -999.25    0.32420    0.36760 2397.23070    7.59060  -38.10910   -0.33960    7.59060 10066.19730 9478.79590
 1250.00000  255.54870  245.51140  255.54870  308.22230  305.32490   59.55960   59.55960 2446.78780    -999.25    0.12550    0.15390    3.27520  339.13240  339.13240  116.58320  114.31450  116.58320    3.27520    3.24020    3.24020    -999.25    0.40460    0.44640 2446.78780    3.85500  -39.43240   -1.44990    3.85500 9821.78120 9553.10840
 1300.00000  256.35820  265.97270  256.35820  244.87400  241.73860  145.89760  145.89760 2098.44480    -999.25    0.35350    0.35760    4.13670  305.87440  305.87440   96.42560   95.25970   96.42560    4.13670    4.03900    4.03900    -999.25    0.42280    0.46450 2098.44480    4.35720  -40.70500   -2.50950    4.35720 10404.12300 9995.09380
 1350.00000  210.97330  206.83260  210.97330  155.56010  157.46300   57.01020   57.01020 2328.42330    -999.25    0.19540    0.22310    6.35070  275.35490  275.35490   29.70670   32.90660   29.70670    6.35070    8.01460    8.01460    -999.25    0.22020    0.26420 2328.42330   10.77850  -81.01580  -42.60730   10.77850 10161.20510 10005.14750
 1400.00000  228.80020  227.77890  228.80020   53.84420   56.83170    5.87640    5.87640 2468.88430    -999.25    0.09990    0.14100   17.59580  244.07230  244.07230   52.50140   60.15230   52.50140   17.59580   18.00400   18.00400    -999.25    0.20740    0.25130 2468.88430   26.70860  -49.01660  -10.20590   26.70860 11063.57710 10622.70120
 1450.00000  277.61860  249.27320  277.61860  300.18560  303.13130   79.14480   79.14480 2249.28610    -999.25    0.26160    0.26940    3.29890  374.78880  374.78880   96.03500   98.64870   96.03500    3.29890    3.29700    3.29700    -999.25    0.47770    0.51940 2249.28610    4.15740  -42.27320   -2.92010    4.15740 11372.75880 10651.43650
 1500.00000  230.54350  219.68050  230.54350  133.33520  133.86160   10.48370   10.48370 2450.61890    -999.25    0.10110    0.15170    7.47040  269.69760  269.69760   74.27640   70.36780   74.27640    7.47040    8.78660    8.78660    -999.25    0.36130    0.40410 2450.61890    8.89820  -48.36770   -8.47210    8.89820 11406.76370 11070.97850
 1550.00000  223.24190  233.72710  223.24190   97.96610   93.09510   -2.56310   -2.56310 2528.38570    -999.25    0.07240    0.10620   10.74170  248.69920  248.69920   79.07830   70.03890   79.07830   10.74170   10.68700   10.68700    -999.25    0.25630    0.30030 2528.38570   16.49430  -47.21290   -6.77480   16.49430 11395.22560 11144.26950
 1600.00000  231.34890  235.86940  231.34890   85.81540   82.06880   18.66660   18.66660 2475.83470    -999.25    0.11590    0.13690   12.18490  225.73950  225.73950   53.40200   50.27610   53.40200   12.18490   14.67150   14.67150    -999.25    0.17690    0.22060 2475.83470   21.06980  -72.94450  -31.96390   21.06980 11766.80370 11372.41700
