~Version ---------------------------------------------------
VERS.      2.0 : CWLS log ASCII Standard -VERSION 2.0
WRAP.       NO : One line per depth step
CREA. 12/18/17 : LAS Creation Date
~Well ------------------------------------------------------
STRT.FT                         300.0 : START DEPTH
STOP.FT                       11750.0 : STOP DEPTH
STEP.FT                      50.00000 : STEP LENGTH
NULL.                         -999.25 : NULL VALUE
COMP.            MOBIL OIL CANADA LTD : COMPANY
WELL. MOBIL OIL LESLIEVILLE 4-19-39-5 : WELL
FLD .                                 : FIELD
LOC .                                 : LOCATION
CTRY.                          CANADA : COUNTRY
SRVC.          Schlumberger of Canada : SERVICE COMPANY
DATE.                     02-Feb-1958 : LOGDATE
PROV.                         Alberta : PROVINCE
UWI .                100041903905W500 : UNIQUE WELL ID
SLAT.WGS84                   52.36478 : SURFACE LATITUDE
SLON.WGS84                  -114.7174 : SURFACE LONGITUDE
~Curve Information -----------------------------------------
DEPT  .FT     : Depth Curve
CALMED.IN     : CALIPER FROM MICRO LATEROLOG [ADJ. TO IEL LOG]
CALWS .IN     : CALIPER [MCALED SPL. TO CALMED @ 8500']
CILDED.MMHO   : CONDUCTIVITY INDUCTION LOG FROM IEL LOG
CONDWS.MMHO   : CONDUCTIVITY [1000/DRESWS]
DRESWS.OHMM   : DEEP RESISTIVITY [1000/CILDED,IF ILDED<2,ILDED]
GR1ED .GAPI   : GAMMA RAY FROM GR LOG [ADJ. TO IEL LOG]
GRED  .GAPI   : GAMMA RAY FROM GR-CCL LOG [ADJ. TO IEL LOG]
GRNED .UR/HR  : GAMMA RAY FROM GRN LOG [ADJ. TO IEL & LATEROLOG LOG]
GRWS  .GAPI   : GAMMA RAY [GRNED*10.4 SPL. TO GR1ED @ 7038'-7122']
ILDED .OHMM   : INDUCTION LOG RESISTIVITY FROM IEL LOG
LL7ED .OHMM   : LATEROLOG-7 RES. FROM LATEROLOG [ADJ. TO IEL LOG]
MCALED.IN     : MLT CALIPER FROM MICROLOG [ADJ. TO IEL LOG]
MLLED .OHMM   : MICRO-LATEROLOG RESISTIVITY FROM MICRO LATEROLOG [ADJ. TO IEL LOG]
MRESWS.OHMM   : MEDIUM RESISTIVITY [LL7ED]
NEUTED.NAPI   : NEUTRON FROM GRN LOG [ADJ. TO IEL & LATEROLOG LOG]
NEUTWS.NAPI   : NEUTRON [NEUTED]
SNED  .OHMM   : SHORT NORMAL 16" FROM IEL LOG
SPMED .MV     : SPONTAEOUS POTENTIAL FROM MICRO LATEROLOG [ADJ. TO IEL LOG]
SPR1ED.MV     : SPONTANEOUS POTENTIAL FROM LATEROLOG [ADJ. TO IEL LOG]
SPRED .MV     : SPONTANEOUS POTENTIAL FROM IEL LOG
SPWS  .MV     : SPONTANEOUS POTENTIAL [BASELINE 0MV, SPRED SPL. TO SPR1ED @ 7480']
SRESWS.OHMM   : SHALLOW RESISTIVITY [SNED]
TENED .LBF    : TENSION FROM GR LOG [ADJ. TO IEL LOG]
~Params ----------------------------------------------------
PD  .           GROUND LEVEL : PERMANENT DATUM
EPD .FT                 3169 : ELEVATION PERMANENT DATUM
LMF .                     KB : LOG MEASURED FROM
DMF .                     KB : DRILLING MEASURED FROM
EKB .FT                 3181 : KELLY BUSHING
EGL .FT                 3169 : GROUND LEVEL
DATE.             02/02/1958 : RUN DATE
RUN .                      1 : RUN NUMBER
DD  .FT                11765 : DEPTH DRILLER
DL  .FT                11766 : DEPTH LOGGER
BLI .FT                11762 : BOTTOM LOG INTERVAL
TLI .FT                 6000 : TOP LOG INTERVAL
CBD .FT                  886 : CASING BOTTOM DRILLER
CBL .FT                  885 : CASING BOTTOM LOGGER
BS  .IN                    9 : BIT SIZE
BSD .FT                11766 : BIT SIZE AT DEPTH
DFT .              LIME BASE : DRILLING FLUID TYPE
DFD .                   11.4 : DRILLING FLUID DENSITY
DFV .                    100 : DRILLING FLUID VISCOSITY
DFPH.                   13.0 : DRILLING FLUID PH
DFL .                    4.6 : DRILLING FLUID LOSS
RMS .OHMM                0.5 : RESISTIVITY MUD SAMPLE
MST .DEGF                 47 : MUD SAMPLE TEMPERATURE
RMF .OHMM                0.2 : RESISTIVITY MUD FILTRATE SAMPLE
MFST.DEGF                 70 : MUD FILTRATE SAMPLE TEMPERATURE
RMC .OHMM                0.6 : RESISTIVITY MUD CAKE
MCST.DEGF                 66 : MUD CAKE SAMPLE TEMPERATURE
RMB .OHMM               0.14 : RESISTIVITY MUD AT BHT
MRT .DEGF                212 : MAXIMUM RECORDED TEMPERATURE
LUN .                  1729C : LOGGING UNIT NUMBER
LUL .                     RD : LOGGING UNIT LOCATION
ENGI.                  CHASE : RECORDING ENGINEER
WITN.                 CARSON : WITNESSED BY
CLNT.                A2DTECH : CLIENT CODE
ORIG.           2", 5" PRINT : ORIGIN OF DATA
UWI .       100041903905W500 : UNIQUE WELL ID
DICO. A2D Technologies, Inc. : DIGITIZING COMPANY
~Other -----------------------------------------------------
~ASCII -----------------------------------------------------
# ...
 3400.00000    -999.25    -999.25  143.27530  132.89210    7.52490    -999.25    -999.25   12.91560  134.32220    7.52490    -999.25    -999.25    -999.25    -999.25 1198.79390 1198.79390    8.03050    -999.25    -999.25 -212.16320   -7.95100    8.03050    -999.25
 3450.00000    -999.25    -999.25  182.61730  152.54370    6.55550    -999.25    -999.25   13.04750  135.69400    6.55550    -999.25    -999.25    -999.25    -999.25  845.87730  845.87730    5.90940    -999.25    -999.25 -214.03900   -9.82680    5.90940    -999.25
 3500.00000    -999.25    -999.25   57.89320   57.87570   17.27840    -999.25    -999.25   14.10520  146.69410   17.27840    -999.25    -999.25    -999.25    -999.25 1140.57290 1140.57290   13.46000    -999.25    -999.25 -212.62510   -8.41290   13.46000    -999.25
 3550.00000    -999.25    -999.25  165.92140  143.15370    6.98550    -999.25    -999.25   13.51960  140.60380    6.98550    -999.25    -999.25    -999.25    -999.25 1037.14070 1037.14070    6.67060    -999.25    -999.25 -211.07900   -7.19590    6.67060    -999.25
 3600.00000    -999.25    -999.25  146.77990  139.26990    7.18030    -999.25    -999.25   13.37920  139.14370    7.18030    -999.25    -999.25    -999.25    -999.25 1043.36190 1043.36190    6.50030    -999.25    -999.25 -214.97320  -11.45490    6.50030    -999.25
 3650.00000    -999.25    -999.25  194.22070  157.38610    6.35380    -999.25    -999.25   14.14560  147.11420    6.35380    -999.25    -999.25    -999.25    -999.25  954.76890  954.76890    6.92020    -999.25    -999.25 -213.32130  -10.16540    6.92020    -999.25
 3700.00000    -999.25    -999.25  213.64660  169.92640    5.88490    -999.25    -999.25   16.64540  173.11220    5.88490    -999.25    -999.25    -999.25    -999.25  924.77290  924.77290    6.44420    -999.25    -999.25 -215.32000  -12.52890    6.44420    -999.25
 3750.00000    -999.25    -999.25   84.34620   83.88910   11.92050    -999.25    -999.25   14.18760  147.55100   11.92050    -999.25    -999.25    -999.25    -999.25 1259.79660 1259.79660   11.32350    -999.25    -999.25 -221.75530  -19.32660   11.32350    -999.25
 3800.00000    -999.25    -999.25   54.87180   62.21580   16.07310    -999.25    -999.25   13.80370  143.55800   16.07310    -999.25    -999.25    -999.25    -999.25 1260.24380 1260.24380   15.73550    -999.25    -999.25 -220.12500  -18.05880   15.73550    -999.25
 3850.00000    -999.25    -999.25  192.36110  155.32290    6.43820    -999.25    -999.25   14.10220  146.66290    6.43820    -999.25    -999.25    -999.25    -999.25 1035.89490 1035.89490    6.00190    -999.25    -999.25 -217.66820  -15.96680    6.00190    -999.25
 3900.00000    -999.25    -999.25  272.31780  215.39190    4.64270    -999.25    -999.25   13.99330  145.53030    4.64270    -999.25    -999.25    -999.25    -999.25  931.50160  931.50160    4.22810    -999.25    -999.25 -218.03260  -16.69360    4.22810    -999.25
 3950.00000    -999.25    -999.25  128.09830  119.80070    8.34720    -999.25    -999.25   12.47810  129.77220    8.34720    -999.25    -999.25    -999.25    -999.25 1253.87820 1253.87820    7.81130    -999.25    -999.25 -220.82030  -19.84610    7.81130    -999.25
 4000.00000    -999.25   12.85750  164.07210  142.27790    7.02850    -999.25    -999.25   14.50250  150.82600    7.02850    -999.25   12.85750    -999.25    -999.25 1174.43930 1174.43930    8.22880    -999.25    -999.25 -218.56550  -17.95380    8.22880    -999.25
 4050.00000    -999.25   13.03080  206.60690  182.10960    5.49120    -999.25    -999.25   14.91700  155.13680    5.49120    -999.25   13.03080    -999.25    -999.25  982.25540  982.25540    5.58170    -999.25    -999.25 -211.80080  -11.55150    5.58170    -999.25
 4100.00000    -999.25    9.38930   64.13410   65.88530   15.17790    -999.25    -999.25   12.60900  131.13360   15.17790    -999.25    9.38930    -999.25    -999.25 1146.84720 1146.84720   13.30580    -999.25    -999.25 -215.79620  -15.91170   13.30580    -999.25
 4150.00000    -999.25    9.90080   69.73880   70.03490   14.27860    -999.25    -999.25   13.88940  144.44980   14.27860    -999.25    9.90080    -999.25    -999.25 1247.90140 1247.90140   15.12940    -999.25    -999.25 -219.01300  -19.49100   15.12940    -999.25
 4200.00000    -999.25    9.79910   73.26180   73.65450   13.57690    -999.25    -999.25   13.82690  143.79980   13.57690    -999.25    9.79910    -999.25    -999.25 1298.41640 1298.41640   14.70740    -999.25    -999.25 -215.22480  -16.06760   14.70740    -999.25
 4250.00000    -999.25   12.18360  101.98360  103.38590    9.67250    -999.25    -999.25   13.61250  141.57000    9.67250    -999.25   12.18360    -999.25    -999.25  959.96370  959.96370   10.61130    -999.25    -999.25 -211.41630  -12.62150   10.61130    -999.25
 4300.00000    -999.25   11.11690  112.95370  104.14500    9.60200    -999.25    -999.25   13.74810  142.98020    9.60200    -999.25   11.11690    -999.25    -999.25  982.96410  982.96410    9.75740    -999.25    -999.25 -211.13510  -12.70270    9.75740    -999.25
 4350.00000    -999.25   11.69780  137.95520  125.52410    7.96660    -999.25    -999.25   14.78840  153.79940    7.96660    -999.25   11.69780    -999.25    -999.25 1050.74270 1050.74270    8.46760    -999.25    -999.25 -214.66550  -16.59800    8.46760    -999.25
 4400.00000    -999.25   11.99500  138.74190  131.06500    7.62980    -999.25    -999.25   12.28700  127.78480    7.62980    -999.25   11.99500    -999.25    -999.25  898.72390  898.72390    7.97580    -999.25    -999.25 -214.83200  -17.12690    7.97580    -999.25
 4450.00000    -999.25    9.16020   38.71290   39.74990   25.15730    -999.25    -999.25   12.82710  133.40180   25.15730    -999.25    9.16020    -999.25    -999.25 1337.56690 1337.56690   22.40680    -999.25    -999.25 -234.47350  -37.13320   22.40680    -999.25
 4500.00000    -999.25   10.64510   98.90690   95.93890   10.42330    -999.25    -999.25   12.61850  131.23240   10.42330    -999.25   10.64510    -999.25    -999.25  997.79980  997.79980    9.15390    -999.25    -999.25 -216.23690  -19.25900    9.15390    -999.25
 4550.00000    -999.25   10.82990  134.34980  128.08690    7.80720    -999.25    -999.25   13.61800  141.62720    7.80720    -999.25   10.82990    -999.25    -999.25 1113.18270 1113.18270    8.70190    -999.25    -999.25 -214.25240  -17.63700    8.70190    -999.25
 4600.00000    -999.25    9.19890   52.73750   52.84630   18.92280    -999.25    -999.25   14.27140  148.42260   18.92280    -999.25    9.19890    -999.25    -999.25 1343.23900 1343.23900   20.27690    -999.25    -999.25 -225.15430  -28.90370   20.27690    -999.25
 4650.00000    -999.25    9.68380   66.65690   67.90940   14.72550    -999.25    -999.25   13.27960  138.10780   14.72550    -999.25    9.68380    -999.25    -999.25 1210.32350 1210.32350   13.27920    -999.25    -999.25 -219.63580  -23.74760   13.27920    -999.25
 4700.00000    -999.25   12.23700  164.09410  144.50240    6.92030    -999.25    -999.25   12.46540  129.64020    6.92030    -999.25   12.23700    -999.25    -999.25  928.41160  928.41160    6.95650    -999.25    -999.25 -207.39690  -11.87350    6.95650    -999.25
 4750.00000    -999.25    9.45280   55.71480   58.54360   17.08130    -999.25    -999.25   11.51080  119.71230   17.08130    -999.25    9.45280    -999.25    -999.25 1271.06810 1271.06810   14.33310    -999.25    -999.25 -210.40550  -15.24460   14.33310    -999.25
 4800.00000    -999.25    9.54320   30.92050   32.28900   30.97030    -999.25    -999.25   12.18750  126.75000   30.97030    -999.25    9.54320    -999.25    -999.25 1387.93510 1387.93510   27.40640    -999.25    -999.25 -231.52750  -36.72900   27.40640    -999.25
 4850.00000    -999.25   11.12210   90.51680   91.32250   10.95020    -999.25    -999.25   11.84620  123.20050   10.95020    -999.25   11.12210    -999.25    -999.25 1025.80860 1025.80860   10.05720    -999.25    -999.25 -209.04570  -14.61200   10.05720    -999.25
 4900.00000    -999.25   11.32750  144.92360  131.25250    7.61890    -999.25    -999.25   11.97740  124.56550    7.61890    -999.25   11.32750    -999.25    -999.25  836.91380  836.91380    7.50850    -999.25    -999.25 -207.35170  -13.28040    7.50850    -999.25
