~Version ---------------------------------------------------
VERS.      2.0 : CWLS log ASCII Standard -VERSION 2.0
WRAP.       NO : One line per depth step
CREA. 09/29/17 : LAS Creation Date
~Well ------------------------------------------------------
STRT.FT                      2600.0 : START DEPTH
STOP.FT                     12600.0 : STOP DEPTH
STEP.FT                    50.00000 : STEP LENGTH
NULL.                       -999.25 : NULL VALUE
COMP. AMOCO CANADA COMPANY LIMITED. : COMPANY
WELL.        AMOCO NIPAC 6-20-50-15 : WELL
FLD .                               : FIELD
LOC .                               : LOCATION
CTRY.                        CANADA : COUNTRY
SRVC.                  Schlumberger : SERVICE COMPANY
DATE.                   07-Aug-1978 : LOGDATE
PROV.                       Alberta : PROVINCE
UWI .              100062005015W500 : UNIQUE WELL ID
SLAT.WGS84                 53.32816 : SURFACE LATITUDE
SLON.WGS84                -116.1619 : SURFACE LONGITUDE
~Curve Information -----------------------------------------
DEPT    .FT    : Depth Curve
CALDED  .IN    : CALIPER FROM DENSITY LOG [ADJ. TO RESISTIVITY LOG]
CALSED  .IN    : CALIPER FROM SONIC LOG [ADJ. TO RESISTIVITY LOG]
CALWS   .IN    : CALIPER [CALSED]
CONDWS  .MMHO  : CONDUCTIVITY [1000/DRESWS]
DCORED  .G/C3  : DENSITY CORRECTION FROM DENSITY LOG [ADJ. TO RESISTIVITY LOG]
DCORWS  .G/C3  : DENSITY CORRECTION [DCORED]
DENWS   .G/C3  : BULK DENSITY [RHOBED]
DPHILSED.V/V   : DENSITY POROSITY LIMESTONE [M=2.71, F=1.00] FROM DENSITY LOG [ADJ. TO RESISTIVITY LOG]
DPHISSED.V/V   : DENSITY POROSITY SANDSTONE [M=2.65, F=1.00] FROM DENSITY LOG [ADJ. TO RESISTIVITY LOG]
DPOLSWS .V/V   : DENSITY POROSITY LIMESTONE [CALC FROM DENWS,M=2.71, F=1.00]
DRESWS  .OHMM  : DEEP RESISTIVITY [ILDED]
DTED    .US/F  : DELTA-T FROM SONIC LOG [ADJ. TO RESISTIVITY LOG]
DTWS    .US/F  : COMPRESSIONAL SONIC [DTED]
GRDED   .GAPI  : GAMMA RAY FROM DENSITY LOG [ADJ. TO RESISTIVITY LOG]
GRSED   .GAPI  : GAMMA RAY  FRPM SONIC LOG [ADJ. TO RESISTIVITY LOG]
GRWS    .GAPI  : GAMMA RAY [GRDED]
ILDED   .OHMM  : DEEP INDUCTION RESISTIVITY FROM RESISTIVITY LOG
ILMED   .OHMM  : MEDIUM INDUCTION RESISTIVITY FROM RESISTIVITY LOG
LL8ED   .OHMM  : LATEROLOG 8 RESISTIVITY FROM RESISTIVITY LOG
MRESWS  .OHMM  : MEDIUM RESISTIVITY [ILMED]
NPHILSED.V/V   : NEUTRON POROSITY LIMESTONE FROM DENSITY LOG [ADJ. TO RESISTIVITY LOG]
NPHISSED.V/V   : NEUTRON POROSITY SANDSTONE FROM DENSITY LOG [ADJ. TO RESISTIVITY LOG]
NPOLSWS .V/V   : NEUTRON POROSITY LIMESTONE [NPHISSED CONVERTED TO LIMESTONE MATRIX, SPL. TO NPHILSED @ 8990' ]
RHOBED  .G/C3  : BULK DENSITY  FROM DENSITY LOG [ADJ. TO RESISTIVITY LOG]
SFLED   .OHMM  : SPHERICALLY FOCUSED RESISTIVITY FROM RESISTIVITY LOG
SPRED   .MV    : SPONTANEOUS POTENTIAL FROM RESISTIVITY LOG
SPWS    .MV    : SPONTANEOUS POTENTIAL [BASELINE 0 MV,SPRED]
SRESWS  .OHMM  : SHALLOW RESISTIVITY [LL8ED SPL. TO SFLED @ 8997']
~Params ----------------------------------------------------
PD  .                     GL : PERMANENT DATUM
EPD .FT               101.84 : ELEVATION PERMANENT DATUM
LMF .                     KB : LOG MEASURED FROM
DAPD.FT                 6.22 : FEET ABOVE PERMANENT DATUM
DMF .                     KB : DRILLING MEASURED FROM
EKB .FT              1017.06 : KELLY BUSHING
EGL .FT              1010.84 : GROUND LEVEL
DATE.               08/07/78 : RUN DATE
RUN .                      3 : RUN NUMBER
DD  .FT               3846.6 : DEPTH DRILLER
DL  .FT                 3846 : DEPTH LOGGER
BLI .FT                 3845 : BOTTOM LOG INTERVAL
TLI .FT                 3290 : TOP LOG INTERVAL
CBD .FT                 2742 : CASING BOTTOM DRILLER
CBL .FT                 2741 : CASING BOTTOM LOGGER
BS  .MM                  216 : BIT SIZE
BSD .FT               3846.6 : BIT SIZE AT DEPTH
RMF .OHMM               1.36 : RESISTIVITY MUD FILTRATE SAMPLE
MFST.DEGF               22.2 : MUD FILTRATE SAMPLE TEMPERATURE
RMC .OHMM               0.94 : RESISTIVITY MUD CAKE
MCST.DEGF               24.4 : MUD CAKE SAMPLE TEMPERATURE
LUN .                   7809 : LOGGING UNIT NUMBER
LUL .                    EDM : LOGGING UNIT LOCATION
ENGI.            GUNN DRONEN : RECORDING ENGINEER
WITN.                CULSHAW : WITNESSED BY
CLNT.                A2DTECH : CLIENT CODE
ORIG.            2" 5" PRINT : ORIGIN OF DATA
UWI .       100062005015W500 : UNIQUE WELL ID
DICO. A2D Technologies, Inc. : DIGITIZING COMPANY
~Other -----------------------------------------------------
DIL-SFL/CNFD/BCS LOG RAN
SPRED HAS GAPS AT MANY INTERVAL DUE TO NOT VISIBILITY OF SP IN PRINT
GR RAN RAN THROUGH CASING FROM 8980'-9000' SO GRWS ADDED +10 API.
NEUTRON MATRIX CONVERSION FOR LIMESTONE USING SCHLUMBERGER CHART
MUD CONTAIN BARITE
~ASCII -----------------------------------------------------
# ...
 6350.00000   15.45410   13.43880   13.43880  110.63420    0.02520    0.02520    2.23560    -999.25    0.25290    0.27740    9.03880   78.30200   78.30200   79.49600   91.46540   79.49600    9.03880   10.31410   11.90190   10.31410    -999.25    0.32290    0.27900    2.23560    -999.25  -58.72610   -6.36110   11.90190
 6400.00000   12.74780   13.30350   13.30350  131.51840    0.02090    0.02090    2.29830    -999.25    0.21000    0.24080    7.60350   77.62370   77.62370   78.46700   90.46990   78.46700    7.60350    8.53760   10.23850    8.53760    -999.25    0.34130    0.29760    2.29830    -999.25  -57.78980   -5.32150   10.23850
 6450.00000   14.67610   13.63370   13.63370  115.55750   -0.04980   -0.04980    1.80070    -999.25    0.49770    0.53180    8.65370   86.85090   86.85090   79.98740   96.33810   79.98740    8.65370    9.17040   10.91950    9.17040    -999.25    0.38040    0.33720    1.80070    -999.25  -57.29140   -4.71930   10.91950
 6500.00000   16.09940   13.70790   13.70790  129.14720   -0.03880   -0.03880    1.93030    -999.25    0.42870    0.45600    7.74310   80.46880   80.46880   88.18650   99.79800   88.18650    7.74310    8.33140    9.95930    8.33140    -999.25    0.38340    0.34020    1.93030    -999.25  -56.73190   -4.13990    9.95930
 6550.00000   17.01530   13.93220   13.93220  128.56890   -0.03260   -0.03260    1.88070    -999.25    0.46180    0.48500    7.77800   83.32180   83.32180   73.68750   90.36970   73.68750    7.77800    8.04730   10.14830    8.04730    -999.25    0.40980    0.36710    1.88070    -999.25  -58.66930   -6.07730   10.14830
 6600.00000   13.79530   12.77000   12.77000  124.90160    0.00130    0.00130    2.08270    -999.25    0.33820    0.36690    8.00630   81.85680   81.85680   72.73390   63.38740   72.73390    8.00630    8.28380   10.24750    8.28380    -999.25    0.43260    0.39050    2.08270    -999.25  -58.38980   -5.79780   10.24750
 6650.00000   13.66060   12.54250   12.54250   49.78020   -0.01040   -0.01040    2.24690    -999.25    0.25080    0.27080   20.08830   70.89540   70.89540   58.27060   75.16010   58.27060   20.08830   20.77780   23.06110   20.77780    -999.25    0.26470    0.22070    2.24690    -999.25  -61.58730   -8.99530   23.06110
 6700.00000   15.32280   12.77380   12.77380   82.61190   -0.04580   -0.04580    2.02960    -999.25    0.37350    0.39790   12.10480   75.79700   75.79700   69.95600   82.98780   69.95600   12.10480   12.52670   13.97360   12.52670    -999.25    0.39530    0.35230    2.02960    -999.25  -60.40780   -7.81580   13.97360
 6750.00000   15.13940   12.96790   12.96790   70.59600   -0.03480   -0.03480    2.04490    -999.25    0.36530    0.38890   14.16510   76.30230   76.30230   57.87400   67.59850   57.87400   14.16510   14.72630   17.48780   14.72630    -999.25    0.39770    0.35480    2.04490    -999.25  -59.26040   -6.66840   17.48780
 6800.00000   14.98060   13.03990   13.03990   82.63750   -0.03740   -0.03740    2.03600    -999.25    0.36870    0.39420   12.10210   73.96850   73.96850   62.50670   66.43680   62.50670   12.10210   12.54430   15.36210   12.54430    -999.25    0.42020    0.37770    2.03600    -999.25  -59.58220   -6.99020   15.36210
 6850.00000   12.81940   12.50010   12.50010   83.80890    0.03280    0.03280    2.38030    -999.25    0.15380    0.19280   11.93190   73.89570   73.89570   62.09150   66.52310   62.09150   11.93190   12.92480   15.07710   12.92480    -999.25    0.36140    0.31790    2.38030    -999.25  -59.73860   -7.14660   15.07710
 6900.00000   15.78070   13.71470   13.71470  109.97710   -0.03400   -0.03400    1.96290    -999.25    0.41410    0.43690    9.09280   80.96080   80.96080   64.89580   72.97460   64.89580    9.09280    9.41000   11.85060    9.41000    -999.25    0.48180    0.44120    1.96290    -999.25  -59.40550   -6.81350   11.85060
 6950.00000   14.54100   13.08910   13.08910   87.02010   -0.01190   -0.01190    2.26580    -999.25    0.23360    0.25980   11.49160   78.19880   78.19880   65.92320   77.10990   65.92320   11.49160   12.22600   15.64980   12.22600    -999.25    0.41690    0.37440    2.26580    -999.25  -59.08610   -6.95230   15.64980
 7000.00000   13.39730   12.98550   12.98550   89.48790    0.01030    0.01030    2.15520    -999.25    0.29920    0.32440   11.17470   87.85810   87.85810   76.75090   92.00560   76.75090   11.17470   13.11500   15.99470   13.11500    -999.25    0.47400    0.43310    2.15520    -999.25  -56.31490   -5.39710   15.99470
 7050.00000   13.38710   13.08250   13.08250   67.90850    0.00770    0.00770    2.30360    -999.25    0.21080    0.23770   14.72580   81.85660   81.85660   73.25560   92.55290   73.25560   14.72580   16.33590   18.93820   16.33590    -999.25    0.37840    0.33520    2.30360    -999.25  -55.71750   -6.01340   18.93820
 7100.00000   13.86190   13.33320   13.33320   73.10050    0.02940    0.02940    2.29020    -999.25    0.21940    0.24550   13.67980   82.60990   82.60990   80.06800   91.61830   80.06800   13.67980   15.14970   18.44110   15.14970    -999.25    0.39190    0.34890    2.29020    -999.25  -55.51000   -7.02920   18.44110
 7150.00000   14.61330   13.18120   13.18120   52.40430    0.00360    0.00360    2.18460    -999.25    0.28340    0.30730   19.08240   87.76790   87.76790   85.83900  103.19020   85.83900   19.08240   20.92200   24.29250   20.92200    -999.25    0.41770    0.37520    2.18460    -999.25  -57.72680  -10.46210   24.29250
 7200.00000   15.05490   13.75050   13.75050   59.85950    0.01720    0.01720    2.32840    -999.25    0.19750    0.22320   16.70580   84.60700   84.60700   74.04040  102.11590   74.04040   16.70580   13.87300   20.86400   13.87300    -999.25    0.45470    0.41310    2.32840    -999.25  -56.66890  -10.62760   20.86400
 7250.00000   15.88570   13.55900   13.55900   50.22170   -0.03590   -0.03590    2.05560    -999.25    0.33380    0.38270   19.91170   83.68840   83.68840   79.07120   95.49470   79.07120   19.91170   15.73200   25.39500   15.73200    -999.25    0.40400    0.36120    2.05560    -999.25  -56.53220  -10.12980   25.39500
 7300.00000   15.51010   13.07720   13.07720   40.14230    0.00810    0.00810    2.18210    -999.25    0.28470    0.30870   24.91620   76.99730   76.99730   81.19320  106.69000   81.19320   24.91620   23.19020   36.62080   23.19020    -999.25    0.38370    0.34050    2.18210    -999.25  -56.50760   -8.74370   36.62080
 7350.00000   17.01350   13.47850   13.47850   83.91090    0.00100    0.00100    2.07910    -999.25    0.34410    0.36890   11.91740   86.38170   86.38170   79.83130  105.77480   79.83130   11.91740    9.68010   17.15460    9.68010    -999.25    0.42260    0.38020    2.07910    -999.25  -56.40040   -7.26410   17.15460
 7400.00000   17.07410   13.87530   13.87530   71.74320   -0.04470   -0.04470    1.88780    -999.25    0.44690    0.48080   13.93860   82.90420   82.90420   81.66690  103.90690   81.66690   13.93860   10.61560   16.49310   10.61560    -999.25    0.38770    0.34460    1.88780    -999.25  -57.44920   -6.94870   16.49310
 7450.00000   17.00980   13.90460   13.90460   84.75940   -0.04300   -0.04300    1.90550    -999.25    0.45020    0.47050   11.79810   82.66120   82.66120   81.65640   98.79830   81.65640   11.79810    9.12880   13.63680    9.12880    -999.25    0.42010    0.37760    1.90550    -999.25  -57.79730   -5.92430   13.63680
 7500.00000   12.73230   13.15750   13.15750   39.16960    0.04100    0.04100    2.44660    -999.25    0.10250    0.15400   25.53000   73.36320   73.36320   86.24890   91.80700   86.24890   25.53000   27.96280   42.43980   27.96280    -999.25    0.24000    0.19620    2.44660    -999.25  -58.93290   -6.34090   42.43980
 7550.00000   16.81370   13.67110   13.67110  134.24950    0.05810    0.05810    2.50310    -999.25    0.09290    0.12100    7.44880   81.70470   81.70470   73.25990   81.48780   73.25990    7.44880    6.79220    9.93890    6.79220    -999.25    0.29740    0.25340    2.50310    -999.25  -58.12720   -5.53520    9.93890
