~Version ---------------------------------------------------
VERS.      2.0 : CWLS log ASCII Standard -VERSION 2.0
WRAP.       NO : One line per depth step
CREA. 09/08/14 : LAS Creation Date
~Well ------------------------------------------------------
STRT.FT                         1550.0 : START DEPTH
STOP.FT                        12000.0 : STOP DEPTH
STEP.FT                       50.00000 : STEP LENGTH
NULL.                          -999.25 : NULL VALUE
COMP. AMOCO CANADA PETROLEUM CO., LTD. : COMPANY
WELL.  AMOCO C-2 WASKAHIGAN 7-22-63-24 : WELL
FLD .                       WASKAHIGAN : FIELD
LOC .                                  : LOCATION
CTRY.                           CANADA : COUNTRY
SRVC.                          Unknown : SERVICE COMPANY
DATE.                      14-Dec-1976 : LOGDATE
PROV.                          Alberta : PROVINCE
UWI .                 100072206324W500 : UNIQUE WELL ID
SLAT.WGS84                    54.46349 : SURFACE LATITUDE
SLON.WGS84                   -117.5411 : SURFACE LONGITUDE
~Curve Information -----------------------------------------
DEPT   .FT    : DEPTH FEET
CALD   .IN    : CALIPER FROM DENSITY LOG
CALS   .IN    : CALIPER FROM SONIC LOG
DCOR   .G/C3  : DENSITY CORRECTION FROM DENSITY LOG
DPHI_LS.V/V   : DENSITY POROSITY LIMESTONE [M=2.71 F=1.0 ASSUMED] FROM DENSITY LOG
DPHI_SS.V/V   : DENSITY POROSITY SANDSTONE [M=2.65 F=1.0 ASSUMED] FROM DENSITY LOG
DT     .US/F  : DELTA TIME FROM SONIC LOG
GRD    .GAPI  : GAMMA RAY FROM DENSITY LOG
GRS    .GAPI  : GAMMA RAY FROM SONIC LOG
GRS_R  .GAPI  : GAMMA RAY (REPEAT SECTION) FROM SONIC LOG
ILD    .OHMM  : DEEP INDUCTION LOG RESISTIVITY FROM RESISTIVITY LOG
ILM    .OHMM  : MEDIUM INDUCTION LOG RESISTIVITY FROM RESISTIVITY LOG
LL8    .OHMM  : 8 INCH LATEROLOG RESISTIVITY FROM RESISTIVITY LOG
NPHI_LS.V/V   : NEUTRON POROSITY LIMESTONE FROM DENSITY LOG
NPHI_SS.V/V   : NEUTRON POROSITY SANDSTONE FROM DENSITY LOG
RHOB   .G/C3  : BULK DENSITY FROM DENSITY LOG
SPR    .MV    : SPONTANEOUS POTENTIAL FROM RESISTIVITY LOG
~Params ----------------------------------------------------
PD  .                     GL : PERMANENT DATUM
EPD .FT               2789.5 : ELEVATION PERMANENT DATUM
LMF .                     KB : LOG MEASURED FROM
DAPD.FT                 20.5 : FEET ABOVE PERMANENT DATUM
EKB .FT               2810.0 : KELLY BUSHING
EGL .FT               2789.5 : GROUND LEVEL
DATE.               12/14/76 : RUN DATE
RUN .                      1 : RUN NUMBER
DD  .FT                12005 : DEPTH DRILLER
DL  .FT                12008 : DEPTH LOGGER
BLI .FT                12002 : BOTTOM LOG INTERVAL
TLI .FT                 1519 : TOP LOG INTERVAL
CBD .FT                 1519 : CASING BOTTOM DRILLER
CBL .FT                 1519 : CASING BOTTOM LOGGER
BS  .IN                  8.5 : BIT SIZE
BSD .FT                12005 : BIT SIZE AT DEPTH
DFT .                    GEL : DRILLING FLUID TYPE
DFD .                    9.0 : DRILLING FLUID DENSITY
DFV .                     75 : DRILLING FLUID VISCOSITY
DFPH.                    9.5 : DRILLING FLUID PH
DFL .                   12.2 : DRILLING FLUID LOSS
MSS .               FLOWLINE : MUD SAMPLE SOURCE
RMS .OHMM               2.89 : RESISTIVITY MUD SAMPLE
MST .DEGF                 44 : MUD SAMPLE TEMPERATURE
RMF .OHMM               2.32 : RESISTIVITY MUD FILTRATE SAMPLE
MFST.DEGF                 62 : MUD FILTRATE SAMPLE TEMPERATURE
TCS .HRS                   4 : TIME CIRCULATED STOPPED
LUN .                   7635 : LOGGING UNIT NUMBER
LUL .                    EDM : LOGGING UNIT LOCATION
ENGI.                 PAQUIN : RECORDING ENGINEER
WITN.       MACDONALD FARLEY : WITNESSED BY
CLNT.                A2DTECH : CLIENT CODE
ORIG.            2" 5" PRINT : ORIGIN OF DATA
UWI .       100072206324W500 : UNIQUE WELL ID
DICO. A2D Technologies, Inc. : DIGITIZING COMPANY
~Other -----------------------------------------------------
~ASCII -----------------------------------------------------
 1550.00000    9.96330    9.47210    0.15640    -999.25    0.30040  112.78150  110.69210  115.19150    -999.25    3.97500    4.88210    4.09780    -999.25    0.50140    2.20170  -33.15740
 1600.00000    9.70180    9.65620    0.12640    -999.25    0.48470  124.30770  133.60800  134.47870    -999.25    2.46370    2.31400    2.56740    -999.25    0.62680    1.87190  -38.00920
 1650.00000   10.97060    9.77620    0.14710    -999.25    0.34200  110.14140  104.72660  111.17280    -999.25    4.95150    4.20110    4.52930    -999.25    0.53730    2.11480  -37.07120
 1700.00000    9.94790    9.55260    0.00850    -999.25    0.14220   87.44270   54.66750   48.20620    -999.25   13.54640   12.66640   10.92710    -999.25    0.38480    2.40550  -36.24350
 1750.00000    9.70740    9.42940    0.02000    -999.25    0.19860  109.30430   95.79500   87.23190    -999.25    6.49480    6.34150    7.54160    -999.25    0.45030    2.39450  -39.03860
 1800.00000    9.85220    8.96270    0.12410    -999.25    0.31030  124.17430  114.09370  120.08680    -999.25    2.57250    2.35960    2.85650    -999.25    0.62520    2.12640  -38.58370
 1850.00000   10.40000    9.27080    0.17690    -999.25    0.44110  110.58750  111.56160  111.00910    -999.25    4.13260    3.61300    3.88070    -999.25    0.55840    1.93440  -39.64160
 1900.00000    9.58920    9.57240    0.03370    -999.25    0.23920  104.82790   72.10010   86.51130    -999.25    7.28960    7.16210    8.57860    -999.25    0.45780    2.26500  -43.15010
 1950.00000    9.94690    9.17490    0.21750    -999.25    0.27080   95.42610  102.11200  105.66660    -999.25    5.08710    4.58600    4.45710    -999.25    0.46230    2.14280  -40.44220
 2000.00000    8.89060    9.32980    0.11020    -999.25    0.32310   94.94830   99.25580  106.22210    -999.25    5.43600    4.84500    5.84360    -999.25    0.49810    2.13480  -42.04090
 2050.00000    9.77150    8.83140    0.20870    -999.25    0.30920  101.75130  114.20780  122.69820    -999.25    4.11610    3.72400    4.01390    -999.25    0.50130    2.17950  -43.98660
 2100.00000    9.95560    8.73110    0.17040    -999.25    0.24600  102.75690  107.83230  112.70010    -999.25    4.40190    4.07580    4.75530    -999.25    0.52790    2.26290  -44.68130
 2150.00000   10.45000    9.17280    0.02900    -999.25    0.16780   95.03700  124.96850  150.42770    -999.25    4.84720    4.40930    6.32140    -999.25    0.40510    2.35940  -43.87390
 2200.00000    9.52240    9.32600    0.02250    -999.25    0.19920   97.38510   84.70210   89.22200    -999.25    8.76860    7.70610    8.32830    -999.25    0.41590    2.31330  -48.27800
 2250.00000   11.40350    9.79560    0.02600    -999.25    0.27650  108.61960  130.69810  132.05370    -999.25    2.69210    2.57120    2.66120    -999.25    0.50840    2.21690  -48.65470
 2300.00000   10.29350    9.57640    0.02090    -999.25    0.25890  112.31270  130.37080  128.84690    -999.25    3.99290    3.51300    3.68420    -999.25    0.58500    2.16760  -50.74790
 2350.00000   11.66760    9.64330    0.01080    -999.25    0.19550  108.73710  124.25250  129.73030    -999.25    7.33100    6.79820    7.76100    -999.25    0.45780    2.35530  -53.97040
 2400.00000   10.47800    9.18900    0.12540    -999.25    0.32610   93.57180  100.56570  106.54280    -999.25    5.42600    4.60820    3.93140    -999.25    0.43220    2.04210  -56.57550
 2450.00000   10.31320    9.85770    0.22140    -999.25    0.27800  116.51620  103.22630  104.15720    -999.25    3.69210    3.68900    3.48320    -999.25    0.52250    2.10020  -57.99340
 2500.00000   10.98690    9.38270    0.17490    -999.25    0.30570  121.55680  105.25650  112.31110    -999.25    4.60900    4.39190    5.05660    -999.25    0.49960    2.21590  -58.50910
 2550.00000   11.32970    9.16370    0.04010    -999.25    0.23730  110.80040  102.71160  108.75330    -999.25    3.75130    3.36470    3.45170    -999.25    0.53500    2.26450  -61.81550
 2600.00000   11.19330    9.35080    0.09730    -999.25    0.25440  113.37920  109.88240  119.59220    -999.25    3.69060    3.52200    3.43430    -999.25    0.45740    2.26960  -66.17910
 2650.00000    8.89410    8.68550    0.07900    -999.25    0.24340   90.68290   51.87660   46.08070    -999.25   16.42700   20.80650   15.00860    -999.25    0.40450    2.26940  -81.68660
 2700.00000    9.89800    9.31380    0.12140    -999.25    0.22400   97.03740   95.49580   97.05010    -999.25    5.73270    5.26940    5.68500    -999.25    0.47090    2.35500  -76.93950
 2750.00000   10.15060    9.40750    0.19670    -999.25    0.32190  110.55660  101.04340  114.94190    -999.25    3.49510    3.20170    4.34540    -999.25    0.52750    2.08890  -80.44950
 2800.00000    8.50290    8.65220    0.02660    -999.25    0.14870   86.59750   79.94530   78.45420    -999.25   12.39260   11.86350   11.31110    -999.25    0.36140    2.39610  -91.33110
 2850.00000    9.07370    8.85120    0.18720    -999.25    0.30020  125.23320   96.78200   91.39550    -999.25    5.35790    4.70850    4.34800    -999.25    0.55130    2.21410  -95.81060
 2900.00000   10.50220    9.31520    0.18710    -999.25    0.26340   95.07620   84.41080   83.57200    -999.25    5.49410    6.01820    6.60080    -999.25    0.47770    2.16170  -96.23600
 2950.00000    8.89620    8.58410    0.10680    -999.25    0.24170   95.15020   63.85010   64.76840    -999.25   13.32000   12.70730   12.48750    -999.25    0.43140    2.24480 -115.66480
 3000.00000   10.45790    9.45550    0.16480    -999.25    0.31490   97.07340   86.16840   86.34080    -999.25    4.97640    4.65830    5.06310    -999.25    0.55480    2.08910 -104.49100
 3050.00000   10.23510   10.23160    0.07950    -999.25    0.22610   85.53580   84.94500   78.42460    -999.25    8.93970    8.16020   10.97530    -999.25    0.45680    2.17400 -102.98250
 3100.00000    9.45670    9.01670    0.17730    -999.25    0.30340  108.32250   89.29600   86.08920    -999.25    4.63970    4.22400    4.32100    -999.25    0.55280    2.21350 -103.27980
 3150.00000    9.91990    9.68410    0.14800    -999.25    0.23540   85.53800   76.28280   69.09370    -999.25   10.24730    9.37620   11.13610    -999.25    0.39240    2.22170  -90.96320
 3200.00000    8.99080    9.16730    0.02190    -999.25    0.14520   84.82710   57.71810   52.75710    -999.25   10.24680    9.33430    8.77940    -999.25    0.37240    2.46020  -33.74060
 3250.00000    9.51740    9.79930    0.01220    -999.25    0.16340   87.37660   67.11500   62.56880    -999.25    7.38930    7.14380    6.97300    -999.25    0.41010    2.38890  -22.94920
 3300.00000    9.37480    9.78040    0.18350    -999.25    0.24520  103.20250   80.59270   84.90360    -999.25    5.40980    5.00800    4.91660    -999.25    0.49970    2.31350  -24.71760
 3350.00000   11.00710    9.75450    0.18160    -999.25    0.45760   90.28130   81.70350   80.09490    -999.25    5.84240    5.16590    5.26150    -999.25    0.54010    2.01340  -22.63320
 3400.00000    8.74300    8.40500    0.10800    -999.25    0.21990  101.26570   88.82400   82.82220    -999.25    4.83380    4.40890    4.51110    -999.25    0.52970    2.30810  -18.35850
 3450.00000    9.26610    9.15220    0.01020    -999.25    0.05310   68.78050   56.39400   47.69250    -999.25   22.92750   21.41310   24.30650    -999.25    0.22700    2.55210  -21.20150
 3500.00000   10.36520    9.07430    0.05370    -999.25    0.21380  101.27440   92.33180   91.21220    -999.25    5.21850    4.72800    5.36390    -999.25    0.51320    2.31400  -21.54870
 3550.00000    9.14290    8.98590    0.01210    -999.25    0.15970   85.92550   60.77630   52.53070    -999.25   14.72640   14.38820   13.86460    -999.25    0.36530    2.40170  -24.78620
 3600.00000    9.50640    9.12160    0.00930    -999.25    0.19250   85.69990   76.78720   74.70890    -999.25    8.44910    7.94940    8.35080    -999.25    0.49430    2.25330  -19.65740
 3650.00000   10.24560    9.62920    0.07130    -999.25    0.15730   96.31970   93.31010   91.03050    -999.25    6.53080    5.86880    6.36880    -999.25    0.48210    2.43820  -20.77960
