~Version ---------------------------------------------------
VERS. 2.0 : CWLS log ASCII Standard -VERSION 2.0
WRAP.  NO : ONE LINE PER DEPTH STEP
~Well ------------------------------------------------------
STRT.F                    900.0 : START DEPTH
STOP.F                   9200.0 : STOP DEPTH
STEP.F                 50.00000 : STEP LENGTH
NULL.                   -999.25 : NULL VALUE
COMP.     TEXACO CANADA LIMITED : COMPANY
WELL. TEXACO SUNSET 16-17-69-19 : WELL
FLD .                           : FIELD
LOC .                           : LOCATION
CTRY.                    CANADA : COUNTRY
SRVC.                   Unknown : SERVICE COMPANY
DATE.               16-Oct-1970 : LOGDATE
PROV.                   Alberta : PROVINCE
UWI .          100161706919W500 : UNIQUE WELL ID
SLAT.WGS84               54.979 : SURFACE LATITUDE
SLON.WGS84            -116.8515 : SURFACE LONGITUDE
~Curve Information -----------------------------------------
DEPT  .F                 : 
GRS   .GAPI 60 310 01 00 : GAMMA RAY FROM SONIC LOG
AC    .US/F 60 500 41 00 : ACOUSTIC
CALS  .IN   60 280 50 00 : CALIPER FROM SONIC LOG
GRS_1 .GAPI 60 310 01 00 : GAMMA RAY FROM SONIC
AC_1  .US/F 60 500 41 00 : ACOUSTIC
CALS_1.IN   60 280 50 00 : CALIPER FROM SONIC LOG
MCAL  .IN   15 280 01 00 : MLT (MICROLOG) CALIPER
SPR   .MV   07 010 01 00 : SPONTANEOUS POTENTIAL FROM RESISTIVITY LOG
ILD   .OHMM 07 120 46 00 : INDUCTION DEEP RESISTIVITY
ILM   .OHMM 07 120 44 00 : INDUCTION MEDIUM RESISTIVITY
SFL   .OHMM 07 220 06 00 : SPHERICALLY FOCUSED LOG
~Params ----------------------------------------------------
PD  .                     GL : PERMANENT DATUM
EPD .FT               2413.8 : ELEVATION PERMANENT DATUM
LMF .                     KB : LOG MEASURED FROM
DAPD.FT                    2 : FEET ABOVE PERMANENT DATUM
DMF .                     KB : DRILLING MEASURED FROM
EKB .FT                 2428 : KELLY BUSHING
EGL .FT               2413.8 : GROUND LEVEL
DATE.               10/16/70 : RUN DATE
RUN .                      1 : RUN NUMBER
DD  .FT                 9205 : DEPTH DRILLER
DL  .FT                 9205 : DEPTH LOGGER
BLI .FT                 9204 : BOTTOM LOG INTERVAL
TLI .FT                  929 : TOP LOG INTERVAL
CS  .IN                8.625 : CASING SIZE
CBD .FT                  929 : CASING BOTTOM DRILLER
CBL .FT                  929 : CASING BOTTOM LOGGER
BS  .IN                7.875 : BIT SIZE
BSD .FT                 9205 : BIT SIZE AT DEPTH
DFT .                MUD GEL : DRILLING FLUID TYPE
DFD .                    9.4 : DRILLING FLUID DENSITY
DFV .                     75 : DRILLING FLUID VISCOSITY
DFPH.                    9.5 : DRILLING FLUID PH
DFL .                    8.4 : DRILLING FLUID LOSS
MSS .                   CIRC : MUD SAMPLE SOURCE
RMS .OHMM                0.9 : RESISTIVITY MUD SAMPLE
MST .DEGF                 65 : MUD SAMPLE TEMPERATURE
RMF .OHMM                0.8 : RESISTIVITY MUD FILTRATE SAMPLE
MFST.DEGF                 65 : MUD FILTRATE SAMPLE TEMPERATURE
RMC .OHMM                1.4 : RESISTIVITY MUD CAKE
MCST.DEGF                 65 : MUD CAKE SAMPLE TEMPERATURE
MFSS.                   MEAS : MUD FILTRATE SAMPLE SOURCE
MCSS.                   MEAS : MUD CAKE SAMPLE SOURCE
RMB .OHMM                0.3 : RESISTIVITY MUD AT BHT
TCS .HRS                   3 : TIME CIRCULATED STOPPED
LUN .                   6090 : LOGGING UNIT NUMBER
LUL .                    V V : LOGGING UNIT LOCATION
ENGI.                 OFFORD : RECORDING ENGINEER
WITN.        PATTERSON IRVIN : WITNESSED BY
CLNT.                A2DTECH : CLIENT CODE
ORIG.            2" 5" PRINT : ORIGIN OF DATA
UWI .       100161706919W500 : UNIQUE WELL ID
DICO. A2D Technologies, Inc. : DIGITIZING COMPANY
~Other -----------------------------------------------------
~ASCII -----------------------------------------------------
# ...
 3950.00000    -999.25    -999.25    -999.25   48.12730   73.06240    -999.25    7.09520 -118.62800    9.56570   17.74790   36.55690
 4000.00000    -999.25    -999.25    -999.25   60.94200   86.20280    -999.25    7.87760 -125.37670    6.03630   10.33210   20.88610
 4050.00000    -999.25    -999.25    -999.25   67.73440   87.55030    -999.25    6.95890 -137.10680    6.08070   11.87130   21.81560
 4100.00000    -999.25    -999.25    -999.25   63.14380   82.52360    -999.25    6.76070 -115.62200    9.98570   19.77990   26.49430
 4150.00000    -999.25    -999.25    -999.25   70.12100   83.05940    -999.25    7.04210 -132.38610    6.13440   10.24410   17.40490
 4200.00000    -999.25    -999.25    -999.25   81.42490   78.99490    -999.25    7.91090  -88.77340    7.31540    9.28720   14.18060
 4250.00000    -999.25    -999.25    -999.25   74.24990   88.27360    -999.25    7.42120 -109.65430    6.71000   10.55740   14.11640
 4300.00000    -999.25    -999.25    -999.25   79.51620   82.40140    -999.25    7.66630  -89.95100    6.21280    7.68440   11.06910
 4350.00000    -999.25    -999.25    -999.25   91.54220   86.82820    -999.25    8.06670  -73.73240    7.05260    7.34060    8.63210
 4400.00000  107.26480  100.89480    -999.25  107.43210  128.62480    -999.25    8.33080  -74.81260    7.03610    7.77010    8.03670
 4450.00000   92.81600   84.14440    -999.25  100.13200   83.79230    -999.25   12.99290  -68.16650    4.36210    4.99300    5.39010
 4500.00000   85.43940   78.03160    -999.25   86.03500   77.56550    -999.25    8.59210  -75.96780   12.20120   10.87930   10.13040
 4550.00000   76.45360   69.35070    -999.25   75.27260   69.48840    -999.25    8.45900  -76.81480   26.74680   24.03700   47.40200
 4600.00000   89.08080   94.19010    -999.25   91.48900   93.55380    -999.25    8.68610  -70.27360   11.96180   10.35470   10.69200
 4650.00000   93.20560   94.44420    -999.25   93.85170   97.00320    -999.25   14.26920  -62.02300    3.22420    3.63960    4.57710
 4700.00000  115.17520   90.39330    -999.25  115.85550   81.85490    -999.25    7.86380  -67.80040   11.83500   15.85970   21.78570
 4750.00000  153.16140  102.93050    -999.25  150.67950  102.28450    -999.25    7.74270  -73.34440   30.15890   29.05810   43.45370
 4800.00000  296.81680   77.20770    8.37520  307.79220   75.54450    8.40000    7.46080  -81.85360  122.21030  149.12780  232.78770
 4850.00000   90.32440   65.71060    9.22840  106.44240   65.48010    9.36150    8.34750  -69.82390   18.56210   22.75300   40.66000
 4900.00000   80.41200   78.45910    8.93860   80.60970   77.88790    9.02160    7.69990 -126.24020    6.39260   10.16110   20.54480
 4950.00000   71.94030   76.32880    9.18440   74.44240   75.74690    9.10250    9.17190 -104.43980    4.07990    5.92330    4.75030
 5000.00000   96.53860   79.46310    9.75050   97.61460   79.53650    9.72510    9.72790  -99.66820    3.83530    4.90320    8.94420
 5050.00000   25.43920   86.23930    -999.25   26.13860   89.59040    8.08020    8.08090 -112.64280    2.88160    4.29800    4.91380
 5100.00000   28.36600   71.56520    -999.25   29.79570   70.87530    8.00510    6.92600 -178.80620    2.95250    7.24890   40.47700
 5150.00000   24.39310   54.27750    -999.25   25.26460   54.68950    8.39650    7.41400 -162.15410   15.07390   25.99770   39.44010
 5200.00000   28.18980   48.99590    -999.25   28.46580   52.39320    8.21710    7.43300 -148.68210    5.50530    9.61670   53.04920
 5250.00000   26.72260   57.92770    -999.25   27.28740   57.29890    8.09120    7.31520 -173.78120    4.90470   11.37740   49.24640
 5300.00000   28.78340   50.25650    -999.25   29.49980   48.66110    8.18090    8.17050 -102.16630   76.07360  105.05030  184.65260
 5350.00000   35.51850   62.65600    -999.25   35.48650   63.91230    8.50310    7.54910 -153.52240    6.49010   11.62980   32.65290
 5400.00000   25.60430   55.53590    -999.25   24.93630   55.57860    8.01940    7.63310  -92.28750   23.81130   39.39920   62.29300
 5450.00000   66.14930   56.66030    -999.25   65.32550   56.88180    8.18040    7.89900  -75.29270   31.01760   29.03270   36.61060
 5500.00000   27.93090   59.06680    -999.25   26.81940   57.99180    8.01750    7.58740 -133.71830   42.20970   47.74610   92.08120
 5550.00000   34.25110   70.27340    -999.25   35.03180   70.14110    8.35270    7.74040 -139.54410    2.88760    4.42410   31.58420
 5600.00000   51.41850   57.23090    8.37070   52.60500   56.40410    8.11340    7.74030  -85.30940   19.07400   25.07740   31.57310
 5650.00000   49.89080   57.76210    8.70870   49.77940   60.91250    8.72890    7.98440  -69.73010   24.58590   31.62640   95.65940
 5700.00000   20.53910   54.58460    8.13660   21.08310   54.87160    8.18060    7.91660  -61.40560   18.23800   34.62790   51.61350
 5750.00000   21.77890   59.14500    -999.25   21.70800   58.50000    8.88680    7.67560 -125.00270    9.01230   14.83240   69.08110
 5800.00000   21.00330   57.16780    -999.25   21.49160   56.87000    8.04990    7.55410 -131.60730   15.96060   27.24620  114.75400
 5850.00000   25.12320   58.01430    8.52660   25.22350   56.74010    8.47690    7.91150 -126.95540   16.49460   31.80240  103.58380
 5900.00000   95.49100   72.70430    9.72540   94.58110   72.39870    9.61940    8.94430  -45.34680    3.72180    4.44220    6.09050
 5950.00000   82.24890  167.05970   10.09820   85.02050  111.20470   10.10210    8.42780  -25.56980    6.27590    7.02850    8.40900
 6000.00000   71.85720   69.63310    9.41940   77.07130  127.34460    9.53080    7.80140  -60.20560   15.15590   16.52450   20.80560
 6050.00000   63.38930   58.03860    9.02610   63.55540   57.11020    9.01640    7.86230  -16.75860   26.91500   31.40440   33.72650
 6100.00000   32.31450   51.85330    -999.25   30.87240   52.25980    9.09770    8.72560  -37.18250   71.61630  102.41470   92.52770
 6150.00000   63.09380   58.18430    -999.25   64.94180   57.47450    8.13390    7.44020  -33.91710   25.44370   33.58910   31.49760
 6200.00000   52.73750   55.51530    -999.25   51.87560   57.14990    8.07280    7.63640  -27.08790   28.92240   30.43950   34.95010
 6250.00000   38.61530   54.98690    -999.25   38.33640   55.52440    7.36220    7.36280  -52.49030   32.56240   37.87590   35.15960
 6300.00000   46.14380   55.44520    7.42460   45.81030   55.54580    7.44920    7.45030  -41.12770   33.02770   40.49460   36.19740
 6350.00000   35.22210   51.87730    7.62350   33.78050   51.64210    7.59640    7.31570  -58.37040   79.67560   85.79510  111.69410
 6400.00000   53.08740   59.26430    -999.25   52.34730   59.03060    7.65810    7.73400  -36.12590   26.32370   30.67580   34.53030
 6450.00000   41.57090   52.92280    -999.25   42.51130   53.38400    7.63720    7.34840  -50.83540   58.55000   69.39980   83.21050
 6500.00000   67.89890   60.91010    -999.25   67.77270   61.28030    8.42710    7.78740  -51.54160   22.95990   27.92920   25.01400
 6550.00000   46.00220   50.82180    -999.25   44.27790   52.77980    8.76850    7.85780  -62.90330   64.72070   91.24450  169.07610
 6600.00000   28.59890   51.00950    -999.25   30.34640   50.34770    8.63700    7.62750  -75.22890   80.12940   86.57580  209.74790
 6650.00000   25.20210   51.02940    -999.25   27.29430   50.52770    8.47830    8.32120 -102.77370   54.17620   56.77670   95.95650
 6700.00000   27.21540   48.68180    -999.25   29.18730   48.03030    8.39670    7.95090  -63.49840  113.07010  126.83520  161.87680
 6750.00000   26.70950   49.97670    -999.25   27.79060   49.91710    8.31420    8.00580  -83.58440  109.61160   95.17610  161.81280
 6800.00000   27.96690   49.16820    -999.25   29.65200   49.55310    8.14590    7.84200  -80.37130  127.24260  120.41650  148.62130
 6850.00000   27.41480   47.79040    -999.25   28.95910   48.31870    8.35700    8.21010 -137.72780   68.62360   85.70930  103.45740
 6900.00000   40.19610   53.86440    -999.25   22.34290   53.39430    8.67020    8.67190 -176.21680   39.22940   66.41990  142.78130
 6950.00000   19.87090   52.57140    -999.25   22.19640   51.61280    8.20200    8.02750 -158.87950   29.69230   42.63370  122.64090
