~Version ---------------------------------------------------
VERS.      2.0 : CWLS log ASCII Standard -VERSION 2.0
WRAP.       NO : One line per depth step
CREA. 10/25/17 : LAS Creation Date
~Well ------------------------------------------------------
STRT.FT                 1200.0 : START DEPTH
STOP.FT                12350.0 : STOP DEPTH
STEP.FT               50.00000 : STEP LENGTH
NULL.                  -999.25 : NULL VALUE
COMP.     CHEVRON STANDARD LTD : COMPANY
WELL. CHEVRON EDSON 7-28-52-17 : WELL
FLD .                          : FIELD
LOC .                          : LOCATION
CTRY.                   CANADA : COUNTRY
SRVC.             Schlumberger : SERVICE COMPANY
DATE.              18-Oct-1968 : LOGDATE
PROV.                  Alberta : PROVINCE
UWI .         100072805217W500 : UNIQUE WELL ID
SLAT.WGS84             53.5164 : SURFACE LATITUDE
SLON.WGS84           -116.4412 : SURFACE LONGITUDE
~Curve Information -----------------------------------------
DEPT    .FT    : Depth Curve
CALDED  .IN    : CALIPER FROM FDC LOG [ADJ.TO RESISTIVITY LOG]
CALNED  .IN    : CALIPER FROM SNP LOG [ADJ.TO RESISTIVITY LOG]
CALSED  .IN    : CALIPER FROM SONIC LOG [ADJ. TO RESISTIVITY LOG]
CALWS   .IN    : CALIPER [CALSED]
CILDED  .MMHO  : DEEP CONDUCTIVITY FROM RESISTIVITY LOG
CONDWS  .MMHO  : CONDUCTIVITY [1000/DRESWS]
DCORED  .G/C3  : DENSITY CORRECTION FROM FDC LOG  [ADJ.TO RESISTIVITY LOG]
DCORWS  .G/C3  : DENSITY CORRECTION [DCORED]
DENWS   .G/C3  : FORMATION BULK DENSITY [RHOBED]
DPHILSED.V/V   : DENSITY POROSITY LIMESTONE [M=2.71, F=1.00] FROM FDC LOG [ADJ. TO RESISTIVITY LOG]
DPOLSWS .V/V   : DENSITY POROSITY LIMESTONE [DPHILSED]
DRESWS  .OHMM  : DEEP RESISTIVITY [ILDED]
DTED    .US/F  : DELTA TIME FROM SONIC LOG [ADJ. TO RESISTIVITY LOG]
DTWS    .US/F  : COMPRESSIONAL SONIC [DTED]
GRDED   .GAPI  : GAMMA RAY FROM SNP-FDC LOG [ADJ. TO RESISTIVITY LOG]
GRNED   .GAPI  : GAMMA RAY FROM SNP LOG  [ADJ. TO RESISTIVITY LOG]
GRSED   .GAPI  : GAMMA RAY FROM SONIC LOG [ADJ. TO RESISTIVITY LOG]
GRWS    .GAPI  : GAMMA RAY [GRSED SPL. TO GRDED @ 12330']
ILDED   .OHMM  : DEEP INDUCTION FROM RESISTIVITY LOG
NPOLSWS .V/V   : NEUTRON POROSITY LIMESONTE [SNPLSED]
RHOBED  .G/C3  : BULK DENSITY FROM FDC LOG [ADJ.TO RESISTIVITY LOG]
SNED    .OHMM  : SHORT NORMAL 16" FROM RESISTIVITY LOG
SNPLSED .V/V   : SIDEWALL NEUTRON POROSITY LIMESONTE FROM SNP LOG [ADJ.TO RESISTIVITY LOG]
SPRED   .MV    : SPONTANEOUS POTENTIAL FROM RESISTIVITY LOG
SPWS    .MV    : SPONTANEOUS POTENTIAL [BASELINE 0 MV, SPRED]
SRESWS  .OHMM  : SHALLOW RESISTIVITY [SNED]
~Params ----------------------------------------------------
PD  .                     GL : PERMANENT DATUM
EPD .FT                 3060 : ELEVATION PERMANENT DATUM
LMF .                     KB : LOG MEASURED FROM
DAPD.FT                   13 : FEET ABOVE PERMANENT DATUM
EKB .FT                 3073 : KELLY BUSHING
EGL .FT                 3060 : GROUND LEVEL
DATE.               10/18/68 : RUN DATE
RUN .                      1 : RUN NUMBER
DD  .FT                12360 : DEPTH DRILLER
DL  .FT                12367 : DEPTH LOGGER
BLI .FT                12366 : BOTTOM LOG INTERVAL
TLI .FT                 1258 : TOP LOG INTERVAL
CBD .FT                 1258 : CASING BOTTOM DRILLER
CBL .FT                 1258 : CASING BOTTOM LOGGER
BS  .IN                 8.75 : BIT SIZE
BSD .FT                12360 : BIT SIZE AT DEPTH
DFT .                    GEL : DRILLING FLUID TYPE
DFD .                    9.8 : DRILLING FLUID DENSITY
DFV .                     69 : DRILLING FLUID VISCOSITY
DFPH.                   10.5 : DRILLING FLUID PH
DFL .                    6.3 : DRILLING FLUID LOSS
RMF .OHMM               0.93 : RESISTIVITY MUD FILTRATE SAMPLE
MFST.DEGF                 63 : MUD FILTRATE SAMPLE TEMPERATURE
RMC .OHMM               1.94 : RESISTIVITY MUD CAKE
MCST.DEGF                 67 : MUD CAKE SAMPLE TEMPERATURE
TCS .HRS                   4 : TIME CIRCULATED STOPPED
LUN .                   7501 : LOGGING UNIT NUMBER
LUL .                    EDM : LOGGING UNIT LOCATION
ENGI.               CHADDOCK : RECORDING ENGINEER
WITN.                HOVDEBO : WITNESSED BY
CLNT.                A2DTECH : CLIENT CODE
ORIG.            2" 5" PRINT : ORIGIN OF DATA
UWI .       100072805217W500 : UNIQUE WELL ID
DICO. A2D Technologies, Inc. : DIGITIZING COMPANY
~Other -----------------------------------------------------
~ASCII -----------------------------------------------------
# ...
 3900.00000    -999.25    -999.25   10.67530   10.67530  177.56400  189.53750    -999.25    -999.25    -999.25    -999.25    -999.25    5.27600   81.74000   81.74000    -999.25    -999.25   62.73690   62.73690    5.27600    -999.25    -999.25    6.35170    -999.25 -150.47590   -1.78380    6.35170
 3950.00000    -999.25    -999.25   11.13200   10.88010  297.48090  352.97020    -999.25    -999.25    -999.25    -999.25    -999.25    2.83310   89.19160   89.19160    -999.25    -999.25   64.09450   70.02450    2.83310    -999.25    -999.25    4.41510    -999.25 -150.76600   -2.19090    4.41510
 4000.00000    -999.25    -999.25   11.69070   11.35950  290.43080  327.56810    -999.25    -999.25    -999.25    -999.25    -999.25    3.05280  100.27980  100.27980    -999.25    -999.25   79.77830   98.16140    3.05280    -999.25    -999.25    3.92790    -999.25 -151.83720   -3.37840    3.92790
 4050.00000    -999.25    -999.25   10.08330    9.94380   49.23570   53.04910    -999.25    -999.25    -999.25    -999.25    -999.25   18.90570   70.86940   70.86940    -999.25    -999.25   38.11450   38.04650   18.90570    -999.25    -999.25   19.93160    -999.25 -162.77650  -14.43400   19.93160
 4100.00000    -999.25    -999.25   11.42800   11.43660  131.36310  138.19410    -999.25    -999.25    -999.25    -999.25    -999.25    7.23620   85.59500   85.59500    -999.25    -999.25   64.34120   65.41460    7.23620    -999.25    -999.25    9.47390    -999.25 -153.84610   -5.62070    9.47390
 4150.00000    -999.25    -999.25   11.37340   11.37340  125.48950  135.45000    -999.25    -999.25    -999.25    -999.25    -999.25    7.38280   82.29330   82.29330    -999.25    -999.25   62.33550   62.33550    7.38280    -999.25    -999.25    9.89960    -999.25 -151.81490   -3.70570    9.89960
 4200.00000    -999.25    -999.25   11.93560   11.95230   97.57880  103.94900    -999.25    -999.25    -999.25    -999.25    -999.25    9.62010   82.60920   82.60920    -999.25    -999.25   68.19170   68.43380    9.62010    -999.25    -999.25   10.80650    -999.25 -152.10140   -4.10930   10.80650
 4250.00000    -999.25    -999.25   12.32560   12.28070  373.45570  500.10000    -999.25    -999.25    -999.25    -999.25    -999.25    1.99960  103.36570  103.36570    -999.25    -999.25  109.93000  110.95670    1.99960    -999.25    -999.25    3.25530    -999.25 -151.14740   -3.26380    3.25530
 4300.00000    -999.25    -999.25   12.44360   12.44360  278.85530  321.51080    -999.25    -999.25    -999.25    -999.25    -999.25    3.11270   91.23050   91.23050    -999.25    -999.25   70.32350   70.32350    3.11270    -999.25    -999.25    4.66900    -999.25 -150.68680   -2.86030    4.66900
 4350.00000    -999.25    -999.25   11.12580   11.08490   91.42900  100.00300    -999.25    -999.25    -999.25    -999.25    -999.25    9.99970   81.23140   81.23140    -999.25    -999.25   52.90090   52.27600    9.99970    -999.25    -999.25   12.44130    -999.25 -150.80500   -3.03590   12.44130
 4400.00000    -999.25    -999.25   11.35360   11.41890  126.21070  136.80080    -999.25    -999.25    -999.25    -999.25    -999.25    7.30990   82.25110   82.25110    -999.25    -999.25   67.22870   65.14610    7.30990    -999.25    -999.25    8.05240    -999.25 -150.66080   -2.94880    8.05240
 4450.00000    -999.25    -999.25   10.37860   10.24690   34.36530   35.35580    -999.25    -999.25    -999.25    -999.25    -999.25   28.28390   74.72060   74.72060    -999.25    -999.25   31.24770   28.96020   28.28390    -999.25    -999.25   29.37410    -999.25 -158.83070  -11.17610   29.37410
 4500.00000    -999.25    -999.25   11.19810   11.24110  101.64910  112.30910    -999.25    -999.25    -999.25    -999.25    -999.25    8.90400   77.87730   77.87730    -999.25    -999.25   57.81210   54.62120    8.90400    -999.25    -999.25    9.17450    -999.25 -150.08140   -2.48390    9.17450
 4550.00000    -999.25    -999.25   11.40180   11.41050  140.68070  155.40850    -999.25    -999.25    -999.25    -999.25    -999.25    6.43510   87.45630   87.45630    -999.25    -999.25   56.52410   55.55460    6.43510    -999.25    -999.25    8.49460    -999.25 -150.47470   -2.93430    8.49460
 4600.00000    -999.25    -999.25   11.36310   11.36310  114.26770  126.69130    -999.25    -999.25    -999.25    -999.25    -999.25    7.89320   85.85060   85.85060    -999.25    -999.25   57.49130   57.49130    7.89320    -999.25    -999.25    9.14380    -999.25 -149.47200   -1.98900    9.14380
 4650.00000    -999.25    -999.25   10.83960   10.73050   30.31120   30.62300    -999.25    -999.25    -999.25    -999.25    -999.25   32.65520   65.32750   65.32750    -999.25    -999.25   30.38880   29.98100   32.65520    -999.25    -999.25   30.95060    -999.25 -152.86330   -5.43740   30.95060
 4700.00000    -999.25    -999.25   11.12020   10.99320   92.19510  106.94620    -999.25    -999.25    -999.25    -999.25    -999.25    9.35050   85.35720   85.35720    -999.25    -999.25   49.66640   55.29440    9.35050    -999.25    -999.25    9.83370    -999.25 -149.37890   -2.01050    9.83370
 4750.00000    -999.25    -999.25   11.20660   11.32710  128.43070  136.46470    -999.25    -999.25    -999.25    -999.25    -999.25    7.32790   86.93240   86.93240    -999.25    -999.25   55.68600   56.31820    7.32790    -999.25    -999.25    9.06880    -999.25 -149.01620   -1.70480    9.06880
 4800.00000    -999.25    -999.25   11.62370   11.56930  135.07890  146.45520    -999.25    -999.25    -999.25    -999.25    -999.25    6.82820   83.70250   83.70250    -999.25    -999.25   51.99090   51.48520    6.82820    -999.25    -999.25    8.56710    -999.25 -149.19610   -1.94180    8.56710
 4850.00000    -999.25    -999.25   10.22370   10.25620   30.09630   31.47260    -999.25    -999.25    -999.25    -999.25    -999.25   31.77370   61.43690   61.43690    -999.25    -999.25   30.14750   31.00120   31.77370    -999.25    -999.25   28.95680    -999.25 -149.10970   -1.99270   28.95680
 4900.00000    -999.25    -999.25   11.13610   11.05660   88.51530   97.51440    -999.25    -999.25    -999.25    -999.25    -999.25   10.25490   80.78100   80.78100    -999.25    -999.25   54.89410   52.64920   10.25490    -999.25    -999.25   11.45120    -999.25 -148.58160   -1.60540   11.45120
 4950.00000    -999.25    -999.25    9.62460    9.83070   12.76610   14.29130    -999.25    -999.25    -999.25    -999.25    -999.25   69.97280   55.92670   55.92670    -999.25    -999.25   31.88740   32.94070   69.97280    -999.25    -999.25   52.91860    -999.25 -155.98060   -9.14610   52.91860
 5000.00000    -999.25    -999.25   10.29350   10.29130   22.25840   23.18980    -999.25    -999.25    -999.25    -999.25    -999.25   43.12240   63.82090   63.82090    -999.25    -999.25   29.95190   26.27830   43.12240    -999.25    -999.25   39.54490    -999.25 -156.20200   -9.50820   39.54490
 5050.00000    -999.25    -999.25   11.16380   11.42670  116.80110  128.32730    -999.25    -999.25    -999.25    -999.25    -999.25    7.79260   83.80010   83.80010    -999.25    -999.25   58.95580   55.97990    7.79260    -999.25    -999.25   11.17900    -999.25 -148.05960   -1.50660   11.17900
 5100.00000    -999.25    -999.25   10.26230   10.11260   34.34650   35.65280    -999.25    -999.25    -999.25    -999.25    -999.25   28.04830   70.56540   70.56540    -999.25    -999.25   28.50030   28.34980   28.04830    -999.25    -999.25   32.15900    -999.25 -159.50350  -13.05740   32.15900
 5150.00000    -999.25    -999.25   10.78870   10.55590   49.53560   51.87450    -999.25    -999.25    -999.25    -999.25    -999.25   19.27730   71.60090   71.60090    -999.25    -999.25   39.16530   40.02140   19.27730    -999.25    -999.25   20.16730    -999.25 -153.74980   -7.35490   20.16730
 5200.00000    -999.25    -999.25   10.73830   10.80390   67.30390   72.11890    -999.25    -999.25    -999.25    -999.25    -999.25   13.86600   74.98080   74.98080    -999.25    -999.25   49.54870   53.97730   13.86600    -999.25    -999.25   16.95240    -999.25 -149.18410   -2.84060   16.95240
