~Version ---------------------------------------------------
VERS.      2.0 : CWLS log ASCII Standard -VERSION 2.0
WRAP.       NO : One line per depth step
CREA. 12/20/17 : LAS Creation Date
~Well ------------------------------------------------------
STRT.FT                              650.0 : START DEPTH
STOP.FT                             9600.0 : STOP DEPTH
STEP.FT                           50.00000 : STEP LENGTH
NULL.                              -999.25 : NULL VALUE
COMP.    CANADIAN OCCIDENTAL PETROLEUM LTD : COMPANY
WELL. CAN OXY ET AL VIRG HILLS 10-12-64-13 : WELL
FLD .                                      : FIELD
LOC .                                      : LOCATION
CTRY.                               CANADA : COUNTRY
SRVC.                         Schlumberger : SERVICE COMPANY
DATE.                          02-Apr-1975 : LOGDATE
PROV.                              Alberta : PROVINCE
UWI .                     100101206413W500 : UNIQUE WELL ID
SLAT.WGS84                        54.52636 : SURFACE LATITUDE
SLON.WGS84                       -115.8216 : SURFACE LONGITUDE
~Curve Information -----------------------------------------
DEPT  .FT    : Depth Curve
CALSED.IN    : CALIPER FROM SONIC LOG [ADJ. TO RESISTIVITY LOG]
CALWS .IN    : CALIPER [CALSED]
CILDED.MMHO  : CONDUCTIVITY FROM RESISTIVITY LOG
CONDWS.MMHO  : CONDUCTIVITY [1000/DRESWS]
DRESWS.OHMM  : DEEP RESISTIVITY [1000/CILDED IF ILDED <=5, ILDED]
DTED  .US/F  : DELTA-T FROM SONIC LOG [ADJ. TO RESISTIVITY LOG]
DTWS  .US/F  : COMPRESSIONAL SONIC [DTED]
GRSED .GAPI  : GAMMA RAY FROM SONIC LOG [ADJ. TO RESISTIVITY LOG]
GRWS  .GAPI  : GAMMA RAY [GRSED]
ILDED .OHMM  : DEEP INDUCTION RESISTIVITY FROM RESISTIVITY LOG
ILMED .OHMM  : MEDIUM INDUCTION RESISTIVITY FROM RESISTIVITY LOG
LL8ED .OHMM  : LATEROLOG 8 FROM RESISTIVITY LOG
MRESWS.OHMM  : MEDIUM RESISTIVITY [ILMED]
SPRED .MV    : SPONTANEOUS POTENTIAL FROM RESISTIVITY LOG
SPWS  .MV    : SPONTANEOUS POTENTIAL [BASELINE 0 MV, SPRED]
SRESWS.OHMM  : SHALLOW RESISTIVITY [LL8ED]
~Params ----------------------------------------------------
PD  .                     GL : PERMANENT DATUM
EPD .FT                 3713 : ELEVATION PERMANENT DATUM
LMF .                     KB : LOG MEASURED FROM
DAPD.FT                   14 : FEET ABOVE PERMANENT DATUM
EKB .FT                 3727 : KELLY BUSHING
EGL .FT                 3713 : GROUND LEVEL
DATE.               04/02/75 : RUN DATE
RUN .                      1 : RUN NUMBER
DD  .FT                 9629 : DEPTH DRILLER
DL  .FT                 9627 : DEPTH LOGGER
BLI .FT                 9621 : BOTTOM LOG INTERVAL
TLI .FT                  650 : TOP LOG INTERVAL
CBD .FT                  650 : CASING BOTTOM DRILLER
CBL .FT                  650 : CASING BOTTOM LOGGER
BS  .IN                7.875 : BIT SIZE
BSD .FT                 9629 : BIT SIZE AT DEPTH
DFT .               GEL CHEM : DRILLING FLUID TYPE
DFD .                    9.3 : DRILLING FLUID DENSITY
DFV .                     84 : DRILLING FLUID VISCOSITY
DFPH.                    9.5 : DRILLING FLUID PH
DFL .                   10.5 : DRILLING FLUID LOSS
MSS .               FLOWLINE : MUD SAMPLE SOURCE
RMS .OHMM               2.78 : RESISTIVITY MUD SAMPLE
MST .DEGF                 68 : MUD SAMPLE TEMPERATURE
RMF .OHMM               2.49 : RESISTIVITY MUD FILTRATE SAMPLE
MFST.DEGF                 62 : MUD FILTRATE SAMPLE TEMPERATURE
RMB .OHMM               0.76 : RESISTIVITY MUD AT BHT
TCS .HRS                   3 : TIME CIRCULATED STOPPED
LUN .                   7691 : LOGGING UNIT NUMBER
LUL .                    EDM : LOGGING UNIT LOCATION
ENGI.                  KOLLA : RECORDING ENGINEER
WITN.                   COTE : WITNESSED BY
CLNT.                A2DTECH : CLIENT CODE
ORIG.            2" 5" PRINT : ORIGIN OF DATA
UWI .       100101206413W500 : UNIQUE WELL ID
DICO. A2D Technologies, Inc. : DIGITIZING COMPANY
~Other -----------------------------------------------------
~ASCII -----------------------------------------------------
  650.00000    8.51300    8.51300  140.13750  140.13750    7.13580  133.02390  133.02390   52.24120   72.24120    -999.25    -999.25    -999.25    -999.25    -999.25    -999.25    -999.25
  700.00000   12.03850   12.03850  327.75170  327.75170    3.06290  193.68830  193.68830   71.03670   71.03670    3.20430    -999.25    4.01290    -999.25  -53.13990   -2.50590    4.01290
  750.00000    9.22650    9.22650  178.54990  178.54990    5.60070  126.72970  126.72970   83.79360   83.79360    5.52210    -999.25    6.62600    -999.25  -52.24160   -1.85820    6.62600
  800.00000    9.61810    9.61810  208.12450  208.12450    4.80480  135.89410  135.89410   57.65470   57.65470    4.72200    -999.25    5.59300    -999.25  -55.57420   -5.22190    5.59300
  850.00000   10.53080   10.53080  229.16000  229.16000    4.36380  178.62370  178.62370   45.96810   45.96810    5.16300    -999.25    6.90860    -999.25  -65.30580  -14.40620    6.90860
  900.00000   14.99840   14.99840  361.95760  361.95760    2.76280  185.96610  185.96610   44.65260   44.65260    3.39970    -999.25    4.46340    -999.25  -64.44040  -12.99700    4.46340
  950.00000   13.73380   13.73380  230.51910  230.51910    4.37050  168.00200  168.00200   45.61290   45.61290    5.79770    -999.25    6.86280    -999.25  -82.05950  -30.06880    6.86280
 1000.00000   12.84170   12.84170  292.04480  292.04480    3.42410  149.98520  149.98520   69.49450   69.49450    4.15080    -999.25    3.64170    -999.25  -81.64640  -29.11190    3.64170
 1050.00000   12.18220   12.18220  306.53280  306.53280    3.26230  166.32880  166.32880   67.42190   67.42190    3.83010    -999.25    3.12480    -999.25  -61.69380   -8.61560    3.12480
 1100.00000    7.88340    7.88340  111.87730  111.87730    8.93840  108.06340  108.06340   58.95910   58.95910   10.35290    -999.25    9.41710    -999.25  -79.04390  -25.41830    9.41710
 1150.00000    8.49550    8.49550  242.29340  242.29340    4.12720  121.32850  121.32850   72.66860   72.66860    5.06650    -999.25    4.23240    -999.25  -57.88130   -3.71200    4.23240
 1200.00000    8.52510    8.52510  228.51470  228.51470    4.38000  122.97620  122.97620   75.00050   75.00050    5.28480    -999.25    4.13040    -999.25  -64.72210  -10.50040    4.13040
 1250.00000    8.29530    8.29530  191.46750  191.46750    5.22280  113.49260  113.49260   75.29700   75.29700    6.07870    -999.25    5.44900    -999.25  -60.21000   -6.07160    5.44900
 1300.00000    7.56770    7.56770  101.40700  101.40700    9.86130  102.25430  102.25430   71.05310   71.05310   11.10340    -999.25    9.91770    -999.25  -75.07870  -21.02360    9.91770
 1350.00000    8.17930    8.17930  249.18940  249.18940    4.01300  130.65630  130.65630   78.77970   78.77970    4.76130    -999.25    3.71050    -999.25  -62.23890   -8.26760    3.71050
 1400.00000    9.78640    9.78640  255.20720  255.20720    3.91840  133.41810  133.41810   68.07930   68.07930    4.75160    -999.25    3.67100    -999.25  -62.59490   -8.70680    3.67100
 1450.00000    8.80430    8.80430  308.51520  308.51520    3.24240  150.32850  150.32850   70.98460   70.98460    3.58470    -999.25    4.70560    -999.25  -62.67030   -8.86600    4.70560
 1500.00000    8.79410    8.79410  205.03860  205.03860    4.87710  110.81260  110.81260   83.71840   83.71840    4.76450    -999.25    5.52390    -999.25  -57.71670   -3.99570    5.52390
 1550.00000    7.71150    7.71150  158.36240  158.36240    6.31460  106.59780  106.59780   65.98220   65.98220    6.20080    -999.25    7.12110    -999.25  -72.08720  -18.44950    7.12110
 1600.00000    8.92490    8.92490  263.44370  263.44370    3.79590  124.76140  124.76140   72.76950   72.76950    4.34710    -999.25    3.52430    -999.25  -59.68750   -6.13360    3.52430
 1650.00000    7.69340    7.69340  131.59130  131.59130    7.59930  101.09700  101.09700   69.10010   69.10010    8.56200    -999.25    7.30520    -999.25  -70.43510  -16.96450    7.30520
 1700.00000   13.43580   13.43580  363.41600  363.41600    2.75210  161.14380  161.14380   56.29220   56.29220    3.66490    -999.25    2.74910    -999.25  -58.48990   -5.10310    2.74910
 1750.00000    9.85780    9.85780  268.00250  268.00250    3.73130  117.27030  117.27030   61.43430   61.43430    4.48470    -999.25    3.63300    -999.25  -55.94400   -2.64040    3.63300
 1800.00000    7.89790    7.89790  158.66910  158.66910    6.30240  105.90920  105.90920   61.91170   61.91170    7.08220    -999.25    6.25860    -999.25  -65.00500  -11.78470    6.25860
 1850.00000    8.00200    8.00200  143.09150  143.09150    6.98850   97.70640   97.70640   62.34830   62.34830    8.05080    -999.25    6.24140    -999.25  -65.45320  -12.31670    6.24140
 1900.00000    9.07590    9.07590  309.69600  309.69600    3.22900  118.62850  118.62850   60.98810   60.98810    4.00590    -999.25    3.47910    -999.25  -56.67840   -3.62520    3.47910
 1950.00000    9.70460    9.70460  359.63280  359.63280    2.78070  141.11460  141.11460   84.05310   84.05310    3.58790    -999.25    2.77830    -999.25  -55.72020   -2.75080    2.77830
 2000.00000    8.74680    8.74680  212.98240  212.98240    4.69520  101.73510  101.73510   62.33340   62.33340    5.61210    -999.25    4.76530    -999.25  -59.87550   -7.08070    4.76530
 2050.00000   10.21330   10.21330  177.05570  177.05570    5.64790  105.43310  105.43310   69.42080   69.42080    6.03900    -999.25    6.83600    -999.25  -57.54220   -5.02350    6.83600
 2100.00000    8.62970    8.62970  356.02700  356.02700    2.80880  153.49170  153.49170   65.83000   65.83000    3.44400    -999.25    4.93110    -999.25  -64.40320  -12.16240    4.93110
 2150.00000    9.21910    9.21910  271.83700  271.83700    3.67870  114.94660  114.94660   81.33570   81.33570    3.63110    -999.25    4.45520    -999.25  -65.86330  -13.89860    4.45520
 2200.00000    9.42420    9.42420  341.96380  341.96380    2.92430  121.11970  121.11970   84.24210   84.24210    2.83570    -999.25    3.57780    -999.25  -64.71090  -13.02410    3.57780
 2250.00000    7.88520    7.88520  117.92500  105.25870    9.50040  106.30430  106.30430   57.15660   57.15660    9.50040    -999.25    9.50040    -999.25  -83.05600  -31.64530    9.50040
 2300.00000    7.43660    7.43660  156.52590  165.16910    6.05440  104.98690  104.98690   54.24780   54.24780    6.05440    -999.25    6.89780    -999.25  -81.28700  -30.15240    6.89780
 2350.00000    9.40920    9.40920  266.33520  266.33520    3.75470  112.64670  112.64670   63.84790   63.84790    3.96360    -999.25    5.05750    -999.25  -62.24610  -11.38940    5.05750
 2400.00000    9.88170    9.88170  272.38470  272.38470    3.67130  121.05430  121.05430   67.56060   67.56060    3.66920    -999.25    4.71240    -999.25  -60.27260   -9.69200    4.71240
 2450.00000   10.07030   10.07030  273.83660  273.83660    3.65510  112.44330  112.44330   62.75360   62.75360    3.40130    -999.25    4.38810    -999.25  -59.11720   -8.81450    4.38810
 2500.00000    8.95220    8.95220  260.61800  260.61800    3.83700  102.75650  102.75650   57.87710   57.87710    3.64120    -999.25    4.68370    -999.25  -51.06840   -1.04180    4.68370
 2550.00000    7.64900    7.64900   76.32590   70.72640   14.13900  100.21960  100.21960   44.61910   44.61910   14.13900    -999.25   15.33320    -999.25  -64.06150  -14.31100   15.33320
 2600.00000   10.68510   10.68510  274.32500  274.32500    3.64530  109.16950  109.16950   62.19720   62.19720    3.64330    -999.25    4.41620    -999.25  -53.02400   -3.55140    4.41620
 2650.00000    8.05740    8.05740  120.60250  120.14610    8.32320   63.01860   63.01860   45.28380   45.28380    8.32320    -999.25   12.00910    -999.25  -48.84260    0.35390   12.00910
 2700.00000    8.93450    8.93450  302.71010  302.71010    3.30380   96.63020   96.63020   53.73250   53.73250    3.30970    -999.25    3.98410    -999.25  -49.99400   -1.07540    3.98410
 2750.00000   10.55360   10.55360  331.37040  331.37040    3.01780  123.52700  123.52700   57.42140   57.42140    2.78550    -999.25    3.83880    -999.25  -48.97650   -0.33400    3.83880
