~Version ---------------------------------------------------
VERS.      2.0 : CWLS log ASCII Standard -VERSION 2.0
WRAP.       NO : One line per depth step
CREA. 12/20/17 : LAS Creation Date
~Well ------------------------------------------------------
STRT.FT                         300.0 : START DEPTH
STOP.FT                        9850.0 : STOP DEPTH
STEP.FT                      50.00000 : STEP LENGTH
NULL.                         -999.25 : NULL VALUE
COMP.          PACIFIC PETROLEUMS LTD : COMPANY
WELL. PACIFIC SUNRAY KAYBOB 2-2-64-19 : WELL
FLD .                                 : FIELD
LOC .                                 : LOCATION
CTRY.                          CANADA : COUNTRY
SRVC.          Schlumberger of Canada : SERVICE COMPANY
DATE.                     27-Jan-1959 : LOGDATE
PROV.                         Alberta : PROVINCE
UWI .                100020206419W500 : UNIQUE WELL ID
SLAT.WGS84                   54.50328 : SURFACE LATITUDE
SLON.WGS84                  -116.7572 : SURFACE LONGITUDE
~Curve Information -----------------------------------------
DEPT  .FT    : Depth Curve
CALWS .IN    : CALIPER [MCALED]
CONDWS.MMHO  : CONDUCTIVITY [1000/DRESWS]
DRESWS.OHMM  : DEEP RESISTIVITY [LNED]
GRED  .GAPI  : GAMMA RAY FROM CBL LOG [ADJ TO SPRED]
GRWS  .GAPI  : GAMMA RAY [GRED]
LNED  .OHMM  : 64 INCH LONG NORMAL RESISTIVITY FROM EL LOG
LT18ED.OHMM  : 18 FOOT 8 INCH LATERAL RESISTIVITY FROM EL LOG
MCALED.IN    : CALIPER FROM MICROLOG
NEUTED.CPS   : NEUTRON FROM NEUTRON LOG
NEUTWS.CPS   : NEUTRON [NEUTED]
SNED  .OHMM  : 16 INCH SHORT NORMAL RESISTIVITY FROM EL LOG
SPRED .MV    : SPONTANEOUS POTENTIAL FROM EL LOG
SPWS  .MV    : SPONTANEOUS POTENTIAL [BASELINE 0 MV] [SPRED]
SRESWS.OHMM  : SHALLOW RESISTIVITY [SNED]
~Params ----------------------------------------------------
LMF .                     KB : LOG MEASURED FROM
DMF .                     KB : DRILLING MEASURED FROM
EKB .FT               2473.7 : KELLY BUSHING
DATE.               01/27/59 : RUN DATE
RUN .                      1 : RUN NUMBER
DD  .FT                 9862 : DEPTH DRILLER
DL  .FT                 9866 : DEPTH LOGGER
BLI .FT                 9865 : BOTTOM LOG INTERVAL
TLI .FT                  684 : TOP LOG INTERVAL
CBD .FT                  685 : CASING BOTTOM DRILLER
CBL .FT                  684 : CASING BOTTOM LOGGER
BS  .IN                7.875 : BIT SIZE
BSD .FT                 9862 : BIT SIZE AT DEPTH
DFT .               OIL EMUL : DRILLING FLUID TYPE
DFD .                   10.7 : DRILLING FLUID DENSITY
DFV .                    170 : DRILLING FLUID VISCOSITY
DFPH.                      9 : DRILLING FLUID PH
DFL .                    6.6 : DRILLING FLUID LOSS
RMS .OHMM                3.9 : RESISTIVITY MUD SAMPLE
MST .DEGF                 61 : MUD SAMPLE TEMPERATURE
RMF .OHMM                2.7 : RESISTIVITY MUD FILTRATE SAMPLE
MFST.DEGF                 68 : MUD FILTRATE SAMPLE TEMPERATURE
RMC .OHMM                3.5 : RESISTIVITY MUD CAKE
MCST.DEGF                 68 : MUD CAKE SAMPLE TEMPERATURE
RMB .OHMM                1.3 : RESISTIVITY MUD AT BHT
TCS .HRS                 3.5 : TIME CIRCULATED STOPPED
LUN .                   2742 : LOGGING UNIT NUMBER
LUL .                     PR : LOGGING UNIT LOCATION
ENGI.                THOMSON : RECORDING ENGINEER
WITN.                FOGARTY : WITNESSED BY
CLNT.                A2DTECH : CLIENT CODE
ORIG.            2" 5" PRINT : ORIGIN OF DATA
UWI .       100020206419W500 : UNIQUE WELL ID
DICO. A2D Technologies, Inc. : DIGITIZING COMPANY
~Other -----------------------------------------------------
EL-ML-NEUT-CBL LOGS RUN
~ASCII -----------------------------------------------------
# ...
 7650.00000    9.54790    2.49930  400.11840   15.19020   15.19020  400.11840 1901.40660    9.54790    -999.25    -999.25  110.67940 -171.97080 -129.26000  110.67940
 7700.00000   10.39330    3.36290  297.35880   20.79040   20.79040  297.35880  604.33570   10.39330    -999.25    -999.25  114.89370 -166.22560 -123.76080  114.89370
 7750.00000   12.18300    1.52330  656.46890   16.98170   16.98170  656.46890  475.17430   12.18300    -999.25    -999.25  189.87250 -162.59760 -120.37730  189.87250
 7800.00000   11.00830    2.55500  391.39070   21.19460   21.19460  391.39070  532.06880   11.00830    -999.25    -999.25  123.13650 -168.32140 -126.34520  123.13650
 7850.00000   10.66250    1.42870  699.92890   19.42300   19.42300  699.92890 1058.80740   10.66250    -999.25    -999.25  176.04490 -164.03820 -122.30800  176.04490
 7900.00000   10.05840    2.62160  381.45020   20.87240   20.87240  381.45020 2035.02200   10.05840    -999.25    -999.25  103.84990 -166.05530 -124.56960  103.84990
 7950.00000    8.39280    3.04560  328.34360   21.74900   21.74900  328.34360  286.48390    8.39280    -999.25    -999.25  141.49100 -241.65130 -200.41160  141.49100
 8000.00000   10.02080    4.22120  236.89770   20.70570   20.70570  236.89770  195.97350   10.02080    -999.25    -999.25   98.43810 -175.00630 -134.01120   98.43810
 8050.00000    9.68090    3.18640  313.82940   18.85720   18.85720  313.82940    -999.25    9.68090    -999.25    -999.25  100.18340 -144.68780 -103.93670  100.18340
 8100.00000    9.92890    8.74780  114.31430   21.04200   21.04200  114.31430   86.84720    9.92890    -999.25    -999.25   67.90760 -139.59530  -99.09030   67.90760
 8150.00000   11.22440    4.59000  217.86490   38.43640   38.43640  217.86490  214.23710   11.22440    -999.25    -999.25   70.17510 -141.59810 -101.33760   70.17510
 8200.00000    8.19750    2.06310  484.71520   37.32060   37.32060  484.71520  847.23340    8.19750    -999.25    -999.25  168.36610 -178.50130 -138.48680  168.36610
 8250.00000   10.24810   15.10900   66.18550   37.07850   37.07850   66.18550   87.29810   10.24810    -999.25    -999.25   40.57830 -115.04290  -75.27300   40.57830
 8300.00000   11.10290    6.25270  159.93080   25.51820   25.51820  159.93080   97.93350   11.10290    -999.25    -999.25   73.33730 -116.55820  -77.03230   73.33730
 8350.00000    8.98280   12.03530   83.08900   30.59180   30.59180   83.08900  267.37370    8.98280    -999.25    -999.25   36.80660  -87.48540  -48.20550   36.80660
 8400.00000    9.81160    7.87330  127.01090   43.91090   43.91090  127.01090  226.04680    9.81160    -999.25    -999.25   61.11070  -66.83880  -27.80350   61.11070
 8450.00000    9.45090   14.33550   69.75680   41.52640   41.52640   69.75680   40.33400    9.45090    -999.25    -999.25   40.49220  -48.42180   -9.63250   40.49220
 8500.00000    9.28340   16.55480   60.40550   46.00100   46.00100   60.40550   59.23190    9.28340    -999.25    -999.25   40.26740  -50.34520  -11.80040   40.26740
 8550.00000    9.26980   15.71990   63.61380   44.18740   44.18740   63.61380   79.07800    9.26980    -999.25    -999.25   43.25030  -56.44270  -18.14200   43.25030
 8600.00000    9.07780   18.20120   54.94140   44.57560   44.57560   54.94140   47.90980    9.07780    -999.25    -999.25   38.68540  -49.00670  -10.95200   38.68540
 8650.00000    -999.25   46.22140   21.63500   51.91590   51.91590   21.63500   24.51230    -999.25    -999.25    -999.25   19.81940  -41.68660   -3.87640   19.81940
 8700.00000    -999.25   15.61940   64.02300   49.67610   49.67610   64.02300   17.24120    -999.25    -999.25    -999.25   42.49460  -44.24140   -6.98430   42.49460
 8750.00000    -999.25  100.44900    9.95530   76.41700   76.41700    9.95530    8.50140    -999.25    -999.25    -999.25    9.17680  -40.10850   -3.62790    9.17680
 8800.00000    -999.25  135.14970    7.39920   74.38360   74.38360    7.39920    6.44260    -999.25    -999.25    -999.25    5.72230  -50.22850  -14.52290    5.72230
 8850.00000    -999.25  127.78410    7.82570   70.80190   70.80190    7.82570    6.07540    -999.25    -999.25    -999.25    5.50220  -45.11450  -10.19010    5.50220
 8900.00000    -999.25  106.84100    9.35970   69.55500   69.55500    9.35970    5.68060    -999.25    -999.25    -999.25    6.81990  -61.37340  -27.22550    6.81990
 8950.00000    -999.25  121.60570    8.22330   79.74700   79.74700    8.22330    5.54190    -999.25    -999.25    -999.25    6.09690  -43.85540  -10.48870    6.09690
 9000.00000    -999.25   40.15320   24.90460   50.25250   50.25250   24.90460   10.83630    -999.25    -999.25    -999.25   24.10790  -40.60290   -8.01280   24.10790
 9050.00000    -999.25   63.61490   15.71960   69.88540   69.88540   15.71960   11.57430    -999.25    -999.25    -999.25   16.35310  -48.44150  -16.62630   16.35310
 9100.00000    -999.25   67.25900   14.86790   80.57750   80.57750   14.86790   11.16110    -999.25    -999.25    -999.25   16.53070  -50.81900  -19.78500   16.53070
 9150.00000    -999.25   84.42670   11.84460   64.45740   64.45740   11.84460   14.44610    -999.25    -999.25    -999.25   16.30350  -54.70360  -24.44620   16.30350
 9200.00000    -999.25  104.61240    9.55910    -999.25    -999.25    9.55910    8.44800    -999.25    -999.25    -999.25   11.55430  -58.00540  -28.52920   11.55430
 9250.00000    -999.25   93.73130   10.66880    -999.25    -999.25   10.66880    7.25860    -999.25    -999.25    -999.25   12.62160  -48.28510  -19.58540   12.62160
 9300.00000    -999.25   86.44310   11.56830    -999.25    -999.25   11.56830    8.38910    -999.25    -999.25    -999.25   12.79130  -50.52800  -22.60330   12.79130
 9350.00000    -999.25    2.01340  496.66280    -999.25    -999.25  496.66280   45.60370    -999.25    -999.25    -999.25  209.95640  -39.32810  -12.18460  209.95640
 9400.00000    -999.25    6.06990  164.74700    -999.25    -999.25  164.74700  882.50120    -999.25    -999.25    -999.25   75.59380  -32.02780   -5.66080   75.59380
 9450.00000    -999.25    8.17760  122.28510    -999.25    -999.25  122.28510   76.85110    -999.25    -999.25    -999.25   66.58630  -31.43790   -5.85210   66.58630
 9500.00000    8.03230   13.11880   76.22640    -999.25    -999.25   76.22640  147.20420    8.03230  197.30510  197.30510   57.59060  -30.16040   -5.35110   57.59060
 9550.00000    7.90560    5.06120  197.58000    -999.25    -999.25  197.58000   61.72980    7.90560  268.55590  268.55590  123.48630  -26.92510   -2.89080  123.48630
 9600.00000    7.93660   10.79620   92.62550    -999.25    -999.25   92.62550  102.17740    7.93660  227.03000  227.03000   62.88690  -26.81600   -2.66410   62.88690
 9650.00000    7.94570   34.46670   29.01350    -999.25    -999.25   29.01350   31.95470    7.94570  211.19240  211.19240   24.74870  -29.62140   -5.33070   24.74870
 9700.00000    7.90380    1.95970  510.27180    -999.25    -999.25  510.27180  675.88510    7.90380  342.76010  342.76010  190.96230  -40.67630  -16.24600  190.96230
 9750.00000    7.95430    1.95840  510.62500    -999.25    -999.25  510.62500  955.96510    7.95430  296.56180  296.56180  189.78260  -42.93250  -18.36930  189.78260
 9800.00000    7.87060    4.32580  231.17150    -999.25    -999.25  231.17150  289.14520    7.87060  367.27850  367.27850   98.17640 -150.06860 -125.50540   98.17640
 9850.00000    7.84960    0.57180 1748.76500    -999.25    -999.25 1748.76500 1448.49760    7.84960    -999.25    -999.25  428.72470 -167.11770 -142.55450  428.72470
