~Version ---------------------------------------------------
VERS. 2.0 : CWLS log ASCII Standard -VERSION 2.0
WRAP.  NO : ONE LINE PER DEPTH STEP
~Well ------------------------------------------------------
STRT.M                       300.0 : START DEPTH
STOP.M                      3700.0 : STOP DEPTH
STEP.M                    50.00000 : STEP LENGTH
NULL.                      -999.25 : NULL VALUE
COMP. DEKALB PETROLEUM CORPORATION : COMPANY
WELL.    DEKALB OCHIESE 7-25-44-10 : WELL
FLD .                              : FIELD
LOC .                              : LOCATION
CTRY.                       CANADA : COUNTRY
SRVC.                 Schlumberger : SERVICE COMPANY
DATE.                  20-Feb-1981 : LOGDATE
PROV.                      Alberta : PROVINCE
UWI .             100072504410W500 : UNIQUE WELL ID
SLAT.WGS84                   52.82 : SURFACE LATITUDE
SLON.WGS84               -115.3154 : SURFACE LONGITUDE
~Curve Information -----------------------------------------
DEPT    .M      : DEPTH METERS
CALDED  .MM     : CALIPER FROM DENSITY LOG
CALSED  .MM     : CALIPER FROM SONIC LOG
CALWS   .MM     : CALIPER [MERGED CALSED/CALXSED AT 3074]
CALXED  .MM     : CALIPER X FROM DENSITY LOG
CALXSED .IN     : CALIPER X FROM SONIC LOG
CALYED  .MM     : CALIPER Y FROM DENSITY LOG
CDLLSED .V/V    : COMPENSATED DENSITY POROSITY [M=2710 F=1000] FROM SENSITY LOG
CNSLSED .V/V    : COMPENSATED NEUTRON POROSITY LIMESTONE FROM DENSITY LOG
CONDWS  .MMHO   : CONDUCTIVITY [1000/DRESWS]
DCORED  .KG/M3  : DENSITY CORRECTION FROM DENSITY LOG
DCORWS  .KG/M2  : DENSITY CORRECTION [DCORED]
DENWS   .KG/M3  : BULK DENSITY [M=2650/2710 AT 2595 F=1000] [CALCULATED FROM DPHISSED/DPHILSED/CDLLSED AT 2595/3076]
DPHILSED.V/V    : DENSITY POROSITY [M=2710 F=1000] FROM DENSITY LOG
DPHISSED.V/V    : DENSITY POROSITY [M=2650 F=1000] FROM DENSITY LOG
DPOLSWS .V/V    : DENSITY POROSITY [M=2710 F=1000] [CALCULATED FROM DENWS]
DRESWS  .OHMM   : DEEP RESISTIVITY [ILDED]
DTED    .US/M   : DELTA TIME FROM SONIC LOG
DTWS    .US/M   : DELTA TIME [DTED]
GRDED   .GAPI   : GAMMA RAY FROM DENSITY LOG
GRSED   .GAPI   : GAMMA RAY FROM SONIC LOG
GRWS    .GAPI   : GAMMA RAY [GRSED] CSG @ 317m
ILDED   .OHMM   : INDUCTION LOG DEEP RESISTIVITY
ILMED   .OHMM   : INDUCTION LOG MEDIUM RESISTIVITY
MRESWS  .OHMM   : MEDIUM RESISTIVITY [ILMED]
NPHILSED.V/V    : NEUTRON POROSITY LIMESTONE FROM DENSITY LOG
NPHISSED.V/V    : NEUTRON POROSITY SANDSTONE FROM DENSITY LOG
NPOLSWS .V/V    : NEUTRON POROSITY LIMESTONE [NPHISSED CONVERTED TOM LIME FROM POWER LOG FRPM START TO 2595,THEN NPHILSED/CNSLSED FROM 3068 TO END]
RHOBED  .KG/M3  : BULK DENSITY FROM DENSITY LOG
RLLED   .OHMM   : LATEROLOG RESISTIVITY
SFLED   .OHMM   : SPHERICALLY FOCUSED LOG RESISTIVITY
SPHIED  .V/V    : SONIC POROSITY FROM SONIC LOG
SPOWS   .V/V    : SONIC POROSITY [SPHIED]
SPRED   .MV     : SPONTANEOUS POTENTIAL FROM RESISTIVITY LOG SHIFTED
SPWS    .MV     : SPONTANEOUS POTENTIAL [BASELINE 0 MV] [SPRED] REVERSED IN SOME AREAS
SRESWS  .OHMM   : SHALLOW RESISTIVITY [MERGED SFLED/RLLED 3076]
~Params ----------------------------------------------------
PD  .                         GL : PERMANENT DATUM
EPD .M                    981.74 : ELEVATION PERMANENT DATUM
LMF .                         KB : LOG MEASURED FROM
DAPD.M                       8.8 : FEET ABOVE PERMANENT DATUM
EKB .M                    989.82 : KELLY BUSHING
EGL .M                    981.74 : GROUND LEVEL
DATE.                   02/20/81 : RUN DATE
RUN .                          1 : RUN NUMBER
DD  .M                    3718.2 : DEPTH DRILLER
DL  .M                      3716 : DEPTH LOGGER
BLI .M                    3715.3 : BOTTOM LOG INTERVAL
TLI .M                      3074 : TOP LOG INTERVAL
CS  .MM                      244 : CASING SIZE
CBD .M                      3074 : CASING BOTTOM DRILLER
CBL .M                      3074 : CASING BOTTOM LOGGER
BS  .MM                      216 : BIT SIZE
BSD .M                    3718.2 : BIT SIZE AT DEPTH
DFT .                   GEL CHEM : DRILLING FLUID TYPE
DFD .                       1150 : DRILLING FLUID DENSITY
DFV .                         60 : DRILLING FLUID VISCOSITY
DFPH.                         11 : DRILLING FLUID PH
DFL .                        6.8 : DRILLING FLUID LOSS
RMS .OHMM                    1.5 : RESISTIVITY MUD SAMPLE
MST .DEGC                   15.6 : MUD SAMPLE TEMPERATURE
RMF .OHMM                    2.0 : RESISTIVITY MUD FILTRATE SAMPLE
MFST.DEGC                   16.7 : MUD FILTRATE SAMPLE TEMPERATURE
RMC .OHMM                    1.1 : RESISTIVITY MUD CAKE
MCST.DEGC                   16.1 : MUD CAKE SAMPLE TEMPERATURE
TCS .HRS                       6 : TIME CIRCULATED STOPPED
LUN .                        314 : LOGGING UNIT NUMBER
LUL .                   EDMONTON : LOGGING UNIT LOCATION
ENGI.          JESIOLOWSKI BRULE : RECORDING ENGINEER
WITN.              JAYNE DITTMER : WITNESSED BY
CLNT.                    A2DTECH : CLIENT CODE
ORIG. 6.5"/100M 16.5"/100M PRINT : ORIGIN OF DATA
UWI .           100072504410W500 : UNIQUE WELL ID
DICO.     A2D Technologies, Inc. : DIGITIZING COMPANY
~Other -----------------------------------------------------
~ASCII -----------------------------------------------------
# ...
 1350.00000  401.28870  331.32640  331.32640    -999.25    -999.25    -999.25    -999.25    -999.25   59.25890  137.95210  137.95210 2336.16990    -999.25    0.19020    0.21860   16.87510  250.01350  250.01350   86.37870   85.65640   85.65640   16.87510   10.12880   10.12880    -999.25    0.24770    0.20380 2331.13090    -999.25    9.08310    -999.25    -999.25  -22.44830    7.24890    9.08310
 1400.00000  306.33770  316.83580  316.83580    -999.25    -999.25    -999.25    -999.25    -999.25   59.24980   80.60990   80.60990 2467.84010    -999.25    0.11040    0.14160   16.87770  236.19900  236.19900   45.70190   49.12900   49.12900   16.87770    7.08620    7.08620    -999.25    0.15110    0.10850 2435.31910    -999.25    8.86930    -999.25    -999.25   13.10030   43.64610    8.86930
 1450.00000  364.84770  328.37010  328.37010    -999.25    -999.25    -999.25    -999.25    -999.25   61.42090  207.05840  207.05840 2286.01000    -999.25    0.22060    0.24790   16.28110  249.58410  249.58410   76.89190   76.35260   76.35260   16.28110    8.10270    8.10270    -999.25    0.28260    0.23860 2287.49050    -999.25    9.48770    -999.25    -999.25  -19.52190   11.87240    9.48770
 1500.00000  372.21050  327.45110  327.45110    -999.25    -999.25    -999.25    -999.25    -999.25   77.95390  186.58140  186.58140 2292.61010    -999.25    0.21660    0.24410   12.82810  236.55890  236.55890   83.68160   68.66130   68.66130   12.82810    7.07150    7.07150    -999.25    0.31840    0.27450 2286.09770    -999.25   10.31260    -999.25    -999.25  -22.46640    9.77650   10.31260
 1550.00000  318.64870  320.23680  320.23680    -999.25    -999.25    -999.25    -999.25    -999.25    1.30190   17.60710   17.60710 2588.45510    -999.25    0.03730    0.07110  768.09860  212.24990  212.24990   57.69600   54.81910   54.81910  768.09860   19.70230   19.70230    -999.25    0.22250    0.17880 2586.08150    -999.25   35.06660    -999.25    -999.25  -23.52760    9.56380   35.06660
 1600.00000  370.89680  336.84860  336.84860    -999.25    -999.25    -999.25    -999.25    -999.25   40.27660   -9.49660   -9.49660 2541.42990    -999.25    0.06580    0.09860   24.82830  250.52930  250.52930   74.90120   73.13890   73.13890   24.82830    7.61650    7.61650    -999.25    0.31540    0.27150 2543.16190    -999.25   15.60280    -999.25    -999.25  -29.34470    4.95020   15.60280
 1650.00000  331.27780  319.07490  319.07490    -999.25    -999.25    -999.25    -999.25    -999.25   61.68040   32.17510   32.17510 2606.60500    -999.25    0.02630    0.06050   16.21260  255.73850  255.73850   91.43040   84.45410   84.45410   16.21260    7.30120    7.30120    -999.25    0.27850    0.23450 2609.45680    -999.25   12.07240    -999.25    -999.25  -28.01610    7.92670   12.07240
 1700.00000  371.04620  339.13270  339.13270    -999.25    -999.25    -999.25    -999.25    -999.25   56.97550   -2.56630   -2.56630 2642.40990    -999.25    0.00460    0.03950   17.55140  256.73260  256.73260  101.59310   90.85290   90.85290   17.55140    6.69760    6.69760    -999.25    0.22060    0.17690 2621.87870    -999.25   11.48620    -999.25    -999.25  -29.03510    8.55560   11.48620
 1750.00000  344.33680  332.10680  332.10680    -999.25    -999.25    -999.25    -999.25    -999.25   52.08960   17.20890   17.20890 2633.99510    -999.25    0.00970    0.04440   19.19770  267.20900  267.20900  127.29180  110.52300  110.52300   19.19770    9.20540    9.20540    -999.25    0.27480    0.23080 2637.62740    -999.25   15.57320    -999.25    -999.25  -30.70140    8.53730   15.57320
 1800.00000  346.08290  333.25400  333.25400    -999.25    -999.25    -999.25    -999.25    -999.25   74.98280    7.16860    7.16860 2628.71510    -999.25    0.01290    0.04750   13.33640  264.71770  264.71770  112.03500  105.17910  105.17910   13.33640    8.14890    8.14890    -999.25    0.26250    0.21850 2628.17920    -999.25   15.11570    -999.25    -999.25  -28.60390   -3.17770   15.11570
 1850.00000  315.66420  319.19260  319.19260    -999.25    -999.25    -999.25    -999.25    -999.25   85.76030   -2.77410   -2.77410 2585.15500    -999.25    0.03930    0.07300   11.66040  242.24800  242.24800   98.47600   97.31720   97.31720   11.66040    7.47560    7.47560    -999.25    0.26900    0.22500 2585.01170    -999.25   10.32460    -999.25    -999.25  -22.52830   -4.44990   10.32460
 1900.00000  316.02150  318.93200  318.93200    -999.25    -999.25    -999.25    -999.25    -999.25   74.78420   40.73530   40.73530 2646.04000    -999.25    0.00240    0.03740   13.37180  246.22620  246.22620  111.07270  105.48210  105.48210   13.37180    8.94710    8.94710    -999.25    0.25440    0.21050 2641.55100    -999.25   11.26350    -999.25    -999.25  -26.91080   -8.43840   11.26350
 1950.00000  369.24160  327.97780  327.97780    -999.25    -999.25    -999.25    -999.25    -999.25  110.53880  160.24210  160.24210 2270.83010    -999.25    0.22980    0.25680    9.04660  280.53370  280.53370  124.04330  106.48520  106.48520    9.04660    6.14770    6.14770    -999.25    0.33900    0.29530 2199.32640    -999.25    7.82890    -999.25    -999.25  -20.57400   -1.67940    7.82890
 2000.00000  322.67270  316.17310  316.17310    -999.25    -999.25    -999.25    -999.25    -999.25   17.58950   19.90680   19.90680 2648.51490    -999.25    0.00090    0.03600   56.85210  222.84990  222.84990   92.00800   87.88060   87.88060   56.85210   18.05910   18.05910    -999.25    0.17290    0.12990 2631.79640    -999.25   30.68480    -999.25    -999.25  -34.41280  -14.41830   30.68480
 2050.00000  315.94900  318.67880  318.67880    -999.25    -999.25    -999.25    -999.25    -999.25   54.64600   38.73970   38.73970 2651.81490    -999.25   -0.00110    0.03400   18.29960  240.60860  240.60860  112.81270  105.47270  105.47270   18.29960    9.61820    9.61820    -999.25    0.21570    0.17210 2623.33890    -999.25   14.30420    -999.25    -999.25  -26.45600   -5.36160   14.30420
 2100.00000  314.99570  318.16360  318.16360    -999.25    -999.25    -999.25    -999.25    -999.25   87.71470   -2.64410   -2.64410 2554.30000    -999.25    0.05800    0.09110   11.40060  282.63320  282.63320  118.28990  105.97130  105.97130   11.40060    7.33120    7.33120    -999.25    0.32610    0.28220 2549.75930    -999.25   11.87870    -999.25    -999.25  -30.42370   -8.22930   11.87870
 2150.00000  313.35320  317.42400  317.42400    -999.25    -999.25    -999.25    -999.25    -999.25   48.78500  -13.11320  -13.11320 2619.97000    -999.25    0.01820    0.05260   20.49810  231.55850  231.55850  109.92510   94.28290   94.28290   20.49810   12.51190   12.51190    -999.25    0.27350    0.22950 2621.29030    -999.25   35.97090    -999.25    -999.25  -38.35130  -15.05700   35.97090
 2200.00000  350.69890  337.26760  337.26760    -999.25    -999.25    -999.25    -999.25    -999.25  126.40630   98.04590   98.04590 2358.77490    -999.25    0.17650    0.20540    7.91100  277.27580  277.27580  101.34260   93.74770   93.74770    7.91100    7.55170    7.55170    -999.25    0.32370    0.27980 2391.46340    -999.25   10.08700    -999.25    -999.25  -28.68170   -3.26500   10.08700
 2250.00000  348.01470  330.25760  330.25760    -999.25    -999.25    -999.25    -999.25    -999.25  106.96220   37.85800   37.85800 2617.16500    -999.25    0.01990    0.05430    9.34910  280.13390  280.13390  133.20220  115.41020  115.41020    9.34910    5.93870    5.93870    -999.25    0.29570    0.25170 2618.85400    -999.25   10.90630    -999.25    -999.25  -26.20770   12.66840   10.90630
 2300.00000  346.62650  330.81120  330.81120    -999.25    -999.25    -999.25    -999.25    -999.25  238.20300  156.09130  156.09130 2566.17990    -999.25    0.05080    0.08410    4.19810  312.49050  312.49050  127.13610  102.80690  102.80690    4.19810    2.96240    2.96240    -999.25    0.31080    0.26690 2559.80660    -999.25    4.87710    -999.25    -999.25   -6.69720    2.25600    4.87710
 2350.00000  335.48370  324.03850  324.03850    -999.25    -999.25    -999.25    -999.25    -999.25   54.88960   25.36980   25.36980 2635.14990    -999.25    0.00900    0.04380   18.21840  226.58280  226.58280   71.35840   70.35940   70.35940   18.21840    9.02570    9.02570    -999.25    0.15900    0.11630 2635.30790    -999.25   17.42750    -999.25    -999.25  -22.12640  -12.25160   17.42750
