~Version ---------------------------------------------------
VERS.      2.0 : CWLS log ASCII Standard -VERSION 2.0
WRAP.       NO : One line per depth step
CREA. 12/20/17 : LAS Creation Date
~Well ------------------------------------------------------
STRT.FT                   1000.0 : START DEPTH
STOP.FT                   9700.0 : STOP DEPTH
STEP.FT                 50.00000 : STEP LENGTH
NULL.                    -999.25 : NULL VALUE
COMP.     PACIFIC PETROLEUMS LTD : COMPANY
WELL. PACIFIC KAYBOB 12-35-64-19 : WELL
FLD .                            : FIELD
LOC .                            : LOCATION
CTRY.                     CANADA : COUNTRY
SRVC.         LANE-WELLS COMPANY : SERVICE COMPANY
DATE.                15-Nov-1962 : LOGDATE
PROV.                    Alberta : PROVINCE
UWI .           100123506419W500 : UNIQUE WELL ID
SLAT.WGS84              54.58331 : SURFACE LATITUDE
SLON.WGS84             -116.7693 : SURFACE LONGITUDE
~Curve Information -----------------------------------------
DEPT  .FT    : Depth Curve
CALWS .IN    : CALIPER [MCALED]
CILDED.MMHO  : DEEP INDUCTION CONDUCTIVITY FROM RESISTIVITY LOG
CONDWS.MMHO  : CONDUCTIVITY [1000/DRESWS]
DRESWS.OHMM  : DEEP RESISTIVITY [ILDED]
GR1ED .GAPI  : GAMMA RAY FROM CCL LOG
GRED  .GAPI  : GAMMA RAY FROM GR LOG
GRWS  .GAPI  : GAMMA RAY [GRED]
ILDED .OHMM  : DEEP INDUCTION RESISTIVITY FROM RESISTIVITY LOG
MCALED.IN    : MLT CALIPER FROM MICROLOG
SNED  .OHMM  : SHORT NORMAL RESISTIVITY FROM RESISTIVITY LOG
SPRED .MV    : SPONTANEOUS POTENTIAL FROM RESISTIVITY LOG
SPWS  .MV    : SPONTANEOUS POTENTIAL [BASELINE 0MV, SPRED]
SRESWS.OHMM  : SHALLOW RESISTIVITY [SNED]
~Params ----------------------------------------------------
PD  .                     CF : PERMANENT DATUM
EPD .FT                 2448 : ELEVATION PERMANENT DATUM
LMF .                     KB : LOG MEASURED FROM
DAPD.FT                   14 : FEET ABOVE PERMANENT DATUM
DMF .                     KB : DRILLING MEASURED FROM
EKB .FT                 2462 : KELLY BUSHING
EGL .FT               2446.9 : GROUND LEVEL
DATE.               11/15/62 : RUN DATE
RUN .                      1 : RUN NUMBER
DD  .FT                 9710 : DEPTH DRILLER
DL  .FT                 9706 : DEPTH LOGGER
BLI .FT                 9702 : BOTTOM LOG INTERVAL
TLI .FT                  984 : TOP LOG INTERVAL
CS  .IN                9.625 : CASING SIZE
CBD .FT                  970 : CASING BOTTOM DRILLER
CBL .FT                  984 : CASING BOTTOM LOGGER
BS  .IN                8.625 : BIT SIZE
BSD .FT                 9710 : BIT SIZE AT DEPTH
DFT .                MUD GEL : DRILLING FLUID TYPE
DFD .                   10.1 : DRILLING FLUID DENSITY
DFV .                     80 : DRILLING FLUID VISCOSITY
DFPH.                   10.2 : DRILLING FLUID PH
DFL .                    7.2 : DRILLING FLUID LOSS
RMS .OHMM                2.4 : RESISTIVITY MUD SAMPLE
MST .DEGF                 60 : MUD SAMPLE TEMPERATURE
RMF .OHMM                2.2 : RESISTIVITY MUD FILTRATE SAMPLE
MFST.DEGF                 58 : MUD FILTRATE SAMPLE TEMPERATURE
RMC .OHMM                2.4 : RESISTIVITY MUD CAKE
MCST.DEGF                 56 : MUD CAKE SAMPLE TEMPERATURE
MFSS.                   MEAS : MUD FILTRATE SAMPLE SOURCE
MCSS.                   MEAS : MUD CAKE SAMPLE SOURCE
RMB .OHMM               0.79 : RESISTIVITY MUD AT BHT
TCS .HRS                   4 : TIME CIRCULATED STOPPED
LUN .                   8035 : LOGGING UNIT NUMBER
LUL .                    EDM : LOGGING UNIT LOCATION
ENGI.          VASICEK BLAND : RECORDING ENGINEER
WITN.                    GEE : WITNESSED BY
CLNT.                A2DTECH : CLIENT CODE
ORIG.            2" 5" PRINT : ORIGIN OF DATA
UWI .       100123506419W500 : UNIQUE WELL ID
DICO. A2D Technologies, Inc. : DIGITIZING COMPANY
~Other -----------------------------------------------------
~ASCII -----------------------------------------------------
 1000.00000    9.69240  222.40870  291.29890    3.43290    -999.25    -999.25    -999.25    3.43290    9.69240    5.31830  -72.70600   -4.50490    5.31830
 1050.00000   11.92300  340.80540  418.83060    2.38760    -999.25    -999.25    -999.25    2.38760   11.92300    3.58840  -79.23530   -5.67610    3.58840
 1100.00000   10.82270  140.87470  194.83680    5.13250    -999.25    -999.25    -999.25    5.13250   10.82270    8.38710  -77.96420   -5.47130    8.38710
 1150.00000   10.84610   93.22610  122.48150    8.16450    -999.25    -999.25    -999.25    8.16450   10.84610    8.52150  -75.53450   -4.29570    8.52150
 1200.00000    9.82890  115.16250  147.30580    6.78860    -999.25    -999.25    -999.25    6.78860    9.82890    8.80340  -75.09540   -5.11890    8.80340
 1250.00000   15.80770  281.83470  334.76160    2.98720    -999.25    -999.25    -999.25    2.98720   15.80770    3.86840  -73.67130   -4.94890    3.86840
 1300.00000   10.43190  191.56630  249.33300    4.01070    -999.25    -999.25    -999.25    4.01070   10.43190    5.00470  -72.70250   -5.23420    5.00470
 1350.00000   12.13940  251.73250  229.13710    4.36420    -999.25    -999.25    -999.25    4.36420   12.13940    3.94470  -69.43250   -2.78970    3.94470
 1400.00000   14.05730  195.85880  197.71050    5.05790    -999.25    -999.25    -999.25    5.05790   14.05730    5.42460  -71.59110   -4.90060    5.42460
 1450.00000   10.50880  147.45810  154.33290    6.47950    -999.25    -999.25    -999.25    6.47950   10.50880    6.90730  -69.39240   -2.65400    6.90730
 1500.00000   11.43790  210.48690  233.62850    4.28030    -999.25    -999.25    -999.25    4.28030   11.43790    4.62520  -69.39940   -2.59740    4.62520
 1550.00000    9.87070   91.32130  106.09850    9.42520    -999.25    -999.25    -999.25    9.42520    9.87070   10.82990  -75.77850   -8.83230   10.82990
 1600.00000   10.07320   89.67580  109.58180    9.12560    -999.25    -999.25    -999.25    9.12560   10.07320    9.66320  -77.71820  -10.62700    9.66320
 1650.00000   11.11930  249.20070  244.37930    4.09200    -999.25    -999.25    -999.25    4.09200   11.11930    4.42190  -70.13170   -2.89630    4.42190
 1700.00000   11.69800  143.45160  152.88420    6.54090    -999.25    -999.25    -999.25    6.54090   11.69800    6.22470  -68.94100   -1.56050    6.22470
 1750.00000    9.30460   61.01930   73.81820   13.54680    -999.25    -999.25    -999.25   13.54680    9.30460   14.42490  -77.13510   -9.61050   14.42490
 1800.00000   10.45580  240.71110  243.01340    4.11500    -999.25    -999.25    -999.25    4.11500   10.45580    4.54170  -69.88090   -2.21210    4.54170
 1850.00000   10.49730   87.76090  100.17230    9.98280    -999.25    -999.25    -999.25    9.98280   10.49730   11.81570  -70.61090   -2.79690   11.81570
 1900.00000   10.74160   86.79420  101.41680    9.86030    -999.25    -999.25    -999.25    9.86030   10.74160   10.87550  -71.30400   -3.34590   10.87550
 1950.00000   11.02480  246.26420  238.75470    4.18840    -999.25    -999.25    -999.25    4.18840   11.02480    4.53260  -70.70920   -2.60600    4.53260
 2000.00000    9.84740  115.97100  116.49170    8.58430    -999.25    -999.25    -999.25    8.58430    9.84740    9.59870  -71.17240   -2.92500    9.59870
 2050.00000   12.03970  213.68370  218.22150    4.58250    -999.25    -999.25    -999.25    4.58250   12.03970    4.76440  -71.02410   -2.63260    4.76440
 2100.00000   12.55620  198.25600  210.67710    4.74660    -999.25    -999.25    -999.25    4.74660   12.55620    5.29730  -73.05530   -4.51870    5.29730
 2150.00000   10.26970  162.38840  171.60610    5.82730    -999.25    -999.25    -999.25    5.82730   10.26970    7.08810  -71.95620   -3.27540    7.08810
 2200.00000   10.47890  110.66330  129.88030    7.69940    -999.25    -999.25    -999.25    7.69940   10.47890    8.14080  -73.95400   -5.12810    8.14080
 2250.00000   10.52240  217.32110  224.68380    4.45070    -999.25    -999.25    -999.25    4.45070   10.52240    4.86490  -73.28670   -4.31670    4.86490
 2300.00000   10.46970   81.61710   99.26050   10.07450    -999.25    -999.25    -999.25   10.07450   10.46970   12.87220  -72.68930   -3.57510   12.87220
 2350.00000   10.71790  175.70130  196.28240    5.09470    -999.25    -999.25    -999.25    5.09470   10.71790    5.76460  -70.76740   -1.50800    5.76460
 2400.00000    9.07070   63.32630   75.52470   13.24070    -999.25    -999.25    -999.25   13.24070    9.07070   16.10880  -86.73510  -17.33160   16.10880
 2450.00000    9.25230  110.60650  119.92280    8.33870    -999.25    -999.25    -999.25    8.33870    9.25230    9.25860  -71.32290   -1.77430    9.25860
 2500.00000    9.47810  100.12290  123.91110    8.07030    -999.25    -999.25    -999.25    8.07030    9.47810    8.41050  -71.43700   -1.74420    8.41050
 2550.00000   10.92130  179.74240  200.47310    4.98820    -999.25    -999.25    -999.25    4.98820   10.92130    5.70130  -71.02350   -1.18660    5.70130
 2600.00000   11.87460  147.62270  163.03900    6.13350    -999.25    -999.25    -999.25    6.13350   11.87460    7.33200  -71.50540   -1.52340    7.33200
 2650.00000   12.83220  114.51260  129.06220    7.74820    -999.25    -999.25    -999.25    7.74820   12.83220    8.11690  -74.88100   -4.75480    8.11690
 2700.00000   13.73490  120.58990  133.12740    7.51160    -999.25    -999.25    -999.25    7.51160   13.73490    8.13520  -75.22750   -4.95620    8.13520
 2750.00000   13.63670  128.69180  143.92840    6.94790    -999.25    -999.25    -999.25    6.94790   13.63670    8.25680  -73.20850   -2.79310    8.25680
 2800.00000   12.44240   93.32340  106.42600    9.39620    -999.25    -999.25    -999.25    9.39620   12.44240   12.16300  -75.10520   -4.54560   12.16300
 2850.00000   12.04340  125.02800  138.99700    7.19440    -999.25    -999.25    -999.25    7.19440   12.04340    8.73240  -75.02730   -4.43260    8.73240
 2900.00000   11.62860  127.58080  143.18030    6.98420    -999.25    -999.25    -999.25    6.98420   11.62860    8.24460  -77.60150   -6.97420    8.24460
 2950.00000   11.10070  131.99630  146.70720    6.81630    -999.25    -999.25    -999.25    6.81630   11.10070    7.46120  -76.99990   -6.33980    7.46120
 3000.00000   11.20940  103.09830  118.73520    8.42210    -999.25    -999.25    -999.25    8.42210   11.20940    8.92680  -76.44680   -5.75410    8.92680
 3050.00000   10.81050   83.33070  102.28710    9.77640    -999.25    -999.25    -999.25    9.77640   10.81050   10.56100  -78.82720   -8.10180   10.56100
 3100.00000   11.62110  109.91760  129.03730    7.74970    -999.25    -999.25    -999.25    7.74970   11.62110    9.25640  -78.02450   -7.26630    9.25640
 3150.00000   15.70790  120.99930  127.48920    7.84380    -999.25    -999.25    -999.25    7.84380   15.70790    7.69260  -78.57070   -7.77990    7.69260
 3200.00000   14.25180  106.55030  111.18150    8.99430    -999.25    -999.25    -999.25    8.99430   14.25180    8.80630  -78.60000   -7.77630    8.80630
 3250.00000   14.82150  116.31020  116.12510    8.61140    -999.25    -999.25    -999.25    8.61140   14.82150    8.22500  -78.99950   -8.14310    8.22500
 3300.00000   15.04140  102.89510  115.69250    8.64360    -999.25    -999.25    -999.25    8.64360   15.04140    8.97680  -78.99110   -8.10220    8.97680
 3350.00000   13.21000   84.26110  101.70770    9.83210    -999.25    -999.25    -999.25    9.83210   13.21000   10.67580  -79.17170   -8.24990   10.67580
 3400.00000   13.31830  113.34520  119.86240    8.34290    -999.25    -999.25    -999.25    8.34290   13.31830    8.90760  -79.20890   -8.25450    8.90760
 3450.00000   12.92670  125.99820  131.57380    7.60030    -999.25    -999.25    -999.25    7.60030   12.92670    8.21620  -78.79460   -7.80740    8.21620
 3500.00000   13.15930  117.95000  124.05870    8.06070    -999.25    -999.25    -999.25    8.06070   13.15930    8.33530  -78.34820   -7.32830    8.33530
 3550.00000   13.76660  112.72790  115.76080    8.63850    -999.25    -999.25    -999.25    8.63850   13.76660    9.16560  -76.63810   -5.58560    9.16560
