~Version ---------------------------------------------------
VERS.      2.0 : CWLS log ASCII Standard -VERSION 2.0
WRAP.       NO : One line per depth step
CREA. 11/13/17 : LAS Creation Date
~Well ------------------------------------------------------
STRT.FT                    1000.0 : START DEPTH
STOP.FT                    9550.0 : STOP DEPTH
STEP.FT                  50.00000 : STEP LENGTH
NULL.                     -999.25 : NULL VALUE
COMP.      MESA PETROLEUM COMPANY : COMPANY
WELL. MESA ET AL SAKWA 14-3-65-15 : WELL
FLD .                             : FIELD
LOC .                             : LOCATION
CTRY.                      CANADA : COUNTRY
SRVC.                Schlumberger : SERVICE COMPANY
DATE.                 05-Mar-1972 : LOGDATE
PROV.                     Alberta : PROVINCE
UWI .            100140306515W500 : UNIQUE WELL ID
SLAT.WGS84               54.60078 : SURFACE LATITUDE
SLON.WGS84              -116.1844 : SURFACE LONGITUDE
~Curve Information -----------------------------------------
DEPT  .FT    : Depth Curve
CALSED.IN    : CALIPER FROM SONIC LOG
CALWS .IN    : CALIPER [CALSED]
CONDWS.MMHO  : CONDUCTIVITY [1000/DRESWS]
DRESWS.OHMM  : DEEP RESISTIVITY [ILDED]
DTED  .US/F  : DELTA TIME FROM SONIC LOG [DEPTH ADJ TO LL8]
DTWS  .US/F  : DELTA TIME [DTED]
GRSED .GAPI  : GAMMA RAY FROM SONIC LOG
GRWS  .GAPI  : GAMMA RAY [GRSED]
ILDED .OHMM  : INDUCTION LOG DEEP RESISTIVITY
ILMED .OHMM  : INDUCTION LOG MEDIUM RESISTIVITY
LL8ED .OHMM  : 8 INCH LATEROLOG RESISTIVITY
MRESWS.OHMM  : MEDIUM RESISTIVITY [ILMED]
SPRED .MV    : SPONTANEOUS POTENTIAL FROM RESISTIVITY LOG
SPWS  .MV    : SPONTANEOUS POTENTIAL [BASELINE 0 MV] [SPRED]
SRESWS.OHMM  : SHALLOW RESISTIVITY [LL8ED]
~Params ----------------------------------------------------
PD  .                     GL : PERMANENT DATUM
EPD .FT                 3248 : ELEVATION PERMANENT DATUM
LMF .                     KB : LOG MEASURED FROM
DAPD.FT                   14 : FEET ABOVE PERMANENT DATUM
EKB .FT                 3262 : KELLY BUSHING
EGL .FT                 3248 : GROUND LEVEL
DATE.               03/05/72 : RUN DATE
RUN .                      1 : RUN NUMBER
DD  .FT                 9600 : DEPTH DRILLER
DL  .FT                 9602 : DEPTH LOGGER
BLI .FT                 9596 : BOTTOM LOG INTERVAL
TLI .FT                 1088 : TOP LOG INTERVAL
CBD .FT                 1088 : CASING BOTTOM DRILLER
CBL .FT                 1088 : CASING BOTTOM LOGGER
BS  .IN                 8.75 : BIT SIZE
BSD .FT                 9600 : BIT SIZE AT DEPTH
DFT .                    GEL : DRILLING FLUID TYPE
DFD .                    8.8 : DRILLING FLUID DENSITY
DFV .                    185 : DRILLING FLUID VISCOSITY
DFPH.                     10 : DRILLING FLUID PH
DFL .                    7.8 : DRILLING FLUID LOSS
MSS .               FLOWLINE : MUD SAMPLE SOURCE
RMS .OHMM               3.18 : RESISTIVITY MUD SAMPLE
MST .DEGF                 68 : MUD SAMPLE TEMPERATURE
RMF .OHMM               3.21 : RESISTIVITY MUD FILTRATE SAMPLE
MFST.DEGF                 61 : MUD FILTRATE SAMPLE TEMPERATURE
TCS .HRS                   4 : TIME CIRCULATED STOPPED
LUN .                   5628 : LOGGING UNIT NUMBER
LUL .                    EDM : LOGGING UNIT LOCATION
ENGI.                WORONUK : RECORDING ENGINEER
WITN.                  HOVER : WITNESSED BY
CLNT.                A2DTECH : CLIENT CODE
ORIG.            2" 5" PRINT : ORIGIN OF DATA
UWI .       100140306515W500 : UNIQUE WELL ID
DICO. A2D Technologies, Inc. : DIGITIZING COMPANY
~Other -----------------------------------------------------
~ASCII -----------------------------------------------------
# ...
 7900.00000    9.46210    9.46210   20.29600   49.27080   54.49340   54.49340   36.31690   36.31690   49.27080   60.68780   76.84940   60.68780  -74.20060   -5.83390   76.84940
 7950.00000    9.72330    9.72330   47.36030   21.11480   58.63440   58.63440   46.85950   46.85950   21.11480   27.13360   29.73730   27.13360  -74.40110   -6.92710   29.73730
 8000.00000   10.31940   10.31940   64.83490   15.42380   77.88190   77.88190   47.70070   47.70070   15.42380   18.73650   20.45980   18.73650  -70.77210   -4.31930   20.45980
 8050.00000   11.43030   11.43030  127.61120    7.83630   69.94990   69.94990   60.01920   60.01920    7.83630    8.31950    9.11060    8.31950  -76.82030  -11.39380    9.11060
 8100.00000   10.93010   10.93010  106.10640    9.42450   62.71530   62.71530   54.52630   54.52630    9.42450   10.76630   12.68800   10.76630  -74.49960  -10.09930   12.68800
 8150.00000   10.33380   10.33380  132.74570    7.53320   69.13280   69.13280   61.84880   61.84880    7.53320    8.56730    9.16510    8.56730  -68.00430   -4.63030    9.16510
 8200.00000   15.00000   15.00000  191.07770    5.23360   76.50680   76.50680   80.30360   80.30360    5.23360    4.54880    7.89260    4.54880  -81.51310  -19.17060    7.89260
 8250.00000   10.32720   10.32720   88.47520   11.30260   71.84180   71.84180   88.17970   88.17970   11.30260   11.74320   12.80410   11.74320  -66.58630   -5.26490   12.80410
 8300.00000   10.68620   10.68620  150.61380    6.63950   68.48580   68.48580   66.39880   66.39880    6.63950    7.56710    9.58320    7.56710  -67.42870   -7.13360    9.58320
 8350.00000   11.13970   11.13970  228.51920    4.37600   76.96690   76.96690   83.28600   83.28600    4.37600    4.92400    6.31510    4.92400  -75.11580  -15.25310    6.31510
 8400.00000    9.83340    9.83340  106.67580    9.37420   66.97270   66.97270   65.59150   65.59150    9.37420   10.45220   14.48340   10.45220  -61.80810   -0.00240   14.48340
 8450.00000   10.62820   10.62820   99.37120   10.08970   69.77620   69.77620   73.64790   73.64790   10.08970   10.54850   12.22370   10.54850  -92.03080  -28.27240   12.22370
 8500.00000   14.80290   14.80290  216.13210    4.62680   79.22570   79.22570   77.40690   77.40690    4.62680    4.41660    5.55370    4.41660  -82.61710  -16.92550    5.55370
 8550.00000    9.61320    9.61320  101.74080    9.82890   66.15420   66.15420   68.08450   68.08450    9.82890   11.11640   13.79400   11.11640  -73.42820   -5.79360   13.79400
 8600.00000    9.96770    9.96770  145.16320    6.88880   73.23110   73.23110   89.95350   89.95350    6.88880    7.37370    8.10010    7.37370  -87.43000  -17.85240    8.10010
 8650.00000    9.69930    9.69930  111.46910    8.97110   69.93320   69.93320   82.88880   82.88880    8.97110   10.07030   11.67710   10.07030  -79.94700   -8.42640   11.67710
 8700.00000    9.60370    9.60370  122.14110    8.19310   70.63260   70.63260   78.91660   78.91660    8.19310    9.67310   12.12200    9.67310  -83.30560   -9.83230   12.12200
 8750.00000    9.61730    9.61730  161.53000    6.19080   78.56070   78.56070  105.98170  105.98170    6.19080    6.79410    8.72950    6.79410 -105.82050  -30.41400    8.72950
 8800.00000   10.24820   10.24820  175.89530    5.68520   76.52350   76.52350  103.54840  103.54840    5.68520    6.17460    7.30180    6.17460 -111.80540  -34.45590    7.30180
 8850.00000   11.02400   11.02400  102.89650    9.71850   82.73600   82.73600   96.35430   96.35430    9.71850    7.00530   12.80190    7.00530 -127.85280  -48.56030   12.80190
 8900.00000   10.62140   10.62140   92.16250   10.85040   80.86210   80.86210  107.39700  107.39700   10.85040    9.17180   14.26940    9.17180 -113.48790  -32.25240   14.26940
 8950.00000   12.69640   12.69640   85.82430   11.65400   88.15290   88.15290  109.74630  109.74630   11.65400    7.09430   10.27680    7.09430 -135.47420  -52.28600   10.27680
 9000.00000    8.70530    8.70530    5.00570  199.77340   74.19750   74.19750  139.80570  139.80570  199.77340  315.41120  560.04270  315.41120  -88.77740   -3.93390  560.04270
 9050.00000    8.83650    8.83650  148.66350    6.72660   73.54570   73.54570   83.68510   83.68510    6.72660    8.99550   10.58170    8.99550 -109.82880  -25.35910   10.58170
 9100.00000   11.47980   11.47980   56.89970   17.57480   86.63170   86.63170  109.25490  109.25490   17.57480   16.77460   19.06260   16.77460 -122.55140  -38.45540   19.06260
 9150.00000    8.69400    8.69400   18.86550   53.00680   59.78080   59.78080   48.97310   48.97310   53.00680   73.29690  114.62770   73.29690  -93.41840   -9.69620  114.62770
 9200.00000    8.98530    8.98530   99.90030   10.01900   66.55810   66.55810   76.65120   76.65120   10.01900   11.92550   13.06930   11.92550  -91.87420   -8.52750   13.06930
 9250.00000    8.70090    8.70090    7.69460  129.96180   54.57460   54.57460   31.04940   31.04940  129.96180  265.20680  390.82540  265.20680  -94.50360  -11.52880  390.82540
 9300.00000    8.69220    8.69220    6.78040  147.48450   50.47720   50.47720   25.52400   25.52400  147.48450  242.15030  256.27030  242.15030  -87.77430   -5.17330  256.27030
 9350.00000    8.68100    8.68100   17.83510   56.06920   55.05800   55.05800   37.28760   37.28760   56.06920   76.56010  105.44000   76.56010  -87.25220   -5.02490  105.44000
 9400.00000    8.69920    8.69920    4.17880  239.30080   50.67870   50.67870   22.46890   22.46890  239.30080  453.20540  573.77310  453.20540  -88.78310   -7.06450  573.77310
 9450.00000    8.66290    8.66290   14.51540   69.21420   50.86160   50.86160   13.29980   13.29980   69.21420   81.70110   91.63980   81.70110 -192.61180 -112.39950   91.63980
 9500.00000    8.83950    8.83950    0.67430 1483.04060   48.72370   48.72370   15.43890   15.43890 1483.04060 1437.59690 1592.57810 1437.59690 -150.83270  -72.11150 1592.57810
 9550.00000    8.40780    8.40780    4.51200  221.63010   51.38870   51.38870   17.15620   17.15620  221.63010  211.84340  872.52760  211.84340 -159.69880  -82.47630  872.52760
