~Version ---------------------------------------------------
VERS.      2.0 : CWLS log ASCII Standard -VERSION 2.0
WRAP.       NO : One line per depth step
CREA. 06/05/13 : LAS Creation Date
~Well ------------------------------------------------------
STRT.M                   300.0 : START DEPTH
STOP.M                  3000.0 : STOP DEPTH
STEP.M                50.00000 : STEP LENGTH
NULL.                  -999.25 : NULL VALUE
COMP. PARAMOUNT RESOURCES LTD. : COMPANY
WELL.   PARA KAYBOB 7-27-63-18 : WELL
FLD .                   KAYBOB : FIELD
LOC .                          : LOCATION
CTRY.                   CANADA : COUNTRY
SRVC.               Computalog : SERVICE COMPANY
DATE.              26-Jul-1998 : LOGDATE
PROV.                  Alberta : PROVINCE
UWI .         100072706318W500 : UNIQUE WELL ID
SLAT.WGS84       54.4775665089 : SURFACE LATITUDE
SLON.WGS84     -116.6347462801 : SURFACE LONGITUDE
~Curve Information -----------------------------------------
DEPT    .M      : DEPTH METER
CALWS   .MM     : CALIPER [CALXDED]
CALXDED .MM     : CALIPER X FROM DENSITY LOG [ADJ. TO RESISTIVITY LOG]
CALYDED .MM     : CALIPER Y FROM DENSITY LOG [ADJ. TO RESISTIVITY LOG]
CALYSED .MM     : CALIPER Y FROM SONIC LOG [ADJ. TO RESISTIVITY LOG]
CONDWS  .MMHO   : CONDUCTIVITY [1000/DRESWS]
DCORED  .KG/M3  : DENSITY CORRECTION FROM DENSITY LOG [ADJ. TO RESISTIVITY LOG]
DCORWS  .KG/M3  : DENSITY CORRECTION [DRHOED SPL. TO DCORED @1907.5M]
DENWS   .KG/M3  : FORMATION BULK DENSITY [CALC. FROM DPOLSWS M=2710,F=1000]
DPOLSWS .V/V    : DENSITY POROSITY LIMESTONE [DPORSSED CONVERTED TO LIMESTONE MATRIX, SPL. TO DPORLSED @ 1815M]
DPORLSED.V/V    : DENSITY POROSITY LIMESTONE [M=2710,F=1000] FROM DENSITY LOG [ADJ. TO RESISTIVITY LOG]
DPORSSED.V/V    : DENSITY POROSITY SANDSTONE [M=2650,F=1000] FROM DENSITY LOG [ADJ. TO RESISTIVITY LOG]
DRESWS  .OHMM   : DEEP RESISTIVITY [STIDED]
DRHOED  .KG/M3  : BULK DENSITY CORRECTION FROM DENSITY LOG [ADJ. TO RESISTIVITY LOG]
DTED    .US/M   : DELTA-T FROM SONIC LOG [ADJ. TO RESISTIVITY LOG]
DTWS    .US/M   : COMPRESSIONAL SONIC [DTED]
GRDED   .GAPI   : GAMMA RAY FROM DENSITY LOG [ADJ. TO RESISTIVITY LOG]
GRRED   .GAPI   : GAMMA RAY FROM RESISTIVITY LOG
GRSED   .GAPI   : GAMMA RAY FROM SONIC LOG [ADJ. TO RESISTIVITY LOG]
GRWS    .GAPI   : GAMMA RAY [GRSED SPL. TO GRDED @3028.2M]
MRESWS  .OHMM   : MEDIUM RESISTIVITY [STIMED]
NPOLSWS .V/V    : NEUTRON POROSITY LIMESTONE [NPORSSED MATRIX CONVERSION FOR LIMESTONE, SPL. TO NPORLSED @1815M]
NPORLSED.V/V    : NEUTRON POROSITY LIMESTONE FROM DENSITY LOG [ADJ. TO RESISTIVITY LOG]
NPORSSED.V/V    : NEUTRON POROSITY SANDSTONE FROM DENSITY LOG [ADJ. TO RESISTIVITY LOG]
PEED    .B/E    : PHOTO ELECTRIC CROSS SECTION FROM DENSITY LOG [ADJ. TO RESISTIVITY LOG]
PEFWS   .B/E    : PHOTOELECTRIC FACTOR [PEED]
RHOBED  .KG/M3  : BULK DENSITY FROM DENSITY LOG [ADJ. TO RESISTIVITY LOG/DPORSSED]
SFLED   .OHMM   : SPHERICALLY FOCUSED FROM RESISTIVITY LOG
SPRED   .MV     : SPONTANEOUS POTENTIAL FROM RESISTIVITY LOG
SPWS    .MV     : SPONTANEOUS POTENTIAL [BASELINE 0 MV, SPRED]
SRESWS  .OHMM   : SHALLOW RESISTIVITY [SFLED]
STIDED  .OHMM   : SIMULTANEOUS TRIPLE DEEP INDUCTION FROM RESISTIVITY LOG
STIMED  .OHMM   : SIMULTANEOUS TRIPLE MEDIUM INDUCTION FROM RESISTIVITY LOG
TENDED  .N      : TENSION FROM DENSITY LOG [ADJ. TO RESISTIVITY LOG]
TENRED  .N      : TENSION FROM RESISTIVITY LOG
TENSED  .N      : TENSION FROM SONIC LOG [ADJ. TO RESISTIVITY LOG]
~Params ----------------------------------------------------
PD  .                         GL : PERMANENT DATUM
EPD .FT                      782 : ELEVATION PERMANENT DATUM
LMF .                         KB : LOG MEASURED FROM
DAPD.FT                      5.4 : FEET ABOVE PERMANENT DATUM
EKB .FT                    787.4 : KELLY BUSHING
EGL .FT                      782 : GROUND LEVEL
DATE.                   07/26/98 : RUN DATE
RUN .                          2 : RUN NUMBER
DD  .FT                     3040 : DEPTH DRILLER
DL  .FT                   3040.2 : DEPTH LOGGER
BLI .FT                   3038.1 : BOTTOM LOG INTERVAL
TLI .FT                     1906 : TOP LOG INTERVAL
CBD .FT                     1910 : CASING BOTTOM DRILLER
CBL .FT                   1906.8 : CASING BOTTOM LOGGER
BS  .IN                      155 : BIT SIZE
BSD .MM                     3040 : BIT SIZE AT DEPTH
DFT .               GEL CHEMICAL : DRILLING FLUID TYPE
DFD .                      11100 : DRILLING FLUID DENSITY
DFV .                         70 : DRILLING FLUID VISCOSITY
DFPH.                         10 : DRILLING FLUID PH
DFL .                          7 : DRILLING FLUID LOSS
MSS .                   FLOWLINE : MUD SAMPLE SOURCE
RMS .OHMM                    1.3 : RESISTIVITY MUD SAMPLE
MST .DEGC                     23 : MUD SAMPLE TEMPERATURE
RMF .OHMM                    1.2 : RESISTIVITY MUD FILTRATE SAMPLE
MFST.DEGC                     23 : MUD FILTRATE SAMPLE TEMPERATURE
RMC .OHMM                    1.3 : RESISTIVITY MUD CAKE
MCST.DEGC                     23 : MUD CAKE SAMPLE TEMPERATURE
RMB .OHMM                    0.5 : RESISTIVITY MUD AT BHT
TCS .HRS                       6 : TIME CIRCULATED STOPPED
LUN .                        361 : LOGGING UNIT NUMBER
LUL .                     GRANDE : LOGGING UNIT LOCATION
ENGI.                       BAST : RECORDING ENGINEER
WITN.                  CZYPIANKA : WITNESSED BY
CLNT.                    A2DTECH : CLIENT CODE
ORIG. 6.5"/100M 16.5"/100M PRINT : ORIGIN OF DATA
UWI .           100072706318W500 : UNIQUE WELL ID
DICO.     A2D Technologies, Inc. : DIGITIZING COMPANY
~Other -----------------------------------------------------
RUN #1 : STI-SP-SPED-CNT-GR RUN IN COMBO & BHC LOG RUN
RUN #2 : STI-BHC RUN IN COMBO & CNT LOG RUN
RHOB FROM SMALL SCALE SECTION
~ASCII -----------------------------------------------------
  300.00000    -999.25    -999.25    -999.25    -999.25    -999.25    -999.25    -999.25    -999.25    -999.25    -999.25    -999.25    -999.25    -999.25    -999.25    -999.25    -999.25    -999.25   45.91740   45.91740    -999.25    -999.25    -999.25    -999.25    -999.25    -999.25    -999.25    -999.25    -999.25    -999.25    -999.25    -999.25    -999.25    -999.25    -999.25    -999.25
  350.00000  227.76900  227.76900  274.28710  280.44770   85.71990    -999.25   32.59890 2272.15000    0.25610    -999.25    0.22900   11.66590   32.59890  335.09230  335.09230   56.00240   54.47570   47.77840   47.77840   10.94220    0.25930    -999.25    0.30430    2.40220    2.40220 2270.36380   10.11460  -41.86180   -3.74260   10.11460   11.66590   10.94220 8181.13270 8170.23500 6116.65440
  400.00000  228.50830  228.50830  302.05010  308.38840  202.56450    -999.25   41.01650 2364.22000    0.20220    -999.25    0.17320    4.93670   41.01650  362.30360  362.30360   82.07810   82.83440   78.94440   78.94440    4.60520    0.32120    -999.25    0.36620    2.78840    2.78840 2371.51760    4.13660  -36.89450   -1.90570    4.13660    4.93670    4.60520 8346.85430 8307.68290 6506.78470
  450.00000  250.23250  250.23250  268.36830  280.90240  222.12350    -999.25   68.86850 2350.03000    0.21050    -999.25    0.18180    4.50200   68.86850  336.57600  336.57600   80.01820   80.27580   73.43090   73.43090    4.20230    0.28760    -999.25    0.33260    2.71660    2.71660 2369.85960    4.31120  -35.07460   -2.28280    4.31120    4.50200    4.20230 8703.03230 8821.98670 6558.53710
  500.00000  239.07650  239.07650  265.54560  272.86410  183.31810    -999.25   39.09720 2351.35000    0.20970    -999.25    0.18100    5.45500   39.09720  310.09910  310.09910   63.40390   62.92320   64.57740   64.57740    5.26010    0.30680    -999.25    0.35180    2.44710    2.44710 2358.57690    5.10720  -31.78960   -1.19490    5.10720    5.45500    5.26010 8961.45090 8938.46470 6822.39990
  550.00000  238.53700  238.53700  313.83990  324.35170  200.25230    -999.25   59.97160 2406.95500    0.17720    -999.25    0.14730    4.99370   59.97160  363.02490  363.02490   75.75030   76.88770   73.77180   73.77180    4.38060    0.32720    -999.25    0.37220    2.81400    2.81400 2374.41090    3.84550  -27.88700   -0.14430    3.84550    4.99370    4.38060 8914.45850 9012.27580 7088.05250
  600.00000  244.85540  244.85540  255.03620  262.82250  137.36260    -999.25  101.29500 2508.59500    0.11780    -999.25    0.08570    7.28000  101.29500  283.98980  283.98980   64.21440   67.16450   63.41210   63.41210    7.02940    0.24470    -999.25    0.28970    2.55840    2.55840 2516.84180   19.28850  -39.52600   -2.91260   19.28850    7.28000    7.02940 9136.90560 9210.76610 7402.18550
  650.00000  233.84440  233.84440  248.35100  250.37820  113.95230    -999.25   78.81250 2384.02000    0.19060    -999.25    0.16120    8.77560   78.81250  307.67940  307.67940   51.88340   52.40690   49.45070   49.45070    8.06750    0.29270    -999.25    0.33770    2.60160    2.60160 2383.11500    9.59220  -39.96380   -5.61150    9.59220    8.77560    8.06750 9542.80900 9607.69520 7493.69430
  700.00000  227.62220  227.62220  261.58960  322.52360  203.07870    -999.25  104.59220 2350.19500    0.21040    -999.25    0.18170    4.92420  104.59220  346.62710  346.62710   64.64160   65.49500   61.04260   61.04260    4.37900    0.34620    -999.25    0.39120    2.48470    2.48470 2363.04540    3.52020  -33.82790   -3.93810    3.52020    4.92420    4.37900 9625.79100 9685.01640 7834.45520
  750.00000  228.37770  228.37770  231.41930  237.85950  176.23630    -999.25   57.72390 2408.93500    0.17610    -999.25    0.14610    5.67420   57.72390  312.69220  312.69220   69.28250   69.34790   63.97940   63.97940    5.36750    0.27440    -999.25    0.31940    2.55800    2.55800 2428.35910    6.27680  -33.14780   -3.48260    6.27680    5.67420    5.36750 9959.69630 9920.61470 8152.10630
  800.00000  231.76310  231.76310  234.48360  237.12020  161.52480    -999.25  113.01430 2384.84500    0.19010    -999.25    0.16070    6.19100  113.01430  297.99410  297.99410   65.92540   67.43910   57.72780   57.72780    6.44130    0.25980    -999.25    0.30480    2.79330    2.79330 2397.86960   10.51080  -29.42530   -4.46180   10.51080    6.19100    6.44130 10179.65870 10239.46410 8456.37620
  850.00000  229.61940  229.61940  233.08830  239.79510  134.19580    -999.25   73.75380 2452.49500    0.15060    -999.25    0.11970    7.45180   73.75380  306.53860  306.53860   62.95780   63.98120   59.91060   59.91060    7.08870    0.27200    -999.25    0.31700    2.73880    2.73880 2435.63310    6.56580  -30.99410   -2.99200    6.56580    7.45180    7.08870 10394.57940 10406.39830 8399.51460
  900.00000  226.67100  226.67100  253.03780  292.66560  122.28830    -999.25   78.19280 2561.39500    0.08690    -999.25    0.05370    8.17740   78.19280  290.61960  290.61960   85.57710   85.68220   86.92620   86.92620    8.44710    0.29870    -999.25    0.34370    3.12920    3.12920 2570.79370    7.84620  -33.68020   -3.64630    7.84620    8.17740    8.44710 10480.71610 10515.74890 8573.49920
  950.00000  236.57000  236.57000  233.36760  238.60520   79.62610    -999.25   50.34700 2591.09500    0.06950    -999.25    0.03570   12.55870   50.34700  264.82180  264.82180   91.13270   90.96920   86.38130   86.38130   13.18880    0.19880    -999.25    0.24400    2.86860    2.86860 2602.24100   17.99700  -34.29260   -4.18120   17.99700   12.55870   13.18880 10788.68020 10781.96030 8890.05340
 1000.00000  241.22040  241.22040  255.30450  254.20280  129.56220    -999.25  230.06010 2567.66500    0.08320    -999.25    0.04990    7.71830  230.06010  298.56720  298.56720   89.55560   89.29070   93.13940   93.13940    7.84800    0.28050    -999.25    0.32550    2.78350    2.78350 2567.58250    7.93330  -38.29520   -3.68230    7.93330    7.71830    7.84800 11012.63800 11022.55970 9199.82350
 1050.00000  228.60570  228.60570  285.21380  291.93890  168.25670    -999.25  251.72940 2540.60500    0.09910    -999.25    0.06630    5.94330  251.72940  315.57660  315.57660  107.61110  108.74650   99.45530   99.45530    6.04220    0.34470    -999.25    0.38970    2.54020    2.54020 2539.47830    6.20250  -45.26580   -4.46360    6.20250    5.94330    6.04220 11238.25800 11215.50360 9572.26240
 1100.00000  231.53520  231.53520  292.49840  281.88910  111.25700    -999.25  114.57920 2576.74000    0.07790    -999.25    0.04440    8.98820  114.57920  278.85060  278.85060   93.41240   94.34900   94.65860   94.65860    9.66050    0.26450    -999.25    0.30950    2.35000    2.35000 2588.95920    9.38270  -42.80890   -2.53410    9.38270    8.98820    9.66050 11446.37960 11432.94910 9827.02500
 1150.00000  228.50990  228.50990  270.58920  268.80710  119.28480    -999.25   96.44770 2549.35000    0.09390    -999.25    0.06100    8.38330   96.44770  284.54140  284.54140  101.08460  100.40200   97.27640   97.27640    8.73310    0.28040    -999.25    0.32540    2.59220    2.59220 2551.32010    9.89080  -41.08600   -3.37050    9.89080    8.38330    8.73310 11644.50700 11635.57450 9935.53620
 1200.00000  227.26410  227.26410  233.57320  232.12450  125.62180    -999.25   36.30150 2552.32000    0.09220    -999.25    0.05920    7.96040   36.30150  308.47610  308.47610  125.29170  126.76710  116.76870  116.76870    8.22140    0.32600    -999.25    0.37100    3.33570    3.33570 2550.47560    9.93390  -36.82540   -2.65180    9.93390    7.96040    8.22140 11668.32270 11766.44520 10166.61690
 1250.00000  232.10870  232.10870  232.49690  232.18770  105.21660    -999.25   35.14850 2504.80000    0.12000    -999.25    0.08800    9.50420   35.14850  312.73500  312.73500  126.37530  127.57080  123.81420  123.81420    9.82860    0.34640    -999.25    0.39140    3.46970    3.46970 2506.28830   10.31910  -34.44700   -3.35010   10.31910    9.50420    9.82860 11730.55870 11730.14500 10164.73580
 1300.00000  225.58610  225.58610  244.51070  241.31930  156.52640    -999.25  107.81510 2586.14500    0.07240    -999.25    0.03870    6.38870  107.81510  287.64710  287.64710  112.99890  111.99510  107.61640  107.61640    6.50960    0.30160    -999.25    0.34660    2.76310    2.76310 2588.19170    6.68230  -37.69200   -4.16390    6.68230    6.38870    6.50960 12310.37730 12315.09150 10510.65350
