~Version ---------------------------------------------------
VERS.      2.0 : CWLS log ASCII Standard -VERSION 2.0
WRAP.       NO : One line per depth step
CREA. 09/17/14 : LAS Creation Date
~Well ------------------------------------------------------
STRT.M                   450.0 : START DEPTH
STOP.M                  4200.0 : STOP DEPTH
STEP.M                50.00000 : STEP LENGTH
NULL.                  -999.25 : NULL VALUE
COMP.     CHEVRON STANDARD LTD : COMPANY
WELL. CHEVRON WEALD 3-22-52-19 : WELL
FLD .                          : FIELD
LOC .                          : LOCATION
CTRY.                   CANADA : COUNTRY
SRVC.   Schlumberger of Canada : SERVICE COMPANY
DATE.              29-Nov-1978 : LOGDATE
PROV.                  Alberta : PROVINCE
UWI .         100032205219W500 : UNIQUE WELL ID
SLAT.WGS84            53.50026 : SURFACE LATITUDE
SLON.WGS84           -116.7206 : SURFACE LONGITUDE
~Curve Information -----------------------------------------
DEPT   .M                  : DEPTH METER
CALD   .MM    45 280 60 00 : CALIPER FROM DENSITY LOG
CALS   .MM    60 280 50 00 : CALIPER FROM SONIC LOG
DPHI_LS.DEC   45 890 10 00 : DENSITY POROSITY LIMESTONE
DPHI_SS.DEC   45 890 12 00 : DENSITY POROSITY SANDSTONE
DRHO   .KG/M3 45 356 01 00 : BULK DENSITY CORRECTION
DT     .US/M  60 500 00 00 : DELTA-T (INTERVAL TRANSIT TIME)
GRD    .GAPI  45 310 01 00 : GAMMA RAY FROM DENSITY LOG
GRN    .GAPI  35 310 01 00 : GAMMA RAY FROM GRN LOG
GRR    .GAPI  07 310 01 00 : GAMMA RAY FROM RESISTIVITY LOG
GRS    .GAPI  60 310 01 00 : GAMMA RAY FROM SONIC LOG
ILD    .OHMM  07 120 46 00 : INDUCTION DEEP RESISTIVITY
ILM    .OHMM  07 120 44 00 : INDUCTION MEDIUM RESISTIVITY
NEUT   .NAPI  35 330 01 00 : NEUTRON
NPHI_LS.DEC   42 890 01 00 : NEUTRON POROSITY LIMESTONE
NPHI_SS.DEC   42 890 03 00 : NEUTRON POROSITY SANDSTONE
RHOB   .KG/M3 45 350 01 00 : BULK DENSITY
SFL    .OHMM  07 220 01 00 : SPHERICALLY FOCUSED LOG
SPR    .MV    07 010 01 00 : SPONTANEOUS POTENTIAL FROM RESISTIVITY LOG
TEND   .N     45 635 00 00 : TENSION FROM DENSITY LOG
TENS   .N     60 635 00 00 : TENSION FROM SONIC LOG
~Params ----------------------------------------------------
PD  .                           GL : PERMANENT DATUM
EPD .FT                      981.3 : ELEVATION PERMANENT DATUM
LMF .                           KB : LOG MEASURED FROM
DAPD.FT                        7.5 : FEET ABOVE PERMANENT DATUM
DMF .                           KB : DRILLING MEASURED FROM
EKB .FT                      988.8 : KELLY BUSHING
EGL .FT                      981.3 : GROUND LEVEL
DATE.                     11/29/78 : RUN DATE
RUN .                            2 : RUN NUMBER
DD  .FT                       4238 : DEPTH DRILLER
DL  .FT                     4235.5 : DEPTH LOGGER
BLI .FT                     4231.7 : BOTTOM LOG INTERVAL
TLI .FT                       3354 : TOP LOG INTERVAL
DFT .                          GEL : DRILLING FLUID TYPE
DFD .                         1065 : DRILLING FLUID DENSITY
DFV .                           82 : DRILLING FLUID VISCOSITY
DFPH.                         10.5 : DRILLING FLUID PH
DFL .                          8.6 : DRILLING FLUID LOSS
MSS .                         CIRC : MUD SAMPLE SOURCE
TLAB.HRS                       500 : TIME LOGGER AT BOTTOM
LUN .                         7802 : LOGGING UNIT NUMBER
LUL .                          EDM : LOGGING UNIT LOCATION
ENGI.                      ROVELLI : RECORDING ENGINEER
WITN.              SPRAGUE BARROWS : WITNESSED BY
CLNT.                      A2DTECH : CLIENT CODE
ORIG. 6.5IN/100M 16.5IN/100M PRINT : ORIGIN OF DATA
UWI .             100032205219W500 : UNIQUE WELL ID
DICO.       A2D Technologies, Inc. : DIGITIZING COMPANY
~Other -----------------------------------------------------
~ASCII -----------------------------------------------------
# ...
 2200.00000  252.37370  249.46210    -999.25    0.00610   -3.00660  248.79410  119.07480   64.63340  119.17270  116.51540    9.64920   10.54360  226.71900    -999.25    0.26920 2628.31590    -999.25    -999.25 3053.64310  851.81910
 2250.00000  260.11650  246.75410    -999.25    0.02370   -5.46630  243.93800  131.44920   80.90200  131.85660  121.17020   10.85360   12.00240  197.34360    -999.25    0.23500 2615.60620    -999.25    -999.25 3740.23630 1546.46950
 2300.00000  246.51260  253.48500    -999.25    0.00670   -4.68890  252.74520  126.73620   85.26020  117.71320  116.93300   10.11300   11.38180  206.55780    -999.25    0.28180 2625.60080    -999.25    -999.25 1153.33730 2212.94240
 2350.00000  248.83730  253.57560    -999.25    0.03140   23.16090  277.20020  139.89730   81.88010  132.21890  135.88210   11.36180   12.79370  190.21350    -999.25    0.33170 2620.12650    -999.25    -999.25 2421.29660 -190.02050
 2400.00000  248.11630  251.40640    -999.25    0.00810   13.23270  284.75230  137.99950   93.51370  132.40350  139.53960   11.19850   12.91390  185.91180    -999.25    0.37120 2616.72410    -999.25    -999.25 2876.28710  451.71390
 2450.00000  247.76670  253.63970    -999.25    0.01350  -15.73050  269.63540  131.80600   72.01010  120.64530  115.80810   11.53180   13.48300  187.32010    -999.25    0.34910 2637.03100    -999.25    -999.25  267.31260 1559.10310
 2500.00000  242.11900  248.68060    -999.25   -0.00170   17.35890  258.48830  127.32190   84.26710  119.41610  118.85680    7.16320    7.91600  186.92600    -999.25    0.32770 2648.06320    -999.25    -999.25 1794.65780 2054.33060
 2550.00000  238.96120  244.62870    -999.25    0.01020    2.31930  252.14750  133.91380   83.13940  126.71210  118.81450    7.55100    8.77200  202.49550    -999.25    0.28950 2660.76390    -999.25    -999.25 2700.55440  844.00990
 2600.00000  231.42160  237.80470    -999.25    0.03010    5.64930  281.96920  139.13920   76.11040  128.16830  130.31200    5.49130    6.12580  212.81440    -999.25    0.34920 2603.67940    -999.25    -999.25   80.50510 1704.54750
 2650.00000  231.10860  238.60790    -999.25   -0.01930   13.09400  221.29320   85.12910   57.24800   79.72940   77.97550   13.00270   15.61440  211.46180    -999.25    0.23510 2692.25420    -999.25    -999.25 1314.60730 2222.69870
 2700.00000  390.38210  312.80690    -999.25    -999.25   11.74930  386.05980   71.00420   40.39240   76.04930   70.03760   32.93060   35.69400  225.61420    -999.25    0.44960 1487.41600    -999.25    -999.25 1921.79610    -999.25
 2750.00000  227.85360  236.61620    -999.25   -0.01950   -7.67350  202.99290   66.09860   61.97410   61.76350   55.76030   23.21150   33.34760  211.99900    -999.25    0.20430 2676.03640    -999.25    -999.25 2814.52560  295.64840
 2800.00000  226.68260  232.60410    -999.25    0.03980  -13.68530  217.12360   63.26980   64.02220   59.31390   60.40150   13.11460   15.29980  213.55260    -999.25    0.14410 2599.72580    -999.25    -999.25 3325.52640  879.49800
 2850.00000  235.86210  233.35700    -999.25   -0.01370  104.41220  221.44610  101.59720   66.06900   85.05880   77.57960   31.25160   40.58140  224.84540    -999.25    0.20680 2632.04170    -999.25    -999.25 4996.90040 1664.68020
 2900.00000  239.65810  235.78880    -999.25    0.05560  125.15690  228.02640  111.77730   42.54400  108.41100  106.86240   14.74480   14.97920  262.99790    -999.25    0.24320 2601.92720    -999.25    -999.25 1838.69290 2273.48340
 2950.00000  232.43840  231.78200    -999.25    0.09430   14.58540  227.95510  135.12640   78.91480  104.66940  107.21100   32.18870   58.60620  226.46480    -999.25    0.18060 2510.52320    -999.25    -999.25 2333.74560  669.82460
 3000.00000  201.35760  227.03580    0.16220    0.00230    5.66850  187.83310   22.23270   21.62520   19.91050   23.81430   50.08570   59.78380  297.12120    0.16460    -999.25 2426.26050    -999.25    -999.25 2958.93190 1343.49340
 3050.00000  244.53410  227.33290    0.06700    -999.25  112.24130  166.79550   46.03830   28.71560   34.31150   47.14640  133.84050  351.93230  306.97110    0.10290    -999.25 2582.72950    -999.25    -999.25 1098.60240 -237.02740
 3100.00000  220.77000  244.26180   -0.11780    -999.25  -11.15990  169.50420   40.21740    -999.25   38.77480   43.82930  148.72710  216.89400    -999.25    0.02140    -999.25 2876.40800    -999.25    -999.25 1921.25780  764.10050
 3150.00000  222.13390  243.77190   -0.15600    -999.25   -5.48400  166.59580    8.05980    -999.25    8.92030   11.52680  827.79940 1194.39760    -999.25    0.00370    -999.25 2963.10380    -999.25    -999.25 2637.56130 1767.14030
 3200.00000  220.43260  243.54800   -0.04920    -999.25    0.03770  192.00470   68.46530    -999.25   67.66600   73.83360   10.53360   12.66740    -999.25    0.16420    -999.25 2770.96090    -999.25    -999.25 1132.29520  591.34610
 3250.00000  218.54870  244.29430   -0.01190    -999.25   -4.84280  182.76080   51.27510    -999.25   45.14940   51.64800   31.52530   35.05770    -999.25    0.05120    -999.25 2721.64790    -999.25    -999.25 1992.99690 1096.68630
 3300.00000  216.84780  244.03150   -0.00470    -999.25   -7.65140  193.05450   63.35970    -999.25   60.85750   60.90890   22.19110   25.02600    -999.25    0.08100    -999.25 2683.12400    -999.25    -999.25 1860.12790 1876.43760
 3350.00000  215.46310  238.93220   -0.02540    -999.25    0.76450    -999.25   25.34380    -999.25    -999.25   72.70780 1276.24520 1352.00960    -999.25   -0.02010    -999.25 2741.63060    -999.25    -999.25 2872.67040 2412.10740
 3400.00000  210.02960  177.44730    0.29140    -999.25   76.06400  155.69680   11.94950    -999.25    -999.25   48.06770  141.30400   70.23320    -999.25    0.03700    -999.25 2222.37040  334.29280 -434.25580    -999.25 4797.88920
 3450.00000  235.07810  181.27920    0.13970    -999.25  224.41170  156.13950   11.81600    -999.25    -999.25   37.78050  282.67650 1722.84660    -999.25    0.02290    -999.25 2501.95460 1412.94040 -384.74720    -999.25 5924.97710
 3500.00000  175.60960  169.06040    0.09920    -999.25  231.70460  157.67490   12.51810    -999.25    -999.25   38.84840 1555.82090 1480.97170    -999.25    0.00910    -999.25 2545.33500 1420.73630 -572.60220    -999.25 7846.16890
 3550.00000  157.91830  169.01010    0.02000    -999.25   34.98640  159.74660    7.17160    -999.25    -999.25   30.72960   83.74790  140.80930    -999.25    0.01190    -999.25 2674.33670  174.23510 -437.16740    -999.25  649.62720
 3600.00000  169.61330  166.23200    0.29860    -999.25  211.55200  156.71170   37.24180    -999.25    -999.25   50.85490 1610.34780 1785.49770    -999.25    0.03120    -999.25 2578.28150 1405.63540 -494.41090    -999.25 2599.39380
 3650.00000  183.35680  173.17260    0.06510    -999.25  198.01610  185.86780   59.95310    -999.25    -999.25   67.95910   27.22980   44.11240    -999.25    0.09860    -999.25 2627.36670   46.30270 -442.05070    -999.25 4759.16550
 3700.00000  171.49780  170.34780    0.02290    -999.25    0.63830  196.61260   74.39680    -999.25    -999.25   71.88700   18.48180   26.50400    -999.25    0.11770    -999.25 2660.59250   28.18510 -444.29010    -999.25 6354.96440
 3750.00000  228.20660  172.52310    0.12320    -999.25  244.06810  213.99170   96.04040    -999.25    -999.25   89.85420   31.95800   70.10480    -999.25    0.16070    -999.25 2544.07960   59.12640 -471.28980    -999.25 8878.76070
 3800.00000  162.35450  173.69880    0.03550    -999.25    0.34730  200.98720   79.29600    -999.25    -999.25   80.69170   18.57460   21.80210    -999.25    0.11820    -999.25 2679.83760   30.09470 -419.43760    -999.25 3888.88720
 3850.00000  218.30980  178.09390    0.13050    -999.25  258.93550  217.53790  115.59750    -999.25    -999.25  116.18440   13.21190   15.07990    -999.25    0.20020    -999.25 2489.13090   19.85180 -434.84310    -999.25 4913.49170
 3900.00000  234.42660  202.05670    0.15630    -999.25  202.19920  221.23170   96.62570    -999.25    -999.25   92.55030   10.31200   11.62450    -999.25    0.20980    -999.25 2435.04420   15.15820 -425.88760    -999.25 6565.37350
