~Version ---------------------------------------------------
VERS.      2.0 : CWLS log ASCII Standard -VERSION 2.0
WRAP.       NO : One line per depth step
CREA. 12/18/17 : LAS Creation Date
~Well ------------------------------------------------------
STRT.FT                          1000.0 : START DEPTH
STOP.FT                          9650.0 : STOP DEPTH
STEP.FT                        50.00000 : STEP LENGTH
NULL.                           -999.25 : NULL VALUE
COMP.            FRONTIER PRODUCING INC : COMPANY
WELL. FRONT ET AL SAKWATAMAU 9-22-63-15 : WELL
FLD .                                   : FIELD
LOC .                                   : LOCATION
CTRY.                            CANADA : COUNTRY
SRVC.                      Schlumberger : SERVICE COMPANY
DATE.                       22-Dec-1965 : LOGDATE
PROV.                           Alberta : PROVINCE
UWI .                  100092206315W500 : UNIQUE WELL ID
SLAT.WGS84                      54.4662 : SURFACE LATITUDE
SLON.WGS84                    -116.1714 : SURFACE LONGITUDE
~Curve Information -----------------------------------------
DEPT  .FT    : Depth Curve
CALSED.IN    : CALIPER FROM SONIC LOG [ADJ. TO RESISTIVITY LOG]
CALWS .IN    : CALIPER [CALSED]
CILDED.MMHO  : CONDUCTIVITY FROM RESISTIVITY LOG
CONDWS.MMHO  : CONDUCTIVITY [1000/DRESWS]
DRESWS.OHMM  : DEEP RESISTIVITY [1000/CILDED IF ILDED<2, ILDED]
DTED  .US/F  : DELTA TIME FROM SONIC LOG [ADJ. TO RESISTIVITY LOG]
DTWS  .US/F  : COMPRESSIONAL SONIC [DTED]
GRSED .GAPI  : GAMMA RAY FROM SONIC LOG [ADJ. TO RESISTIVITY LOG]
GRWS  .GAPI  : GAMMA RAY [GRSED]
ILDED .OHMM  : DEEP INDUCTION FROM RESISTIVITY LOG
SNED  .OHMM  : 16 INCH SHORT NORMAL RESISTIVITY FROM RESISTIVITY LOG
SPRED .MV    : SPONTANEOUS POTENTIAL FROM RESISTIVITY LOG
SPWS  .MV    : SPONTANEOUS POTENTIAL [BASELINE 0 MV, SPRED]
SRESWS.OHMM  : SHALLOW RESISTIVITY [SNED]
~Params ----------------------------------------------------
PD  .                     GL : PERMANENT DATUM
EPD .FT                 3111 : ELEVATION PERMANENT DATUM
LMF .                     KB : LOG MEASURED FROM
DAPD.FT                   13 : FEET ABOVE PERMANENT DATUM
EKB .FT                 3124 : KELLY BUSHING
EGL .FT                 3111 : GROUND LEVEL
DATE.               12/22/65 : RUN DATE
RUN .                      1 : RUN NUMBER
DD  .FT                 9705 : DEPTH DRILLER
DL  .FT                 9697 : DEPTH LOGGER
BLI .FT                 9696 : BOTTOM LOG INTERVAL
TLI .FT                  996 : TOP LOG INTERVAL
CBD .FT                  997 : CASING BOTTOM DRILLER
CBL .FT                  996 : CASING BOTTOM LOGGER
BS  .IN                7.875 : BIT SIZE
BSD .FT                 9705 : BIT SIZE AT DEPTH
DFT .                    GEL : DRILLING FLUID TYPE
DFD .                    9.5 : DRILLING FLUID DENSITY
DFV .                    135 : DRILLING FLUID VISCOSITY
DFPH.                     11 : DRILLING FLUID PH
DFL .                    8.3 : DRILLING FLUID LOSS
RMS .OHMM               2.53 : RESISTIVITY MUD SAMPLE
MST .DEGF                 62 : MUD SAMPLE TEMPERATURE
RMF .OHMM               1.89 : RESISTIVITY MUD FILTRATE SAMPLE
MFST.DEGF                 72 : MUD FILTRATE SAMPLE TEMPERATURE
RMC .OHMM               2.36 : RESISTIVITY MUD CAKE
MCST.DEGF                 72 : MUD CAKE SAMPLE TEMPERATURE
TCS .HRS                 2.5 : TIME CIRCULATED STOPPED
LUN .                   3718 : LOGGING UNIT NUMBER
LUL .                     DV : LOGGING UNIT LOCATION
ENGI.               WILLIAMS : RECORDING ENGINEER
WITN.           HESKETH YONT : WITNESSED BY
CLNT.                A2DTECH : CLIENT CODE
ORIG.            2" 5" PRINT : ORIGIN OF DATA
UWI .       100092206315W500 : UNIQUE WELL ID
DICO. A2D Technologies, Inc. : DIGITIZING COMPANY
~Other -----------------------------------------------------
IEL-BCS LOG RUN
ALL CURVES HAVE BEEN VERIFIED FROM SMALL SECTION @TOP-4490'
~ASCII -----------------------------------------------------
# ...
 3450.00000    7.68210    7.68210  115.35850   97.86360   10.21830   94.59590   94.59590   88.54200   88.54200   10.21830    6.41380  -40.96730   -4.78680    6.41380
 3500.00000    7.25360    7.25360  127.97520  118.72820    8.42260   93.66360   93.66360   91.74650   91.74650    8.42260    6.05310  -42.06520   -5.70690    6.05310
 3550.00000    7.67380    7.67380  154.39930  133.57220    7.48720   94.70920   94.70920   91.22360   91.22360    7.48720    5.49420  -43.61600   -7.08000    5.49420
 3600.00000    7.92240    7.92240  134.75570  121.08740    8.25850   94.97940   94.97940   82.75520   82.75520    8.25850    6.04670  -42.90810   -6.19310    6.04670
 3650.00000    8.23970    8.23970  149.81760  132.02370    7.57440   96.37370   96.37370   85.41380   85.41380    7.57440    5.50220  -42.76170   -5.86900    5.50220
 3700.00000    8.70700    8.70700  135.29200  125.59500    7.96210   90.71000   90.71000   93.71970   93.71970    7.96210    5.83470  -42.83480   -5.76310    5.83470
 3750.00000   10.45870   10.45870  122.67450  100.31900    9.96820   93.27230   93.27230   74.91620   74.91620    9.96820    6.42050  -41.44560   -4.19620    6.42050
 3800.00000   12.21180   12.21180  159.92640  145.91830    6.85330   97.93750   97.93750   73.46760   73.46760    6.85330    5.37310  -42.02910   -4.60190    5.37310
 3850.00000   12.48190   12.48190  106.40260   93.57510   10.68660   89.62910   89.62910   69.49720   69.49720   10.68660    7.44850  -42.81020   -5.20410    7.44850
 3900.00000   13.16380   13.16380  133.48730  116.81010    8.56090  104.90290  104.90290   62.87220   62.87220    8.56090    7.00840  -41.82000   -4.03610    7.00840
 3950.00000   11.63910   11.63910  120.12930  104.06480    9.60940   96.91310   96.91310   74.44470   74.44470    9.60940    6.66350  -44.82080   -6.85800    6.66350
 4000.00000    9.51260    9.51260  156.63490  133.84550    7.47130  101.26080  101.26080   82.48090   82.48090    7.47130    6.21280  -44.20290   -6.06230    6.21280
 4050.00000    8.83450    8.83450  174.53700  148.81620    6.71970  100.96550  100.96550   94.36890   94.36890    6.71970    6.01820  -42.06580   -3.74740    6.01820
 4100.00000    8.14650    8.14650  126.72240  115.83190    8.63320   97.70100   97.70100   95.07910   95.07910    8.63320    8.18260  -45.16820   -6.67090    8.18260
 4150.00000    8.68170    8.68170  139.57190  120.62580    8.29010  101.64450  101.64450  106.74130  106.74130    8.29010    7.91940  -44.05580   -5.38070    7.91940
 4200.00000    7.98810    7.98810  140.58400  125.97310    7.93820  100.88730  100.88730  120.51970  120.51970    7.93820   10.66420  -45.02130   -6.16730   10.66420
 4250.00000    7.59210    7.59210  125.85530  111.71810    8.95110  104.39130  104.39130  114.88890  114.88890    8.95110   13.25620  -46.53750   -7.50580   13.25620
 4300.00000    9.04800    9.04800  149.49850  119.47630    8.38690  108.14190  108.14190  157.68760  157.68760    8.38690   10.26790  -44.94260   -5.73310   10.26790
 4350.00000   10.09500   10.09500  142.07080  120.86340    8.27380   90.92680   90.92680   79.98480   79.98480    8.27380    8.48970  -50.17370  -10.78530    8.48970
 4400.00000    9.62910    9.62910  168.88170  144.49410    6.92070   85.56710   85.56710   70.69340   70.69340    6.92070    7.50090  -43.96570   -4.39950    7.50090
 4450.00000    9.76640    9.76640  251.70300  230.29270    4.34230   94.38750   94.38750   90.82320   90.82320    4.34230    5.62200  -43.08760   -3.34250    5.62200
 4500.00000    7.64070    7.64070  210.37340  194.54500    5.14020   91.29150   91.29150   89.32660   89.32660    5.14020    6.83470  -45.24190   -5.31900    6.83470
 4550.00000    8.25130    8.25130  254.85890  246.12150    4.06310   91.53150   91.53150   90.03150   90.03150    4.06310    5.36520  -43.65500   -3.55430    5.36520
 4600.00000    8.62840    8.62840  286.54980  273.43320    3.65720  100.74330  100.74330   82.50570   82.50570    3.65720    4.82610  -41.91820   -1.63860    4.82610
 4650.00000    8.09920    8.09920  208.66330  201.98350    4.95090   92.29830   92.29830  102.58990  102.58990    4.95090    6.53350  -42.95940   -2.55610    6.53350
 4700.00000    8.27300    8.27300  456.04430  456.04430    2.19280  108.41270  108.41270  108.14520  108.14520    1.77750    3.69870  -45.36850   -5.01010    3.69870
 4750.00000   12.63310   12.63310  464.73230  485.57990    2.05940  145.54330  145.54330   66.19360   66.19360    1.74710    3.08890  -40.59550   -0.28160    3.08890
 4800.00000    8.90430    8.90430  357.40450  359.15610    2.78510   99.98450   99.98450   80.65760   80.65760    2.78510    3.98180  -43.54250   -3.27320    3.98180
 4850.00000    8.30610    8.30610  140.53850  116.92080    8.55280   57.97550   57.97550   76.43520   76.43520    8.55280   10.33000  -50.94720  -10.72270   10.33000
 4900.00000    8.33710    8.33710  363.46500  357.78180    2.79500   99.39320   99.39320   85.43170   85.43170    2.79500    4.09850  -44.70280   -4.52280    4.09850
 4950.00000    8.18170    8.18170  122.17360  124.28070    8.04630   72.97680   72.97680   76.89010   76.89010    8.04630   10.93130  -54.20830  -14.07320   10.93130
 5000.00000    7.88180    7.88180  108.01600  108.55170    9.21220   76.95860   76.95860   50.62980   50.62980    9.21220   12.65620  -52.37590  -12.28530   12.65620
 5050.00000    8.28440    8.28440  109.54820  114.49570    8.73470   78.58700   78.58700   72.10840   72.10840    8.73470   14.76440  -51.37100  -11.32500   14.76440
 5100.00000    8.26340    8.26340  116.19750  115.98510    8.62180   80.50650   80.50650   80.28040   80.28040    8.62180   14.20940  -58.00380  -18.00260   14.20940
 5150.00000    8.00450    8.00450  167.07280  166.37830    6.01040   75.05500   75.05500   67.36240   67.36240    6.01040    7.63830  -44.69200   -4.73530    7.63830
 5200.00000    8.68010    8.68010  142.67790  142.30220    7.02730   76.29470   76.29470   67.16430   67.16430    7.02730    8.56450  -42.24570   -2.33390    8.56450
 5250.00000   11.10780   11.10780  166.45090  160.51880    6.22980   84.93240   84.93240   70.17780   70.17780    6.22980   11.25230  -42.86370   -2.99640   11.25230
 5300.00000    9.79680    9.79680  121.69920  115.16750    8.68330   75.14930   75.14930   58.16420   58.16420    8.68330   16.37230  -64.07320  -24.25050   16.37230
 5350.00000    7.40280    7.40280  130.11160  128.64550    7.77330   81.19100   81.19100   75.54240   75.54240    7.77330   10.60330  -48.46670   -8.68880   10.60330
 5400.00000    7.27790    7.27790  127.53390  118.65770    8.42760   78.68830   78.68830   50.97080   50.97080    8.42760   17.62370  -72.31230  -32.57890   17.62370
 5450.00000    7.03400    7.03400  129.98230  129.14720    7.74310   77.37490   77.37490   70.44170   70.44170    7.74310   10.26400  -51.67120  -11.98270   10.26400
 5500.00000    7.13520    7.13520  124.95760  118.59720    8.43190   82.95450   82.95450   86.74390   86.74390    8.43190   11.08910  -45.55320   -5.90920   11.08910
 5550.00000    8.08840    8.08840  174.87710  151.93800    6.59830   77.81660   77.81660   69.77090   69.77090    6.59830    8.53600  -43.95120   -4.35180    8.53600
 5600.00000    8.89970    8.89970  187.12040  168.45790    5.93620   83.38110   83.38110   75.68480   75.68480    5.93620    7.80910  -44.51610   -4.95040    7.80910
 5650.00000    7.79170    7.79170   46.94050   41.71240   23.97370   69.83490   69.83490   51.89670   51.89670   23.97370   26.15270  -45.19480   -5.66080   26.15270
 5700.00000    9.52330    9.52330   41.26590   40.90830   24.44490   79.07350   79.07350   69.78050   69.78050   24.44490   28.17820  -67.15120  -27.64910   28.17820
 5750.00000    9.52230    9.52230  143.45930  136.05070    7.35020   81.14630   81.14630   88.86490   88.86490    7.35020   12.02320  -44.14010   -4.66970   12.02320
 5800.00000   10.00550   10.00550   95.77720   96.14810   10.40130   89.59820   89.59820   70.86180   70.86180   10.40130   14.81210  -41.30840   -1.86970   14.81210
 5850.00000   10.86460   10.86460  156.31350  152.35310    6.56370   86.54390   86.54390   80.86530   80.86530    6.56370   10.28430  -42.01390   -2.60710   10.28430
