~Version ---------------------------------------------------
VERS.      2.0 : CWLS log ASCII Standard -VERSION 2.0
WRAP.       NO : One line per depth step
CREA. 01/09/18 : LAS Creation Date
~Well ------------------------------------------------------
STRT.FT                          1150.0 : START DEPTH
STOP.FT                         12100.0 : STOP DEPTH
STEP.FT                        50.00000 : STEP LENGTH
NULL.                           -999.25 : NULL VALUE
COMP. HUDSONS BAY OIL & GAS COMPANY LTD : COMPANY
WELL. HB ET AL EAST MARLBORO 7-15-55-18 : WELL
FLD .                                   : FIELD
LOC .                                   : LOCATION
CTRY.                            CANADA : COUNTRY
SRVC.            Schlumberger of Canada : SERVICE COMPANY
DATE.                       14-Sep-1968 : LOGDATE
PROV.                           Alberta : PROVINCE
UWI .                  100071505518W500 : UNIQUE WELL ID
SLAT.WGS84                     53.74917 : SURFACE LATITUDE
SLON.WGS84                    -116.5848 : SURFACE LONGITUDE
~Curve Information -----------------------------------------
DEPT    .FT    : Depth Curve
CALDED  .IN    : CALIPER FROM DENSITY LOG, DEPTH ADJUSTED WITH [SPRED]
CALSED  .IN    : CALIPER FROM SONIC LOG, DEPTH ADJUSTED WITH [SPRED]
CALWS   .IN    : CALIPER [CALSED]
CONDWS  .MMHO  : CONDUCTIVITY [1000/DRESWS]
DCORED  .G/C3  : DENSITY CORRECTION FROM DENSITY LOG, DEPTH ADJUSTED WITH [SPRED]
DCORWS  .G/C3  : DENSITY CORRECTION [DCORED]
DENWS   .G/C3  : BULK DENSITY [RHOBED]
DPOLSWS .V/V   : DENITY POROSITY LIMESTONE [CALCULATED FROM DENWS]
DRESWS  .OHMM  : DEEP RESISTIVITY [ILDED]
DTED    .US/F  : DELTA TIME FROM SONIC LOG, DEPTH ADJUSTED WITH [SPRED]
DTWS    .US/F  : DELTA TIME [DTED]
GRNED   .GAPI  : GAMMA RAY FROM NEUTRON LOG, DEPTH ADJUSTED WITH [SPRED]
GRSED   .GAPI  : GAMMA RAY FROM SONIC LOG, DEPTH ADJUSTED WITH [SPRED]
GRWS    .GAPI  : GAMMA RAY [GRSED], SPLICED WITH [GRNED] FROM 8632'-8667'
ILDED   .OHMM  : INDUCTION LOG DEEP RESISTIVITY
ILMED   .OHMM  : INDUCTION LOG MEDIUM RESISTIVITY
LL8ED   .OHMM  : 8 INCH LATEROLOG RESISTIVITY
MRESWS  .OHMM  : MEDIUM RESISTIVITY [ILMED]
NEUTED  .NAPI  : NEUTRON FROM NEUTRON LOG, DEPTH ADJUSTED WITH [SPRED]
NEUTWS  .NAPI  : NEUTRON [NEUTED]
NPOLSWS .V/V   : NEITRON POROSITY LIMESTONE [SNPLSED]
PORLSED .V/V   : DENITY POROSITY LIMESTONE FROM DENSITY LOG, DEPTH ADJUSTED WITH [SPRED]
PORSDMED.V/V   : DENITY POROSITY DOLOMITE FROM DENSITY LOG, DEPTH ADJUSTED WITH [SPRED]
RHOBED  .G/C3  : BULK DENSITY FROM DENSITY LOG, DEPTH ADJUSTED WITH [SPRED]
SNPLSED .V/V   : SIDEWALL NEUTRON POROSITY LIMESTONE FROM DENSITY LOG, DEPTH ADJUSTED WITH [SPRED]
SPRED   .MV    : SPONTANEOUS POTENTIAL FROM RESISTIVITY LOG
SPWS    .MV    : SPONTANEOUS POTENTIAL [BASELINE 0 MV] [SPRED]
SRESWS  .OHMM  : SHALLOW RESISTIVITY [LL8ED]
~Params ----------------------------------------------------
PD  .                     GL : PERMANENT DATUM
EPD .FT                 3167 : ELEVATION PERMANENT DATUM
LMF .                     KB : LOG MEASURED FROM
DAPD.FT                   15 : FEET ABOVE PERMANENT DATUM
EKB .FT                 3182 : KELLY BUSHING
EGL .FT                 3167 : GROUND LEVEL
DATE.               09/14/68 : RUN DATE
RUN .                      3 : RUN NUMBER
DD  .FT                12110 : DEPTH DRILLER
DL  .FT                12109 : DEPTH LOGGER
BLI .FT                12105 : BOTTOM LOG INTERVAL
TLI .FT                11350 : TOP LOG INTERVAL
CBD .FT                 1265 : CASING BOTTOM DRILLER
BS  .IN                 8.75 : BIT SIZE
BSD .FT                12110 : BIT SIZE AT DEPTH
DFT .                    GEL : DRILLING FLUID TYPE
DFD .                   11.1 : DRILLING FLUID DENSITY
DFV .                    300 : DRILLING FLUID VISCOSITY
DFPH.                   11.5 : DRILLING FLUID PH
DFL .                    4.2 : DRILLING FLUID LOSS
MSS .             CIRCULATED : MUD SAMPLE SOURCE
RMS .OHMM               1.59 : RESISTIVITY MUD SAMPLE
MST .DEGF                 52 : MUD SAMPLE TEMPERATURE
RMF .OHMM               0.86 : RESISTIVITY MUD FILTRATE SAMPLE
MFST.DEGF                 58 : MUD FILTRATE SAMPLE TEMPERATURE
RMC .OHMM               1.69 : RESISTIVITY MUD CAKE
MCST.DEGF                 56 : MUD CAKE SAMPLE TEMPERATURE
RMB .OHMM               0.25 : RESISTIVITY MUD AT BHT
TCS .HRS                   4 : TIME CIRCULATED STOPPED
LUN .                   7501 : LOGGING UNIT NUMBER
LUL .                    EDM : LOGGING UNIT LOCATION
ENGI.               STUEHMER : RECORDING ENGINEER
WITN.                 WALKER : WITNESSED BY
CLNT.                A2DTECH : CLIENT CODE
ORIG.            2" 5" PRINT : ORIGIN OF DATA
UWI .       100071505518W500 : UNIQUE WELL ID
DICO. A2D Technologies, Inc. : DIGITIZING COMPANY
~Other -----------------------------------------------------
~ASCII -----------------------------------------------------
# ...
 9900.00000    -999.25   12.04180   12.04180    1.68660   -0.09740   -0.09740    2.67220    0.02210  592.90390   48.31180   48.31180    -999.25   13.94130   13.94130  592.90390  771.57890  167.75400  771.57890    -999.25    -999.25    0.03010    0.01100   -0.10290    2.67220    0.03010 -136.40020  -88.02900  167.75400
 9950.00000    -999.25   12.05610   12.05610    0.64510   -0.15160   -0.15160    2.71190   -0.00110 1550.20130   52.23350   52.23350    -999.25   16.06170   16.06170 1550.20130 1962.18470   75.42270 1962.18470    -999.25    -999.25   -0.00630    0.00270    -999.25    2.71190   -0.00630 -126.98000  -78.61790   75.42270
 10000.00000    -999.25   12.78640   12.78640   10.73840   -0.15760   -0.15760    2.53200    0.10410   93.12400   50.20260   50.20260    -999.25   17.65080   17.65080   93.12400  163.26120   45.22940  163.26120    -999.25    -999.25    0.10040    0.09160   -0.03110    2.53200    0.10040 -126.50160  -78.14850   45.22940
 10050.00000    -999.25   13.12300   13.12300    6.58340   -0.16550   -0.16550    2.71030   -0.00020  151.89750   56.04070   56.04070    -999.25   13.92880   13.92880  151.89750   96.63510   19.43520   96.63510    -999.25    -999.25    0.00080    0.03090   -0.08900    2.71030    0.00080 -117.72540  -69.38140   19.43520
 10100.00000    -999.25   11.91080   11.91080    3.22850   -0.15030   -0.15030    2.53420    0.10280  309.73710   52.69340   52.69340    -999.25   15.56170   15.56170  309.73710  417.68340   62.91710  417.68340    -999.25    -999.25    0.09860    0.07750   -0.04180    2.53420    0.09860 -127.23610  -78.90110   62.91710
 10150.00000    -999.25   12.80560   12.80560    4.78480   -0.15960   -0.15960    2.50180    0.12180  208.99680   57.81260   57.81260    -999.25   17.60860   17.60860  208.99680   73.62810   59.10790   73.62810    -999.25    -999.25    0.09660    0.09070   -0.02920    2.50180    0.09660 -104.88760  -56.56170   59.10790
 10200.00000   10.51330    9.31810    9.31810   44.37850   -0.19700   -0.19700    2.75960   -0.02900   22.53400   54.81220   54.81220    -999.25   48.31620   48.31620   22.53400   26.42390   34.53960   26.42390    -999.25    -999.25    0.00010    0.04940   -0.06960    2.75960    0.00010  -74.44460  -26.12780   34.53960
 10250.00000    9.21190    9.50180    9.50180   60.99680   -0.21150   -0.21150    2.57090    0.08130   16.39430   60.45630   60.45630    -999.25   68.27090   68.27090   16.39430   17.91130   16.74160   17.91130    -999.25    -999.25    0.10580    0.05650   -0.06820    2.57090    0.10580  -57.65790   -9.51320   16.74160
 10300.00000   12.90490    9.50570    9.50570    0.71530   -0.14670   -0.14670    2.58790    0.07140 1398.02660   48.81540   48.81540    -999.25   14.99020   14.99020 1398.02660 2289.11330 1297.10070 2289.11330    -999.25    -999.25    0.03640    0.04360   -0.07220    2.58790    0.03640 -106.47950  -58.72300 1297.10070
 10350.00000    8.90760    8.95070    8.95070    5.85090   -0.05340   -0.05340    2.86140   -0.08850  170.91450   46.71530   46.71530    -999.25   12.74870   12.74870  170.91450 1995.77700  337.99470 1995.77700    -999.25    -999.25   -0.06390    0.05470   -0.06210    2.86140   -0.06390 -103.35850  -55.99030  337.99470
 10400.00000    8.34160    8.89750    8.89750   69.32020   -0.09350   -0.09350    2.73380   -0.01390   14.42580   49.89170   49.89170    -999.25   14.11640   14.11640   14.42580   23.57030  155.12510   23.57030    -999.25    -999.25   -0.04180    0.15440    0.03180    2.73380   -0.04180 -151.65790 -104.67790  155.12510
 10450.00000    8.89090    9.07190    9.07190   14.06860   -0.03740   -0.03740    2.86010   -0.08770   71.09050   47.45750   47.45750    -999.25   14.04320   14.04320   71.09050 1897.80830  606.43520 1897.80830    -999.25    -999.25   -0.07620    0.04160   -0.08830    2.86010   -0.07620 -151.35930 -104.76950  606.43520
 10500.00000    9.11530    9.44580    9.44580   10.97300   -0.06450   -0.06450    2.85310   -0.08370   91.13310   48.69970   48.69970    -999.25   12.06120   12.06120   91.13310 1289.01540  257.96880 1289.01540    -999.25    -999.25   -0.07710    0.04620   -0.07420    2.85310   -0.07710 -111.88050  -65.67700  257.96880
 10550.00000   15.23560   11.52120   11.52120    4.25470   -0.12460   -0.12460    2.46100    0.14560  235.03480   49.47050   49.47050    -999.25   15.54320   15.54320  235.03480  371.73470   97.43780  371.73470    -999.25    -999.25    0.15180    0.16840    0.04470    2.46100    0.15180 -119.33910  -73.52390   97.43780
 10600.00000   13.55570   11.15100   11.15100    0.83530   -0.08590   -0.08590    2.40720    0.17710 1197.18690   61.01550   61.01550    -999.25   19.90520   19.90520 1197.18690   95.93300  230.02900   95.93300    -999.25    -999.25    0.20260    0.16870    0.04770    2.40720    0.20260  -80.44050  -35.01350  230.02900
 10650.00000   12.27210   11.84110   11.84110    6.09560   -0.12240   -0.12240    2.49930    0.12320  164.05380   52.46130   52.46130    -999.25   17.66770   17.66770  164.05380   47.18330  123.24430   47.18330    -999.25    -999.25    0.13670    0.21320    0.09520    2.49930    0.13670  -92.47710  -47.43840  123.24430
 10700.00000   15.12510   10.90940   10.90940    0.65600   -0.10950   -0.10950    2.33490    0.21930 1524.38230   50.92950   50.92950    -999.25   25.88340   25.88340 1524.38230  183.19510  213.30610  183.19510    -999.25    -999.25    0.23070    0.17630    0.05120    2.33490    0.23070  -81.78480  -37.13620  213.30610
 10750.00000    8.37380    8.79960    8.79960    9.51430   -0.05800   -0.05800    2.81670   -0.06240  105.10470   46.83340   46.83340    -999.25   15.27540   15.27540  105.10470 1459.27820  401.07580 1459.27820    -999.25    -999.25   -0.08350    0.05650   -0.06120    2.81670   -0.08350 -142.07100  -97.80880  401.07580
 10800.00000    8.63670    8.94720    8.94720   39.56680   -0.04300   -0.04300    2.74340   -0.01950   25.27370   50.24040   50.24040    -999.25   18.63680   18.63680   25.27370   44.51730  122.24760   44.51730    -999.25    -999.25   -0.02400    0.08580   -0.03550    2.74340   -0.02400 -199.76510 -155.89110  122.24760
 10850.00000    8.26460    8.73810    8.73810  302.79170   -0.06540   -0.06540    2.64860    0.03590    3.30260   55.46150   55.46150    -999.25   17.22850   17.22850    3.30260    4.26330   13.10870    4.26330    -999.25    -999.25    0.02130    0.19510    0.07380    2.64860    0.02130 -181.77770 -138.29200   13.10870
 10900.00000    8.61500    8.80160    8.80160   81.98740   -0.06090   -0.06090    2.69770    0.00720   12.19700   53.72810   53.72810    -999.25   15.55830   15.55830   12.19700   17.32630   72.89290   17.32630    -999.25    -999.25   -0.00730    0.12210   -0.00290    2.69770   -0.00730 -187.57970 -144.48220   72.89290
 10950.00000   12.35710   11.03850   11.03850    0.94180   -0.09900   -0.09900    2.39700    0.18310 1068.00510   53.55770   53.55770    -999.25   19.97810   19.97810 1068.00510  140.87930  242.27440  140.87930    -999.25    -999.25    0.21890    0.16570    0.04220    2.39700    0.21890 -156.95680 -114.24950  242.27440
 11000.00000   11.50460   10.52120   10.52120    0.88640   -0.07060   -0.07060    2.48550    0.13130 1128.10210   54.53250   54.53250    -999.25   36.15410   36.15410 1128.10210  165.52680 1292.68190  165.52680    -999.25    -999.25    0.12310    0.09640   -0.02590    2.48550    0.12310 -112.68840  -70.36740 1292.68190
 11050.00000    9.34330    9.58040    9.58040    0.67670   -0.19480   -0.19480    2.53520    0.10220 1477.82390   56.04520   56.04520    -999.25   67.59750   67.59750 1477.82390 2135.75980 1304.77670 2135.75980    -999.25    -999.25    0.09210    0.11470   -0.00810    2.53520    0.09210 -111.90400  -69.97130 1304.77670
 11100.00000    9.18770    9.31500    9.31500    0.69600   -0.17510   -0.17510    2.75460   -0.02610 1436.87570   60.72340   60.72340    -999.25   82.46580   82.46580 1436.87570 2161.15550 1291.08690 2161.15550    -999.25    -999.25   -0.02180    0.08160   -0.03810    2.75460   -0.02180 -123.97920  -82.43470 1291.08690
