~Version ---------------------------------------------------
VERS.      2.0 : CWLS log ASCII Standard -VERSION 2.0
WRAP.       NO : One line per depth step
CREA. 11/07/17 : LAS Creation Date
~Well ------------------------------------------------------
STRT.FT                  650.0 : START DEPTH
STOP.FT                 5800.0 : STOP DEPTH
STEP.FT               50.00000 : STEP LENGTH
NULL.                  -999.25 : NULL VALUE
COMP. VERMILION RESOURCES LTD. : COMPANY
WELL.  764031 NIPISI 4-21-81-8 : WELL
FLD .                   NIPISI : FIELD
LOC .                          : LOCATION
CTRY.                   CANADA : COUNTRY
SRVC.             Schlumberger : SERVICE COMPANY
DATE.              21-Jul-1967 : LOGDATE
PROV.                  Alberta : PROVINCE
UWI .         100042108108W500 : UNIQUE WELL ID
SLAT.WGS84       56.0303344727 : SURFACE LATITUDE
SLON.WGS84     -115.1986160278 : SURFACE LONGITUDE
~Curve Information -----------------------------------------
DEPT  .FT    : Depth Curve
CALWS .IN    : CALIPER [MCALED]
CILDED.MMHO  : CONDUCTIVITY FROM RESISTIVITY LOG
CONDWS.MMHO  : CONDUCTIVITY [1000/DRESWS]
DRESWS.OHMM  : DEEP RESISTIVITY [ILDED]
DTED  .US/F  : DELTA TIME FROM SONIC LOG
DTWS  .US/F  : DELTA TIME [DTED]
GRSED .GAPI  : GAMMA RAY FROM SONIC LOG
GRWS  .GAPI  : GAMMA RAY [GRSED]
ILDED .OHMM  : INDUCTION LOG DEEP RESISTIVITY
MCALED.IN    : CALIPER FROM MICROLOG
SNED  .OHMM  : 16 INCH SHORT NORMAL RESISTIVITY FROM IEL [NULLED FROM FROM 4016' TO 4122']
SPRED .MV    : SPONTANEOUS POTENTIAL FROM RESISTIVITY LOG
SPWS  .MV    : SPONTANEOUS POTENTIAL [BASELINE 0 MV] [SPRED]
SRESWS.OHMM  : SHALLOW RESISTIVITY [SNED]
~Params ----------------------------------------------------
PD  .                     GL : PERMANENT DATUM
EPD .FT               2146.5 : ELEVATION PERMANENT DATUM
LMF .                     KB : LOG MEASURED FROM
DAPD.FT                 13.5 : FEET ABOVE PERMANENT DATUM
EKB .FT                 2160 : KELLY BUSHING
EGL .FT               2146.5 : GROUND LEVEL
DATE.              7-21-1967 : RUN DATE
RUN .                      1 : RUN NUMBER
DD  .FT                 5807 : DEPTH DRILLER
DL  .FT                 5805 : DEPTH LOGGER
BLI .FT                 5804 : BOTTOM LOG INTERVAL
TLI .FT                  618 : TOP LOG INTERVAL
CBD .FT                  618 : CASING BOTTOM DRILLER
CBL .FT                  618 : CASING BOTTOM LOGGER
BS  .IN                 8.75 : BIT SIZE
BSD .FT                 5807 : BIT SIZE AT DEPTH
DFT .               CHEM GEL : DRILLING FLUID TYPE
DFD .                    9.8 : DRILLING FLUID DENSITY
DFV .                     68 : DRILLING FLUID VISCOSITY
DFPH.                   10.5 : DRILLING FLUID PH
DFL .                      8 : DRILLING FLUID LOSS
RMS .OHMM               0.78 : RESISTIVITY MUD SAMPLE
MST .DEGF                 70 : MUD SAMPLE TEMPERATURE
RMF .OHMM               0.67 : RESISTIVITY MUD FILTRATE SAMPLE
MFST.DEGF                 76 : MUD FILTRATE SAMPLE TEMPERATURE
RMC .OHMM               1.91 : RESISTIVITY MUD CAKE
MCST.DEGF                 62 : MUD CAKE SAMPLE TEMPERATURE
RMB .OHMM               0.44 : RESISTIVITY MUD AT BHT
TCS .HRS                1715 : TIME CIRCULATED STOPPED
TLAB.HRS                2200 : TIME LOGGER AT BOTTOM
LUN .                   7501 : LOGGING UNIT NUMBER
LUL .                     SL : LOGGING UNIT LOCATION
ENGI.                 WILSON : RECORDING ENGINEER
WITN.        MCKELVIE TOBMAN : WITNESSED BY
CLNT.                A2DTECH : CLIENT CODE
ORIG.            2" 5" PRINT : ORIGIN OF DATA
UWI .       100042108108W500 : UNIQUE WELL ID
DICO. A2D Technologies, Inc. : DIGITIZING COMPANY
~Other -----------------------------------------------------
~ASCII -----------------------------------------------------
  650.00000    -999.25  179.85650  179.85650    5.74010    -999.25    -999.25    -999.25    -999.25    5.74010    -999.25    6.07520  -91.45760  -16.97670    6.07520
  700.00000    -999.25  207.88490  207.88490    4.50980    -999.25    -999.25    -999.25    -999.25    4.50980    -999.25    4.70470  -91.37190  -20.92350    4.70470
  750.00000    -999.25  188.67440  188.67440    5.30020    -999.25    -999.25    -999.25    -999.25    5.30020    -999.25    4.99490  -77.28490  -10.91000    4.99490
  800.00000    -999.25  187.29260  187.29260    5.45590    -999.25    -999.25    -999.25    -999.25    5.45590    -999.25    4.52680  -65.57330   -3.29230    4.52680
  850.00000    -999.25  330.26590  330.26590    3.34120    -999.25    -999.25    -999.25    -999.25    3.34120    -999.25    3.77990  -67.50600   -9.41860    3.77990
  900.00000    -999.25  349.71580  349.71580    3.03820    -999.25    -999.25    -999.25    -999.25    3.03820    -999.25    3.30160  -67.42440   -9.33700    3.30160
  950.00000    -999.25  316.80830  316.80830    3.25340    -999.25    -999.25    -999.25    -999.25    3.25340    -999.25    3.47310  -59.36690   -1.32170    3.47310
 1000.00000    -999.25  272.38250  272.38250    3.61400    -999.25    -999.25    -999.25    -999.25    3.61400    -999.25    4.10280  -59.48860   -1.54720    4.10280
 1050.00000    -999.25  119.95170  119.95170    8.37460    -999.25    -999.25    -999.25    -999.25    8.37460    -999.25    5.79150  -62.97930   -5.14210    5.79150
 1100.00000    -999.25  168.93000  168.93000    6.00380    -999.25    -999.25    -999.25    -999.25    6.00380    -999.25    5.68380  -73.59980  -16.24460    5.68380
 1150.00000    -999.25  444.02740  444.02740    2.23000    -999.25    -999.25    -999.25    -999.25    2.23000    -999.25    2.60590  -62.60710   -5.84040    2.60590
 1200.00000    -999.25  241.20700  241.20700    4.50970    -999.25    -999.25    -999.25    -999.25    4.50970    -999.25    5.49710  -73.04400  -16.86870    5.49710
 1250.00000    -999.25  213.28320  213.28320    4.81810    -999.25    -999.25    -999.25    -999.25    4.81810    -999.25    5.66910  -68.88870  -14.06640    5.66910
 1300.00000    -999.25  884.46430  884.46430    1.13060    -999.25    -999.25    -999.25    -999.25    1.13060    -999.25    1.56700  -55.93000   -3.14410    1.56700
 1350.00000    -999.25  418.16470  418.16470    2.90490    -999.25    -999.25    -999.25    -999.25    2.90490    -999.25    2.60550  -57.14210   -1.71510    2.60550
 1400.00000    -999.25  218.41700  218.41700    5.00690    -999.25    -999.25    -999.25    -999.25    5.00690    -999.25    5.61200  -64.29220   -5.81720    5.61200
 1450.00000    -999.25  228.24080  228.24080    4.71170    -999.25    -999.25    -999.25    -999.25    4.71170    -999.25    5.21710  -64.47440   -3.82590    5.21710
 1500.00000    -999.25  198.85510  198.85510    5.15690    -999.25    -999.25    -999.25    -999.25    5.15690    -999.25    5.66700  -77.17890  -15.63060    5.66700
 1550.00000    -999.25  224.28140  224.28140    4.27370    -999.25    -999.25    -999.25    -999.25    4.27370    -999.25    4.51870  -90.98030  -28.52770    4.51870
 1600.00000    -999.25  211.03840  211.03840    5.12720    -999.25    -999.25    -999.25    -999.25    5.12720    -999.25    5.85770  -99.88320  -36.52640    5.85770
 1650.00000    -999.25   53.77750   53.77750   18.02220    -999.25    -999.25    -999.25    -999.25   18.02220    -999.25   11.42910 -101.55950  -37.29840   11.42910
 1700.00000    -999.25  130.89410  130.89410    7.50830    -999.25    -999.25    -999.25    -999.25    7.50830    -999.25    7.02060 -100.06100  -34.89100    7.02060
 1750.00000    -999.25  197.08450  197.08450    5.21940    -999.25    -999.25    -999.25    -999.25    5.21940    -999.25    4.36360  -97.28780  -31.21810    4.36360
 1800.00000    -999.25  199.60480  199.60480    5.19150    -999.25    -999.25    -999.25    -999.25    5.19150    -999.25    5.37970  -99.09260  -32.11860    5.37970
 1850.00000    -999.25   25.67920   25.67920   66.99120    -999.25    -999.25    -999.25    -999.25   66.99120    -999.25   28.05140 -107.00390  -39.12560   28.05140
 1900.00000    -999.25  140.95030  140.95030    7.79250    -999.25    -999.25    -999.25    -999.25    7.79250    -999.25   10.21140  -95.10420  -26.32160   10.21140
 1950.00000    -999.25   24.64130   24.64130   36.41370    -999.25    -999.25    -999.25    -999.25   36.41370    -999.25   25.87820  -98.51230  -28.82090   25.87820
 2000.00000    -999.25   51.69250   51.69250   20.28660    -999.25    -999.25    -999.25    -999.25   20.28660    -999.25   21.01670  -87.06730  -16.47620   21.01670
 2050.00000    -999.25   51.22610   51.22610   25.60960    -999.25    -999.25    -999.25    -999.25   25.60960    -999.25   17.61400  -82.25000  -10.75460   17.61400
 2100.00000    -999.25   58.18710   58.18710   16.75410    -999.25    -999.25    -999.25    -999.25   16.75410    -999.25   14.41210  -78.28490   -6.37180   14.41210
 2150.00000    -999.25   89.09800   89.09800   10.82360    -999.25    -999.25    -999.25    -999.25   10.82360    -999.25   13.44720  -77.61890   -5.47730   13.44720
 2200.00000    -999.25  163.88850  163.88850    6.46550    -999.25    -999.25    -999.25    -999.25    6.46550    -999.25    6.96320  -77.74910   -5.37790    6.96320
 2250.00000    -999.25   76.14670   76.14670   13.13250    -999.25    -999.25    -999.25    -999.25   13.13250    -999.25   13.68920  -81.32650   -8.72800   13.68920
 2300.00000    -999.25   46.11820   46.11820   21.73530    -999.25    -999.25    -999.25    -999.25   21.73530    -999.25   24.34840  -95.90030  -23.07340   24.34840
 2350.00000    -999.25   81.20560   81.20560   11.96950    -999.25    -999.25    -999.25    -999.25   11.96950    -999.25   13.35750  -75.89720   -2.84180   13.35750
 2400.00000    -999.25   48.37870   48.37870   20.67030    -999.25    -999.25    -999.25    -999.25   20.67030    -999.25   27.55580  -91.31220  -17.98350   27.55580
 2450.00000    -999.25   52.27680   52.27680   19.83810    -999.25    -999.25    -999.25    -999.25   19.83810    -999.25   20.76690  -87.37390  -13.75470   20.76690
 2500.00000    -999.25   70.08030   70.08030   13.87750    -999.25    -999.25    -999.25    -999.25   13.87750    -999.25   16.82350  -82.50500   -8.59800   16.82350
 2550.00000    -999.25  348.54610  348.54610    3.26590    -999.25    -999.25    -999.25    -999.25    3.26590    -999.25    3.56890  -80.18720   -5.99110    3.56890
 2600.00000    -999.25   25.82350   25.82350   38.20010    -999.25    -999.25    -999.25    -999.25   38.20010    -999.25   31.65590  -88.66430  -14.44420   31.65590
 2650.00000    -999.25   15.87000   15.87000   62.40030    -999.25    -999.25    -999.25    -999.25   62.40030    -999.25   50.88460 -114.85620  -40.62310   50.88460
 2700.00000    -999.25   16.64390   16.64390   69.88480    -999.25    -999.25    -999.25    -999.25   69.88480    -999.25   52.38230 -109.38950  -35.14330   52.38230
 2750.00000    -999.25   19.00830   19.00830   52.93880    -999.25    -999.25    -999.25    -999.25   52.93880    -999.25   58.29330 -118.99040  -44.73140   58.29330
 2800.00000    -999.25   37.27440   37.27440   25.72460    -999.25    -999.25    -999.25    -999.25   25.72460    -999.25   42.42880 -128.08230  -53.81030   42.42880
 2850.00000    -999.25   20.63530   20.63530   48.77690    -999.25    -999.25    -999.25    -999.25   48.77690    -999.25   57.98070 -135.54630  -61.26130   57.98070
 2900.00000    -999.25   43.86090   43.86090   23.87020    -999.25    -999.25    -999.25    -999.25   23.87020    -999.25   42.21120 -134.45920  -60.16120   42.21120
 2950.00000    -999.25   43.35550   43.35550   22.95520    -999.25    -999.25    -999.25    -999.25   22.95520    -999.25   39.47290 -114.76570  -40.45470   39.47290
 3000.00000    -999.25   50.03990   50.03990   20.57560    -999.25    -999.25    -999.25    -999.25   20.57560    -999.25   32.80120 -133.28810  -58.96420   32.80120
 3050.00000    -999.25    9.77860    9.77860  102.28730    -999.25    -999.25    -999.25    -999.25  102.28730    -999.25   59.18160 -103.88350  -29.54660   59.18160
