~Version ---------------------------------------------------
VERS. 2.0 : CWLS log ASCII Standard -VERSION 2.0
WRAP.  NO : ONE LINE PER DEPTH STEP
~Well ------------------------------------------------------
STRT.F                              1100.0 : START DEPTH
STOP.F                             11250.0 : STOP DEPTH
STEP.F                            50.00000 : STEP LENGTH
NULL.                              -999.25 : NULL VALUE
COMP.                 PETROFINA CANADA LTD : COMPANY
WELL. FINA AMOCO HB SAKWATAMAU 10-21-62-15 : WELL
FLD .                                   WC : FIELD
LOC .                                      : LOCATION
CTRY.                               CANADA : COUNTRY
SRVC.                         Schlumberger : SERVICE COMPANY
DATE.                          21-Aug-1976 : LOGDATE
PROV.                              Alberta : PROVINCE
UWI .                     100102106215W500 : UNIQUE WELL ID
SLAT.WGS84                        54.37886 : SURFACE LATITUDE
SLON.WGS84                       -116.1857 : SURFACE LONGITUDE
~Curve Information -----------------------------------------
DEPT   .F    0   1   0  0 : 1 MEASURED DEPTH
SPR    .MV   07 010 01 00 : SPONTANEOUS POTENTIAL FROM RESISTIVITY LOG
ILD    .OHMM 07 120 46 00 : INDUCTION DEEP RESISTIVITY
ILM    .OHMM 07 120 44 00 : INDUCTION MEDIUM RESISTIVITY
LL8    .OHMM 07 220 08 00 : LATEROLOG 8
CILD   .MMHO 07 110 46 00 : INDUCTION DEEP CONDUCTIVITY
GRS    .GAPI 60 310 01 00 : GAMMA RAY FROM SONIC LOG
CALS   .IN   60 280 50 00 : CALIPER FROM SONIC LOG
DT     .US/F 60 500 00 00 : DELTA-T (INTERVAL TRANSIT TIME)
CALD   .IN   45 280 60 00 : CALIPER FROM DENSITY LOG
DRHO   .G/C3 45 356 01 00 : BULK DENSITY CORRECTION
GRD    .GAPI 45 310 01 00 : GAMMA RAY FROM DENSITY LOG
RHOB   .G/C3 45 350 01 00 : BULK DENSITY
DPHI_SS.DEC  45 890 12 00 : DENSITY POROSITY SANDSTONE
NPHI_SS.DEC  42 890 03 00 : NEUTRON POROSITY SANDSTONE
NPHI_LS.DEC  42 890 01 00 : NEUTRON POROSITY LIMESTONE
DPHI_LS.DEC  45 890 10 00 : DENSITY POROSITY LIMESTONE
~Params ----------------------------------------------------
PD  .                     GL : PERMANENT DATUM
EPD .FT               3315.9 : ELEVATION PERMANENT DATUM
LMF .                     KB : LOG MEASURED FROM
DAPD.FT                 15.1 : FEET ABOVE PERMANENT DATUM
EKB .FT                 3331 : KELLY BUSHING
EGL .FT               3315.9 : GROUND LEVEL
DATE.               08/21/76 : RUN DATE
RUN .                      1 : RUN NUMBER
DD  .FT                11275 : DEPTH DRILLER
DL  .FT                11270 : DEPTH LOGGER
BLI .FT                11267 : BOTTOM LOG INTERVAL
TLI .FT                 1134 : TOP LOG INTERVAL
CBD .FT                 1134 : CASING BOTTOM DRILLER
CBL .FT                 1134 : CASING BOTTOM LOGGER
BS  .IN                 8.75 : BIT SIZE
BSD .FT                11275 : BIT SIZE AT DEPTH
DFT .               GEL CHEM : DRILLING FLUID TYPE
DFD .                    9.5 : DRILLING FLUID DENSITY
DFV .                     95 : DRILLING FLUID VISCOSITY
DFPH.                   10.5 : DRILLING FLUID PH
DFL .                      7 : DRILLING FLUID LOSS
MSS .               FLOWLINE : MUD SAMPLE SOURCE
RMS .OHMM                2.7 : RESISTIVITY MUD SAMPLE
MST .DEGF                 55 : MUD SAMPLE TEMPERATURE
RMF .OHMM               2.65 : RESISTIVITY MUD FILTRATE SAMPLE
MFST.DEGF                 56 : MUD FILTRATE SAMPLE TEMPERATURE
RMB .OHMM               0.56 : RESISTIVITY MUD AT BHT
TCS .HRS                 3.5 : TIME CIRCULATED STOPPED
LUN .                   7691 : LOGGING UNIT NUMBER
LUL .                    WCT : LOGGING UNIT LOCATION
ENGI.                GOODMAN : RECORDING ENGINEER
WITN.                 TIFFIN : WITNESSED BY
CLNT.                A2DTECH : CLIENT CODE
ORIG.            2" 5" PRINT : ORIGIN OF DATA
UWI .       100102106215W500 : UNIQUE WELL ID
DICO. A2D Technologies, Inc. : DIGITIZING COMPANY
~Other -----------------------------------------------------
~ASCII -----------------------------------------------------
# ...
 7550.00000  -72.20520  140.41480  107.74630  153.96530    -999.25   14.91380    9.84460   50.01710   10.92460    0.02900   14.00450    2.73320    -999.25    -999.25    0.00270   -0.03940
 7600.00000  -51.90310  311.33770  289.38490  352.52140    -999.25   15.49390    9.53240   48.68000   10.23300    0.06500   15.10390    2.79930    -999.25    -999.25    0.00290   -0.06220
 7650.00000  -69.44610  316.13270  413.95660  478.06900    -999.25   12.71390   10.19360   50.62150   12.52030    0.23980   14.09840    2.72060    -999.25    -999.25    0.00410    0.08410
 7700.00000 -127.40830   43.02360   83.03800  542.63820    -999.25   11.91830    9.17170   53.47880    9.19910    0.18360   15.37250    2.68140    -999.25    -999.25    0.02820   -0.00060
 7750.00000  -73.42960  154.81240  196.37160  314.45800    -999.25   13.90960    9.85820   52.52120   10.63710    0.18050   16.14870    2.73620    -999.25    -999.25    0.00780   -0.01070
 7800.00000   -0.04980  522.20090 1016.63700  729.91680    -999.25   15.44090    9.75130   51.86670   10.79270    0.09120   16.39230    2.78740    -999.25    -999.25   -0.00080   -0.04820
 7850.00000   26.20380  193.45890  255.59020  276.00020    -999.25   13.30080    9.54790   50.01570   10.45240    0.08320   18.31440    2.76710    -999.25    -999.25    0.00120   -0.02750
 7900.00000    9.85700  123.30810  145.87940  203.69820    -999.25   14.29800    9.68300   51.87790   10.75300    0.07290   12.27030    2.74310    -999.25    -999.25    0.00790   -0.02830
 7950.00000   -3.40300  256.62400  247.12580  483.31450    -999.25   14.48790   10.01270   53.09790   11.08650    0.10760   15.33730    2.79960    -999.25    -999.25   -0.00070   -0.03150
 8000.00000   -8.96210  137.89920  257.88060  432.67600    -999.25   15.88970    9.42320   48.20190    9.74230    0.08660   15.01100    2.78550    -999.25    -999.25    0.00640   -0.02850
 8050.00000 -167.36220   53.45660   98.09610  315.87920    -999.25   19.84540    9.17900   48.42990    9.55670    0.08040   19.41640    2.74270    -999.25    -999.25    0.03360   -0.03130
 8100.00000 -133.60710  112.16780  234.68380  622.51720    -999.25   16.11870    9.92780   48.61530   10.48150    0.04870   18.22790    2.82770    -999.25    -999.25    0.00630   -0.12040
 8150.00000 -110.39610   14.98080   18.53870   42.84930    -999.25   34.66270    9.50310   52.25340   10.17970    0.14320   32.51690    2.85370    -999.25    -999.25    0.10700   -0.07750
 8200.00000 -118.14820   89.09810   97.84670  329.03700    -999.25   25.79930    9.83440   47.71360   10.21420    0.07480   34.14890    2.81450    -999.25    -999.25    0.05210   -0.07610
 8250.00000 -103.51790   25.55480   29.26880   34.39350    -999.25   35.18920    9.70750   49.87120   10.42210    0.14130   25.01060    2.84030    -999.25    -999.25    0.07780   -0.08740
 8300.00000  -92.04470   53.09050   55.08350   72.17510    -999.25   24.98400    9.38590   48.60000    9.68580    0.07170   27.92770    2.83530    -999.25    -999.25    0.04900   -0.06770
 8350.00000  -58.18740  107.26510  118.45930  138.96040    -999.25   34.72260    9.64800   51.85650   10.02680    0.06010   34.57110    2.80480    -999.25    -999.25    0.01020   -0.05280
 8400.00000  -59.11520   97.91500   84.39540  111.33450    -999.25   32.61270    9.81860   53.45110   10.18870    0.04050   34.11760    2.74570    -999.25    -999.25    0.01770   -0.00980
 8450.00000  -51.39530   62.45570   65.11560   75.81570    -999.25   40.11660    9.47070   54.96880    9.69440    0.05380   38.50390    2.74730    -999.25    -999.25    0.02080   -0.03690
 8500.00000  -41.52660   31.01420   31.64430   39.70410    -999.25   39.73680    9.65780   56.80850    9.86930    0.06740   43.45270    2.77160    -999.25    -999.25    0.02310   -0.02930
 8550.00000  -37.33020   15.95670   16.55900   20.04010    -999.25   51.92640   10.18460   60.10350   10.68440    0.06280   54.76410    2.76260    -999.25    -999.25    0.05400   -0.02660
 8600.00000  -35.95590    9.79770   10.17010   12.65310    -999.25   59.25690   10.77990   65.69630   11.21220    0.06620   62.78500    2.73480    -999.25    -999.25    0.09110   -0.01350
 8650.00000  -38.41690    8.42080    8.76890   11.36200    -999.25   65.37090    9.98870   66.55670   10.58840    0.04360   68.86600    2.72340    -999.25    -999.25    0.11000   -0.02340
 8700.00000  -43.75140   11.95430   12.51250   14.64550    -999.25   62.71700    9.57650   61.90240    9.78140    0.05630   54.89210    2.74450    -999.25    -999.25    0.09790   -0.02040
 8750.00000  -38.39460    7.72240    8.06260    9.76850    -999.25   78.33460    9.95920   69.99440   10.14200    0.02450   71.82070    2.70900    -999.25    -999.25    0.13660   -0.02260
 8800.00000  -41.16920   58.21850   63.13600  115.58910    -999.25   82.95600    9.57140   70.86620    9.93120    0.06290   79.76470    2.71370    -999.25    -999.25    0.16290   -0.00710
 8850.00000  -50.17440   16.96090   17.49250   22.46290    -999.25   47.48350    9.80600   58.39810   10.40120    0.07700   59.53720    2.76030    -999.25    -999.25    0.05470   -0.02800
 8900.00000  -48.40750   10.02550   10.22790   10.73470    -999.25   70.87980    9.58340   66.12120    9.96090    0.06220   55.54080    2.72280    -999.25    -999.25    0.08690    0.00280
 8950.00000  -55.32240    8.24410    9.05320   12.76700    -999.25   67.06070   11.24730   69.12400   13.95020    0.20370   81.03610    2.48410    -999.25    -999.25    0.22630    0.15930
 9000.00000  -62.18110    6.65960    7.15600    8.32560    -999.25   86.94190   11.29780   73.77040   12.07140    0.24900   89.25450    2.37380    -999.25    -999.25    0.24150    0.18250
 9050.00000  -59.50430    9.03910    9.41510   11.61090    -999.25   70.21410   10.07720   67.63110   11.18470    0.24300   80.14830    2.72220    -999.25    -999.25    0.14590    0.01730
 9100.00000  -57.37250   10.18190   10.60690   13.93390    -999.25   79.75080    9.87060   66.34020   10.78030    0.21790   89.98190    2.73280    -999.25    -999.25    0.13580   -0.02930
 9150.00000  -54.62440   12.98480   13.69870   18.73220    -999.25   82.99980    9.59670   63.23400   10.17580    0.05110   85.95440    2.75060    -999.25    -999.25    0.11110   -0.02860
 9200.00000  -68.38120    5.66520    5.82390    7.53710    -999.25   96.91340   12.14570   76.53000   13.81110    0.18780  104.40780    2.49920    -999.25    -999.25    0.26030    0.12420
 9250.00000  -58.06400    7.83190    8.43600   11.16620    -999.25   90.75890   10.29200   73.52290   13.23880    0.20380  108.11850    2.51760    -999.25    -999.25    0.23940    0.12490
 9300.00000  -58.92640    7.03420    7.72660    9.80550    -999.25   87.63110   11.47140   76.40850   13.24800    0.19020  107.64530    2.53420    -999.25    -999.25    0.23800    0.12330
 9350.00000  -54.71480    7.98930    8.39490   11.54850    -999.25   86.74860    9.99790   71.19720   11.02400    0.25180   95.46300    2.70980    -999.25    -999.25    0.16470    0.00690
 9400.00000  -16.09530  300.41160 1369.15440 1192.41580    -999.25  105.28650    9.03420   63.53340    9.36950    0.07090  107.49940    2.72560    -999.25    -999.25    0.09050   -0.00620
 9450.00000  -57.20680 1399.16530 1456.71450 1493.07560    -999.25  211.66480    8.98740   70.14260    9.37480    0.06350  170.51610    2.60660    -999.25    -999.25    0.11860    0.06970
 9500.00000  -48.21550   80.97460   90.96960  134.19330    -999.25   41.11360    9.38430   54.57240    9.65540    0.04180   45.23200    2.74720    -999.25    -999.25    0.02670   -0.04440
 9550.00000  -43.69840   47.05630   52.58370   71.55570    -999.25   79.83500    9.57520   60.23100    9.96710    0.03860   65.37520    2.74960    -999.25    -999.25    0.06770   -0.01820
 9600.00000  -87.36960  275.17400  550.65440  594.17040    -999.25   14.67950    9.52010   49.58260   10.24540    0.04860   15.12570    2.73220    -999.25    -999.25   -0.00180   -0.01170
 9650.00000 -128.05880 1361.97410 1445.42420  921.71830    -999.25    9.47430    9.53810   48.46270   10.15520    0.06190   12.05130    2.74360    -999.25    -999.25   -0.00200   -0.02530
