~Version ---------------------------------------------------
VERS.      2.0 : CWLS log ASCII Standard -VERSION 2.0
WRAP.       NO : One line per depth step
CREA. 10/21/19 : LAS Creation Date
~Well ------------------------------------------------------
STRT.FT                              300.0 : START DEPTH
STOP.FT                             9200.0 : STOP DEPTH
STEP.FT                           50.00000 : STEP LENGTH
NULL.                              -999.25 : NULL VALUE
COMP.          CANADA-CITIES SERVICE, LTD. : COMPANY
WELL. C.S. PAN AM GOODWIN LAKE 10-22-59-13 : WELL
FLD .                                      : FIELD
LOC .                                      : LOCATION
CTRY.                               CANADA : COUNTRY
SRVC.                         Schlumberger : SERVICE COMPANY
DATE.                          03-Aug-1963 : LOGDATE
PROV.                              Alberta : PROVINCE
UWI .                     100102205913W500 : UNIQUE WELL ID
SLAT.WGS84                        54.11761 : SURFACE LATITUDE
SLON.WGS84                       -115.8598 : SURFACE LONGITUDE
~Curve Information -----------------------------------------
DEPT  .FT    : Depth Curve
CALWS .IN    : CALIPER [MCALED]
CILDED.MMHO  : CONDUCTIVITY FROM RESISTIVITY LOG
CONDWS.MMHO  : CONDUCTIVITY [1000/DRESWS]
DRESWS.OHMM  : DEEP RESISTIVITY [1000/CILDED, IF ILDED < 2, ILDED]
DTED  .US/F  : DELTA-TIME 3' SPACING FROM SONIC LOG
DTWS  .US/F  : COMPRESSIONAL SONIC [DTED]
GRED  .GAPI  : GAMMA RAY FROM GR LOG
GRSED .GAPI  : GAMMA RAY FROM SONIC LOG
GRWS  .GAPI  : GAMMA RAY [GRED SPL. TO GRSED @ 3107']
ILDED .OHMM  : DEEP INDUCTION LOG RESISTIVITY FROM RESISTIVITY LOG
MCALED.IN    : MLT (MICROLOG) CALIPER FROM MICROLATEROLOG
SNED  .OHMM  : 16 INCH SHORT NORMAL RESISTIVITY FROM RESISTIVITY LOG
SPRED .MV    : SPONTANEOUS POTENTIAL FROM RESISTIVITY LOG
SPWS  .MV    : SPONTANEOUS POTENTIAL [BASELINE 0 MV] [SPRED]
SRESWS.OHMM  : SHALLOW RESISTIVITY [SNED]
~Params ----------------------------------------------------
PD  .                     GL : PERMANENT DATUM
EPD .FT                 2562 : ELEVATION PERMANENT DATUM
LMF .                     KB : LOG MEASURED FROM
DAPD.FT                   18 : FEET ABOVE PERMANENT DATUM
EKB .FT                 2580 : KELLY BUSHING
EGL .FT                 2562 : GROUND LEVEL
DATE.               08/03/63 : RUN DATE
RUN .                      2 : RUN NUMBER
DD  .FT                 9232 : DEPTH DRILLER
DL  .FT                 9224 : DEPTH LOGGER
BLI .FT                 9223 : BOTTOM LOG INTERVAL
TLI .FT                 5650 : TOP LOG INTERVAL
CBD .FT               946.76 : CASING BOTTOM DRILLER
BS  .IN                7.875 : BIT SIZE
BSD .FT                 9232 : BIT SIZE AT DEPTH
DFT .           GEL OIL CHEM : DRILLING FLUID TYPE
DFD .                    9.7 : DRILLING FLUID DENSITY
DFV .                    135 : DRILLING FLUID VISCOSITY
DFPH.                    9.5 : DRILLING FLUID PH
DFL .                    4.3 : DRILLING FLUID LOSS
RMS .OHMM               1.64 : RESISTIVITY MUD SAMPLE
MST .DEGF                 72 : MUD SAMPLE TEMPERATURE
RMF .OHMM               0.85 : RESISTIVITY MUD FILTRATE SAMPLE
MFST.DEGF                 84 : MUD FILTRATE SAMPLE TEMPERATURE
RMC .OHMM               1.75 : RESISTIVITY MUD CAKE
MCST.DEGF                 83 : MUD CAKE SAMPLE TEMPERATURE
RMB .OHMM               0.66 : RESISTIVITY MUD AT BHT
TCS .HRS                 2.5 : TIME CIRCULATED STOPPED
LUN .                   3232 : LOGGING UNIT NUMBER
LUL .                     WC : LOGGING UNIT LOCATION
ENGI.               HATLELID : RECORDING ENGINEER
WITN.              ABERNATHY : WITNESSED BY
CLNT.                A2DTECH : CLIENT CODE
ORIG.            2" 5" PRINT : ORIGIN OF DATA
UWI .       100102205913W500 : UNIQUE WELL ID
DICO. A2D Technologies, Inc. : DIGITIZING COMPANY
~Other -----------------------------------------------------
~ASCII -----------------------------------------------------
  300.00000    -999.25    -999.25    -999.25    -999.25    -999.25    -999.25   58.64120    -999.25   58.64120    -999.25    -999.25    -999.25    -999.25    -999.25    -999.25
  350.00000    -999.25    -999.25    -999.25    -999.25    -999.25    -999.25   80.55320    -999.25   80.55320    -999.25    -999.25    -999.25    -999.25    -999.25    -999.25
  400.00000    -999.25    -999.25    -999.25    -999.25    -999.25    -999.25   68.39470    -999.25   68.39470    -999.25    -999.25    -999.25    -999.25    -999.25    -999.25
  450.00000    -999.25    -999.25    -999.25    -999.25    -999.25    -999.25   76.79980    -999.25   76.79980    -999.25    -999.25    -999.25    -999.25    -999.25    -999.25
  500.00000    -999.25    -999.25    -999.25    -999.25    -999.25    -999.25   71.69890    -999.25   71.69890    -999.25    -999.25    -999.25    -999.25    -999.25    -999.25
  550.00000    -999.25    -999.25    -999.25    -999.25    -999.25    -999.25   62.82430    -999.25   62.82430    -999.25    -999.25    -999.25    -999.25    -999.25    -999.25
  600.00000    -999.25    -999.25    -999.25    -999.25    -999.25    -999.25   59.21140    -999.25   59.21140    -999.25    -999.25    -999.25    -999.25    -999.25    -999.25
  650.00000    -999.25    -999.25    -999.25    -999.25    -999.25    -999.25   55.93630    -999.25   55.93630    -999.25    -999.25    -999.25    -999.25    -999.25    -999.25
  700.00000    -999.25    -999.25    -999.25    -999.25    -999.25    -999.25   57.44830    -999.25   57.44830    -999.25    -999.25    -999.25    -999.25    -999.25    -999.25
  750.00000    -999.25    -999.25    -999.25    -999.25    -999.25    -999.25   44.64270    -999.25   44.64270    -999.25    -999.25    -999.25    -999.25    -999.25    -999.25
  800.00000    -999.25    -999.25    -999.25    -999.25    -999.25    -999.25   42.12670    -999.25   42.12670    -999.25    -999.25    -999.25    -999.25    -999.25    -999.25
  850.00000    -999.25    -999.25    -999.25    -999.25    -999.25    -999.25   41.41760    -999.25   41.41760    -999.25    -999.25    -999.25    -999.25    -999.25    -999.25
  900.00000    -999.25    -999.25    -999.25    -999.25    -999.25    -999.25   54.43930    -999.25   54.43930    -999.25    -999.25    -999.25    -999.25    -999.25    -999.25
  950.00000    -999.25    -999.25    -999.25    -999.25  122.61240  122.61240   91.43060   79.90520   79.90520    -999.25    -999.25    5.41150  -70.62930    2.22900    5.41150
 1000.00000    -999.25  175.97300  177.18870    5.64370  107.34080  107.34080   83.04710   91.24780   91.24780    5.64370    -999.25    5.37030  -75.59890   -2.95540    5.37030
 1050.00000    -999.25  203.73800  204.46550    4.89080  101.50830  101.50830   91.52830   77.02320   77.02320    4.89080    -999.25    5.02000  -75.15620   -2.73680    5.02000
 1100.00000    -999.25   60.36790   58.13550   17.20120  101.99600  101.99600   81.63280   72.78920   72.78920   17.20120    -999.25   15.39530  -82.42750  -10.23230   15.39530
 1150.00000    -999.25  267.23680  265.23090    3.77030  145.27330  145.27330   74.22690   92.39220   92.39220    3.77030    -999.25    4.07960  -74.99590   -3.02490    4.07960
 1200.00000    -999.25  141.31780  146.88390    6.80810   94.64700   94.64700    -999.25   61.50040   61.50040    6.80810    -999.25    6.92040  -74.44030   -2.69350    6.92040
 1250.00000    -999.25  231.53140  231.08560    4.32740  105.23920  105.23920    -999.25   88.90810   88.90810    4.32740    -999.25    3.98580  -73.22190   -1.69920    3.98580
 1300.00000    -999.25  293.01260  307.73970    3.24950  120.23110  120.23110    -999.25   76.49070   76.49070    3.24950    -999.25    3.76820  -73.93010   -2.63160    3.76820
 1350.00000    -999.25  188.26480  191.16800    5.23100  104.57670  104.57670    -999.25   77.37720   77.37720    5.23100    -999.25    4.91390  -73.11900   -2.04470    4.91390
 1400.00000    -999.25  204.47400  207.75340    4.81340  120.11810  120.11810    -999.25  100.28480  100.28480    4.81340    -999.25    5.82340  -73.30850   -2.45840    5.82340
 1450.00000    -999.25  157.69330  159.55070    6.26760   96.49320   96.49320    -999.25   87.01610   87.01610    6.26760    -999.25    5.94940  -72.57620   -1.95020    5.94940
 1500.00000    -999.25  168.74020  158.40080    6.31310  104.94430  104.94430    -999.25   86.97830   86.97830    6.31310    -999.25    5.80950  -72.64450   -2.24270    5.80950
 1550.00000    -999.25  114.97670  125.93190    7.94080   85.01290   85.01290    -999.25   66.21930   66.21930    7.94080    -999.25    9.13010  -71.96950   -1.79190    9.13010
 1600.00000   13.75530  231.89230  221.34180    4.51790  129.50370  129.50370   28.98080   92.04050   92.04050    4.51790   13.75530    4.15160  -72.21650   -2.26310    4.15160
 1650.00000   11.51280  196.98860  212.92910    4.69640  112.00010  112.00010   33.70240   92.06900   92.06900    4.69640   11.51280    5.04430  -71.36140   -1.63210    5.04430
 1700.00000   13.14080  272.24680  276.32710    3.61890  126.47630  126.47630   53.71910   90.30740   90.30740    3.61890   13.14080    3.98980  -71.08110   -1.57600    3.98980
 1750.00000    9.64040  189.83260  207.21950    4.82580  149.92350  149.92350    -999.25   86.27500   86.27500    4.82580    9.64040    6.37370  -71.74250   -2.46160    6.37370
 1800.00000   10.28500  137.92470  135.56930    7.37630   97.22050   97.22050    -999.25   76.21970   76.21970    7.37630   10.28500    8.10970  -72.23300   -3.17420    8.10970
 1850.00000   11.57980  224.55720  200.99290    4.97530  135.54240  135.54240    -999.25   85.72710   85.72710    4.97530   11.57980    4.56500  -70.42460   -1.58050    4.56500
 1900.00000   10.81650   81.02710   77.37900   12.92340   93.48250   93.48250    -999.25   74.02690   74.02690   12.92340   10.81650   10.41810  -73.01840   -4.38890   10.41810
 1950.00000   11.08550  117.18060  117.87450    8.48360   97.52650   97.52650    -999.25   86.51460   86.51460    8.48360   11.08550    8.25740  -71.31830   -2.90350    8.25740
 2000.00000   10.92990   50.55040   53.76840   18.59830   96.54850   96.54850    -999.25   70.52770   70.52770   18.59830   10.92990   15.68640  -76.53080   -8.33060   15.68640
 2050.00000   12.22550  461.13540  497.14140    2.01150  113.45320  113.45320    -999.25  118.37360  118.37360    2.01150   12.22550    2.61890  -69.13970   -1.15420    2.61890
 2100.00000   11.31330  176.85240  177.64830    5.62910   96.30190   96.30190    -999.25   73.52170   73.52170    5.62910   11.31330    6.06730  -69.36960   -1.59870    6.06730
 2150.00000   12.43610  195.62230  203.06220    4.92460   93.63740   93.63740    -999.25   80.23850   80.23850    4.92460   12.43610    5.58510  -69.44980   -1.89360    5.58510
 2200.00000   10.47590  120.89960  137.92910    7.25010  104.77950  104.77950    -999.25   59.92890   59.92890    7.25010   10.47590   13.11830  -74.18350   -6.84190   13.11830
 2250.00000   12.59950  215.61270  220.25950    4.54010   98.09820   98.09820    -999.25   72.68630   72.68630    4.54010   12.59950    4.91790  -68.92330   -1.79640    4.91790
 2300.00000   12.46760  216.47050  215.90810    4.63160  103.05440  103.05440    -999.25   66.38650   66.38650    4.63160   12.46760    4.90350  -68.27610   -1.36380    4.90350
 2350.00000   12.40530   93.96900   87.97320   11.36710   72.78510   72.78510    -999.25   58.71110   58.71110   11.36710   12.40530   10.02640  -68.76220   -2.06460   10.02640
 2400.00000   11.10210   38.54010   36.80640   27.16920   92.09560   92.09560    -999.25   52.81160   52.81160   27.16920   11.10210   25.64020  -79.69770  -13.21470   25.64020
 2450.00000   10.62350   47.20760   37.02910   27.00580   69.11250   69.11250    -999.25   52.61440   52.61440   27.00580   10.62350   20.89220  -68.39750   -2.12920   20.89220
 2500.00000   10.43150  106.01990   95.02000   10.52410   85.42010   85.42010    -999.25   59.39120   59.39120   10.52410   10.43150    8.54780  -68.07190   -2.01830    8.54780
 2550.00000   10.29030  102.02590  103.56680    9.65560   90.93380   90.93380    -999.25   55.23210   55.23210    9.65560   10.29030   11.79200  -71.11960   -5.28060   11.79200
