~Version ---------------------------------------------------
VERS.      2.0 : CWLS log ASCII Standard -VERSION 2.0
WRAP.       NO : One line per depth step
CREA. 01/02/18 : LAS Creation Date
~Well ------------------------------------------------------
STRT.FT                                 1000.0 : START DEPTH
STOP.FT                                 9800.0 : STOP DEPTH
STEP.FT                               50.00000 : STEP LENGTH
NULL.                                  -999.25 : NULL VALUE
COMP. THE BRITISH AMERICAN OIL COMPANY LIMITED : COMPANY
WELL.                    BA IOSEGUN 2-11-67-20 : WELL
FLD .                                          : FIELD
LOC .                                          : LOCATION
CTRY.                                   CANADA : COUNTRY
SRVC.                             Schlumberger : SERVICE COMPANY
DATE.                              02-Mar-1963 : LOGDATE
PROV.                                  Alberta : PROVINCE
UWI .                         100021106720W500 : UNIQUE WELL ID
SLAT.WGS84                            54.77967 : SURFACE LATITUDE
SLON.WGS84                           -116.9329 : SURFACE LONGITUDE
~Curve Information -----------------------------------------
DEPT  .FT    : Depth Curve
CALSED.IN    : CALIPER FROM SONIC LOG
CALWS .IN    : CALIPER [CALSED]
CILDED.MMHO  : INDUCTION DEEP CONDUCTIVITY FROM IEL
CONDWS.MMHO  : CONDUCTIVITY [1000/DRESWS]
DRESWS.OHMM  : DEEP RESISTIVITY [ILDED, IF ILDED<2;1000/CILDED]
DTED  .US/F  : DELTA TIME  (INTERVAL TRANSIT TIME)  FROM SONIC LOG
DTWS  .US/F  : COMPRESSIONAL SONIC [DTED]
GRSED .GAPI  : GAMMA RAY FROM SONIC LOG
GRWS  .GAPI  : GAMMA RAY [GRSED]
ILDED .OHMM  : INDUCTION DEEP RESISTIVITY FROM IEL
SNED  .OHMM  : SHORT NORMAL RESISTIVITY FROM IEL
SPRED .MV    : SPONTANEOUS POTENTIAL FROM IEL
SPWS  .MV    : SPONTANEOUS POTENTIAL [BASELINE 0 MV] [SPRED]
SRESWS.OHMM  : SHALLOW RESISTIVITY [SNED]
~Params ----------------------------------------------------
PD  .                     GL : PERMANENT DATUM
EPD .FT                 2507 : ELEVATION PERMANENT DATUM
LMF .                     KB : LOG MEASURED FROM
DAPD.FT                   18 : FEET ABOVE PERMANENT DATUM
EKB .FT                 2525 : KELLY BUSHING
EGL .FT                 2507 : GROUND LEVEL
DATE.              03/02/196 : RUN DATE
RUN .                      2 : RUN NUMBER
DD  .FT                 9825 : DEPTH DRILLER
DL  .FT                 9831 : DEPTH LOGGER
BLI .FT                 9830 : BOTTOM LOG INTERVAL
TLI .FT                 9589 : TOP LOG INTERVAL
CBD .FT                 1015 : CASING BOTTOM DRILLER
CBL .FT                 1018 : CASING BOTTOM LOGGER
BS  .IN                    9 : BIT SIZE
BSD .FT                 9831 : BIT SIZE AT DEPTH
DFT .           OIL EMULSION : DRILLING FLUID TYPE
DFD .                    9.8 : DRILLING FLUID DENSITY
DFV .                    180 : DRILLING FLUID VISCOSITY
DFPH.                     10 : DRILLING FLUID PH
DFL .                    7.0 : DRILLING FLUID LOSS
RMS .OHMM               0.95 : RESISTIVITY MUD SAMPLE
MST .DEGF                 82 : MUD SAMPLE TEMPERATURE
RMF .OHMM               1.07 : RESISTIVITY MUD FILTRATE SAMPLE
MFST.DEGF                 50 : MUD FILTRATE SAMPLE TEMPERATURE
RMC .OHMM               1.97 : RESISTIVITY MUD CAKE
MCST.DEGF                 50 : MUD CAKE SAMPLE TEMPERATURE
RMB .OHMM               0.41 : RESISTIVITY MUD AT BHT
MRT .DEGF                190 : MAXIMUM RECORDED TEMPERATURE
LUN .                1534 VV : LOGGING UNIT NUMBER
ENGI.                MCKEOWN : RECORDING ENGINEER
WITN.              MCDERMOTT : WITNESSED BY
CLNT.                A2DTECH : CLIENT CODE
ORIG.           2', 5' PRINT : ORIGIN OF DATA
UWI .       100021106720W500 : UNIQUE WELL ID
DICO. A2D Technologies, Inc. : DIGITIZING COMPANY
~Other -----------------------------------------------------
CILD USED SCALES 500/0 FROM START TO 9750' AND SCALES 1000/0 FROM 9750'-END.
IEL LOG TAKEN FROM RUN 1 FROM START TO 9750 AND RUN 2 FROM 9750'-END.
~ASCII -----------------------------------------------------
# ...
 8350.00000   11.52610   11.52610   84.38330   84.45380   11.84080   76.49500   76.49500   66.26800   66.26800   11.84080   15.34360  -97.97170  -35.50610   15.34360
 8400.00000   12.44380   12.44380  183.68340  177.69250    5.62770   90.81330   90.81330   78.77340   78.77340    5.62770    7.69740  -97.37920  -35.74630    7.69740
 8450.00000   13.25190   13.25190  222.53770  207.52920    4.81860   84.59550   84.59550   78.88120   78.88120    4.81860    5.45860 -104.21020  -43.41000    5.45860
 8500.00000   13.92510   13.92510  232.28940  228.36260    4.37900   87.73500   87.73500   77.79270   77.79270    4.37900    4.81850 -130.22560  -70.25810    4.81850
 8550.00000   14.15040   14.15040  202.97520  191.82440    5.21310   82.97530   82.97530   87.23440   87.23440    5.21310    5.70640 -115.98690  -56.85210    5.70640
 8600.00000   14.17900   14.17900  176.23340  185.71480    5.38460   79.91970   79.91970   68.07220   68.07220    5.38460    5.99640 -121.91810  -63.61600    5.99640
 8650.00000   13.99140   13.99140  198.00510  194.03910    5.15360   85.82520   85.82520   68.68780   68.68780    5.15360    5.52610 -124.02560  -66.55610    5.52610
 8700.00000   14.04480   14.04480  203.95960  204.54920    4.88880   86.46580   86.46580   70.32760   70.32760    4.88880    5.26130  -90.65770  -34.02090    5.26130
 8750.00000   14.35370   14.35370  238.21140  231.50830    4.31950   87.91100   87.91100   77.26780   77.26780    4.31950    5.52850  -92.29790  -36.49380    5.52850
 8800.00000   10.64300   10.64300   81.55700   80.26460   12.45880   66.84500   66.84500   65.84560   65.84560   12.45880   17.29230  -52.78850    2.18290   17.29230
 8850.00000   10.53140   10.53140   76.57990   75.28190   13.28340   67.04850   67.04850   72.59130   72.59130   13.28340   18.41300  -83.39910  -29.26040   18.41300
 8900.00000   11.29570   11.29570   97.53490   96.08640   10.40730   71.14770   71.14770   82.65850   82.65850   10.40730   14.35340 -112.61870  -59.31270   14.35340
 8950.00000   11.05940   11.05940  103.62710  102.83730    9.72410   70.24320   70.24320   80.90850   80.90850    9.72410   13.67190  -83.54240  -31.06910   13.67190
 9000.00000   10.82940   10.82940  107.07010  106.94040    9.35100   71.50080   71.50080   78.01760   78.01760    9.35100   13.45440  -55.20110   -3.56040   13.45440
 9050.00000   11.19350   11.19350  154.47020  150.51170    6.64400   74.67120   74.67120   80.78230   80.78230    6.64400    8.82820  -86.30830  -35.50030    8.82820
 9100.00000   12.79900   12.79900  168.79540  164.51430    6.07850   78.43280   78.43280   89.02840   89.02840    6.07850    8.53030  -82.59250  -32.61720    8.53030
 9150.00000   11.29730   11.29730  149.02650  144.31890    6.92910   79.68370   79.68370   84.18440   84.18440    6.92910   10.39170  -72.46550  -23.32290   10.39170
 9200.00000   10.79170   10.79170  161.54490  158.77550    6.29820   78.34000   78.34000   84.75810   84.75810    6.29820    9.78380  -69.39680  -21.08690    9.78380
 9250.00000    9.78630    9.78630   18.47190   14.87050   67.24740   78.54150   78.54150   98.99460   98.99460   67.24740   82.88600  -67.87510  -20.39790   82.88600
 9300.00000   10.47400   10.47400  103.32370   98.82110   10.11930   79.00700   79.00700   85.79670   85.79670   10.11930   15.16910  -70.78950  -24.14500   15.16910
 9350.00000   12.00060   12.00060  167.62120  165.33840    6.04820   84.55200   84.55200   85.67870   85.67870    6.04820   10.89130  -61.25720  -15.44530   10.89130
 9400.00000   10.99250   10.99250  125.58510  126.48780    7.90590   71.65150   71.65150   75.32670   75.32670    7.90590   12.81920  -67.19940  -22.22020   12.81920
 9450.00000   10.26620   10.26620   72.11260   71.46790   13.99230   63.16750   63.16750   55.43490   55.43490   13.99230   18.92570  -59.90120  -15.75470   18.92570
 9500.00000    9.94420    9.94420   18.19090   15.01560   66.59730   53.51280   53.51280   40.93400   40.93400   66.59730   53.14620  -63.25310  -19.93930   53.14620
 9550.00000    9.89990    9.89990   18.10890   15.35360   65.13110   54.76150   54.76150   40.84190   40.84190   65.13110   70.39430  -76.35400  -33.87290   70.39430
 9600.00000   10.11550   10.11550   81.09390   80.18280   12.47150   64.15430   64.15430   72.01510   72.01510   12.47150   17.20120  -54.36880  -12.72040   17.20120
 9650.00000    9.73450    9.73450   97.75920   95.76430   10.44230   66.60870   66.60870   84.98520   84.98520   10.44230   16.38740  -44.66620   -3.74220   16.38740
 9700.00000    9.39340    9.39340   10.30050    4.45340  224.54950   50.79920   50.79920   30.77030   30.77030  224.54950  175.77320  -77.97640  -37.05240  175.77320
 9750.00000    9.38660    9.38660    2.48760    2.99140  334.29440   52.04870   52.04870   37.63680   37.63680  334.29440  113.27350  -81.68320  -40.75920  113.27350
 9800.00000    -999.25    -999.25  831.84080  831.84080    1.20220    -999.25    -999.25    -999.25    -999.25    1.46230    9.95270 -218.54700 -177.62300    9.95270
