~Version ---------------------------------------------------
VERS. 2.0 : CWLS log ASCII Standard -VERSION 2.0
WRAP.  NO : ONE LINE PER DEPTH STEP
~Well ------------------------------------------------------
STRT.M                             300.0 : START DEPTH
STOP.M                            1750.0 : STOP DEPTH
STEP.M                          50.00000 : STEP LENGTH
NULL.                            -999.25 : NULL VALUE
COMP. CANADIAN NATURAL RESOURCES LIMITED : COMPANY
WELL.      LASMO OPINAC NIPISI 6-14-80-9 : WELL
FLD .                                    : FIELD
LOC .                                    : LOCATION
CTRY.                             CANADA : COUNTRY
SRVC.                       Schlumberger : SERVICE COMPANY
DATE.                        07-Apr-1990 : LOGDATE
PROV.                            Alberta : PROVINCE
UWI .                   100061408009W500 : UNIQUE WELL ID
SLAT.WGS84                 55.9312477112 : SURFACE LATITUDE
SLON.WGS84               -115.2961120605 : SURFACE LONGITUDE
~Curve Information -----------------------------------------
DEPT    .M                          : DEPTH METERS
C2ED    .MM                         : CALIPER 2 FROM DENSITY LOG
CALWS   .MM     :   CALIPER [SPLICE : 186.5 C2ED 1735 MCALED]
CONDWS  .MMHO                       : CONDUCTIVITY [1000/DRESWS]
DCORWS  .KG/M3                      : DENSITY CORRECTION [DRHOED]
DENWS   .KG/M3                      : BULK DENSITY [M=2710 F=1000] CALCULATED FROM DPOWS]
DPHILSED.V/V                        : DENSITY POROSITY [M=2710 F=1000] FROM DENSITY LOG
DPOLSWS .V/V                        : DENSITY POROSITY LIMESTONE [M=2710 F=1000] [DPHILSED]
DRESWS  .OHMM                       : DEEP RESISTIVITY [IDPHED]
DRHOED  .KG/M3                      : DENSITY CORRECTION FROM DENSITY LOG
DTED    .US/M                       : DELTA TIME FROM SONIC LOG
DTWS    .US/M                       : DELTA TIME [DTED]
GRMED   .GAPI                       : GAMMA RAY FROM MICROLOG [DEPTH SHIFTED TO RES.]
GRRED   .GAPI                       : GAMMA RAY FROM RESISTIVITY LOG
GRWS    .GAPI :   GAMMA RAY [SPLICE : 186.5 GRRED 1746.1 GRMED]
IDPHED  .OHMM                       : INDUCTION DEEP PHASE RESISTIVITY
IMPHED  .OHMM                       : INDUCTION MEDIUM PHASE RESISTIVITY
MCALED  .MM                         : CALIPER FROM MICROLOG [DEPTH SHIFTED TO RES.]
MRESWS  .OHMM                       : MEDIUM RESISTIVITY [IMPHED]
NPHILSED.V/V                        : NEUTRON POROSITY LIMESTONE FROM DENSITY LOG
NPOLSWS .V/V                        : NEUTRON POROSITY LIMESTONE [NPHILSED]
PEFED   .B/E                        : PHOTOELECTRIC FACTOR FROM DENSITY LOG
PEFWS   .B/E                        : PHOTOELECTRIC FACTOR [PEFED]
RHOBED  .KG/M3                      : BULK DENSITY FROM DENSITY LOG [DEPTH SHIFTED TO DPHILSED/RES.]
SFLUED  .OHMM                       : SPHERICALLY FOCUSED LOG RESISTIVITY
SPRED   .MV                         : SPONTANEOUS POTENTIAL FROM RESISTIVITY LOG
SPWS    .MV                         : SPONTANEOUS POTENTIAL [BASELINE 0 MV] [SPRED]
SRESWS  .OHMM                       : SHALLOW RESISTIVITY [SFLUED]
~Params ----------------------------------------------------
PD  .                         GL : PERMANENT DATUM
EPD .M                     646.1 : ELEVATION PERMANENT DATUM
LMF .                         KB : LOG MEASURED FROM
DAPD.M                       4.5 : FEET ABOVE PERMANENT DATUM
DMF .                         KB : DRILLING MEASURED FROM
EKB .M                     650.6 : KELLY BUSHING
EDF .M                     650.3 : DRILLING FLOOR
EGL .M                     646.1 : GROUND LEVEL
DATE.                   04/07/90 : RUN DATE
RUN .                          1 : RUN NUMBER
DD  .M                      1770 : DEPTH DRILLER
DL  .M                    1766.6 : DEPTH LOGGER
BLI .M                    1765.7 : BOTTOM LOG INTERVAL
TLI .M                       206 : TOP LOG INTERVAL
CS  .MM                      219 : CASING SIZE
CBD .M                       207 : CASING BOTTOM DRILLER
CBL .M                       206 : CASING BOTTOM LOGGER
BS  .MM                      200 : BIT SIZE
BSD .M                      1770 : BIT SIZE AT DEPTH
DFT .                   GEL CHEM : DRILLING FLUID TYPE
DFD .                       1170 : DRILLING FLUID DENSITY
DFV .                         80 : DRILLING FLUID VISCOSITY
DFPH.                         12 : DRILLING FLUID PH
DFL .                         10 : DRILLING FLUID LOSS
MSS .                   FLOWLINE : MUD SAMPLE SOURCE
RMS .OHMM                   0.71 : RESISTIVITY MUD SAMPLE
MST .DEGC                     17 : MUD SAMPLE TEMPERATURE
RMF .OHMM                   0.54 : RESISTIVITY MUD FILTRATE SAMPLE
MFST.DEGC                     18 : MUD FILTRATE SAMPLE TEMPERATURE
RMC .OHMM                   0.64 : RESISTIVITY MUD CAKE
MCST.DEGC                     17 : MUD CAKE SAMPLE TEMPERATURE
MFSS.                   MEASURED : MUD FILTRATE SAMPLE SOURCE
MCSS.                   MEASURED : MUD CAKE SAMPLE SOURCE
RMB .OHMM                  0.445 : RESISTIVITY MUD AT BHT
TCS .HRS                    1100 : TIME CIRCULATED STOPPED
TLAB.HRS                    1630 : TIME LOGGER AT BOTTOM
LUN .                       8373 : LOGGING UNIT NUMBER
LUL .                   EDMONTON : LOGGING UNIT LOCATION
ENGI.                  ZACHYSTAL : RECORDING ENGINEER
WITN.                      SMITH : WITNESSED BY
CLNT.                    A2DTECH : CLIENT CODE
ORIG. 6.5"/100M 16.5"/100M PRINT : ORIGIN OF DATA
UWI .           100061408009W500 : UNIQUE WELL ID
DICO.     A2D Technologies, Inc. : DIGITIZING COMPANY
~Other -----------------------------------------------------
~ASCII -----------------------------------------------------
  300.00000  251.54840  251.54840  280.78850    -999.25    -999.25    -999.25    -999.25    3.56140    -999.25  458.06000  458.06000    -999.25   84.67650   84.67650    3.56140    3.25670    -999.25    3.25670    -999.25    -999.25    -999.25    -999.25    -999.25    3.57910  -62.42550   -3.18260    3.57910
  350.00000  232.57430  232.57430  145.55410    -999.25    -999.25    -999.25    -999.25    6.87030    -999.25  397.64080  397.64080    -999.25   50.79470   50.79470    6.87030    8.16900    -999.25    8.16900    -999.25    -999.25    -999.25    -999.25    -999.25    8.35290  -82.36220  -17.36060    8.35290
  400.00000  239.10540  239.10540  244.94190    -999.25    -999.25    -999.25    -999.25    4.08260    -999.25  396.61270  396.61270    -999.25   69.93030   69.93030    4.08260    4.78580    -999.25    4.78580    -999.25    -999.25    -999.25    -999.25    -999.25    5.81360  -76.80480   -9.86210    5.81360
  450.00000  292.95480  292.95480  163.30530    -999.25    -999.25    -999.25    -999.25    6.12350    -999.25  360.82410  360.82410    -999.25   56.62620   56.62620    6.12350    6.34660    -999.25    6.34660    -999.25    -999.25    -999.25    -999.25    -999.25    6.66010  -73.91460   -9.61900    6.66010
  500.00000  354.75980  354.75980  187.61730    -999.25    -999.25    -999.25    -999.25    5.33000    -999.25  366.05310  366.05310    -999.25   62.25020   62.25020    5.33000    4.91720    -999.25    4.91720    -999.25    -999.25    -999.25    -999.25    -999.25    4.69400  -65.40030   -3.75170    4.69400
  550.00000  313.84820  313.84820  202.41690    -999.25    -999.25    -999.25    -999.25    4.94030    -999.25  373.76970  373.76970    -999.25   74.47000   74.47000    4.94030    4.68370    -999.25    4.68370    -999.25    -999.25    -999.25    -999.25    -999.25    5.08380  -66.92990   -3.79710    5.08380
  600.00000  361.53350  361.53350  235.51020    -999.25    -999.25    -999.25    -999.25    4.24610    -999.25  362.26580  362.26580    -999.25   45.45410   45.45410    4.24610    4.12940    -999.25    4.12940    -999.25    -999.25    -999.25    -999.25    -999.25    3.71840  -72.89800   -7.18270    3.71840
  650.00000  285.92880  285.92880  203.49600    -999.25    -999.25    -999.25    -999.25    4.91410    -999.25  261.14960  261.14960    -999.25   42.16730   42.16730    4.91410    4.51830    -999.25    4.51830    -999.25    -999.25    -999.25    -999.25    -999.25    5.37070  -94.90840  -21.66690    5.37070
  700.00000  292.73730  292.73730   70.18140    -999.25    -999.25    -999.25    -999.25   14.24880    -999.25  207.89020  207.89020    -999.25   20.23250   20.23250   14.24880   14.81120    -999.25   14.81120    -999.25    -999.25    -999.25    -999.25    -999.25   20.04800  -99.05080  -15.89190   20.04800
  750.00000  255.54810  255.54810   60.00780    -999.25    -999.25    -999.25    -999.25   16.66450    -999.25  213.73270  213.73270    -999.25   24.24360   24.24360   16.66450   15.62950    -999.25   15.62950    -999.25    -999.25    -999.25    -999.25    -999.25   17.20540  -99.36580  -10.31610   17.20540
  800.00000  247.76680  247.76680   59.35850    -999.25    -999.25    -999.25    -999.25   16.84680    -999.25  214.24900  214.24900    -999.25   22.18800   22.18800   16.84680   15.92230    -999.25   15.92230    -999.25    -999.25    -999.25    -999.25    -999.25   18.13550  -98.56060   -8.16050   18.13550
  850.00000  303.78810  303.78810  305.72630    -999.25    -999.25    -999.25    -999.25    3.27090    -999.25  395.92780  395.92780    -999.25  132.01800  132.01800    3.27090    3.15240    -999.25    3.15240    -999.25    -999.25    -999.25    -999.25    -999.25    4.05580  -92.29540   -0.50460    4.05580
  900.00000  250.66330  250.66330   20.15960    -999.25    -999.25    -999.25    -999.25   49.60420    -999.25  177.24820  177.24820    -999.25   12.95290   12.95290   49.60420   55.95800    -999.25   55.95800    -999.25    -999.25    -999.25    -999.25    -999.25   68.90000 -106.05560  -11.95520   68.90000
  950.00000  227.05430  227.05430   35.20420    -999.25    -999.25    -999.25    -999.25   28.40570    -999.25  197.86140  197.86140    -999.25   17.23840   17.23840   28.40570   48.01810    -999.25   48.01810    -999.25    -999.25    -999.25    -999.25    -999.25  109.65890 -118.25250  -21.84260  109.65890
 1000.00000  245.82030  245.82030   17.62380    -999.25    -999.25    -999.25    -999.25   56.74130    -999.25  175.17870  175.17870    -999.25   16.98180   16.98180   56.74130   56.60680    -999.25   56.60680    -999.25    -999.25    -999.25    -999.25    -999.25   75.55490 -101.37360   -2.88470   75.55490
 1050.00000  281.09610  281.09610   11.11990    -999.25    -999.25    -999.25    -999.25   89.92900    -999.25  167.21180  167.21180    -999.25   14.65530   14.65530   89.92900   97.07240    -999.25   97.07240    -999.25    -999.25    -999.25    -999.25    -999.25  115.05530 -107.33730   -8.47780  115.05530
 1100.00000  260.74380  260.74380   21.71030    -999.25    -999.25    -999.25    -999.25   46.06110    -999.25  172.77310  172.77310    -999.25   20.46510   20.46510   46.06110   51.20860    -999.25   51.20860    -999.25    -999.25    -999.25    -999.25    -999.25   65.36760 -114.61480  -15.41390   65.36760
 1150.00000  242.40810  242.40810   14.76210    -999.25    -999.25    -999.25    -999.25   67.74120    -999.25  163.95860  163.95860    -999.25   12.23840   12.23840   67.74120  265.01560    -999.25  265.01560    -999.25    -999.25    -999.25    -999.25    -999.25  448.09080 -126.87370  -27.33150  448.09080
 1200.00000  256.26740  256.26740   99.30680    -999.25    -999.25    -999.25    -999.25   10.06980    -999.25  216.34960  216.34960    -999.25   36.48650   36.48650   10.06980   16.36350    -999.25   16.36350    -999.25    -999.25    -999.25    -999.25    -999.25   24.80810 -126.79480  -28.23580   24.80810
 1250.00000  236.78810  236.78810   25.18790    -999.25    -999.25    -999.25    -999.25   39.70160    -999.25  184.60070  184.60070    -999.25   21.91400   21.91400   39.70160   41.74060    -999.25   41.74060    -999.25    -999.25    -999.25    -999.25    -999.25   47.45890 -113.10460  -15.90230   47.45890
 1300.00000  261.31440  261.31440  161.52220    -999.25    -999.25    -999.25    -999.25    6.19110    -999.25  229.67870  229.67870    -999.25   49.83850   49.83850    6.19110    7.13940    -999.25    7.13940    -999.25    -999.25    -999.25    -999.25    -999.25   10.35070 -105.53260  -10.09120   10.35070
 1350.00000  243.52840  243.52840  156.54600    -999.25    -999.25    -999.25    -999.25    6.38790    -999.25  248.59220  248.59220    -999.25   49.05050   49.05050    6.38790    6.59670    -999.25    6.59670    -999.25    -999.25    -999.25    -999.25    -999.25    7.22140  -94.51540   -2.92540    7.22140
 1400.00000  307.60680  307.60680  325.45730    -999.25    -999.25    -999.25    -999.25    3.07260    -999.25  303.75820  303.75820   67.86770   67.79310   67.79310    3.07260    2.98390  142.07210    2.98390    -999.25    -999.25    -999.25    -999.25    -999.25    3.19210  -99.07050   -6.35690    3.19210
 1450.00000  237.13910  237.13910  126.31530    -999.25    -999.25    -999.25    -999.25    7.91670    -999.25  232.02780  232.02780   50.24830   44.12720   44.12720    7.91670    8.04920  142.00680    8.04920    -999.25    -999.25    -999.25    -999.25    -999.25    8.72600 -108.03030   -8.76980    8.72600
 1500.00000  332.64190  332.64190  301.44090    -999.25    -999.25    -999.25    -999.25    3.31740    -999.25  300.52740  300.52740   69.28820   61.64690   61.64690    3.31740    3.00320  141.21000    3.00320    -999.25    -999.25    -999.25    -999.25    -999.25    3.70400 -121.87270  -17.10110    3.70400
 1550.00000  325.83780  325.83780  276.30420  136.78170 2068.40800    0.37520    0.37520    3.61920  136.78170  279.34740  279.34740   67.48340   66.67210   66.67210    3.61920    3.37160  328.52170    3.37160    0.34710    0.34710    2.44880    2.44880 2072.73390    4.00900 -127.54740  -17.26480    4.00900
