~Version ---------------------------------------------------
VERS. 2.0 : CWLS log ASCII Standard -VERSION 2.0
WRAP.  NO : ONE LINE PER DEPTH STEP
~Well ------------------------------------------------------
STRT.F                           1500.0 : START DEPTH
STOP.F                          11900.0 : STOP DEPTH
STEP.F                         50.00000 : STEP LENGTH
NULL.                           -999.25 : NULL VALUE
COMP.  AMOCO CANADA PETROLEUM CO., LTD. : COMPANY
WELL. AMOCO HB FINA FIR S-I  7-26-59-20 : WELL
FLD .                                   : FIELD
LOC .                                   : LOCATION
CTRY.                            CANADA : COUNTRY
SRVC.            Schlumberger of Canada : SERVICE COMPANY
DATE.                       07-Jan-1978 : LOGDATE
PROV.                           Alberta : PROVINCE
UWI .                  100072605920W500 : UNIQUE WELL ID
SLAT.WGS84                     54.12779 : SURFACE LATITUDE
SLON.WGS84                    -116.8825 : SURFACE LONGITUDE
~Curve Information -----------------------------------------
DEPT   .F                 : 
GRS    .GAPI 60 310 01 01 : GAMMA RAY FROM SONIC LOG
CALS   .IN   60 280 50 00 : CALIPER FROM SONIC LOG
DT     .US/F 60 520 00 00 : DELTA TIME FROM SONIC LOG
GRD    .GAPI 45 310 01 01 : GAMMA RAY FROM DENSITY LOG
RHOB   .G/C3 45 350 01 00 : BULK DENSITY
CALD   .IN   45 280 60 00 : CALIPER FROM DENSITY LOG
DCOR   .G/C3 45 356 01 00 : DENSITY CORRECTION
NPHI_SS.DEC  42 890 03 00 : NEUTRON POROSITY SANDSTONE
DPHI_SS.DEC  45 890 12 00 : DENSITY POROSITY SANDSTONE
DPHI_LS.DEC  45 890 10 00 : DENSITY POROSITY
NPHI_LS.DEC  42 890 01 00 : NEUTRON POROSITY LIMESTONE
ILD    .OHMM 06 121 12 00 : INDUCTION LOG RESISTIVITY
ILM    .OHMM 07 120 44 00 : INDUCTION LOG MEDIUM RESISTIVITY
LL8    .OHMM 07 220 01 00 : DIGITAL FOCUSED LATEROLOG
SPR    .MV   07 010 01 01 : SELF POTENTIAL
~Params ----------------------------------------------------
PD  .                     GL : PERMANENT DATUM
EPD .FT              3289.04 : ELEVATION PERMANENT DATUM
LMF .                     KB : LOG MEASURED FROM
DAPD.FT                 21.2 : FEET ABOVE PERMANENT DATUM
EKB .FT              3310.24 : KELLY BUSHING
EGL .FT              3289.04 : GROUND LEVEL
DATE.               01/07/78 : RUN DATE
RUN .                      1 : RUN NUMBER
DD  .FT                11910 : DEPTH DRILLER
DL  .FT                11919 : DEPTH LOGGER
BLI .FT                11913 : BOTTOM LOG INTERVAL
TLI .FT                 1534 : TOP LOG INTERVAL
CBD .FT                 1534 : CASING BOTTOM DRILLER
CBL .FT                 1534 : CASING BOTTOM LOGGER
BS  .IN                 8.75 : BIT SIZE
BSD .FT                11910 : BIT SIZE AT DEPTH
DFT .                    GEL : DRILLING FLUID TYPE
DFD .                    9.5 : DRILLING FLUID DENSITY
DFV .                    105 : DRILLING FLUID VISCOSITY
DFPH.                    9.5 : DRILLING FLUID PH
DFL .                    9.0 : DRILLING FLUID LOSS
MSS .               FLOWLINE : MUD SAMPLE SOURCE
RMS .OHMM               1.78 : RESISTIVITY MUD SAMPLE
MST .DEGF                 85 : MUD SAMPLE TEMPERATURE
RMF .OHMM               1.74 : RESISTIVITY MUD FILTRATE SAMPLE
MFST.DEGF                 54 : MUD FILTRATE SAMPLE TEMPERATURE
TCS .HRS                   5 : TIME CIRCULATED STOPPED
LUN .                   7730 : LOGGING UNIT NUMBER
LUL .                    EDM : LOGGING UNIT LOCATION
ENGI.   ACKERMAN STEENBERGEN : RECORDING ENGINEER
CLNT.                A2DTECH : CLIENT CODE
ORIG.            2" 5" PRINT : ORIGIN OF DATA
UWI .       100072605920W500 : UNIQUE WELL ID
DICO. A2D Technologies, Inc. : DIGITIZING COMPANY
~Other -----------------------------------------------------
~ASCII -----------------------------------------------------
# ...
 8400.00000   32.95570   10.24970   54.11900   28.82460    2.34890   10.46480    0.23540    -999.25    -999.25    0.18850    0.05190  273.15230  179.00930  336.61980 -160.50750
 8450.00000   46.85400    9.47230   57.87540   35.36270    2.52050   10.54480    0.25970    -999.25    -999.25    0.09240    0.10540   15.91540   15.56040   22.52960 -148.19920
 8500.00000   64.83690    9.29950   50.26030   42.74130    2.67060    8.61940    0.06700    -999.25    -999.25   -0.02120    0.04300   38.45640   48.77070   80.88090 -120.94810
 8550.00000   65.26930    9.46380   53.59040   48.64660    2.71310    8.67140    0.02430    -999.25    -999.25   -0.01090    0.07630   22.43010   27.96580   49.92930 -123.37380
 8600.00000    7.35970    9.70830   50.40390    8.63850    2.73530    8.77170    0.09170    -999.25    -999.25   -0.06940    0.00360  445.96680 1310.60170 1376.90470 -188.03950
 8650.00000   16.35010    8.92520   52.88410   12.97050    2.56780    9.51260    0.22060    -999.25    -999.25    0.08380    0.01250   18.44430   26.71920  204.33980 -191.55000
 8700.00000   12.89660    9.32090   50.84380   21.76730    2.61550    9.64670    0.24800    -999.25    -999.25    0.10110    0.02080   88.09130  104.54020  229.82150 -136.32270
 8750.00000   79.83780    9.16100   56.19080   88.27170    2.63820    8.54060    0.03520    -999.25    -999.25    0.02860    0.11590   13.39010   14.75550   18.76000  -92.60780
 8800.00000   65.80310    9.38450   56.59140   76.40060    2.61100    8.65220    0.02790    -999.25    -999.25    0.03260    0.08100   26.10630   34.53820   96.10120 -104.19810
 8850.00000   65.94840    9.91540   55.17310   57.06930    2.68740    9.26330    0.01770    -999.25    -999.25    0.00690    0.07490   20.38770   24.00110   30.33780  -68.62790
 8900.00000   68.83050    9.64480   56.32610   53.55560    2.62540    9.12200    0.01150    -999.25    -999.25    0.04030    0.08190   22.32130   26.17330   38.14790  -61.61710
 8950.00000   34.90010    9.45370   51.84560   28.38720    2.69570    8.66360    0.03390    -999.25    -999.25    0.02520    0.03920   56.78140   61.88200   62.31540  -72.38120
 9000.00000   45.42430    9.24330   52.72230   32.53850    2.71000    8.44070    0.02230    -999.25    -999.25    0.01600    0.02730  157.64960  384.89620  223.75130  -80.29580
 9050.00000   50.92220    9.21460   53.27540   35.21170    2.70680    8.46570    0.05480    -999.25    -999.25   -0.00940    0.04610  112.45910  184.74560  143.84090  -77.00910
 9100.00000   45.67420    9.19300   54.11420   35.17630    2.67330    8.48180    0.03050    -999.25    -999.25    0.00270    0.05010   61.92740   79.82720   88.54160  -76.40540
 9150.00000   32.98510    9.16550   51.96250   26.38270    2.69910    8.41000    0.02520    -999.25    -999.25    0.02890    0.03010  304.98130 1278.93510  376.99630  -96.80720
 9200.00000   64.96980    9.18290   54.87580   49.99210    2.68020    8.43680    0.02240    -999.25    -999.25    0.01260    0.05720   55.33590   67.43010   84.64850  -76.98700
 9250.00000   55.95260    9.12180   54.17340   40.78830    2.63800    8.42600    0.01820    -999.25    -999.25    0.03440    0.04680   90.32730  120.32640  168.60870  -77.94200
 9300.00000   70.03660    9.17580   54.76280   96.91840    2.60710    8.38020    0.00450    -999.25    -999.25    0.03360    0.08620   52.78810   79.29570  106.07170  -94.98220
 9350.00000   19.49370    9.15460   48.53370   13.14750    2.59480    9.59020    0.24630    -999.25    -999.25    0.04700    0.00700 1442.18080 1301.74610 1240.14290 -143.92730
 9400.00000   20.74710    9.38230   48.80650   16.49300    2.65860    9.51830    0.22020    -999.25    -999.25    0.03750    0.00840 1455.72070 1288.72890 1226.33460 -175.79450
 9450.00000   19.42000    9.64150   48.71260   15.49750    2.47950   10.05910    0.23410    -999.25    -999.25    0.14230    0.00830 1483.45100 1315.83280  843.51560 -179.98880
 9500.00000   12.21230    9.42480   49.04320   12.79410    2.41410   10.37320    0.25680    -999.25    -999.25    0.14240    0.00490  358.08670  221.64380  195.24900 -176.05270
 9550.00000   16.02470    9.49320   49.18140   12.21260    2.60190   10.18390    0.25860    -999.25    -999.25    0.07850    0.01270  891.46190  429.46770  289.36680 -171.28540
 9600.00000   15.76970    9.32730   50.57720   10.48790    2.64250    9.35110    0.21960    -999.25    -999.25    0.03940    0.00650 1535.26110 1329.60180 1398.77750 -201.48340
 9650.00000   15.11380    9.34720   49.56770    7.69200    2.43250    9.99830    0.25620    -999.25    -999.25    0.14670    0.00250  445.88890  419.13670 1331.76640 -185.30590
 9700.00000   15.53520    9.55430   48.90990   12.55080    2.36800    9.81750    0.25340    -999.25    -999.25    0.18890    0.00850 1511.95120 1299.00550 1380.05200 -179.61660
 9750.00000   20.06900    9.68820   49.68140   14.61190    2.16590   11.33180    0.25520    -999.25    -999.25    0.32400    0.00910 1453.45290 1042.75160 1016.41820 -189.94560
 9800.00000   17.68580    9.65660   49.63670   14.07670    2.31570   10.59910    0.25080    -999.25    -999.25    0.21650    0.00930 1480.96030 1303.90670 1377.77650 -188.48700
 9850.00000   15.16680    9.65860   50.93340   12.63170    2.23690   10.60120    0.24010    -999.25    -999.25    0.26600    0.01840 1438.99840  888.36700 1036.70290 -192.44740
 9900.00000   22.52460    9.64720   49.02480   13.02750    2.66910    8.28480    0.00540    -999.25    -999.25   -0.00740    0.00870 1497.97790 1380.44370 1090.19920 -195.05150
 9950.00000   10.67280    9.43220   48.36960   10.10720    2.69450    8.32030    0.04480    -999.25    -999.25    0.00010    0.00650 1247.41890 1323.34440  525.49650 -183.50160
 10000.00000    9.62870    9.29520   48.14980   11.87190    2.65280    8.48050    0.04130    -999.25    -999.25    0.03060    0.00580 1506.21250 1434.67190 1346.58370 -187.92430
 10050.00000   18.32880    8.99460   48.29510   11.23110    2.61940    7.86300    0.19460    -999.25    -999.25    0.03240    0.04120  164.75770 1504.74550 1272.83570 -186.99520
 10100.00000   44.52270    9.05550   49.61790   31.56250    2.83780    8.34950    0.05430    -999.25    -999.25   -0.10520    0.02830  279.71810  994.22280  417.43080 -166.90130
 10150.00000   21.65030    9.50820   53.24870   18.26060    2.50120    9.15040    0.21920    -999.25    -999.25    0.16840    0.08570  108.53840   70.54420  111.73220 -173.70090
 10200.00000   34.48150    9.58380   52.72070   25.91280    2.20480   11.11270    0.26020    -999.25    -999.25    0.34860    0.11060   85.89110   52.78830   61.59180 -148.64750
 10250.00000   37.84670    9.43460   50.00270   25.75100    2.64990    9.24310    0.23540    -999.25    -999.25    0.01260    0.01980  260.68530 1272.41160  325.24950 -103.55810
 10300.00000   39.11270    9.29440   52.98380   36.45480    2.70240    8.40100    0.08000    -999.25    -999.25   -0.00190    0.04050   96.90630  103.52170  129.53700  -71.74680
 10350.00000   36.93280    9.29660   50.83740   26.60030    2.72510    8.70900    0.18100    -999.25    -999.25   -0.00030    0.01940  205.72170  697.87080  297.17810  -83.27410
 10400.00000   36.81400    9.18160   51.41370   24.18220    2.66270    8.96840    0.17850    -999.25    -999.25    0.01960    0.02510  162.45240  328.15010  299.13680  -75.11810
 10450.00000   42.69720    9.13590   52.12640   34.85910    2.64990    8.29770    0.00790    -999.25    -999.25    0.02230    0.03800   84.33430  129.37550  120.86740  -71.18250
 10500.00000   36.98740    9.17360   51.69090   27.27470    2.67690    8.28970    0.00770    -999.25    -999.25   -0.00640    0.02900  135.12110  250.64340  178.57010  -83.41420
 10550.00000   38.60520    9.19310   52.45160   26.40350    2.72330    8.29420    0.05090    -999.25    -999.25    0.00340    0.04230   88.20250  120.22230  128.03360  -82.55340
 10600.00000   47.09110    9.20590   54.00730   35.69380    2.64430    8.51320    0.00120    -999.25    -999.25    0.03360    0.06350   53.90820   71.18050   81.25420  -79.56320
 10650.00000   76.31630    9.45140   60.66380   57.23640    2.64740    8.65610    0.01210    -999.25    -999.25    0.04230    0.12900   15.84800   19.00870   24.23510  -71.94010
