~Version ---------------------------------------------------
VERS. 2.0 : CWLS log ASCII Standard -VERSION 2.0
WRAP.  NO : ONE LINE PER DEPTH STEP
~Well ------------------------------------------------------
STRT.M                        600.0 : START DEPTH
STOP.M                       4650.0 : STOP DEPTH
STEP.M                     50.00000 : STEP LENGTH
NULL.                       -999.25 : NULL VALUE
COMP.     GULF CANADA RESOURCES INC : COMPANY
WELL. GULF ET AL HANLAN 11-25-47-18 : WELL
FLD .                        HANLAN : FIELD
LOC .                               : LOCATION
CTRY.                        CANADA : COUNTRY
SRVC.                  Schlumberger : SERVICE COMPANY
DATE.                   07-Oct-1981 : LOGDATE
PROV.                       Alberta : PROVINCE
UWI .              100112504718W500 : UNIQUE WELL ID
SLAT.WGS84                 53.08538 : SURFACE LATITUDE
SLON.WGS84                -116.5027 : SURFACE LONGITUDE
~Curve Information -----------------------------------------
DEPT   .M                  : 
NPHI_LS.DEC                : NEUTRON POROSITY IN SELECTED LITHOLOGY SANDSTONE
DPHI_LS.DEC   45 890 10 00 : DENSITY POROSITY LIMESTONE
GRD    .GAPI               : GAMMA RAY FROM DENSITY LOG
CALD   .MM    70 280 01 00 : CALIPER FROM DENSITY LOG
CORR   .KG/M3              : DENSITY CORRECTION
RHOB   .KG/M3 45 350 01 00 : BULK DENSITY
NPHI_SS.DEC                : NEUTRON POROSITY SANDSTONE
DPHI_SS.DEC   45 890 12 00 : DENSITY POROSITY SANDSTONE
PE     .B/E   45 358 01 00 : PHOTOELECTRIC FACTOR
ILD    .OHMM  06 121 12 00 : INDUCTION LOG RESISTIVITY
ILM    .OHMM  07 120 44 00 : INDUCTION LOG MEDIUM RESISTIVITY
SFL    .OHMM               : SHALLOW FOCUSED LOG
SPR    .MV                 : SPONTANEOUS POTENTIAL FROM RESISTIVITY
GRR    .GAPI               : GAMMA RAY FROM RESISTIVITY LOG
LLD    .OHMM               : LATEROLOG DEEP RESISTIVITY
LLS    .OHMM  00 000 00 01 : 9 LATEROLOG SHALLOW
GRS    .GAPI               : GAMMA RAY FROM SONIC LOG
DT     .US/M  60 520 00 00 : DELTA TIME FROM SONIC LOG
CALS   .MM                 : CALIPER FROM SONIC LOG
~Params ----------------------------------------------------
PD  .                         GL : PERMANENT DATUM
EPD .M                   1212.95 : ELEVATION PERMANENT DATUM
LMF .                         KB : LOG MEASURED FROM
DAPD.M                      9.93 : FEET ABOVE PERMANENT DATUM
DMF .                         KB : DRILLING MEASURED FROM
EKB .M                   1222.88 : KELLY BUSHING
EGL .M                   1212.95 : GROUND LEVEL
DATE.                   10/07/81 : RUN DATE
RUN .                          2 : RUN NUMBER
DD  .M                      4665 : DEPTH DRILLER
DL  .M                      4665 : DEPTH LOGGER
BLI .M                    4661.1 : BOTTOM LOG INTERVAL
TLI .M                    3235.5 : TOP LOG INTERVAL
CS  .MM                      244 : CASING SIZE
CBD .M                      3236 : CASING BOTTOM DRILLER
CBL .M                    3235.5 : CASING BOTTOM LOGGER
BS  .MM                      216 : BIT SIZE
BSD .M                      4665 : BIT SIZE AT DEPTH
DFT .                   GEL CHEM : DRILLING FLUID TYPE
DFD .                       1160 : DRILLING FLUID DENSITY
DFV .                         78 : DRILLING FLUID VISCOSITY
DFPH.                       10.5 : DRILLING FLUID PH
DFL .                          8 : DRILLING FLUID LOSS
MSS .                CIRCULATION : MUD SAMPLE SOURCE
RMS .OHMM                   0.84 : RESISTIVITY MUD SAMPLE
MST .DEGC                   23.3 : MUD SAMPLE TEMPERATURE
RMF .OHMM                   0.62 : RESISTIVITY MUD FILTRATE SAMPLE
MFST.DEGC                   23.9 : MUD FILTRATE SAMPLE TEMPERATURE
RMB .OHMM                   0.27 : RESISTIVITY MUD AT BHT
TCS .HRS                    1000 : TIME CIRCULATED STOPPED
TLAB.HRS                     830 : TIME LOGGER AT BOTTOM
LUN .                       8110 : LOGGING UNIT NUMBER
LUL .                        EDS : LOGGING UNIT LOCATION
ENGI.             BEBB LABRECQUB : RECORDING ENGINEER
WITN.                      PERRY : WITNESSED BY
CLNT.                    A2DTECH : CLIENT CODE
ORIG. 6.5"/100M 16.5"/100M PRINT : ORIGIN OF DATA
UWI .           100112504718W500 : UNIQUE WELL ID
DICO.     A2D Technologies, Inc. : DIGITIZING COMPANY
~Other -----------------------------------------------------
~ASCII -----------------------------------------------------
  600.00000    -999.25    -999.25    -999.25    -999.25    -999.25    -999.25    -999.25    -999.25    -999.25    -999.25    -999.25    -999.25    -999.25    -999.25    -999.25    -999.25   32.17060    -999.25    -999.25
  650.00000    -999.25    -999.25   47.32680  470.36880   54.67540 2507.49390    0.16840    0.08230    -999.25   30.34260   22.64920   21.97410  -74.69530    -999.25    -999.25    -999.25   46.37850  238.80080  368.15970
  700.00000    -999.25    -999.25  104.58440  464.60970   15.02320 2078.60330    0.46810    0.34510    -999.25    3.35730    2.46610    2.51350  -62.12690    -999.25    -999.25    -999.25  105.56500  369.98370  341.95190
  750.00000    -999.25    -999.25   73.87090  499.43920   56.02920 2313.96120    0.32830    0.20550    -999.25    9.52250    7.08770    7.11090  -65.18420    -999.25    -999.25    -999.25   82.22360  268.70800  348.88180
  800.00000    -999.25    -999.25  129.20160  517.26960   17.90790 2056.24240    0.47400    0.38550    -999.25   14.63060   10.23400   15.22960  -67.75750    -999.25    -999.25    -999.25  124.19900  376.27870  356.37230
  850.00000    -999.25    -999.25   63.20140  519.75760   41.28950 1959.09730    0.57070    0.41440    -999.25   11.45480    9.66490   23.30600  -68.39940    -999.25    -999.25    -999.25   65.30830  379.75480  347.29500
  900.00000    -999.25    -999.25   79.82770  426.75210   19.75360 1856.38700    0.45260    0.55080    -999.25    8.93090    7.69420    9.43590  -72.80760    -999.25    -999.25    -999.25   84.38790  339.79500  358.41290
  950.00000    -999.25    -999.25   71.00420  354.89690    4.45710 2460.46480    0.37410    0.11230    -999.25    5.44570    4.47770    4.57640  -69.79750    -999.25    -999.25    -999.25   63.50760  297.72630  355.58610
 1000.00000    -999.25    -999.25   72.91950  327.60710   56.41600 2449.13940    0.44900    0.12080    -999.25    7.12410    5.86570    5.30110  -80.08230    -999.25    -999.25    -999.25   76.67160  286.88600  342.37420
 1050.00000    -999.25    -999.25   68.92620  328.95080   50.10910 2464.58010    0.50340    0.11450    -999.25   10.54690    8.90220    7.78700  -75.59810    -999.25    -999.25    -999.25   75.32100  280.01630  344.19340
 1100.00000    -999.25    -999.25   74.23980  312.97210   27.38320 2460.82980    0.40730    0.10600    -999.25    6.00200    5.54510    5.85230  -70.67930    -999.25    -999.25    -999.25   70.91860  284.66910  336.98210
 1150.00000    -999.25    -999.25   85.13640  360.13660    2.59780 2480.19090    0.33020    0.10250    -999.25    9.32210    8.01050    9.43850  -72.68050    -999.25    -999.25    -999.25   80.79010  259.56620  353.55620
 1200.00000    -999.25    -999.25   78.94550  304.06700   85.80280 2223.20970    0.44190    0.27780    -999.25    5.79080    4.65130    3.59660  -68.07380    -999.25    -999.25    -999.25   73.27370  332.24660  309.04710
 1250.00000    -999.25    -999.25   70.74310  351.22140  -33.52270 2301.38600    0.47650    0.20770    -999.25    8.13640    7.10360    8.32530  -65.15440    -999.25    -999.25    -999.25   72.34740  287.20980  343.02240
 1300.00000    -999.25    -999.25   88.28010  368.78570   27.31440 2437.10670    0.34350    0.13930    -999.25   11.35190    9.58090   10.96350  -64.50200    -999.25    -999.25    -999.25   78.04390  264.11000  345.21610
 1350.00000    -999.25    -999.25   48.37890  349.41360   35.55000 2443.39750    0.22830    0.12150    -999.25   33.23900   26.33340   37.78560  -88.45990    -999.25    -999.25    -999.25   49.01330  237.67680  354.51950
 1400.00000    -999.25    -999.25   63.92040  395.87380   29.62250 2456.40190    0.18770    0.11510    -999.25   35.90610   28.11170   33.00410  -94.17840    -999.25    -999.25    -999.25   57.09300  244.85130  354.17410
 1450.00000    -999.25    -999.25   69.58900  351.54940   54.74950 2570.15870    0.21970    0.04340    -999.25   14.00290   13.44550   12.39100  -67.44750    -999.25    -999.25    -999.25   70.48080  234.25870  349.88750
 1500.00000    -999.25    -999.25   90.36710  358.68980   62.12820 2517.05640    0.32200    0.07980    -999.25    9.67950    9.16190    9.30490  -62.98070    -999.25    -999.25    -999.25   91.14200  268.99510  347.46990
 1550.00000    -999.25    -999.25   78.63560  327.93080   34.74170 2547.09080    0.28220    0.06210    -999.25   11.86880   10.42650    9.49350 -114.51040    -999.25    -999.25    -999.25   74.60060  249.39470  336.15880
 1600.00000    -999.25    -999.25   71.35960  360.39990  123.87800 2117.53910    0.44940    0.30960    -999.25    6.95040    6.24370    5.85680 -113.09110    -999.25    -999.25    -999.25   82.22210  279.89430  333.23530
 1650.00000    -999.25    -999.25   80.96180  396.84530  196.02200 2263.43770    0.43980    0.22990    -999.25    7.02220    6.62750    6.20030 -113.32040    -999.25    -999.25    -999.25   81.18300  264.86930  346.06350
 1700.00000    -999.25    -999.25   65.54670  398.96940  120.21060 2006.85880    0.27910    0.38720    -999.25   11.85630   11.22180   11.80940 -100.54700    -999.25    -999.25    -999.25   67.11730  239.00220  363.37340
 1750.00000    -999.25    -999.25  137.54770  394.24230  150.16350 2156.92410    0.38390    0.31290    -999.25    7.63540    7.03640    6.78080 -106.23490    -999.25    -999.25    -999.25   94.91400  275.91930  347.04680
 1800.00000    -999.25    -999.25   64.02170  400.29610  196.10660 2232.75630    0.28530    0.24110    -999.25   18.52010   16.20760   15.61530 -109.24950    -999.25    -999.25    -999.25   61.18340  239.95670  338.82510
 1850.00000    -999.25    -999.25   47.37040  320.98250   51.19490 2560.61870    0.18760    0.04700    -999.25   21.95340   20.65600   24.06370 -108.82750    -999.25    -999.25    -999.25   53.46580  226.20720  347.40910
 1900.00000    -999.25    -999.25   75.07720  395.53300   71.42360 1979.27050    0.42130    0.40160    -999.25    9.66870    8.33360    8.04920 -102.79210    -999.25    -999.25    -999.25   80.10080  261.41710  348.22090
 1950.00000    -999.25    -999.25   77.65110  333.95110   75.19100 2442.29710    0.40360    0.12540    -999.25   16.62030   12.66960   12.68160  -99.00690    -999.25    -999.25    -999.25   74.64140  247.97280  347.14280
 2000.00000    -999.25    -999.25   53.28920  329.52990  115.78650 2227.96290    0.34890    0.24470    -999.25   35.17050   30.47490   37.45010 -122.69630    -999.25    -999.25    -999.25   45.40080  232.79050  313.56500
 2050.00000    -999.25    -999.25   66.64890  318.22420   25.22460 2515.74170    0.43590    0.07140    -999.25   11.96310   10.30600    8.72050  -98.28860    -999.25    -999.25    -999.25   64.28250  263.06050  339.07610
 2100.00000    -999.25    -999.25   59.48240  332.88600   22.07750 2573.07960    0.29570    0.05240    -999.25   14.26460   11.53070   10.52740  -99.22920    -999.25    -999.25    -999.25   55.40030  254.98590  342.57020
 2150.00000    -999.25    -999.25   56.81170  372.06310  194.32110 2250.88160    0.34700    0.24150    -999.25   30.19380   25.73180   24.29180 -103.87440    -999.25    -999.25    -999.25   58.05200  246.55430  330.88640
 2200.00000    -999.25    -999.25   62.38920  410.92910   75.87050 1822.30200    0.38770    0.49700    -999.25   14.75410   13.17750   12.67190  -97.61720    -999.25    -999.25    -999.25   61.60740  268.00310  341.32040
 2250.00000    -999.25    -999.25   54.28530  421.55380  181.24040 2271.19850    0.29730    0.18910    -999.25   19.89900   18.08550   20.49010 -100.78950    -999.25    -999.25    -999.25   58.20510  247.61670  334.58870
 2300.00000    -999.25    -999.25   48.46520  375.78930  231.88550 2355.45340    0.23080    0.17850    -999.25   57.97510   46.25720  100.79270 -100.55940    -999.25    -999.25    -999.25   47.52960  203.47310  333.54640
 2350.00000    -999.25    -999.25   72.65470  418.66640  125.49170 1966.35550    0.35450    0.40440    -999.25   24.17940   21.33780   23.85300  -98.45050    -999.25    -999.25    -999.25   77.11220  226.09620  348.90740
 2400.00000    -999.25    -999.25   84.39310  336.91270   80.86920 2576.17700    0.39440    0.04150    -999.25   17.05520   15.81630   16.72120  -98.63920    -999.25    -999.25    -999.25   85.33320  232.08200  337.73620
