~Version ---------------------------------------------------
VERS.      2.0 : CWLS log ASCII Standard -VERSION 2.0
WRAP.       NO : One line per depth step
CREA. 11/15/17 : LAS Creation Date
~Well ------------------------------------------------------
STRT.FT                        950.0 : START DEPTH
STOP.FT                       9400.0 : STOP DEPTH
STEP.FT                     50.00000 : STEP LENGTH
NULL.                        -999.25 : NULL VALUE
COMP. CANADIAN PACIFIC OIL & GAS LTD : COMPANY
WELL.       CPOG OBERLIN 10-15-38-21 : WELL
FLD .                                : FIELD
LOC .                                : LOCATION
CTRY.                         CANADA : COUNTRY
SRVC.                        Unknown : SERVICE COMPANY
DATE.                    13-Apr-1967 : LOGDATE
PROV.                        Alberta : PROVINCE
UWI .               100101503821W400 : UNIQUE WELL ID
SLAT.WGS84                  52.26833 : SURFACE LATITUDE
SLON.WGS84                 -112.9183 : SURFACE LONGITUDE
~Curve Information -----------------------------------------
DEPT   .FT    : Depth Curve
CALDED .IN    : CALIPER FROM DENSITY LOG
CALED  .IN    : CALIPER FROM CALIPER LOG
CALWS  .IN    : CALIPER [CALED SPL. TO CALED @ 4501']
CONDWS .MMHO  : CONDUCTIVITY [1000/DRESWS]
DCORED .G/C3  : DENSITY CORRECTION [DRHOED]
DCORWS .G/C3  : DENSITY CORRECTION [DCORED]
DENWS  .G/C3  : FORMATION BULK DENSITY [RHOBED]
DPOLSWS.V/V   : DENSITY POROSITY LIMESTONE [CALC ROM DENWS, M=2.71, F=1.00]
DRESWS .OHMM  : DEEP RESISTIVITY [ILDED]
DRHOED .G/C3  : DENSITY CORRECTION FROM DENSITY LOG
DTED   .US/F  : DELTA TIME FROM SONIC LOG [ADJ. TO RESISTIVITY LOG]
DTWS   .US/F  : COMPRESSIONAL SONIC [DTED]
GRNED  .GAPI  : GAMMA RAY FROM NEUTRON GAMMA RAY LOG [ADJ. TO RESISTIVITY LOG]
GRSED  .GAPI  : GAMMA RAY FROM SONIC LOG [ADJ. TO RESISTIVITY LOG]
GRWS   .GAPI  : GAMMA RAY [GRSED]
ILDED  .OHMM  : DEEP INDUCTION FROM RESISTIVITY LOG
ILMED  .OHMM  : INDUCTION MEDIUM FROM RESISTIVITY LOG
LL8ED  .OHMM  : LATEROLOG-8 FROM RESISTIVITY LOG
MRESWS .OHMM  : MEDIUM RESISTIVITY [ILMED]
NEUTED .NAPI  : NEUTRON FROM NEUTRON GAMMA RAY LOG [ADJ. TO RESISTIVITY LOG]
NEUTWS .NAPI  : NEUTRON [NEUTED]
RHOBED .G/C3  : BULK DENSITY FROM DENSITY LOG
SPRED  .MV    : SPONTANEOUS POTENTIAL FROM RESISTIVITY
SPWS   .MV    : SPONTANEOUS POTENTIAL [SPRED]
SRESWS .OHMM  : SHALLOW RESISTIVITY [LL8ED]
~Params ----------------------------------------------------
PD  .                     GL : PERMANENT DATUM
EPD .FT               2675.8 : ELEVATION PERMANENT DATUM
LMF .                     KB : LOG MEASURED FROM
DAPD.FT                   13 : FEET ABOVE PERMANENT DATUM
DMF .                     KB : DRILLING MEASURED FROM
EKB .FT               2688.8 : KELLY BUSHING
EGL .FT               2675.8 : GROUND LEVEL
DATE.               04/13/67 : RUN DATE
RUN .                      1 : RUN NUMBER
DD  .FT                 9418 : DEPTH DRILLER
DL  .FT                 9417 : DEPTH LOGGER
BLI .FT                 9413 : BOTTOM LOG INTERVAL
TLI .FT                  920 : TOP LOG INTERVAL
CBD .FT                  920 : CASING BOTTOM DRILLER
CBL .FT                  918 : CASING BOTTOM LOGGER
BS  .IN                 8.75 : BIT SIZE
BSD .FT                 9417 : BIT SIZE AT DEPTH
DFT .            CAUSTIC GEL : DRILLING FLUID TYPE
DFD .                   10.4 : DRILLING FLUID DENSITY
DFV .                     68 : DRILLING FLUID VISCOSITY
DFPH.                   10.5 : DRILLING FLUID PH
DFL .                    9.6 : DRILLING FLUID LOSS
MSS .               FLOWLINE : MUD SAMPLE SOURCE
RMS .OHMM              0.397 : RESISTIVITY MUD SAMPLE
MST .DEGF                 62 : MUD SAMPLE TEMPERATURE
RMF .OHMM              0.211 : RESISTIVITY MUD FILTRATE SAMPLE
MFST.DEGF                 76 : MUD FILTRATE SAMPLE TEMPERATURE
RMB .OHMM              0.094 : RESISTIVITY MUD AT BHT
TCS .HRS                   3 : TIME CIRCULATED STOPPED
LUN .                   7014 : LOGGING UNIT NUMBER
LUL .                  STETT : LOGGING UNIT LOCATION
ENGI.                  YOUNG : RECORDING ENGINEER
WITN.                KOZBIAL : WITNESSED BY
CLNT.                A2DTECH : CLIENT CODE
ORIG.            2" 5" PRINT : ORIGIN OF DATA
UWI .       100101503821W400 : UNIQUE WELL ID
DICO. A2D Technologies, Inc. : DIGITIZING COMPANY
~Other -----------------------------------------------------
~ASCII -----------------------------------------------------
# ...
 5150.00000   11.09770    -999.25   11.09770    0.33330   -0.00170   -0.00170    2.15860    0.32250 3000.00000   -0.00170   54.61130   54.61130    -999.25   23.98340   23.98340 3000.00000   11.67740 3006.48260   11.67740    -999.25    -999.25    2.15860 -115.95330  -23.26520 3006.48260
 5200.00000   10.48290    -999.25   10.48290    3.67930   -0.00210   -0.00210    2.90880   -0.11630  271.78910   -0.00210   48.52370   48.52370    -999.25   16.08610   16.08610  271.78910  107.86670 2987.69870  107.86670    -999.25    -999.25    2.90880 -109.67260  -18.43830 2987.69870
 5250.00000   14.26540    -999.25   14.26540  666.71110    0.01130    0.01130    1.43630    0.74490    1.49990    0.01130   64.76100   64.76100    -999.25   34.89340   34.89340    1.49990    0.61050   18.00900    0.61050    -999.25    -999.25    1.43630 -112.11520  -22.32530   18.00900
 5300.00000   11.43620    -999.25   11.43620   70.11470   -0.00180   -0.00180    2.86800   -0.09240   14.26240   -0.00180   58.68350   58.68350    -999.25   26.31200   26.31200   14.26240   13.34810   57.63090   13.34810    -999.25    -999.25    2.86800  -99.17340  -10.82790   57.63090
 5350.00000   10.41760    -999.25   10.41760    7.01520    0.04270    0.04270    2.75250   -0.02490  142.54750    0.04270   50.08800   50.08800    -999.25   21.16820   21.16820  142.54750   42.49620  292.92140   42.49620    -999.25    -999.25    2.75250 -102.75960  -15.86800  292.92140
 5400.00000   10.66830    -999.25   10.66830    0.35000    0.06680    0.06680    2.74830   -0.02240 2862.65050    0.06680   49.05160   49.05160    -999.25   26.74990   26.74990 2862.65050   60.37930  721.10960   60.37930    -999.25    -999.25    2.74830 -103.80740  -18.36020  721.10960
 5450.00000   10.51450    -999.25   10.51450    2.97860    0.00220    0.00220    2.91060   -0.11730  335.73170    0.00220   48.51140   48.51140    -999.25   23.72380   23.72380  335.73170   76.59780  601.00880   76.59780    -999.25    -999.25    2.91060 -109.02630  -25.03300  601.00880
 5500.00000   10.03220    -999.25   10.03220   12.57100    0.01820    0.01820    2.80990   -0.05840   79.54800    0.01820   51.65000   51.65000    -999.25   29.25360   29.25360   79.54800   43.62110   66.87900   43.62110    -999.25    -999.25    2.80990 -114.73210  -32.18310   66.87900
 5550.00000   10.48600    -999.25   10.48600    3.16600   -0.00720   -0.00720    2.89740   -0.10960  324.04840   -0.00720   48.44600   48.44600    -999.25   19.07030   19.07030  324.04840   48.25410  350.27490   48.25410    -999.25    -999.25    2.89740 -117.53190  -36.42730  350.27490
 5600.00000   10.89500    -999.25   10.89500   53.03040    0.01590    0.01590    2.75280   -0.02500   18.85710    0.01590   60.82160   60.82160    -999.25   53.30340   53.30340   18.85710   12.71360   31.18930   12.71360    -999.25    -999.25    2.75280  -91.53230  -11.88160   31.18930
 5650.00000   10.24430    -999.25   10.24430   56.08330    0.00570    0.00570    2.72590   -0.00930   17.83070    0.00570   57.40300   57.40300    -999.25   54.93350   54.93350   17.83070   14.69380   24.93730   14.69380    -999.25    -999.25    2.72590  -88.25300  -10.04670   24.93730
 5700.00000   12.52810    -999.25   12.52810  100.05600   -0.00130   -0.00130    2.68870    0.01250    9.99440   -0.00130   64.73350   64.73350    -999.25   63.43520   63.43520    9.99440    7.78780   12.84710    7.78780    -999.25    -999.25    2.68870  -79.97410   -2.97430   12.84710
 5750.00000   11.26040    -999.25   11.26040   82.33570    0.01380    0.01380    2.72030   -0.00600   12.14540    0.01380   64.14170   64.14170    -999.25   72.24280   72.24280   12.14540    9.48090   17.94880    9.48090    -999.25    -999.25    2.72030  -92.27510  -15.21590   17.94880
 5800.00000   11.48600    -999.25   11.48600   57.21060   -0.00010   -0.00010    2.64530    0.03780   17.47950   -0.00010   65.15480   65.15480    -999.25   68.23740   68.23740   17.47950   12.46650   23.97890   12.46650    -999.25    -999.25    2.64530  -99.02020  -21.90160   23.97890
 5850.00000   11.79570    -999.25   11.79570   85.44010   -0.00220   -0.00220    2.66940    0.02370   11.70410   -0.00220   66.38340   66.38340    -999.25   75.03400   75.03400   11.70410    8.87150   15.53670    8.87150    -999.25    -999.25    2.66940  -97.87330  -20.69490   15.53670
 5900.00000   11.58490    -999.25   11.58490  103.67040    0.00080    0.00080    2.67040    0.02320    9.64610    0.00080   70.31180   70.31180    -999.25   83.02720   83.02720    9.64610    7.86020   14.05260    7.86020    -999.25    -999.25    2.67040  -94.33890  -17.10100   14.05260
 5950.00000   11.51360    -999.25   11.51360  100.60870    0.00650    0.00650    2.68750    0.01320    9.93950    0.00650   69.98100   69.98100    -999.25   79.86370   79.86370    9.93950    8.16290   14.21410    8.16290    -999.25    -999.25    2.68750  -97.79100  -20.49330   14.21410
 6000.00000   11.31790    -999.25   11.31790  107.31230   -0.00030   -0.00030    2.68600    0.01400    9.31860   -0.00030   68.98480   68.98480    -999.25   78.17370   78.17370    9.31860    7.76050   13.45440    7.76050    -999.25    -999.25    2.68600  -92.72310  -15.36600   13.45440
 6050.00000   10.80240    -999.25   10.80240   47.86900    0.00280    0.00280    2.68680    0.01350   20.90970    0.00280   58.50680   58.50680    -999.25   46.67500   46.67500   20.90970   16.29750   32.84610   16.29750    -999.25    -999.25    2.68680  -95.75180  -18.33530   32.84610
 6100.00000    9.46160    -999.25    9.46160   25.90690    0.03890    0.03890    2.66540    0.02610   38.59980    0.03890   56.69470   56.69470    -999.25   29.65200   29.65200   38.59980   26.02630   64.46410   26.02630    -999.25    -999.25    2.66540 -121.09190  -43.61550   64.46410
 6150.00000   12.11320    -999.25   12.11320   15.33860    0.14670    0.14670    2.64170    0.03990   65.27640    0.14670   59.04550   59.04550    -999.25   39.95440   39.95440   65.27640   22.21980  190.49010   22.21980    -999.25    -999.25    2.64170 -127.03460  -49.49880  190.49010
 6200.00000   11.89280    -999.25   11.89280    6.58790    0.23440    0.23440    2.77970   -0.04080  151.79280    0.23440   50.00790   50.00790    -999.25   31.06960   31.06960  151.79280   34.68260  383.11940   34.68260    -999.25    -999.25    2.77970 -129.18900  -51.59340  383.11940
 6250.00000   10.37720    -999.25   10.37720    4.84520    0.03730    0.03730    2.81360   -0.06060  206.38990    0.03730   47.79010   47.79010    -999.25   21.85450   21.85450  206.38990   86.10460  740.74950   86.10460    -999.25    -999.25    2.81360 -133.88200  -56.22700  740.74950
 6300.00000   10.19020    -999.25   10.19020   12.84470    0.05080    0.05080    2.67230    0.02200   77.86120    0.05080   50.86990   50.86990    -999.25   16.11180   16.11180   77.86120   93.48060  507.13260   93.48060    -999.25    -999.25    2.67230 -150.83760  -73.12310  507.13260
 6350.00000   10.53000    -999.25   10.53000    6.75830    0.01540    0.01540    2.75380   -0.02560  147.96590    0.01540   50.80120   50.80120    -999.25   18.28150   18.28150  147.96590   68.26240  315.74400   68.26240    -999.25    -999.25    2.75380 -135.40460  -57.63030  315.74400
 6400.00000   10.43670    -999.25   10.43670   11.96760    0.13250    0.13250    2.68520    0.01450   83.61090    0.13250   50.42760   50.42760    -999.25   20.94590   20.94590   83.61090   59.66220  130.14440   59.66220    -999.25    -999.25    2.68520 -133.34510  -55.51140  130.14440
 6450.00000   10.22630    -999.25   10.22630  201.18300   -0.01570   -0.01570    2.84240   -0.07740    4.97060   -0.01570   52.07990   52.07990    -999.25   24.29310   24.29310    4.97060    5.26660   19.33300    5.26660    -999.25    -999.25    2.84240 -133.96820  -56.07470   19.33300
 6500.00000   10.10270    -999.25   10.10270   19.95570    0.00330    0.00330    2.71260   -0.00150   50.11100    0.00330   75.58450   75.58450    -999.25   37.96110   37.96110   50.11100   38.21860   81.70800   38.21860    -999.25    -999.25    2.71260 -109.24930  -31.29630   81.70800
