~Version ---------------------------------------------------
VERS.      2.0 : CWLS log ASCII Standard -VERSION 2.0
WRAP.       NO : One line per depth step
CREA. 08/01/17 : LAS Creation Date
~Well ------------------------------------------------------
STRT.FT                1050.0 : START DEPTH
STOP.FT               10150.0 : STOP DEPTH
STEP.FT              50.00000 : STEP LENGTH
NULL.                 -999.25 : NULL VALUE
COMP.  THE ADAPTABLE TOOL CO. : COMPANY
WELL. B.A. TWO FOX 2-21-63-17 : WELL
FLD .                      WC : FIELD
LOC .                         : LOCATION
CTRY.                  CANADA : COUNTRY
SRVC.            Schlumberger : SERVICE COMPANY
DATE.             31-Mar-1960 : LOGDATE
PROV.                 Alberta : PROVINCE
UWI .        100022106317W500 : UNIQUE WELL ID
SLAT.WGS84           54.45975 : SURFACE LATITUDE
SLON.WGS84          -116.5047 : SURFACE LONGITUDE
~Curve Information -----------------------------------------
DEPT  .FT         : Depth Curve
CALWS .IN         : CALIPER [MCALED]
CILDED.MMHO       : CONDUCTIVITY FROM IEL LOG
CONDWS.MMHO       : CONDUCTIVITY [1000/DRESWS]
DRESWS.OHMM       : DEEP RESISTIVITY [1000/CILDED IF ILDED<4, ILDED]
DTED  .US/F       : DELTA-T FROM BCS LOG
DTWS  .US/F       : COMPRESSIONAL SONIC [DTED]
GRSED .UgRa-Eq/T  : GAMMA RAY FROM BCS LOG
GRWS  .GAPI       : GAMMA RAY [GRSED]
ILDED .OHMM       : DEEP INDUCTION FROM IEL LOG
MCALED.IN         : MICRO CALIPER FROM MICRO LOG
SNED  .OHMM       : SHORT NORMAL FROM IEL LOG
SPRED .MV         : SPONTANEOUS POTENTIAL FROM IEL LOG
SPWS  .MV         : SPONTANEOUS POTENTIAL [BASELINE 0 MV, SPRED]
SRESWS.OHMM       : SHALLOW RESISTIVITY [SNED]
~Params ----------------------------------------------------
LMF .                     KB : LOG MEASURED FROM
DMF .                     KB : DRILLING MEASURED FROM
EKB .FT                 3069 : KELLY BUSHING
DATE.               03/31/60 : RUN DATE
RUN .                      2 : RUN NUMBER
DD  .FT                10188 : DEPTH DRILLER
DL  .FT                10189 : DEPTH LOGGER
BLI .FT                10184 : BOTTOM LOG INTERVAL
TLI .FT                 6100 : TOP LOG INTERVAL
CBD .FT                 1060 : CASING BOTTOM DRILLER
BS  .IN                    9 : BIT SIZE
BSD .FT                10188 : BIT SIZE AT DEPTH
DFT .                    GEL : DRILLING FLUID TYPE
DFD .                    9.6 : DRILLING FLUID DENSITY
DFV .                    127 : DRILLING FLUID VISCOSITY
DFPH.                    9.5 : DRILLING FLUID PH
DFL .                    5.9 : DRILLING FLUID LOSS
RMS .OHMM                2.4 : RESISTIVITY MUD SAMPLE
MST .DEGF                 70 : MUD SAMPLE TEMPERATURE
RMF .OHMM                1.1 : RESISTIVITY MUD FILTRATE SAMPLE
MFST.DEGF                 74 : MUD FILTRATE SAMPLE TEMPERATURE
RMC .OHMM               2.19 : RESISTIVITY MUD CAKE
MCST.DEGF                 73 : MUD CAKE SAMPLE TEMPERATURE
RMB .OHMM               0.99 : RESISTIVITY MUD AT BHT
TCS .HRS                 4.5 : TIME CIRCULATED STOPPED
LUN .                  15250 : LOGGING UNIT NUMBER
LUL .                     DC : LOGGING UNIT LOCATION
ENGI.              HAUSEGGER : RECORDING ENGINEER
WITN.                    MAY : WITNESSED BY
CLNT.                A2DTECH : CLIENT CODE
ORIG.            2" 5" PRINT : ORIGIN OF DATA
UWI .       100022106317W500 : UNIQUE WELL ID
DICO. A2D Technologies, Inc. : DIGITIZING COMPANY
~Other -----------------------------------------------------
~ASCII -----------------------------------------------------
# ...
 8400.00000    9.85530   15.45470    8.60270  116.24210   46.63360   46.63360    1.51130   24.93650  116.24210    9.85530   79.59070 -222.63390 -186.19070   79.59070
 8450.00000   10.89990  100.55400  101.88900    9.81460   55.37550   55.37550    1.78660   29.47890    9.81460   10.89990   18.61440 -143.13620 -110.75700   18.61440
 8500.00000    9.59320   17.38740   12.06880   82.85840   53.81190   53.81190    1.71110   28.23320   82.85840    9.59320   74.37720  -46.70830  -18.36640   74.37720
 8550.00000    9.55570   15.64580    8.31380  120.28240   54.06910   54.06910    1.85950   30.68170  120.28240    9.55570   84.00320  -35.23690  -10.93230   84.00320
 8600.00000    9.40390   26.97180   20.11030   49.72570   56.11780   56.11780    2.39710   39.55300   49.72570    9.40390   44.53450  -40.52710  -20.28650   44.53450
 8650.00000    9.45140   31.52330   25.10940   39.82580   56.89320   56.89320    3.24950   53.61670   39.82580    9.45140   42.89940  -29.58330  -11.52070   42.89940
 8700.00000    9.46810   49.39070   43.45050   23.01470   61.80980   61.80980    4.18280   69.01620   23.01470    9.46810   30.13350  -27.42220   -9.35960   30.13350
 8750.00000    9.47940   76.35700   72.11370   13.86700   64.76240   64.76240    4.14290   68.35780   13.86700    9.47940   18.82270  -22.13630   -3.55330   18.82270
 8800.00000   15.74140  191.50710  189.81820    5.26820   75.13720   75.13720    4.78310   78.92110    5.26820   15.74140    6.74970  -63.43690  -38.26230    6.74970
 8850.00000   15.78620  198.75020  195.75220    5.10850   78.84740   78.84740    4.63550   76.48490    5.10850   15.78620    5.94910  -64.61110  -32.80160    5.94910
 8900.00000    9.97870   80.42650   77.24100   12.94650   76.58930   76.58930    4.26690   70.40380   12.94650    9.97870   15.57450  -72.77150  -34.37040   15.57450
 8950.00000    9.96410   89.46860   82.36760   12.14070   62.46110   62.46110    4.28140   70.64310   12.14070    9.96410   17.27470  -71.07370  -26.03760   17.27470
 9000.00000   10.97670  117.61480  115.01660    8.69440   69.48830   69.48830    4.23100   69.81150    8.69440   10.97670   11.70260  -54.89360   -4.03940   11.70260
 9050.00000   15.63410  181.56230  184.01300    5.43440   81.47230   81.47230    5.57040   91.91160    5.43440   15.63410    6.76890  -90.62820  -39.37020    6.76890
 9100.00000   12.61600  108.42980   95.50920   10.47020   69.61220   69.61220    5.27240   86.99460   10.47020   12.61600   14.34520  -85.01380  -33.34930   14.34520
 9150.00000   15.78700  155.61070  154.59300    6.46860   73.14530   73.14530    5.86500   96.77250    6.46860   15.78700    9.15100  -86.97180  -34.90350    9.15100
 9200.00000   10.13460   47.79030   40.34190   24.78810   64.69510   64.69510    4.64270   76.60540   24.78810   10.13460   24.13520  -72.35150  -19.87670   24.13520
 9250.00000   10.03510   90.62700   86.33860   11.58230   67.54040   67.54040    5.45920   90.07680   11.58230   10.03510   17.32410  -64.97880  -12.10020   17.32410
 9300.00000    9.81080   90.89330   88.32280   11.32210   68.64340   68.64340    5.43300   89.64450   11.32210    9.81080   16.13210  -65.52630  -12.24390   16.13210
 9350.00000    9.58170   90.60670   88.45960   11.30460   70.01400   70.01400    4.99010   82.33580   11.30460    9.58170   16.04260  -68.65160  -14.96270   16.04260
 9400.00000   12.98350  115.51510  112.18060    8.91420   81.72080   81.72080    6.41040  105.77160    8.91420   12.98350   13.20050  -79.71990  -25.62720   13.20050
 9450.00000    9.50780   82.82810   74.14050   13.48790   60.41980   60.41980    3.94820   65.14530   13.48790    9.50780   19.90660  -74.25350  -19.75430   19.90660
 9500.00000    9.55510  121.93880  116.93170    8.55200   69.43110   69.43110    5.15500   85.05750    8.55200    9.55510   12.43660  -67.28740  -12.38440   12.43660
 9550.00000   12.22310  129.34020  124.04180    8.06180   76.47060   76.47060    6.69470  110.46260    8.06180   12.22310   12.81020  -83.22650  -27.91970   12.81020
 9600.00000    9.59360    5.60840    2.00000  500.00000   70.09500   70.09500    7.46850  123.23030  500.00000    9.59360  167.81430  -71.19200  -15.47870  167.81430
 9650.00000    9.51450    7.27890    3.71490  269.18710   75.99930   75.99930    9.08310  149.87120  269.18710    9.51450  148.11290  -62.11050   -5.99340  148.11290
 9700.00000    9.44210   37.58840   33.61950   29.74460   69.07890   69.07890    4.22170   69.65720   29.74460    9.44210   48.03750  -62.55390   -4.11060   48.03750
 9750.00000   10.53400  105.07990  103.01840    9.70700   81.56640   81.56640    7.51330  123.96940    9.70700   10.53400   20.99200  -76.31890  -14.52430   20.99200
 9800.00000    9.42760   47.20740   38.67440   25.85690   53.66670   53.66670    4.33860   71.58690   25.85690    9.42760   36.61850  -76.99370  -11.84780   36.61850
 9850.00000    9.36820   49.81240   46.94920   21.29960   57.98110   57.98110    3.58720   59.18800   21.29960    9.36820   27.14840  -79.72310  -11.20390   27.14840
 9900.00000    9.50310   16.67620   11.26030   88.80750   53.26080   53.26080    1.99190   32.86630   88.80750    9.50310   58.00650  -74.74260   -2.87210   58.00650
 9950.00000    9.46160   20.71880   13.54380   73.83450   56.70440   56.70440    2.71660   44.82390   73.83450    9.46160   63.84300  -76.70270   -2.05390   63.84300
 10000.00000    9.36460    9.65650    3.81720  261.97240   51.48600   51.48600    2.07820   34.29030  261.97240    9.36460  124.58550  -85.81970  -10.33180  124.58550
 10050.00000    9.68190    8.77240    3.77420  264.95750   52.54410   52.54410    1.02000   16.83000  264.95750    9.68190   98.27690 -166.54160  -90.21460   98.27690
 10100.00000    9.42400    6.80330    2.00000  500.00000   52.36820   52.36820    1.50640   24.85560  500.00000    9.42400  240.67230 -177.30760 -100.13600  240.67230
 10150.00000    9.37190   18.31760   20.54540   48.67280   62.72780   62.72780    1.04590   17.25740   48.67280    9.37190   75.11570  -85.03880   -7.02810   75.11570
