~Version ---------------------------------------------------
VERS.      2.0 : CWLS log ASCII Standard -VERSION 2.0
WRAP.       NO : One line per depth step
CREA. 01/05/18 : LAS Creation Date
~Well ------------------------------------------------------
STRT.FT                              300.0 : START DEPTH
STOP.FT                            15450.0 : STOP DEPTH
STEP.FT                           50.00000 : STEP LENGTH
NULL.                              -999.25 : NULL VALUE
COMP.                        BANFF OIL LTD : COMPANY
WELL. BANFF AQUIT CHIEFCO WAWA 11-20-42-13 : WELL
FLD .                                      : FIELD
LOC .                                      : LOCATION
CTRY.                               CANADA : COUNTRY
SRVC.               Schlumberger of Canada : SERVICE COMPANY
DATE.                          07-Apr-1970 : LOGDATE
PROV.                              Alberta : PROVINCE
UWI .                     100112004213W500 : UNIQUE WELL ID
SLAT.WGS84                        52.63304 : SURFACE LATITUDE
SLON.WGS84                       -115.8375 : SURFACE LONGITUDE
~Curve Information -----------------------------------------
DEPT    .FT    : Depth Curve
CALDED  .IN    : CALIPER FROM DENSITY LOG [ADJ. TO RESISTIVITY LOG]
CALNED  .IN    : CALIPER FROM SNP LOG [ADJ. TO RESISTIVITY LOG]
CALSED  .IN    : CALIPER FROM SONIC LOG [ADJ. TO RESISTIVITY LOG]
CALWS   .IN    : CALIPER [CALSED]
CONDWS  .MMHO  : CONDUCTIVITY [1000/DRESWS]
CORRED  .G/C3  : DENSITY CORRECTION FROM DENSITY LOG [ADJ. TO RESISTIVITY LOG]
DCORWS  .G/C3  : DENSITY CORRECTION [CORRED]
DENWS   .G/C3  : FORMATION BULK DENSITY [RHOBED]
DPHILSED.V/V   : DENSITY POROSITY LIMESTONE FROM DENSITY LOG [ADJ. TO RESISTIVITY LOG]
DPOLSWS .V/V   : DENSITY POROSITY LIMESTONE [CALC. FROM DENWS, M=2.71 F=1.00]
DRESWS  .OHMM  : DEEP RESISTIVITY [ILDED]
DTED    .US/F  : DELTA T FROM SONIC LOG [ADJ. TO RESISTIVITY LOG]
DTWS    .US/F  : COMPRESSIONAL SONIC [DTED]
GRDED   .GAPI  : GAMMA RAY FROM DENSITY LOG [ADJ. TO RESISTIVITY LOG]
GRDRED  .GAPI  : GAMMA RAY (REPEAT) FROM DENSITY LOG
GRNED   .GAPI  : GAMMA RAY FROM SNP LOG [ADJ. TO RESISTIVITY LOG]
GRSED   .GAPI  : GAMMA RAY FROM SONIC LOG [ADJ. TO RESISTIVITY LOG]
GRWS    .GAPI  : GAMMA RAY [GRSED]
ILDED   .OHMM  : DEEP INDUCTION RESISTIVITY FROM RESISTIVITY LOG
ILMED   .OHMM  : MEDIUM INDUCTION RESISTIVITY FROM RESISTIVITY LOG
ILMRED  .OHMM  : MEDIUM INDUCTION RESISTIVITY(REPEAT) FROM RESISTIVITY LOG [ADJ. TO ILDED]
LL8ED   .OHMM  : LATEROLOG 8 RESISTIVITY FROM RESISTIVITY LOG
MRESWS  .OHMM  : MEDIUM RESISTIVITY [ILMED SPL. TO ILMRED @ 15233']
NPOLSWS .V/V   : NEUTRON POROSITY LIMESTONE [SNPLSED]
RHOBED  .G/C3  : BULK DENSITY FROM DENSITY LOG [ADJ. TO RESISTIVITY LOG]
SNPLSED .V/V   : SIDEWALL NEUTRON POROSITY LIMESTONE FROM SNP LOG [ADJ. TO RESISTIVITY LOG]
SPRED   .MV    : SPONTANEOUS POTENTIAL FROM RESISTIVITY LOG
SPRRED  .MV    : SPONTANEOUS POTENTIAL(REPEAT) FROM RESISTIVITY LOG [ADJ. TO ILDED]
SPWS    .MV    : SPONTANEOUS POTENTIAL [BASELINE 0 MV, SPRED SPL. TO SPRRED @ 15223']
SRESWS  .OHMM  : SHALLOW RESISTIVITY [LL8ED]
~Params ----------------------------------------------------
PD  .                     GL : PERMANENT DATUM
EPD .FT                 4345 : ELEVATION PERMANENT DATUM
LMF .                     KB : LOG MEASURED FROM
DAPD.FT                   14 : FEET ABOVE PERMANENT DATUM
EKB .FT                 4359 : KELLY BUSHING
EGL .FT                 4345 : GROUND LEVEL
DATE.               06/04/70 : RUN DATE
RUN .                      3 : RUN NUMBER
DD  .FT                15476 : DEPTH DRILLER
DL  .FT                15473 : DEPTH LOGGER
BLI .FT                15471 : BOTTOM LOG INTERVAL
TLI .FT                14327 : TOP LOG INTERVAL
CBD .FT                12360 : CASING BOTTOM DRILLER
CBL .FT                12355 : CASING BOTTOM LOGGER
BS  .IN                    6 : BIT SIZE
BSD .FT                15476 : BIT SIZE AT DEPTH
DFT .               GEL CHEM : DRILLING FLUID TYPE
DFD .                    8.9 : DRILLING FLUID DENSITY
DFV .                     47 : DRILLING FLUID VISCOSITY
DFPH.                     11 : DRILLING FLUID PH
DFL .                   12.4 : DRILLING FLUID LOSS
MSS .               FLOWLINE : MUD SAMPLE SOURCE
RMS .OHMM               2.62 : RESISTIVITY MUD SAMPLE
TCS .HRS                   4 : TIME CIRCULATED STOPPED
LUN .                  CSU C : LOGGING UNIT NUMBER
LUL .                 364 RD : LOGGING UNIT LOCATION
ENGI.                 MEGSON : RECORDING ENGINEER
WITN.                BRINKER : WITNESSED BY
CLNT.                A2DTECH : CLIENT CODE
ORIG.        2" 5" 10" PRINT : ORIGIN OF DATA
UWI .       100112004213W500 : UNIQUE WELL ID
DICO. A2D Technologies, Inc. : DIGITIZING COMPANY
~Other -----------------------------------------------------
~ASCII -----------------------------------------------------
# ...
 3900.00000    -999.25    -999.25    9.75030    9.75030   98.44070    -999.25    -999.25    -999.25    -999.25    -999.25   10.15840  126.30460  126.30460    -999.25    -999.25    -999.25   51.08920   51.08920   10.15840    7.99110    -999.25   11.55870    7.99110    -999.25    -999.25    -999.25 -730.29420    -999.25   -5.30790   11.55870
 3950.00000    -999.25    -999.25    9.50150    9.50150   66.11530    -999.25    -999.25    -999.25    -999.25    -999.25   15.12510  113.04600  113.04600    -999.25    -999.25    -999.25   47.13560   47.13560   15.12510   12.63720    -999.25   32.09520   12.63720    -999.25    -999.25    -999.25 -731.15050    -999.25   -6.07880   32.09520
 4000.00000    -999.25    -999.25    9.14630    9.14630  171.18600    -999.25    -999.25    -999.25    -999.25    -999.25    5.84160   80.28090   80.28090    -999.25    -999.25    -999.25   73.75490   73.75490    5.84160    5.14780    -999.25    9.69350    5.14780    -999.25    -999.25    -999.25 -731.30640    -999.25   -6.14890    9.69350
 4050.00000    -999.25    -999.25    8.99390    8.99390  151.38260    -999.25    -999.25    -999.25    -999.25    -999.25    6.61300   83.63550   83.63550    -999.25    -999.25    -999.25   77.47650   77.47650    6.61300    6.99610    -999.25    6.75010    6.99610    -999.25    -999.25    -999.25 -734.60340    -999.25   -9.36090    6.75010
 4100.00000    -999.25    -999.25    9.19520    9.19520  101.14090    -999.25    -999.25    -999.25    -999.25    -999.25    9.88720   82.00270   82.00270    -999.25    -999.25    -999.25   59.26240   59.26240    9.88720    8.61300    -999.25    7.95220    8.61300    -999.25    -999.25    -999.25 -735.26780    -999.25   -9.93910    7.95220
 4150.00000    -999.25    -999.25    8.93090    8.93090   31.42970    -999.25    -999.25    -999.25    -999.25    -999.25   31.81700   71.78630   71.78630    -999.25    -999.25    -999.25   37.54250   37.54250   31.81700   30.25090    -999.25   25.88150   30.25090    -999.25    -999.25    -999.25 -755.27770    -999.25  -29.86330   25.88150
 4200.00000    -999.25    -999.25    9.71210    9.71210  111.24580    -999.25    -999.25    -999.25    -999.25    -999.25    8.98910   82.76330   82.76330    -999.25    -999.25    -999.25   76.08020   76.08020    8.98910    8.11200    -999.25    6.27730    8.11200    -999.25    -999.25    -999.25 -734.53400    -999.25   -9.03410    6.27730
 4250.00000    -999.25    -999.25    9.38310    9.38310   96.95090    -999.25    -999.25    -999.25    -999.25    -999.25   10.31450   77.23800   77.23800    -999.25    -999.25    -999.25   72.03810   72.03810   10.31450    9.43990    -999.25   10.18990    9.43990    -999.25    -999.25    -999.25 -738.31280    -999.25  -12.72720   10.18990
 4300.00000    -999.25    -999.25    9.62080    9.62080  112.90140    -999.25    -999.25    -999.25    -999.25    -999.25    8.85900   84.65050   84.65050    -999.25    -999.25    -999.25   85.19210   85.19210    8.85900    7.73160    -999.25    7.29130    7.73160    -999.25    -999.25    -999.25 -731.27900    -999.25   -5.60840    7.29130
 4350.00000    -999.25    -999.25    9.88790    9.88790  119.09160    -999.25    -999.25    -999.25    -999.25    -999.25    8.39690   80.61820   80.61820    -999.25    -999.25    -999.25   77.23880   77.23880    8.39690    7.86840    -999.25    7.29790    7.86840    -999.25    -999.25    -999.25 -732.97080    -999.25   -7.21410    7.29790
 4400.00000    -999.25    -999.25    9.43610    9.43610   51.87370    -999.25    -999.25    -999.25    -999.25    -999.25   19.27760   73.52630   73.52630    -999.25    -999.25    -999.25   73.82850   73.82850   19.27760   16.81040    -999.25   18.50190   16.81040    -999.25    -999.25    -999.25 -739.88580    -999.25  -14.04330   18.50190
 4450.00000    -999.25    -999.25    9.30590    9.30590  407.39840    -999.25    -999.25    -999.25    -999.25    -999.25    2.45460   98.08870   98.08870    -999.25    -999.25    -999.25   95.64500   95.64500    2.45460    2.19680    -999.25    2.38910    2.19680    -999.25    -999.25    -999.25 -730.12480    -999.25   -4.19690    2.38910
 4500.00000    -999.25    -999.25    9.59300    9.59300  288.41720    -999.25    -999.25    -999.25    -999.25    -999.25    3.46720   91.54860   91.54860    -999.25    -999.25    -999.25   85.43060   85.43060    3.46720    3.25860    -999.25    2.74880    3.25860    -999.25    -999.25    -999.25 -728.07600    -999.25   -2.06230    2.74880
 4550.00000    -999.25    -999.25    8.96680    8.96680  158.61580    -999.25    -999.25    -999.25    -999.25    -999.25    6.30610   91.03880   91.03880    -999.25    -999.25    -999.25   64.08890   64.08890    6.30610    5.80970    -999.25    6.70770    5.80970    -999.25    -999.25    -999.25 -729.59890    -999.25   -3.76380    6.70770
 4600.00000    -999.25    -999.25    8.63010    8.63010   45.76700    -999.25    -999.25    -999.25    -999.25    -999.25   21.84980   71.44090   71.44090    -999.25    -999.25    -999.25   39.51870   39.51870   21.84980   19.50220    -999.25   22.14650   19.50220    -999.25    -999.25    -999.25 -735.72570    -999.25  -10.08190   22.14650
 4650.00000    -999.25    -999.25    9.24010    9.24010  144.72410    -999.25    -999.25    -999.25    -999.25    -999.25    6.90970   94.84280   94.84280    -999.25    -999.25    -999.25   82.54900   82.54900    6.90970    5.24880    -999.25    6.18390    5.24880    -999.25    -999.25    -999.25 -728.77550    -999.25   -3.32200    6.18390
 4700.00000    -999.25    -999.25    8.69900    8.69900   99.43030    -999.25    -999.25    -999.25    -999.25    -999.25   10.05730   76.80730   76.80730    -999.25    -999.25    -999.25   62.79140   62.79140   10.05730    9.36380    -999.25    9.07180    9.36380    -999.25    -999.25    -999.25 -730.99990    -999.25   -5.73710    9.07180
 4750.00000    -999.25    -999.25    9.24940    9.24940   75.40230    -999.25    -999.25    -999.25    -999.25    -999.25   13.26220   72.74640   72.74640    -999.25    -999.25    -999.25   53.73720   53.73720   13.26220   12.54780    -999.25   13.84500   12.54780    -999.25    -999.25    -999.25 -729.89920    -999.25   -4.80010   13.84500
 4800.00000    -999.25    -999.25    8.63090    8.63090   74.74960    -999.25    -999.25    -999.25    -999.25    -999.25   13.37930   77.13860   77.13860    -999.25    -999.25    -999.25   50.96170   50.96170   13.37930   13.03500    -999.25   11.32970   13.03500    -999.25    -999.25    -999.25 -740.18910    -999.25  -15.15300   11.32970
 4850.00000    -999.25    -999.25    8.97180    8.97180   84.88030    -999.25    -999.25    -999.25    -999.25    -999.25   11.78130   77.14820   77.14820    -999.25    -999.25    -999.25   62.52650   62.52650   11.78130   10.81630    -999.25   11.26020   10.81630    -999.25    -999.25    -999.25 -732.23790    -999.25   -7.26580   11.26020
 4900.00000    -999.25    -999.25    8.91790    8.91790   86.66110    -999.25    -999.25    -999.25    -999.25    -999.25   11.53920   79.67920   79.67920    -999.25    -999.25    -999.25   68.06240   68.06240   11.53920   10.07380    -999.25   10.39040   10.07380    -999.25    -999.25    -999.25 -733.43970    -999.25   -8.53120   10.39040
 4950.00000    -999.25    -999.25    9.26090    9.26090   62.68530    -999.25    -999.25    -999.25    -999.25    -999.25   15.95270   77.02500   77.02500    -999.25    -999.25    -999.25   60.48680   60.48680   15.95270   14.01560    -999.25   12.21530   14.01560    -999.25    -999.25    -999.25 -732.56900    -999.25   -7.72380   12.21530
 5000.00000    -999.25    -999.25    9.13600    9.13600   76.10810    -999.25    -999.25    -999.25    -999.25    -999.25   13.13920   78.05200   78.05200    -999.25    -999.25    -999.25   55.31910   55.31910   13.13920   11.12840    -999.25   12.35730   11.12840    -999.25    -999.25    -999.25 -753.33280    -999.25  -28.55140   12.35730
 5050.00000    -999.25    -999.25    9.64420    9.64420   62.18610    -999.25    -999.25    -999.25    -999.25    -999.25   16.08770   73.66570   73.66570    -999.25    -999.25    -999.25   64.97400   64.97400   16.08770   13.45140    -999.25   11.90800   13.45140    -999.25    -999.25    -999.25 -755.55980    -999.25  -30.84140   11.90800
