~Version ---------------------------------------------------
VERS.      2.0 : CWLS log ASCII Standard -VERSION 2.0
WRAP.       NO : One line per depth step
CREA. 10/24/17 : LAS Creation Date
~Well ------------------------------------------------------
STRT.FT                         1250.0 : START DEPTH
STOP.FT                        11000.0 : STOP DEPTH
STEP.FT                       50.00000 : STEP LENGTH
NULL.                          -999.25 : NULL VALUE
COMP.             MOBIL OIL CANADA LTD : COMPANY
WELL. MOBIL ET AL ROSEVEAR 10-19-53-14 : WELL
FLD .                                  : FIELD
LOC .                                  : LOCATION
CTRY.                           CANADA : COUNTRY
SRVC.                     Schlumberger : SERVICE COMPANY
DATE.                      04-Mar-1978 : LOGDATE
PROV.                          Alberta : PROVINCE
UWI .                 100101905314W500 : UNIQUE WELL ID
SLAT.WGS84                    53.59265 : SURFACE LATITUDE
SLON.WGS84                   -116.0472 : SURFACE LONGITUDE
~Curve Information -----------------------------------------
DEPT    .FT    : Depth Curve
CALDED  .IN    : CALIPER FROM DENSITY LOG
CALWS   .IN    : CALIPER [CALDED]
CONDWS  .MMHO  : CONDUCTIVITY [1000/DRESWS]
DCORWS  .G/C3  : DENSITY CORRECTION [DRHOED]
DENWS   .G/C3  : BULK DENSITY [M=2.71, F=1.00] [RHOBED]
DPHILSED.V/V   : DENSITY POROSITY [M=2.71, F=1.00] FROM DENSITY LOG
DPHISSED.V/V   : DENSITY POROSITY [M=2650 F=1000] FROM DENSITY LOG
DPOLSWS .V/V   : DENSITY POROSITY [M=2.71, F=1.00] [CAL. FROM DENWS]
DRESWS  .OHMM  : DEEP RESISTIVITY [ILDED]
DRHOED  .G/C3  : DENSITY CORRECTION FROM DENSITY LOG
DTED    .US/F  : DELTA TIME FROM SONIC LOG
DTWS    .US/F  : DELTA TIME [DTED]
GRDED   .GAPI  : GAMMA RAY FROM DENSITY LOG
GRWS    .GAPI  : GAMMA RAY [GRDED]
ILDED   .OHMM  : INDUCTION LOG DEEP RESISTIVITY
ILMED   .OHMM  : INDUCTION LOG MEDIUM RESISTIVITY
LL8ED   .OHMM  : 8 INCH LATEROLOG RESISTIVITY
MRESWS  .OHMM  : MEDIUM RESISTIVITY [ILMED]
NPHILSED.V/V   : NEUTRON POROSITY LIMESTONE FROM DENSITY LOG
NPHISSED.V/V   : NEUTRON POROSITY SANDSTONE FROM DENSITY LOG
NPOLSWS .V/V   : NEUTRON POROSITY LIMESTONE [366 NPOLSCAL [COMP. FROM NPHISSED] 7500'2286 NPHILSED]
RHOBED  .G/C3  : BULK DENSITY FROM DENSITY LOG
SPRED   .MV    : SPONTANEOUS POTENTIAL FROM RESISTIVITY LOG [SHIFT IS REMOVED]
SPWS    .MV    : SPONTANEOUS POTENTIAL [BASELINE 0 MV] [SPRED]
SRESWS  .OHMM  : SHALLOW RESISTIVITY [LL8ED]
~Params ----------------------------------------------------
PD  .                     GL : PERMANENT DATUM
EPD .FT               2885.2 : ELEVATION PERMANENT DATUM
LMF .                     KB : LOG MEASURED FROM
DAPD.FT                 13.8 : FEET ABOVE PERMANENT DATUM
EKB .FT                 2899 : KELLY BUSHING
EGL .FT               2885.2 : GROUND LEVEL
DATE.               03/04/78 : RUN DATE
RUN .                      1 : RUN NUMBER
DD  .FT                11010 : DEPTH DRILLER
DL  .FT                11002 : DEPTH LOGGER
BLI .FT                10999 : BOTTOM LOG INTERVAL
TLI .FT                 1207 : TOP LOG INTERVAL
CBD .FT                 1205 : CASING BOTTOM DRILLER
CBL .FT                 1207 : CASING BOTTOM LOGGER
BS  .IN                 8.75 : BIT SIZE
BSD .FT                11010 : BIT SIZE AT DEPTH
DFT .               GEL CHEM : DRILLING FLUID TYPE
DFD .                    9.2 : DRILLING FLUID DENSITY
DFV .                    132 : DRILLING FLUID VISCOSITY
DFPH.                     10 : DRILLING FLUID PH
DFL .                    9.4 : DRILLING FLUID LOSS
MSS .               FLOWLINE : MUD SAMPLE SOURCE
RMS .OHMM               1.94 : RESISTIVITY MUD SAMPLE
MST .DEGF                 64 : MUD SAMPLE TEMPERATURE
RMF .OHMM               2.12 : RESISTIVITY MUD FILTRATE SAMPLE
MFST.DEGF                 59 : MUD FILTRATE SAMPLE TEMPERATURE
RMB .OHMM               0.65 : RESISTIVITY MUD AT BHT
TCS .HRS                   3 : TIME CIRCULATED STOPPED
LUN .                   7730 : LOGGING UNIT NUMBER
LUL .                    EDM : LOGGING UNIT LOCATION
ENGI.               CAMPBELL : RECORDING ENGINEER
WITN.              MATHEWSON : WITNESSED BY
CLNT.                A2DTECH : CLIENT CODE
ORIG.            2" 5" PRINT : ORIGIN OF DATA
UWI .       100101905314W500 : UNIQUE WELL ID
DICO. A2D Technologies, Inc. : DIGITIZING COMPANY
~Other -----------------------------------------------------
~ASCII -----------------------------------------------------
# ...
 6850.00000    9.70320    9.70320   61.34070    0.00080    2.55600    -999.25    0.06070    0.09010   16.30240    0.00080   63.28360   63.28360   67.64270   67.64270   16.30240   17.37800   20.55380   17.37800    -999.25    0.26030    0.21630    2.55600  -49.22270  -23.46600   20.55380
 6900.00000   10.15270   10.15270   65.88050    0.00070    2.54660    -999.25    0.05890    0.09560   15.18030    0.00070   66.99430   66.99430   50.46020   50.46020   15.18030   16.24610   21.52710   16.24610    -999.25    0.27330    0.22930    2.54660  -54.72840  -29.51870   21.52710
 6950.00000   12.20660   12.20660   76.29510    0.16660    1.90830    -999.25    0.40140    0.46880   13.10700    0.16660   79.30950   79.30950   89.21350   89.21350   13.10700   15.81410   17.81610   15.81410    -999.25    0.57750    0.54200    1.90830  -40.24790  -15.59070   17.81610
 7000.00000   10.71570   10.71570   70.16070    0.00590    2.56710    -999.25    0.04880    0.08360   14.25300    0.00590   67.58610   67.58610   57.82780   57.82780   14.25300   15.52910   16.64480   15.52910    -999.25    0.27140    0.22740    2.56710  -49.30150  -25.19400   16.64480
 7050.00000    9.86040    9.86040  109.04980    0.00980    2.47460    -999.25    0.10540    0.13770    9.17020    0.00980   71.42040   71.42040   66.67220   66.67220    9.17020    9.95850   10.81040    9.95850    -999.25    0.24850    0.20470    2.47460  -42.80140  -19.24090   10.81040
 7100.00000   12.06150   12.06150   90.71610   -0.00110    2.59030    -999.25    0.06340    0.07000   11.02340   -0.00110   74.33780   74.33780   85.87530   85.87530   11.02340   11.68300   13.05070   11.68300    -999.25    0.40210    0.35930    2.59030  -36.86500  -13.85690   13.05070
 7150.00000   10.88850   10.88850   70.83130    0.20770    2.50170    -999.25    0.09030    0.12180   14.11900    0.20770   69.52440   69.52440   91.97670   91.97670   14.11900   14.99740   18.26930   14.99740    -999.25    0.33190    0.28800    2.50170  -36.39560  -13.93450   18.26930
 7200.00000   10.15040   10.15040   39.83890    0.11210    2.42610    -999.25    0.14440    0.16600   25.10110    0.11210   73.35660   73.35660   82.95710   82.95710   25.10110   21.10180   38.50100   21.10180    -999.25    0.40450    0.36170    2.42610  -35.93640  -14.02780   38.50100
 7250.00000   10.56420   10.56420   67.35870    0.11000    2.00250    -999.25    0.28810    0.41370   14.84590    0.11000   91.41640   91.41640  104.11130  104.11130   14.84590   18.10460   17.35540   18.10460    -999.25    0.59980    0.56580    2.00250  -37.15560  -15.79670   17.35540
 7300.00000   10.13920   10.13920   37.16370    0.01810    2.28840    -999.25    0.16200    0.24650   27.01640    0.01810   67.46540   67.46540   91.35030   91.35030   27.01640   44.24990   55.09010   44.24990    -999.25    0.40450    0.36180    2.28840  -35.57230  -14.76040   55.09010
 7350.00000   10.14610   10.14610   14.82670    0.01280    2.47910    -999.25    0.09800    0.13500   67.44600    0.01280   59.41300   59.41300   61.04530   61.04530   67.44600   60.44050   83.93550   60.44050    -999.25    0.23580    0.19200    2.47910  -42.10670  -21.84730   83.93550
 7400.00000   10.02370   10.02370   51.78790    0.20590    2.25380    -999.25    0.24990    0.26680   19.33590    0.20590   69.53490   69.53490   42.98190   42.98190   19.33590   18.08590   23.00720   18.08590    -999.25    0.23820    0.19440    2.25380  -62.41980  -42.70740   23.00720
 7450.00000    9.58510    9.58510    1.98010    0.23120    2.52110    -999.25    0.08040    0.11050  505.02610    0.23120   55.53650   55.53650   26.26970   26.26970  505.02610  156.38150  843.73140  156.38150    -999.25    0.14270    0.10030    2.52110  -63.70000  -44.54000  843.73140
 7500.00000    9.75920    9.75920   93.71540    0.24610    2.23460    0.16640    -999.25    0.27800   10.67060    0.24610   73.40480   73.40480  118.81870  118.81870   10.67060   11.32370   17.36090   11.32370    0.25390    -999.25    0.25390    2.23460  -33.06290  -14.45270   17.36090
 7550.00000    8.97840    8.97840    4.05910    0.02040    2.57740    0.11200    -999.25    0.07760  246.36050    0.02040   53.99610   53.99610   30.63650   30.63650  246.36050  335.54650  351.34410  335.54650    0.04530    -999.25    0.04530    2.57740  -79.20300  -61.13970  351.34410
 7600.00000    8.97500    8.97500   18.72120    0.08370    2.62220    0.08760    -999.25    0.05130   53.41530    0.08370   53.04100   53.04100   21.05180   21.05180   53.41530   94.02080  230.74650   94.02080    0.06360    -999.25    0.06360    2.62220 -103.33510  -85.82430  230.74650
 7650.00000    8.89230    8.89230    0.67930   -0.00170    2.60800    0.06750    -999.25    0.05960 1472.12160   -0.00170   52.64580   52.64580   20.02530   20.02530 1472.12160 1581.21380 1121.84230 1581.21380    0.04560    -999.25    0.04560    2.60800 -119.68610 -102.72230 1121.84230
 7700.00000    8.77640    8.77640   16.38370    0.00600    2.56380    0.07640    -999.25    0.08550   61.03630    0.00600   53.30620   53.30620   25.64820   25.64820   61.03630   82.06610  248.07530   82.06610    0.06470    -999.25    0.06470    2.56380 -102.02570  -85.61440  248.07530
 7750.00000    9.48930    9.48930   18.20010    0.13760    2.55630    0.08700    -999.25    0.08990   54.94480    0.13760   51.69650   51.69650   32.30810   32.30810   54.94480   55.90080   72.44310   55.90080    0.13220    -999.25    0.13220    2.55630  -72.99820  -57.13660   72.44310
 7800.00000    9.45080    9.45080    3.52540    0.20250    2.62760    0.04770    -999.25    0.04820  284.21320    0.20250   51.04410   51.04410   17.20320   17.20320  284.21320  735.28350 1252.96100  735.28350    0.05720    -999.25    0.05720    2.62760  -86.58910  -71.27450 1252.96100
 7850.00000   10.02170   10.02170    4.80460    0.11140    2.49910    0.11910    -999.25    0.12330  208.13290    0.11140   53.13120   53.13120   10.99040   10.99040  208.13290  119.09780  370.74120  119.09780    0.05600    -999.25    0.05600    2.49910 -121.45860 -106.69640  370.74120
 7900.00000    9.19760    9.19760  108.54580    0.00750    2.71090   -0.00920    -999.25   -0.00050    9.23060    0.00750   58.35760   58.35760   73.64210   73.64210    9.23060   10.12010   17.42190   10.12010    0.17680    -999.25    0.17680    2.71090  -51.13830  -36.92310   17.42190
 7950.00000    9.19300    9.19300  166.61390   -0.00890    2.69380    0.01170    -999.25    0.00950    6.00190   -0.00890   59.75530   59.75530   80.03750   80.03750    6.00190    6.29860    8.28060    6.29860    0.20240    -999.25    0.20240    2.69380  -42.67210  -29.00940    8.28060
 8000.00000    9.10390    9.10390   89.66200    0.01810    2.69750   -0.00100    -999.25    0.00730   11.15300    0.01810   58.40630   58.40630   65.22390   65.22390   11.15300   10.39590   16.60130   10.39590    0.15570    -999.25    0.15570    2.69750  -48.29670  -35.18370   16.60130
 8050.00000    9.33620    9.33620    9.68290    0.08700    2.66550    0.03060    -999.25    0.02600  103.30860    0.08700   51.07940   51.07940   31.50400   31.50400  103.30860  111.82590  428.78330  111.82590    0.06060    -999.25    0.06060    2.66550  -24.74820  -12.18220  428.78330
 8100.00000    9.32300    9.32300    9.08340    0.00240    2.67960    0.02070    -999.25    0.01780  110.09120    0.00240   52.15560   52.15560   20.82760   20.82760  110.09120  131.15780  128.55690  131.15780    0.05150    -999.25    0.05150    2.67960  -86.06120  -74.04770  128.55690
 8150.00000    9.20050    9.20050   40.54940    0.02150    2.67170    0.02100    -999.25    0.02240   24.67540    0.02150   55.05640   55.05640   40.93550   40.93550   24.67540   26.20910   39.10270   26.20910    0.08810    -999.25    0.08810    2.67170  -17.93070   -6.46420   39.10270
 8200.00000    9.20810    9.20810   35.49600    0.00530    2.69330    0.01190    -999.25    0.00980   28.17220    0.00530   56.13980   56.13980   47.15290   47.15290   28.17220   29.91370   41.14150   29.91370    0.09820    -999.25    0.09820    2.69330  -13.84680   -2.93270   41.14150
