~Version ---------------------------------------------------
VERS.      2.0 : CWLS log ASCII Standard -VERSION 2.0
WRAP.       NO : One line per depth step
CREA. 11/07/17 : LAS Creation Date
~Well ------------------------------------------------------
STRT.FT                       650.0 : START DEPTH
STOP.FT                      5850.0 : STOP DEPTH
STEP.FT                    50.00000 : STEP LENGTH
NULL.                       -999.25 : NULL VALUE
COMP. UNO-TEX PETROLEUM CORPORATION : COMPANY
WELL.       UNO-TEX NIPISI 2-1-78-8 : WELL
FLD .                        NIPISI : FIELD
LOC .                               : LOCATION
CTRY.                        CANADA : COUNTRY
SRVC.        Schlumberger of Canada : SERVICE COMPANY
DATE.                   22-Dec-1973 : LOGDATE
PROV.                       Alberta : PROVINCE
UWI .              100020107808W500 : UNIQUE WELL ID
SLAT.WGS84            55.7251988831 : SURFACE LATITUDE
SLON.WGS84           -115.096591555 : SURFACE LONGITUDE
~Curve Information -----------------------------------------
DEPT    .FT    : Depth Curve
CALDED  .IN    : CALIPER FROM DENSITY LOG
CALWS   .IN    : CALIPER [CALDED]
CILDED  .MMHO  : CONDUCTIVITY FROM RESISTIVITY LOG
CONDWS  .MMHO  : CONDUCTIVITY [1000/DRESWS]
DCORED  .G/C3  : DENSITY CORRECTION FROM DENSITY LOG
DCORWS  .G/C3  : DENSITY CORRECTION [DCORED]
DENWS   .G/C3  : BULK DENSITY [CALCULATED FROM DPOLSWS]
DPHISSED.V/V   : DENSITY POROSITY [M=2.65, F=1.00] FROM DENSITY LOG
DPOLSWS .V/V   : DENSITY POROSITY LIMESTON [CONVERTED DPHISSED TO M=2.71, F=1.00] *INFILLED RHOBED* SEE OTHER INFORMATION
DRESWS  .OHMM  : DEEP RESISTIVITY [ILDED]
GRDED   .GAPI  : GAMMA RAY FROM DENSITY LOG
GRWS    .GAPI  : GAMMA RAY [GRDED]
ILDED   .OHMM  : INDUCTION LOG DEEP RESISTIVITY
LL8ED   .OHMM  : 8 INCH LATEROLOG RESISTIVITY
NPHISSED.V/V   : NEUTRON POROSITY SANDSTONE FROM DENSITY LOG
NPOLSWS .V/V   : NEUTRON POROSITY LIMESTONE [CONVERTED FROM NPHISSED. CO.=SWS, TOOL=CNL(NPHI). SIGMA IN=4.6, SIGMA OUT=7.1]
RHOBED  .G/C3  : BULK DENSITY FROM DENSITY LOG [DEP ADJ TO DPHIED]
SPRED   .MV    : SPONTANEOUS POTENTIAL FROM RESISTIVITY LOG
SPWS    .MV    : SPONTANEOUS POTENTIAL [BASELINE 0 MV] [SPRED]
SRESWS  .OHMM  : SHALLOW RESISTIVITY [LL8ED]
~Params ----------------------------------------------------
PD  .                     GL : PERMANENT DATUM
EPD .FT                 2189 : ELEVATION PERMANENT DATUM
LMF .                     KB : LOG MEASURED FROM
DAPD.FT                   13 : FEET ABOVE PERMANENT DATUM
EKB .FT                 2202 : KELLY BUSHING
EGL .FT                 2189 : GROUND LEVEL
DATE.               12/22/73 : RUN DATE
RUN .                      1 : RUN NUMBER
DD  .FT                 5867 : DEPTH DRILLER
DL  .FT                 5863 : DEPTH LOGGER
BLI .FT                 5857 : BOTTOM LOG INTERVAL
TLI .FT                  622 : TOP LOG INTERVAL
CBD .FT                  622 : CASING BOTTOM DRILLER
CBL .FT                  622 : CASING BOTTOM LOGGER
BS  .IN                7.875 : BIT SIZE
BSD .FT                 5867 : BIT SIZE AT DEPTH
DFT .              FRESH GEL : DRILLING FLUID TYPE
DFD .                    9.4 : DRILLING FLUID DENSITY
DFV .                     92 : DRILLING FLUID VISCOSITY
DFPH.                   10.5 : DRILLING FLUID PH
DFL .                   18.0 : DRILLING FLUID LOSS
RMS .OHMM               0.61 : RESISTIVITY MUD SAMPLE
MST .DEGF                 64 : MUD SAMPLE TEMPERATURE
RMF .OHMM               0.82 : RESISTIVITY MUD FILTRATE SAMPLE
MFST.DEGF                 66 : MUD FILTRATE SAMPLE TEMPERATURE
RMB .OHMM                0.5 : RESISTIVITY MUD AT BHT
TCS .HRS                   2 : TIME CIRCULATED STOPPED
LUN .                   7690 : LOGGING UNIT NUMBER
LUL .                    EDM : LOGGING UNIT LOCATION
ENGI.                SIMPSON : RECORDING ENGINEER
WITN.               WILLIAMS : WITNESSED BY
CLNT.                A2DTECH : CLIENT CODE
ORIG.            2" 5" PRINT : ORIGIN OF DATA
UWI .       100020107808W500 : UNIQUE WELL ID
DICO. A2D Technologies, Inc. : DIGITIZING COMPANY
~Other -----------------------------------------------------
TEMPORARY CURVE DPHI2 CALCULATED FROM DEPTH SHIFTED RHOBED AND SPLICED TO
DPHISSED SO THAT LOWER END DENSITY POROSITY VALUES LESS THAN -.15 V/V
WERE NOT STRAIGHTLINED (AS SEEN ON LARGE SCALE DPHISSED).
~ASCII -----------------------------------------------------
# ...
 4150.00000    -999.25    -999.25  295.41750  269.32400    -999.25    -999.25    -999.25    -999.25    -999.25    3.71300    -999.25    -999.25    3.71300    1.64560    -999.25    -999.25    -999.25 -102.03430   -4.31710    1.64560
 4200.00000    -999.25    -999.25  428.93900  344.04610    -999.25    -999.25    -999.25    -999.25    -999.25    2.90670    -999.25    -999.25    2.90670    1.90820    -999.25    -999.25    -999.25 -102.85380   -6.77390    1.90820
 4250.00000    -999.25    -999.25  324.46210  296.24360    -999.25    -999.25    -999.25    -999.25    -999.25    3.37560    -999.25    -999.25    3.37560    2.63440    -999.25    -999.25    -999.25 -105.15850  -10.69970    2.63440
 4300.00000    -999.25    -999.25  255.69300  225.11870    -999.25    -999.25    -999.25    -999.25    -999.25    4.44210    -999.25    -999.25    4.44210    3.70400    -999.25    -999.25    -999.25  -98.01060   -5.18100    3.70400
 4350.00000    -999.25    -999.25  366.30240  293.13950    -999.25    -999.25    -999.25    -999.25    -999.25    3.41140    -999.25    -999.25    3.41140    2.39070    -999.25    -999.25    -999.25 -105.60760  -14.41540    2.39070
 4400.00000    -999.25    -999.25  239.58140  194.12200    -999.25    -999.25    -999.25    -999.25    -999.25    5.15140    -999.25    -999.25    5.15140    4.58650    -999.25    -999.25    -999.25  -92.47290   -2.90180    4.58650
 4450.00000    -999.25    -999.25  379.30070  300.07960    -999.25    -999.25    -999.25    -999.25    -999.25    3.33260    -999.25    -999.25    3.33260    2.50300    -999.25    -999.25    -999.25  -99.10170  -11.16790    2.50300
 4500.00000    -999.25    -999.25   68.86780   64.62830    -999.25    -999.25    -999.25    -999.25    -999.25   15.47310    -999.25    -999.25   15.47310   18.95180    -999.25    -999.25    -999.25 -100.34170  -14.02900   18.95180
 4550.00000    -999.25    -999.25  134.78420  121.66630    -999.25    -999.25    -999.25    -999.25    -999.25    8.21920    -999.25    -999.25    8.21920    8.45260    -999.25    -999.25    -999.25  -86.15080   -1.46730    8.45260
 4600.00000    -999.25    -999.25  120.78380  110.51750    -999.25    -999.25    -999.25    -999.25    -999.25    9.04830    -999.25    -999.25    9.04830    9.54800    -999.25    -999.25    -999.25  -86.13840   -3.09220    9.54800
 4650.00000    -999.25    -999.25  144.60900  144.14410    -999.25    -999.25    -999.25    -999.25    -999.25    6.93750    -999.25    -999.25    6.93750    7.47550    -999.25    -999.25    -999.25  -85.41100   -3.98590    7.47550
 4700.00000    -999.25    -999.25   42.24250   38.66200    -999.25    -999.25    -999.25    -999.25    -999.25   25.86800    -999.25    -999.25   25.86800   26.85910    -999.25    -999.25    -999.25 -104.28260  -24.49490   26.85910
 4750.00000    -999.25    -999.25  112.18350  104.15150    -999.25    -999.25    -999.25    -999.25    -999.25    9.60140    -999.25    -999.25    9.60140   10.15290    -999.25    -999.25    -999.25  -82.73910   -4.57240   10.15290
 4800.00000    -999.25    -999.25   91.25020   76.38490    -999.25    -999.25    -999.25    -999.25    -999.25   13.09160    -999.25    -999.25   13.09160   15.06940    -999.25    -999.25    -999.25  -82.60250   -5.87800   15.06940
 4850.00000    -999.25    -999.25  101.15570   91.59030    -999.25    -999.25    -999.25    -999.25    -999.25   10.91830    -999.25    -999.25   10.91830   11.86080    -999.25    -999.25    -999.25  -81.44820   -5.50650   11.86080
 4900.00000    -999.25    -999.25  165.26220  160.79760    -999.25    -999.25    -999.25    -999.25    -999.25    6.21900    -999.25    -999.25    6.21900    6.76630    -999.25    -999.25    -999.25  -83.37550   -8.20880    6.76630
 4950.00000    -999.25    -999.25  412.04630  334.83800    -999.25    -999.25    -999.25    -999.25    -999.25    2.98660    -999.25    -999.25    2.98660    2.28170    -999.25    -999.25    -999.25  -93.93230  -19.54820    2.28170
 5000.00000    -999.25    -999.25  251.19220  229.89040    -999.25    -999.25    -999.25    -999.25    -999.25    4.34990    -999.25    -999.25    4.34990    4.03900    -999.25    -999.25    -999.25  -92.11570  -18.50670    4.03900
 5050.00000    -999.25    -999.25  322.38640  267.19390    -999.25    -999.25    -999.25    -999.25    -999.25    3.74260    -999.25    -999.25    3.74260    3.31850    -999.25    -999.25    -999.25  -92.90020  -20.07010    3.31850
 5100.00000    -999.25    -999.25  298.93100  268.30920    -999.25    -999.25    -999.25    -999.25    -999.25    3.72700    -999.25    -999.25    3.72700    3.27410    -999.25    -999.25    -999.25  -95.09540  -23.04810    3.27410
 5150.00000    -999.25    -999.25  197.91860  175.47250    -999.25    -999.25    -999.25    -999.25    -999.25    5.69890    -999.25    -999.25    5.69890    5.40490    -999.25    -999.25    -999.25  -85.22800  -13.95570    5.40490
 5200.00000   14.02550   14.02550  260.90120  261.66340   -0.21480   -0.21480    2.21660    0.26270    0.28860    3.82590   64.38760   64.38760    3.82590    4.57910    0.45460    0.41290    -999.25  -91.20140  -20.71190    4.57910
 5250.00000   10.07470   10.07470   72.51470   52.41090   -0.24280   -0.24280    2.55810    0.05570    0.08880   19.08000   34.25310   34.25310   19.08000   13.83260    0.13410    0.09170    2.56290  -80.24190  -10.52740   13.83260
 5300.00000    9.51410    9.51410  107.81330   89.21000   -0.02580   -0.02580    2.68040   -0.01840    0.01730   11.20950   39.73560   39.73560   11.20950    9.60900    0.20810    0.16460    2.66820  -74.11630   -5.18070    9.60900
 5350.00000    9.30490    9.30490   82.85910   60.09100   -0.01300   -0.01300    2.68880   -0.02360    0.01240   16.98050   30.99860   30.99860   16.98050   13.01380    0.14860    0.10610    2.68660  -74.83800   -6.68520   13.01380
 5400.00000    9.49310    9.49310   98.49880   76.31320   -0.00190   -0.00190    2.66350   -0.00820    0.02720   13.10390   49.71650   49.71650   13.10390   10.55010    0.20170    0.15820    2.65850  -72.88240   -5.50460   10.55010
 5450.00000    9.09940    9.09940   64.19600   53.78790   -0.01160   -0.01160    2.68810   -0.02310    0.01280   18.60530   48.56950   48.56950   18.60530   15.60050    0.17840    0.13530    2.68640  -74.03310   -7.43810   15.60050
 5500.00000    9.31070    9.31070  135.57890  110.35580   -0.01040   -0.01040    2.64850    0.00090    0.03600    9.06160   65.36880   65.36880    9.06160    7.88900    0.25170    0.20780    2.64090  -66.74440   -0.92430    7.88900
 5550.00000    9.89050    9.89050  180.71030  160.01280   -0.06180   -0.06180    2.62890    0.01280    0.04740    6.24950   84.95410   84.95410    6.24950    5.57870    0.28340    0.23940    2.63480  -72.34690   -7.30570    5.57870
 5600.00000   10.85450   10.85450  208.54030  178.87490   -0.10710   -0.10710    2.59150    0.03540    0.06930    5.59050   83.52880   83.52880    5.59050    4.68100    0.33570    0.29190    2.60030  -73.23570   -8.97740    4.68100
 5650.00000   10.35950   10.35950  196.85790  157.05980   -0.04710   -0.04710    2.51670    0.08080    0.11300    6.36700   79.54120   79.54120    6.36700    5.22820    0.34490    0.30120    2.52470  -71.70830   -8.22490    5.22820
 5700.00000    8.46060    8.46060   36.70770   20.84420   -0.00910   -0.00910    2.65550   -0.00330    0.03190   47.98470   15.12590   15.12590   47.98470   26.94100    0.11720    0.07510    2.65040 -107.92900  -45.22850   26.94100
 5750.00000    8.48410    8.48410  174.36570   91.67000   -0.09930   -0.09930    2.73330   -0.05050   -0.01360   10.90870   63.26670   63.26670   10.90870    6.01310    0.21220    0.16860    2.75280  -65.58570   -3.66010    6.01310
 5800.00000    8.55440    8.55440  523.81770  424.12420   -0.18500   -0.18500    2.27630    0.22650    0.25360    2.35780   76.70880   76.70880    2.35780    1.90910    0.48560    0.44390    2.30410  -75.77940  -14.63270    1.90910
 5850.00000    7.90920    7.90920   98.86490   65.91310   -0.05430   -0.05430    2.81270   -0.09860   -0.06010   15.20130    -999.25    -999.25   15.20130   10.33200    0.15560    0.11290    2.81060  -77.16810  -16.80420   10.33200
