~Version ---------------------------------------------------
VERS.      2.0 : CWLS log ASCII Standard -VERSION 2.0
WRAP.       NO : One line per depth step
CREA. 11/17/17 : LAS Creation Date
~Well ------------------------------------------------------
STRT.FT                  300.0 : START DEPTH
STOP.FT                10400.0 : STOP DEPTH
STEP.FT               50.00000 : STEP LENGTH
NULL.                  -999.25 : NULL VALUE
COMP.    J M HUBER CORPORATION : COMPANY
WELL. HUBER ROSEVEAR 6-5-55-14 : WELL
FLD .                       WC : FIELD
LOC .                          : LOCATION
CTRY.                   CANADA : COUNTRY
SRVC.             Schlumberger : SERVICE COMPANY
DATE.              04-Sep-1976 : LOGDATE
PROV.                  Alberta : PROVINCE
UWI .         100060505514W500 : UNIQUE WELL ID
SLAT.WGS84            53.72293 : SURFACE LATITUDE
SLON.WGS84           -116.0453 : SURFACE LONGITUDE
~Curve Information -----------------------------------------
DEPT    .FT    : Depth Curve
CALDED  .IN    : CALIPER FROM DENSITY LOG [ADJ. TO RESISTIVITY LOG]
CALRED  .MV    : CALIPER FROM FROM DLL
CALSED  .IN    : CALIPER FROM SONIC LOG [ADJ. TO RESISTIVITY LOG]
CALWS   .IN    : CALIPER [CALSED]
CONDWS  .MMHO  : CONDUCTIVITY [1000/DRESWS]
DCORED  .G/C3  : DENSITY CORRECTION FROM DENSITY LOG [ADJ. TO RESISTIVITY LOG]
DCORWS  .G/C3  : DENSITY CORRECTION [DCORED]
DENWS   .G/C3  : FORMATION BULK DENSITY [RHOBED SPL. TO DPHISSED CONVERTED TO LIMESTONE MATRIX, M=2.71, F=1.00 (ASSUMED) FROM 5892'-5905']
DPHILSED.V/V   : DENSITY POROSITY LIMESTONE [M=2.71, F=1.00 (ASSUMED)] FROM DENSITY LOG [ADJ. TO RESISTIVITY LOG]
DPHISSED.V/V   : DENSITY POROSITY SANDSTONE [M=2.65, F=1.00 (ASSUMED)] FROM DENSITY LOG [ADJ. TO RESISTIVITY LOG]
DPOLSWS .V/V   : DENSITY POROSITY LIMESTONE [CALC. FROM DENWS, M=2.71, F=1.00 (ASSUMED)]
DRESWS  .OHMM  : DEEP RESISTIVITY [LLDED]
DTED    .US/F  : DELTA TIME FROM SONIC LOG [ADJ. TO RESISTIVITY LOG]
DTWS    .US/F  : COMPRESSIONAL SONIC [DTED]
GRDED   .GAPI  : GAMMA RAY FROM DENSITY LOG [ADJ. TO RESISTIVITY LOG]
GRSED   .GAPI  : GAMMA RAY FROM SONIC LOG [ADJ. TO RESISTIVITY LOG]
GRWS    .GAPI  : GAMMA RAY [GRSED]
LLDED   .OHMM  : DEEP LATEROLOG RESISTIVITY FROM RESISTIVITY LOG
LLSED   .OHMM  : SHALLOW LATEROLOG RESISTIVITY LOG
NPHILSED.V/V   : NEUTRON POROSITY LIMESTONE FROM DENSITY LOG [ADJ. TO RESISTIVITY LOG]
NPHISSED.V/V   : NEUTRON POROSITY SANDSTONE FROM DENSITY LOG [ADJ. TO RESISTIVITY LOG]
NPOLSWS .V/V   : NEUTRON POROSITY LIMESTONE [NPHISSED MATRIX (SCHLUMBERGER) CONVERSION FOR LIMESTONE, SPL.TO NPHILSED @ 7149']
RHOBED  .G/C3  : BULK DENSITY FROM DENSITY LOG [ADJ. TO RESISTIVITY LOG]
SPRED   .MV    : SPONTANEOUS POTENTIAL FROM RESISTIVITY LOG
SPWS    .MV    : SPONTANEOUS POTENTIAL [BASELINE 0 MV, SPRED*-1]
SRESWS  .OHMM  : SHALLOW RESISTIVITY [LLSED]
~Params ----------------------------------------------------
PD  .                     GL : PERMANENT DATUM
EPD .FT                 2650 : ELEVATION PERMANENT DATUM
LMF .                     KB : LOG MEASURED FROM
DAPD.FT                   16 : FEET ABOVE PERMANENT DATUM
EKB .FT                 2666 : KELLY BUSHING
EGL .FT                 2650 : GROUND LEVEL
DATE.               09/04/76 : RUN DATE
RUN .                      2 : RUN NUMBER
DD  .FT                10450 : DEPTH DRILLER
DL  .FT                10450 : DEPTH LOGGER
BLI .FT                10448 : BOTTOM LOG INTERVAL
TLI .FT                 8400 : TOP LOG INTERVAL
CBD .FT                 1105 : CASING BOTTOM DRILLER
BS  .IN                 8.75 : BIT SIZE
BSD .FT                10450 : BIT SIZE AT DEPTH
DFT .               GEL CHEM : DRILLING FLUID TYPE
DFD .                    9.6 : DRILLING FLUID DENSITY
DFV .                     82 : DRILLING FLUID VISCOSITY
DFPH.                     11 : DRILLING FLUID PH
DFL .                     15 : DRILLING FLUID LOSS
RMS .OHMM               0.28 : RESISTIVITY MUD SAMPLE
MST .DEGF                 62 : MUD SAMPLE TEMPERATURE
RMF .OHMM               0.23 : RESISTIVITY MUD FILTRATE SAMPLE
MFST.DEGF                 62 : MUD FILTRATE SAMPLE TEMPERATURE
RMB .OHMM               0.11 : RESISTIVITY MUD AT BHT
TCS .HRS                   1 : TIME CIRCULATED STOPPED
LUN .                   7730 : LOGGING UNIT NUMBER
LUL .                    EDM : LOGGING UNIT LOCATION
ENGI.         PIMM MACDONALD : RECORDING ENGINEER
WITN.                 TAYLOR : WITNESSED BY
CLNT.                A2DTECH : CLIENT CODE
ORIG.               5" PRINT : ORIGIN OF DATA
UWI .       100060505514W500 : UNIQUE WELL ID
DICO. A2D Technologies, Inc. : DIGITIZING COMPANY
~Other -----------------------------------------------------
DLL-CNFD-BHC TOOLS RUN
~ASCII -----------------------------------------------------
# ...
 9750.00000    -999.25    -999.25    9.51420    9.51420   36.32200    -999.25    -999.25    -999.25    -999.25    -999.25    -999.25   27.53150   61.68140   61.68140    -999.25  102.41310  102.41310   27.53150   32.85720    -999.25    -999.25    -999.25    -999.25  -13.36590  -58.92750   32.85720
 9800.00000    -999.25    -999.25    9.11290    9.11290    0.60890    -999.25    -999.25    -999.25    -999.25    -999.25    -999.25 1642.21500   64.13460   64.13460    -999.25   98.49570   98.49570 1642.21500  960.79320    -999.25    -999.25    -999.25    -999.25  -12.92960  -58.49120  960.79320
 9850.00000    -999.25    -999.25    9.69410    9.69410    3.67600    -999.25    -999.25    -999.25    -999.25    -999.25    -999.25  272.03820   85.11270   85.11270    -999.25  228.37280  228.37280  272.03820  223.57840    -999.25    -999.25    -999.25    -999.25  -12.65650  -58.21810  223.57840
 9900.00000    -999.25    -999.25    9.81150    9.81150   45.76890    -999.25    -999.25    -999.25    -999.25    -999.25    -999.25   21.84890   74.68490   74.68490    -999.25  159.19130  159.19130   21.84890   18.45990    -999.25    -999.25    -999.25    -999.25  -13.07490  -58.63650   18.45990
 9950.00000    -999.25    -999.25    9.31410    9.31410   20.72900    -999.25    -999.25    -999.25    -999.25    -999.25    -999.25   48.24160   62.64230   62.64230    -999.25   70.38060   70.38060   48.24160   33.27040    -999.25    -999.25    -999.25    -999.25  -10.25500  -55.81660   33.27040
 10000.00000    -999.25    -999.25    9.66160    9.66160    0.50700    -999.25    -999.25    -999.25    -999.25    -999.25    -999.25 1972.55900   47.97800   47.97800    -999.25   22.96630   22.96630 1972.55900 1041.90910    -999.25    -999.25    -999.25    -999.25  -25.84150  -71.40310 1041.90910
 10050.00000    -999.25    -999.25    9.53330    9.53330    1.63600    -999.25    -999.25    -999.25    -999.25    -999.25    -999.25  611.26560   48.53600   48.53600    -999.25   21.11790   21.11790  611.26560  203.71820    -999.25    -999.25    -999.25    -999.25  -28.18560  -73.74720  203.71820
 10100.00000    -999.25    -999.25    9.68290    9.68290    1.03980    -999.25    -999.25    -999.25    -999.25    -999.25    -999.25  961.67850   48.88620   48.88620    -999.25   26.31630   26.31630  961.67850  227.52540    -999.25    -999.25    -999.25    -999.25  -29.87300  -75.43460  227.52540
 10150.00000    -999.25    -999.25    9.61830    9.61830    0.63700    -999.25    -999.25    -999.25    -999.25    -999.25    -999.25 1569.74800   50.77850   50.77850    -999.25   37.63380   37.63380 1569.74800  611.82880    -999.25    -999.25    -999.25    -999.25  -27.18510  -72.74670  611.82880
 10200.00000    -999.25    -999.25    9.29710    9.29710    1.31410    -999.25    -999.25    -999.25    -999.25    -999.25    -999.25  760.96350   50.43720   50.43720    -999.25   26.50590   26.50590  760.96350  311.48740    -999.25    -999.25    -999.25    -999.25  -52.75160  -98.31320  311.48740
 10250.00000    -999.25    -999.25    9.12340    9.12340    0.83980    -999.25    -999.25    -999.25    -999.25    -999.25    -999.25 1190.77600   50.13440   50.13440    -999.25   25.98280   25.98280 1190.77600  916.70560    -999.25    -999.25    -999.25    -999.25  -73.99190 -119.55350  916.70560
 10300.00000    -999.25    -999.25    9.02090    9.02090    0.88910    -999.25    -999.25    -999.25    -999.25    -999.25    -999.25 1124.68200   49.20890   49.20890    -999.25   34.54570   34.54570 1124.68200  716.85270    -999.25    -999.25    -999.25    -999.25  -46.33460  -91.89620  716.85270
 10350.00000    -999.25    -999.25    9.16350    9.16350    1.94520    -999.25    -999.25    -999.25    -999.25    -999.25    -999.25  514.07900   48.08020   48.08020    -999.25   35.75560   35.75560  514.07900  399.42010    -999.25    -999.25    -999.25    -999.25  -32.89710  -78.45870  399.42010
 10400.00000    -999.25    -999.25    7.98170    7.98170  277.05440    -999.25    -999.25    -999.25    -999.25    -999.25    -999.25    3.60940   66.20550   66.20550    -999.25   50.00330   50.00330    3.60940    3.51100    -999.25    -999.25    -999.25    -999.25  -19.81370  -65.37530    3.51100
