~Version ---------------------------------------------------
VERS.      2.0 : CWLS log ASCII Standard -VERSION 2.0
WRAP.       NO : One line per depth step
CREA. 08/22/14 : LAS Creation Date
~Well ------------------------------------------------------
STRT.FT                 1143.82546 : START DEPTH
STOP.FT                11159.82546 : STOP DEPTH
STEP.FT                    0.50000 : STEP LENGTH
NULL.                      -999.25 : NULL VALUE
COMP.            TRIAD OIL CO. LTD : COMPANY
WELL. TRIAD PAN AM ANTE 2-27-66-25 : WELL
FLD .                              : FIELD
LOC .                              : LOCATION
CTRY.                       CANADA : COUNTRY
SRVC.                   Lane Wells : SERVICE COMPANY
DATE.                  15-Aug-1967 : LOGDATE
PROV.                      Alberta : PROVINCE
UWI .             100022706625W500 : UNIQUE WELL ID
SLAT.WGS84                54.73614 : SURFACE LATITUDE
SLON.WGS84                 -117.69 : SURFACE LONGITUDE
~Curve Information -----------------------------------------
DEPT.FT    : DEPTH FEET
CALS.IN    : CALIPER FROM SONIC LOG
DT  .US/F  : DELTA TIME FROM SONIC LOG
GRS .GAPI  : GAMMA RAY FROM SONIC LOG
ILD .OHMM  : INDUCTION LOG DEEP RESISTIVITY
SN  .OHMM  : 16 INCH SHORT NORMAL RESISTIVITY FROM IEL
SPR .MV    : SPONTANEOUS POTENTIAL FROM RESISTIVITY LOG
~Params ----------------------------------------------------
PD  .                     GL : PERMANENT DATUM
EPD .FT               2399.7 : ELEVATION PERMANENT DATUM
LMF .                     KB : LOG MEASURED FROM
DAPD.FT                   15 : FEET ABOVE PERMANENT DATUM
DMF .                     KB : DRILLING MEASURED FROM
EKB .FT               2414.7 : KELLY BUSHING
EGL .FT               2399.7 : GROUND LEVEL
DATE.               08/15/67 : RUN DATE
RUN .                      1 : RUN NUMBER
DD  .FT                11172 : DEPTH DRILLER
DL  .FT                11160 : DEPTH LOGGER
BLI .FT                11156 : BOTTOM LOG INTERVAL
TLI .FT                 1144 : TOP LOG INTERVAL
CS  .IN                9.625 : CASING SIZE
CBD .FT                 1145 : CASING BOTTOM DRILLER
CBL .FT                 1144 : CASING BOTTOM LOGGER
BS  .IN                7.625 : BIT SIZE
BSD .FT                11172 : BIT SIZE AT DEPTH
DFT .                MUD GEL : DRILLING FLUID TYPE
DFD .                    9.9 : DRILLING FLUID DENSITY
DFV .                     89 : DRILLING FLUID VISCOSITY
DFPH.                      9 : DRILLING FLUID PH
DFL .                    7.2 : DRILLING FLUID LOSS
MSS .                   CIRC : MUD SAMPLE SOURCE
RMS .OHMM                3.0 : RESISTIVITY MUD SAMPLE
MST .DEGF                 86 : MUD SAMPLE TEMPERATURE
RMF .OHMM                2.4 : RESISTIVITY MUD FILTRATE SAMPLE
MFST.DEGF                 86 : MUD FILTRATE SAMPLE TEMPERATURE
RMC .OHMM                3.2 : RESISTIVITY MUD CAKE
MCST.DEGF                 86 : MUD CAKE SAMPLE TEMPERATURE
MFSS.                   MEAS : MUD FILTRATE SAMPLE SOURCE
MCSS.                   MEAS : MUD CAKE SAMPLE SOURCE
RMB .OHMM                1.2 : RESISTIVITY MUD AT BHT
TCS .HRS                   6 : TIME CIRCULATED STOPPED
LUN .                   1256 : LOGGING UNIT NUMBER
LUL .                    EDM : LOGGING UNIT LOCATION
ENGI.      KOWALCHUK DOMSTAD : RECORDING ENGINEER
WITN.            DANIELEWICZ : WITNESSED BY
CLNT.                A2DTECH : CLIENT CODE
ORIG.            2" 5" PRINT : ORIGIN OF DATA
UWI .       100022706625W500 : UNIQUE WELL ID
DICO. A2D Technologies, Inc. : DIGITIZING COMPANY
~Other -----------------------------------------------------
~ASCII -----------------------------------------------------
# ...
 3152.32546   13.23370  126.15540   69.55450    7.58500    7.06070  -84.91230
 3152.82546   13.26050  125.71910   66.36490    7.49970    7.02000  -85.25390
 3153.32546   13.20510  122.74490   66.34020    7.45750    6.99920  -85.14890
 3153.82546   13.06120  115.31040   68.42750    7.37270    6.95800  -84.63560
 3154.32546   13.14360  113.05420   69.55650    7.33010    6.93720  -84.36710
 3154.82546   13.61840  113.59230   72.09970    7.24550    6.89590  -84.71440
 3155.32546   14.00990  115.65600   72.39460    7.20270    6.87520  -84.91130
 3155.82546   15.03580  120.50100   69.49860    7.21200    6.84070  -84.36230
 3156.32546   15.29120  122.64630   67.19670    7.29180    6.86560  -83.89040
 3156.82546   15.16220  124.48520   62.19120    7.51090    7.00260  -83.53660
 3157.32546   15.03300  122.05000   61.84300    7.73800    7.15900  -83.97900
 3157.82546   15.06570  121.04970   62.68920    7.84160    7.22990  -84.20970
 3158.32546   15.10800  118.31100   59.66400    8.07300    7.38900  -84.72500
 3158.82546   15.06240  117.91660   57.36480    8.17070    7.45690  -84.94270
 3159.32546   14.96100  120.43100   57.27300    8.40300    7.62000  -85.33300
 3159.82546   14.94880  122.26130   58.53470    8.47330    7.68370  -85.38340
 3160.32546   15.01700  125.56740   57.60720    8.52130    7.83460  -85.50460
 3160.82546   15.07340  109.55740   57.10220    8.50690    7.89180  -85.56450
 3161.32546   15.21330   96.02500   60.07290    8.47330    7.90500  -85.60470
 3161.82546   15.31550   97.15600   59.96110    8.45620    7.88630  -85.27410
 3162.32546   15.31830  101.81460   59.24360    8.42210    7.85030  -84.37140
 3162.82546   15.03480  105.07420   60.14660    8.40510    7.83260  -84.30110
 3163.32546   14.28670  108.92540   60.23140    8.37090    7.79720  -84.66710
 3163.82546   13.91190  108.05400   58.99540    8.35390    7.77940  -84.91580
 3164.32546   13.41900  105.41470   55.26320    8.31980    7.74330  -85.16460
 3164.82546   13.48260  107.16190   53.04550    8.30270    7.72530  -85.10170
 3165.32546   13.93510  114.12880   48.41740    8.26790    7.68990  -84.85680
 3165.82546   14.22920  117.60050   47.02250    8.25090    7.67220  -84.73310
 3166.32546   14.75790  124.54530   45.76460    8.24040    7.63670  -84.48500
 3166.82546   14.91340  126.58080   45.81590    8.24630    7.61870  -84.36200
 3167.32546   14.99630  125.89590   46.92240    8.25950    7.58260  -84.19990
 3167.82546   15.01900  123.35000   46.51300    8.27300    7.54600  -84.59600
 3168.32546   15.12280  125.01220   46.20770    8.27850    7.55340  -84.84350
 3168.82546   15.35100  129.75000   45.38300    8.29200    7.61900  -85.39800
 3169.32546   15.45410  129.75000   46.28910    8.29780    7.65400  -85.55940
 3169.82546   15.61000  123.11000   49.40800    8.31200    7.73900  -85.60000
 3170.32546   15.66130  122.14000   51.44610    8.31810    7.77210  -85.56310
 3170.82546   15.76090  122.80060   56.34820    8.32560    7.85080  -85.47600
 3171.32546   15.60430  123.92370   57.72040    8.39930    7.89020  -85.43220
 3171.82546   14.91780  123.59700   59.88180    8.51360    7.96890  -85.33930
 3172.32546   14.48640  123.25610   61.01740    8.55370    8.00830  -85.10100
 3172.82546   13.61540  125.23030   63.46420    8.63640    8.08700  -83.82080
 3173.32546   13.17960  125.08110   64.78650    8.67780    8.12640  -83.44220
 3173.82546   12.30830  120.97710   66.66940    8.76050    8.20510  -83.29790
 3174.32546   11.89430  118.15390   66.00730    8.80180    8.24490  -83.33700
 3174.82546   11.24770  112.11760   63.20110    8.88450    8.35600  -83.79300
 3175.32546   11.05090  114.55130   61.79490    8.92580    8.41770  -84.14670
 3175.82546   10.74380  115.21310   58.98090    9.00850    8.50280  -84.78310
 3176.32546   10.60150  110.22640   57.57200    9.04980    8.53120  -84.93400
 3176.82546   10.35670  106.79320   54.75350    9.13250    8.58700  -85.01350
 3177.32546   10.34170  113.03360   53.34410    9.17420    8.61520  -85.05550
 3177.82546   10.50180  121.48790   50.60330    9.22990    8.67160  -85.14080
 3178.32546   10.86600  115.92700   47.97200    9.24600    8.73700  -85.23000
 3178.82546   11.16990  113.43440   46.83300    9.25150    8.66360  -85.26000
 3179.32546   11.83800  114.94800   48.06400    9.26500    8.59600  -85.10400
 3179.82546   12.40950  114.22970   49.11830    9.27020    8.57920  -85.00360
 3180.32546   13.71500  108.82600   51.79000    9.28300    8.53900  -84.75800
 3180.82546   14.08640  106.14640   52.33590    9.28790    8.52360  -84.66360
 3181.32546   14.64170  103.39440   50.83410    9.30060    8.48690  -84.43710
 3181.82546   14.69030  104.48960   49.32860    9.30670    8.46850  -84.32410
 3182.32546   14.71040  107.49350   47.12050    9.31930    8.43760  -84.16800
 3182.82546   14.69360  108.99590   47.92630    9.32630    8.40100  -84.36470
 3183.32546   14.04110  109.00440   50.77900    9.25780    8.30140  -84.93050
 3183.82546   13.54780  107.45590   52.02630    9.18910    8.24780  -85.10730
 3184.32546   12.58460  110.47100   51.66050    9.04320    8.14020  -84.85430
 3184.82546   12.44720  108.95210   50.47060    8.97010    8.08680  -84.54460
 3185.32546   12.95760   99.74410   48.24010    8.82440    7.97980  -84.36970
 3185.82546   13.37130   99.95020   47.98900    8.75200    7.92630  -84.59860
 3186.32546   14.14760  106.47080   49.78070    8.60690    7.84670  -85.25040
 3186.82546   14.44180  106.87240   50.19940    8.53410    7.83400  -85.46100
 3187.32546   14.76910  108.75330   48.65560    8.38840    7.83400  -85.39020
 3187.82546   14.83010  113.08410   48.82520    8.31560    7.83400  -85.21340
 3188.32546   14.99150  118.47810   49.81950    8.16990    7.83400  -84.86240
 3188.82546   15.33100  116.82000   46.77700    8.01800    7.83900  -84.49800
 3189.32546   15.73290  115.43780   46.41290    7.95220    7.84690  -84.33360
 3189.82546   15.99200  111.77800   47.67400    7.89500    7.86600  -84.11500
 3190.32546   15.99320  109.96860   48.53710    8.00700    7.87350  -84.33790
 3190.82546   15.99500  109.15500   50.48700    8.27900    7.89300  -84.87600
 3191.32546   15.99610  112.09840   51.29200    8.38270    7.90060  -85.07850
 3191.82546   15.99790  117.30780   53.10880    8.63300    7.91820  -85.56200
 3192.32546   15.99900  118.11650   53.92020    8.75780    7.92670  -85.84250
 3192.82546   16.00080  113.96230   56.53960    9.00880    7.98670  -85.39480
 3193.32546   16.00200  110.36910   58.01570    9.13040    8.04970  -84.82800
 3193.82546   15.99980  103.15850   60.81020    9.20990    8.19170  -83.37020
 3194.32546   16.00310  102.12700   62.21980    9.17440    8.22800  -83.51120
 3194.82546   16.00270  105.98950   64.39000    9.08330    8.25490  -85.04750
 3195.32546   16.00600  109.21090   64.82610    9.03840    8.26390  -85.85220
 3195.82546   16.00570  115.65360   63.93950    8.94630    8.28150  -86.10830
 3196.32546   15.69660  116.98390   63.78490    8.97010    8.29040  -85.63260
 3196.82546   14.74100  115.21600   64.39830    9.04010    8.30950  -84.52210
 3197.32546   14.30710  115.77740   63.37980    9.04710    8.31940  -83.96540
 3197.82546   13.43730  119.96320   59.59390    9.06870    8.38650  -83.39860
 3198.32546   13.00180  118.21430   57.88830    9.07890    8.37730  -83.52270
 3198.82546   12.44400  113.99020   54.47010    9.09920    8.22880  -84.05970
 3199.32546   12.28600  116.32200   50.96100    9.12000    8.08100  -84.60800
 3199.82546   12.47220  117.55180   49.74210    9.13090    8.01550  -84.84630
 3200.32546   13.12200  118.15000   46.62200    8.95600    7.86100  -85.31900
 3200.82546   13.34790  117.37400   45.48150    8.83930    7.87540  -85.02640
 3201.32546   14.04400  115.45000   43.29200    8.47400    7.98500  -84.65600
 3201.82546   14.32920  118.81190   42.47000    8.32460    8.03990  -84.55550
 3202.32546   15.01900  125.87320   40.81130    7.96290    8.17160  -84.31270
 3202.82546   15.36470  129.12060   39.78420    7.78330    8.28730  -84.19490
 3203.32546   15.93840  134.59660   37.41000    7.76450    8.61800  -84.34040
