~Version ---------------------------------------------------
VERS.      2.0 : CWLS log ASCII Standard -VERSION 2.0
WRAP.       NO : One line per depth step
CREA. 10/25/17 : LAS Creation Date
~Well ------------------------------------------------------
STRT.FT                       1050.0 : START DEPTH
STOP.FT                      10200.0 : STOP DEPTH
STEP.FT                     50.00000 : STEP LENGTH
NULL.                        -999.25 : NULL VALUE
COMP.           MARATHON OIL COMPANY : COMPANY
WELL. MARATHON HEAVYSOUND 7-16-62-17 : WELL
FLD .                                : FIELD
LOC .                                : LOCATION
CTRY.                         CANADA : COUNTRY
SRVC.                        Unknown : SERVICE COMPANY
DATE.                    27-Feb-1976 : LOGDATE
PROV.                        Alberta : PROVINCE
UWI .               100071606217W500 : UNIQUE WELL ID
SLAT.WGS84                  54.36142 : SURFACE LATITUDE
SLON.WGS84                 -116.4847 : SURFACE LONGITUDE
~Curve Information -----------------------------------------
DEPT    .FT                                       : Depth Curve
CALDED  .IN                                       : CALIPER FROM DENSITY LOG [DEP. ADJ. TO GRSED]
CALSED  .IN                                       : CALIPER FROM SONIC LOG
CALWS   .IN                                       : CALIPER [1132' CALSED 5088' CALDED 8507' CALSED 10228' CALDED]
CILDED  .MMho : CONDUCTIVITY FROM RESISTIVITY LOG : 
CONDWS  .MMHO                                     : CONDUCTIVITY [1000/DRESWS]
DCORED  .G/C3                                     : DENSITY CORRECTION FROM DENSITY LOG [DEP. ADJ. TO GRSED]
DCORWS  .G/C3                                     : DENSITY CORRECTION [DCORED]
DENWS   .G/C3                                     : BULK DENSITY [M=2.71, F=1.00] [RHOBED]
DPHILSED.V/V                                      : DENSITY POROSITY [M=2.71, F=1.00] FROM DENSITY LOG [DEP. ADJ. TO GRSED]
DPHISSED.V/V                                      : DENSITY POROSITY [M=2.65, F=1.00] FROM DENSITY LOG [DEP. ADJ. TO GRSED]
DPOLSWS .V/V                                      : DENSITY POROSITY [M=2.71, F=1.00] [CAL. FROM DENWS]
DRESWS  .OHMM                                     : DEEP RESISTIVITY [1132' 1000/CILDED 5088' ILDED 8507' 1000/CILDED 10228' ILDED][REDUC. TO 2000 OHMM]
DTED    .US/F                                     : DELTA TIME FROM SONIC LOG
DTWS    .US/F                                     : DELTA TIME [DTED]
GRDED   .GAPI                                     : GAMMA RAY FROM DENSITY LOG [DEP. ADJ. TO GRSED]
GRSED   .GAPI                                     : GAMMA RAY FROM SONIC LOG
GRWS    .GAPI                                     : GAMMA RAY [1050' GRSED 10222' GRDED]
ILDED   .OHMM                                     : INDUCTION LOG DEEP RESISTIVITY
ILMED   .OHMM                                     : INDUCTION LOG MEDIUM RESISTIVITY
LL8ED   .OHMM                                     : 8 INCH LATEROLOG RESISTIVITY
MRESWS  .OHMM                                     : MEDIUM RESISTIVITY [ILMED]
NPHILSED.V/V                                      : NEUTRON POROSITY LIMESTONE FROM DENSITY LOG [DEP. ADJ. TO GRSED]
NPHISSED.V/V                                      : NEUTRON POROSITY SANDSTONE FROM DENSITY LOG [DEP. ADJ. TO GRSED]
NPOLSWS .V/V                                      : NEUTRON POROSITY SANDSTONE [5098' [NPHISSED IS CONVERTED TO LIMESTONE MATRIX] 6397' NPHILSED]
RHOBED  .G/C3                                     : BULK DENSITY FROM DENSITY LOG [DEP. ADJ. TO GRSED]
SPRED   .MV                                       : SPONTANEOUS POTENTIAL FROM RESISTIVITY LOG
SPWS    .MV                                       : SPONTANEOUS POTENTIAL [BASELINE 0 MV] [SPRED]
SRESWS  .OHMM                                     : SHALLOW RESISTIVITY [LL8ED] [FILLED GAPS]
~Params ----------------------------------------------------
PD  .                     GL : PERMANENT DATUM
EPD .FT                 2966 : ELEVATION PERMANENT DATUM
LMF .                     KB : LOG MEASURED FROM
DAPD.FT                   14 : FEET ABOVE PERMANENT DATUM
EKB .FT                 2980 : KELLY BUSHING
EGL .FT                 2966 : GROUND LEVEL
DATE.               02/27/76 : RUN DATE
RUN .                      1 : RUN NUMBER
DD  .FT                10240 : DEPTH DRILLER
DL  .FT                10242 : DEPTH LOGGER
BLI .FT                10239 : BOTTOM LOG INTERVAL
TLI .FT                 1133 : TOP LOG INTERVAL
CS  .IN                9.625 : CASING SIZE
CBD .FT                 1128 : CASING BOTTOM DRILLER
CBL .FT                 1133 : CASING BOTTOM LOGGER
BS  .IN                 8.75 : BIT SIZE
BSD .FT                10240 : BIT SIZE AT DEPTH
RMS .OHMM                2.3 : RESISTIVITY MUD SAMPLE
MST .DEGF                 68 : MUD SAMPLE TEMPERATURE
RMF .OHMM                2.1 : RESISTIVITY MUD FILTRATE SAMPLE
MFST.DEGF                 68 : MUD FILTRATE SAMPLE TEMPERATURE
TCS .HRS                   2 : TIME CIRCULATED STOPPED
LUN .                   7636 : LOGGING UNIT NUMBER
LUL .                    EDM : LOGGING UNIT LOCATION
ENGI.                  LAZOR : RECORDING ENGINEER
WITN.                 DEWULF : WITNESSED BY
CLNT.                A2DTECH : CLIENT CODE
ORIG.            2" 5" PRINT : ORIGIN OF DATA
UWI .       100071606217W500 : UNIQUE WELL ID
DICO. A2D Technologies, Inc. : DIGITIZING COMPANY
~Other -----------------------------------------------------
~ASCII -----------------------------------------------------
# ...
 8550.00000    9.04970    9.42350    9.42350    9.11960    9.11960    0.02660    0.02660    2.73920   -0.00670    -999.25   -0.01710  109.65390   52.99180   52.99180   43.12860   38.86570   38.86570  119.19120    -999.25  124.96580    -999.25    0.03220    -999.25    0.03220    2.73920  -73.30180  -20.40540  124.96580
 8600.00000    9.03350    9.46670    9.46670    1.16180    1.16180    0.00320    0.00320    2.72520   -0.00680    -999.25   -0.00890  860.73330   51.21900   51.21900   31.69160   27.74790   27.74790    -999.25    -999.25    -999.25    -999.25    0.03350    -999.25    0.03350    2.72520 -113.79090  -66.33050  475.86970
 8650.00000    9.06540    9.43930    9.43930    1.98940    1.98940    0.02600    0.02600    2.74940   -0.00690    -999.25   -0.02300  502.66410   51.58140   51.58140   27.53530   26.94790   26.94790    -999.25    -999.25    -999.25    -999.25    0.03190    -999.25    0.03190    2.74940 -116.59740  -74.51900  444.91700
 8700.00000    9.05880    9.46680    9.46680    5.34180    5.34180    0.01290    0.01290    2.72210   -0.00520    -999.25   -0.00700  187.20280   52.21030   52.21030   30.91600   32.44490   32.44490  174.85340    -999.25  170.11360    -999.25    0.03110    -999.25    0.03110    2.72210  -97.55950  -60.91710  170.11360
 8750.00000    9.08000    9.55010    9.55010   23.49200   23.49200    0.00840    0.00840    2.70940   -0.00420    -999.25    0.00040   42.56770   55.15490   55.15490   42.36410   38.87610   38.87610   49.61070    -999.25    -999.25    -999.25    0.03210    -999.25    0.03210    2.70940  -92.59630  -61.33590   49.89890
 8800.00000    9.31450    9.70720    9.70720   66.15400   66.15400   -0.00120   -0.00120    2.66410    0.02120    -999.25    0.02680   15.11620   61.62850   61.62850   70.01290   63.10400   63.10400   14.88470    -999.25   20.82390    -999.25    -999.25    -999.25    -999.25    2.66410  -83.76200  -57.91060   20.82390
 8850.00000    -999.25    9.63940    9.63940   70.31860   70.31860    -999.25    -999.25    -999.25    -999.25    -999.25    -999.25   14.22100   60.93540   60.93540    -999.25   57.78760   57.78760   13.89290    -999.25   21.28410    -999.25    -999.25    -999.25    -999.25    -999.25  -65.43120  -45.01580   21.28410
 8900.00000    -999.25    9.64600    9.64600  115.16410  115.16410    -999.25    -999.25    -999.25    -999.25    -999.25    -999.25    8.68330   65.65470   65.65470    -999.25   67.99190   67.99190    8.52930    -999.25   12.11180    -999.25    -999.25    -999.25    -999.25    -999.25  -31.78140  -16.74800   12.11180
 8950.00000    -999.25    9.50790    9.50790   43.22180   43.22180    -999.25    -999.25    -999.25    -999.25    -999.25    -999.25   23.13650   56.78740   56.78740    -999.25   45.83660   45.83660   23.57500    -999.25   38.39710    -999.25    -999.25    -999.25    -999.25    -999.25  -42.28520  -32.68780   38.39710
 9000.00000    -999.25    9.88620    9.88620  121.65390  121.65390    -999.25    -999.25    -999.25    -999.25    -999.25    -999.25    8.22000   65.91280   65.91280    -999.25   71.89040   71.89040    8.53090    -999.25   11.53410    -999.25    -999.25    -999.25    -999.25    -999.25  -28.91250  -22.15920   11.53410
 9050.00000    -999.25    9.72950    9.72950  121.38670  121.38670    -999.25    -999.25    -999.25    -999.25    -999.25    -999.25    8.23810   71.71810   71.71810    -999.25  100.73890  100.73890    7.97660    -999.25   10.85180    -999.25    -999.25    -999.25    -999.25    -999.25  -23.82900  -12.76470   10.85180
 9100.00000    -999.25   10.39260   10.39260  154.72700  154.72700    -999.25    -999.25    -999.25    -999.25    -999.25    -999.25    6.46300   71.46430   71.46430    -999.25   91.68810   91.68810    6.39320    -999.25    8.95530    -999.25    -999.25    -999.25    -999.25    -999.25 -101.15460  -90.58380    8.95530
 9150.00000    -999.25   11.88860   11.88860  159.66420  159.66420    -999.25    -999.25    -999.25    -999.25    -999.25    -999.25    6.26310   79.64530   79.64530    -999.25  104.52570  104.52570    5.78110    -999.25    7.86260    -999.25    -999.25    -999.25    -999.25    -999.25 -136.91060 -126.82850    7.86260
 9200.00000    -999.25   10.42550   10.42550   95.35380   95.35380    -999.25    -999.25    -999.25    -999.25    -999.25    -999.25   10.48730   71.02980   71.02980    -999.25   90.60290   90.60290   10.30820    -999.25   15.37660    -999.25    -999.25    -999.25    -999.25    -999.25 -128.42230 -118.83380   15.37660
 9250.00000    -999.25    9.91170    9.91170   88.38620   88.38620    -999.25    -999.25    -999.25    -999.25    -999.25    -999.25   11.31400   65.51590   65.51590    -999.25   90.46110   90.46110   11.06060    -999.25   16.06130    -999.25    -999.25    -999.25    -999.25    -999.25 -119.52860 -110.42880   16.06130
 9300.00000    -999.25    9.95330    9.95330   96.61640   96.61640    -999.25    -999.25    -999.25    -999.25    -999.25    -999.25   10.35020   66.71740   66.71740    -999.25   96.28910   96.28910   10.12000    -999.25   15.08060    -999.25    -999.25    -999.25    -999.25    -999.25 -142.80460 -134.19590   15.08060
 9350.00000    -999.25    9.85940    9.85940   73.08180   73.08180    -999.25    -999.25    -999.25    -999.25    -999.25    -999.25   13.68330   63.15750   63.15750    -999.25   70.13520   70.13520   13.41680    -999.25   21.91170    -999.25    -999.25    -999.25    -999.25    -999.25 -159.18990 -151.07480   21.91170
 9400.00000    -999.25   10.37860   10.37860  160.29660  160.29660    -999.25    -999.25    -999.25    -999.25    -999.25    -999.25    6.23840   75.84120   75.84120    -999.25  114.87730  114.87730    6.13490    -999.25    9.08260    -999.25    -999.25    -999.25    -999.25    -999.25 -159.73300 -152.10650    9.08260
 9450.00000    -999.25   10.12630   10.12630  134.23450  134.23450    -999.25    -999.25    -999.25    -999.25    -999.25    -999.25    7.44960   71.72290   71.72290    -999.25   99.33470   99.33470    7.30000    -999.25   10.97010    -999.25    -999.25    -999.25    -999.25    -999.25 -114.45920 -107.32630   10.97010
 9500.00000   10.07060    9.87130    9.87130  140.59660  140.59660    0.20380    0.20380    2.73800   -0.00710    -999.25   -0.01640    7.11250   71.87470   71.87470   99.42970   91.55670   91.55670    6.92450    -999.25   10.42110    -999.25    0.19080    -999.25    0.19080    2.73800  -88.16590  -81.52170   10.42110
 9550.00000    9.11990    9.28560    9.28560    3.04440    3.04440    0.01110    0.01110    2.57510    0.07110    -999.25    0.07890  328.47190   66.57570   66.57570  174.30530  173.48220  173.48220    -999.25    -999.25    -999.25    -999.25    0.12530    -999.25    0.12530    2.57510 -112.61580 -106.46270    -999.25
 9600.00000    9.11520    9.30520    9.30520    1.13920    1.13920    0.05250    0.05250    2.54420    0.09810    -999.25    0.09690  877.80900   70.56720   70.56720  220.57910  216.46430  216.46430    -999.25    -999.25    -999.25    -999.25    0.15880    -999.25    0.15880    2.54420 -159.42500 -153.76550    -999.25
 9650.00000    9.17010    9.35960    9.35960    5.26030    5.26030    0.02610    0.02610    2.52190    0.11310    -999.25    0.11000  190.10320   76.22500   76.22500  153.00800  144.97560  144.97560    -999.25    -999.25  373.24080    -999.25    0.18550    -999.25    0.18550    2.52190 -118.47430 -113.30340  373.24080
 9700.00000    9.19550    9.44450    9.44450    -999.25   37.61240    0.01660    0.01660    2.67780    0.01690    -999.25    0.01880   26.58690   66.32100   66.32100   87.73390   90.06360   90.06360   26.58690   24.46580   30.32380   24.46580    0.14010    -999.25    0.14010    2.67780  -82.31590  -77.63860   30.32380
 9750.00000    9.24920    9.53860    9.53860    -999.25   27.52210    0.03650    0.03650    2.73660   -0.00550    -999.25   -0.01560   36.33440   56.24440   56.24440   53.84170   49.43410   49.43410   36.33440   30.90570   56.03410   30.90570    0.08140    -999.25    0.08140    2.73660  -63.82830  -59.63970   56.03410
