~Version ---------------------------------------------------
VERS.      2.0 : CWLS log ASCII Standard -VERSION 2.0
WRAP.       NO : One line per depth step
CREA. 11/17/17 : LAS Creation Date
~Well ------------------------------------------------------
STRT.FT                      850.0 : START DEPTH
STOP.FT                     7850.0 : STOP DEPTH
STEP.FT                   50.00000 : STEP LENGTH
NULL.                      -999.25 : NULL VALUE
COMP. PAN AMERICAN PETROLEUM CORP. : COMPANY
WELL. MUSKEG A-1 SANGUDO 2-18-57-6 : WELL
FLD .                              : FIELD
LOC .                              : LOCATION
CTRY.                       CANADA : COUNTRY
SRVC.                        Welex : SERVICE COMPANY
DATE.                  02-Feb-1965 : LOGDATE
PROV.                      Alberta : PROVINCE
UWI .             100021805706W500 : UNIQUE WELL ID
SLAT.WGS84                53.92069 : SURFACE LATITUDE
SLON.WGS84                -114.878 : SURFACE LONGITUDE
~Curve Information -----------------------------------------
DEPT  .FT    : Depth Curve
AC1ED .US/F  : ACOUSTIC 1' SPAN FROM SONIC LOG [ADJ, TO RESISTIVITY LOG]
ACED  .US/F  : ACOUSTIC 3' SPAN FROM SONIC LOG [ADJ, TO RESISTIVITY LOG]
CALSED.IN    : CALIPER FROM SONIC LOG [ADJ, TO RESISTIVITY LOG]
CALWS .IN    : CALIPER [CALSED]
CILDED.MMHO  : CONDUCTIVITY FROM IEL LOG
CONDWS.MMHO  : CONDUCTIVITY [1000/DRESWS]
DRESWS.OHMM  : DEEP RESISTIVITY [1000/CILDED IF ILDED <2,ILDED]
DTWS  .US/F  : COMPRESSIONAL SONIC [ACED]
GRSED .GAPI  : GAMMA RAY FROM SONIC LOG [ADJ, TO RESISTIVITY LOG]
GRWS  .GAPI  : GAMMA RAY [GRSED]
ILDED .OHMM  : 40" SPACING DEEP INDUCTION FROM IEL LOG
LATED .OHMM  : 16 FOOT LATERAL FROM RESISTIVITY LOG
SNED  .OHMM  : 18 INCH SPACING SHORT NORMAL FROM IEL LOG
SPRED .MV    : SPONTANEOUS POTENTIAL FROM IEL LOG
SPWS  .MV    : SPONTANEOUS POTENTIAL [BASELINE 0 MV,SPRED]
SRESWS.OHMM  : SHALLOW RESISTIVITY [SNED]
~Params ----------------------------------------------------
PD  .                     GL : PERMANENT DATUM
EPD .FT               2386.8 : ELEVATION PERMANENT DATUM
LMF .                     KB : LOG MEASURED FROM
DAPD.FT                 13.2 : FEET ABOVE PERMANENT DATUM
DMF .                     KB : DRILLING MEASURED FROM
EKB .FT                 2400 : KELLY BUSHING
EGL .FT               2386.8 : GROUND LEVEL
DATE.               02/02/65 : RUN DATE
RUN .                      1 : RUN NUMBER
DD  .FT                 7900 : DEPTH DRILLER
DL  .FT                 7901 : DEPTH LOGGER
BLI .FT                 7896 : BOTTOM LOG INTERVAL
TLI .FT                  819 : TOP LOG INTERVAL
CS  .IN                8.625 : CASING SIZE
CBD .FT                  819 : CASING BOTTOM DRILLER
CBL .FT                  819 : CASING BOTTOM LOGGER
BS  .IN                7.875 : BIT SIZE
BSD .FT                 7900 : BIT SIZE AT DEPTH
DFT .               GEL BASE : DRILLING FLUID TYPE
DFD .                   10.8 : DRILLING FLUID DENSITY
DFV .                    107 : DRILLING FLUID VISCOSITY
DFPH.                    9.5 : DRILLING FLUID PH
DFL .                    9.8 : DRILLING FLUID LOSS
MSS .                   CIRC : MUD SAMPLE SOURCE
RMS .OHMM               1.64 : RESISTIVITY MUD SAMPLE
MST .DEGF                 69 : MUD SAMPLE TEMPERATURE
RMF .OHMM                1.2 : RESISTIVITY MUD FILTRATE SAMPLE
MFST.DEGF                 74 : MUD FILTRATE SAMPLE TEMPERATURE
RMC .OHMM               1.78 : RESISTIVITY MUD CAKE
MCST.DEGF                 74 : MUD CAKE SAMPLE TEMPERATURE
MFSS.                   MEAS : MUD FILTRATE SAMPLE SOURCE
MCSS.                   MEAS : MUD CAKE SAMPLE SOURCE
RMB .OHMM               0.77 : RESISTIVITY MUD AT BHT
TCS .HRS                  11 : TIME CIRCULATED STOPPED
LUN .                    728 : LOGGING UNIT NUMBER
LUL .                     25 : LOGGING UNIT LOCATION
ENGI.                  BUSSE : RECORDING ENGINEER
WITN.                  SAMIS : WITNESSED BY
CLNT.                A2DTECH : CLIENT CODE
ORIG.            2" 5" PRINT : ORIGIN OF DATA
UWI .       100021805706W500 : UNIQUE WELL ID
DICO. A2D Technologies, Inc. : DIGITIZING COMPANY
~Other -----------------------------------------------------
IEL-SONIC LOG RUN
NULL VALUE IN AC1ED FROM 4176'-4180' DUE TO POOR IMAGE
~ASCII -----------------------------------------------------
  850.00000    -999.25  140.00480   17.05480   17.05480  180.79250  203.20250    4.92120  140.00480   72.78910   72.78910    4.92120    5.66210    6.33180  -88.81750   -5.96350    6.33180
  900.00000    -999.25  128.70960   22.15490   22.15490  193.25180  224.73930    4.44960  128.70960   71.76280   71.76280    4.44960    4.41320    5.80280  -88.29110   -5.43710    5.80280
  950.00000    -999.25  126.06140   20.39610   20.39610  160.37160  183.84040    5.43950  126.06140   79.59070   79.59070    5.43950    6.81130    6.69510  -86.30600   -3.35190    6.69510
 1000.00000    -999.25  182.80640   17.92170   17.92170  218.37570  247.87450    4.03430  182.80640   81.46720   81.46720    4.03430    5.18780    4.56740  -84.22750   -1.13250    4.56740
 1050.00000    -999.25  158.16830   23.46080   23.46080  282.54170  337.70090    2.96120  158.16830   80.70850   80.70850    2.96120    4.48220    4.19310  -86.27280   -3.03680    4.19310
 1100.00000    -999.25  131.45770   16.30920   16.30920  138.03700  146.61040    6.82080  131.45770   66.51240   66.51240    6.82080    9.50780    6.44290  -90.28390   -6.90700    6.44290
 1150.00000    -999.25  175.79240   21.38340   21.38340  233.48640  287.38940    3.47960  175.79240   82.76280   82.76280    3.47960    4.60920    4.45660  -88.45620   -4.93830    4.45660
 1200.00000    -999.25  114.05880   20.85630   20.85630  173.41390  209.80190    4.76640  114.05880   80.01160   80.01160    4.76640    4.41230    5.16640  -89.97910   -6.32030    5.16640
 1250.00000    -999.25  123.84470   19.73320   19.73320  199.69780  242.81860    4.11830  123.84470   75.08960   75.08960    4.11830    6.28630    5.44730  -91.29390   -7.49410    5.44730
 1300.00000    -999.25  162.03470   25.01790   25.01790  150.76910  160.66580    6.22410  162.03470   72.73310   72.73310    6.22410    6.07910    6.12420  -90.30340   -6.36260    6.12420
 1350.00000    -999.25  109.48070   12.94390   12.94390  127.54590  155.00030    6.45160  109.48070   73.33270   73.33270    6.45160   10.12720    7.65240  -93.55610   -9.46860    7.65240
 1400.00000    -999.25  112.94830   14.73090   14.73090   20.69290   18.11520   55.20240  112.94830   45.44820   45.44820   55.20240   10.63730   22.59840 -104.12020  -19.31350   22.59840
 1450.00000    -999.25  161.87240   11.22970   11.22970   35.24970   35.23930   28.37740  161.87240   48.87310   48.87310   28.37740   12.19720   20.92710 -108.95250  -23.42650   20.92710
 1500.00000    -999.25  105.92370   12.69700   12.69700   53.95410   54.82610   18.23950  105.92370   63.71670   63.71670   18.23950   11.31200   12.02310 -101.33520  -15.09000   12.02310
 1550.00000    -999.25  147.50680   11.74770   11.74770   84.89490   93.23660   10.72540  147.50680   58.59630   58.59630   10.72540    9.35810   10.47120  -99.69840  -13.03100   10.47120
 1600.00000    -999.25   95.74170   14.87490   14.87490  122.22340  124.35030    8.04180   95.74170   69.89260   69.89260    8.04180    5.53460    6.27650  -92.76320   -5.87160    6.27650
 1650.00000    -999.25  159.96150   16.26640   16.26640  161.16930  194.22380    5.14870  159.96150   71.51570   71.51570    5.14870    8.40610    7.43660  -94.90480   -7.78900    7.43660
 1700.00000    -999.25  108.49210   15.83650   15.83650   57.70540   59.32460   16.85640  108.49210   66.47730   66.47730   16.85640   11.81450   14.41360 -104.64160  -17.30160   14.41360
 1750.00000    -999.25   87.31620   20.94230   20.94230  103.34840  101.63010    9.83960   87.31620   60.52960   60.52960    9.83960    4.83250    8.12370  -95.73900   -8.17480    8.12370
 1800.00000    -999.25  102.42350   21.01420   21.01420  134.93620  144.65920    6.91280  102.42350   70.25960   70.25960    6.91280    6.75200    6.31980  -91.66530   -3.87700    6.31980
 1850.00000    -999.25  104.24290   20.74390   20.74390  157.64900  161.42050    6.19500  104.24290   68.94360   68.94360    6.19500    4.21640    5.75710  -91.44620   -3.43370    5.75710
 1900.00000    -999.25  102.95410   20.47650   20.47650  147.90050  154.31620    6.48020  102.95410   64.22830   64.22830    6.48020    4.76410    5.90030  -93.05610   -4.81940    5.90030
 1950.00000    -999.25  125.49770   18.80330   18.80330  173.94080  179.88850    5.55900  125.49770   77.09880   77.09880    5.55900    6.62870    4.96360  -93.69050   -5.22960    4.96360
 2000.00000    -999.25  110.52300   12.56050   12.56050  102.40760  110.78860    9.02620  110.52300   67.75530   67.75530    9.02620    7.67530    7.40990  -93.26470   -4.57960    7.40990
 2050.00000    -999.25  102.88810    9.64490    9.64490   56.16440   51.00320   19.60660  102.88810   52.16520   52.16520   19.60660    4.90370   12.24110  -96.81270   -7.90340   12.24110
 2100.00000    -999.25  127.58760   12.00420   12.00420  114.68440  127.75800    7.82730  127.58760   58.64040   58.64040    7.82730   13.30780   11.78210  -92.93450   -4.80320   11.78210
 2150.00000    -999.25  117.07180   10.59810   10.59810  131.42130  148.48470    6.73470  117.07180   69.09260   69.09260    6.73470    7.98770    7.63620  -92.78840   -5.95140    7.63620
 2200.00000    -999.25  109.42680   10.75450   10.75450  138.47940  155.19270    6.44360  109.42680   66.36510   66.36510    6.44360    6.21510    7.61850  -89.00310   -3.46030    7.61850
 2250.00000    -999.25  114.48140   12.47970   12.47970  145.08050  165.48070    6.04300  114.48140   70.51250   70.51250    6.04300    4.94240    7.27500  -87.35550   -3.10690    7.27500
 2300.00000    -999.25  112.99240   14.59240   14.59240   90.06110   92.95580   10.75780  112.99240   77.58840   77.58840   10.75780    6.77980    9.86680  -88.08680   -4.49370    9.86680
 2350.00000    -999.25  130.64040   14.94880   14.94880  106.40550  110.29740    9.06640  130.64040   90.66930   90.66930    9.06640    7.48130    8.52550  -90.96790   -7.93470    8.52550
 2400.00000    -999.25   99.64880   17.43900   17.43900   83.60540   87.00270   11.49390   99.64880   87.50550   87.50550   11.49390    8.45210    9.63060  -87.67390   -5.20070    9.63060
 2450.00000    -999.25  124.24970   19.58130   19.58130   93.33970   99.90910   10.00910  124.24970   93.07920   93.07920   10.00910    9.53040    9.07930  -87.35680   -5.44350    9.07930
 2500.00000    -999.25  110.16170   19.49220   19.49220  112.52860  117.74540    8.49290  110.16170  104.52910  104.52910    8.49290    7.81060    8.05640  -86.99700   -6.54750    8.05640
 2550.00000    -999.25  108.28860   19.51080   19.51080  105.05730  106.92440    9.35240  108.28860  106.58490  106.58490    9.35240    8.32230    8.69260  -84.34980   -6.30490    8.69260
 2600.00000    -999.25  107.87200   19.47710   19.47710  102.36520  101.04890    9.89620  107.87200  109.55540  109.55540    9.89620    8.05900    9.13660  -80.69430   -5.05390    9.13660
 2650.00000    -999.25  107.41750   18.69790   18.69790   84.11510   86.08370   11.61660  107.41750  112.69060  112.69060   11.61660   10.04820   11.16540  -77.57660   -6.37500   11.16540
 2700.00000    -999.25  110.57680   18.43720   18.43720  106.28380  113.85500    8.78310  110.57680  114.59460  114.59460    8.78310    8.20560    9.32140  -74.96040   -8.32740    9.32140
 2750.00000    -999.25  105.35490   17.86170   17.86170  115.35880  125.71180    7.95470  105.35490  105.29570  105.29570    7.95470    9.41840    8.58260  -66.81860   -4.75420    8.58260
 2800.00000    -999.25   93.34220   18.37380   18.37380   68.16520   69.74420   14.33810   93.34220   92.27390   92.27390   14.33810    7.79580   11.76070  -63.17100   -5.67520   11.76070
 2850.00000    -999.25   95.95670   18.38730   18.38730   85.12980   87.73930   11.39740   95.95670  103.11130  103.11130   11.39740    7.97930   10.32110  -56.18670   -3.25950   10.32110
 2900.00000    -999.25   92.39540   18.08320   18.08320   78.83270   82.79110   12.07860   92.39540   98.54550   98.54550   12.07860    8.81610    9.95210  -54.56950   -2.69000    9.95210
 2950.00000    -999.25   96.77020   18.55240   18.55240   79.42080   83.00340   12.04770   96.77020   99.92730   99.92730   12.04770    9.07300   10.34530  -54.88330   -3.38080   10.34530
