~Version ---------------------------------------------------
VERS.      2.0 : CWLS log ASCII Standard -VERSION 2.0
WRAP.       NO : One line per depth step
CREA. 01/05/18 : LAS Creation Date
~Well ------------------------------------------------------
STRT.FT                            650.0 : START DEPTH
STOP.FT                           9200.0 : STOP DEPTH
STEP.FT                         50.00000 : STEP LENGTH
NULL.                            -999.25 : NULL VALUE
COMP.                 DENISON MINES LTD. : COMPANY
WELL. DENISON ET AL VIRG HILLS 4-7-65-12 : WELL
FLD .                                    : FIELD
LOC .                                    : LOCATION
CTRY.                             CANADA : COUNTRY
SRVC.                       Schlumberger : SERVICE COMPANY
DATE.                        14-Sep-1974 : LOGDATE
PROV.                            Alberta : PROVINCE
UWI .                   100040706512W500 : UNIQUE WELL ID
SLAT.WGS84                      54.60475 : SURFACE LATITUDE
SLON.WGS84                     -115.8121 : SURFACE LONGITUDE
~Curve Information -----------------------------------------
DEPT  .FT    : Depth Curve
CALSED.IN    : CALIPER FROM SONIC LOG [ADJ TO SPRED]
CALWS .IN    : CALIPER [CALSED]
CILDED.MMHO  : CONDUCTIVITY FROM RESISTIVITY LOG
CONDWS.MMHO  : CONDUCTIVITY [1000/DRESWS]
DRESWS.OHMM  : DEEP RESISTIVITY [ILDED]
DTED  .US/F  : DELTA TIME FROM SONIC LOG [ADJ TO SPRED]
DTWS  .US/F  : DELTA TIME [DTED]
GRSED .GAPI  : GAMMA RAY FROM SONIC LOG [ADJ TO SPRED]
GRWS  .GAPI  : GAMMA RAY [GRSED]
ILDED .OHMM  : INDUCTION LOG DEEP RESISTIVITY
ILMED .OHMM  : INDUCTION LOG MEDIUM RESISTIVITY
LL8ED .OHMM  : 8 INCH LATEROLOG RESISTIVITY
MRESWS.OHMM  : MEDIUM RESISTIVITY [ILMED]
SPRED .MV    : SPONTANEOUS POTENTIAL FROM RESISTIVITY LOG
SPWS  .MV    : SPONTANEOUS POTENTIAL [BASELINE 0 MV] [SPRED]
SRESWS.OHMM  : SHALLOW RESISTIVITY [LL8ED]
~Params ----------------------------------------------------
PD  .                     GL : PERMANENT DATUM
EPD .FT                 3432 : ELEVATION PERMANENT DATUM
LMF .                     KB : LOG MEASURED FROM
DAPD.FT                   14 : FEET ABOVE PERMANENT DATUM
EKB .FT                 3446 : KELLY BUSHING
EGL .FT                 3432 : GROUND LEVEL
DATE.               09/14/74 : RUN DATE
RUN .                      1 : RUN NUMBER
DD  .FT                 9235 : DEPTH DRILLER
DL  .FT                 9236 : DEPTH LOGGER
BLI .FT                 9230 : BOTTOM LOG INTERVAL
TLI .FT                  657 : TOP LOG INTERVAL
CBD .FT                  657 : CASING BOTTOM DRILLER
CBL .FT                  657 : CASING BOTTOM LOGGER
BS  .IN                7.875 : BIT SIZE
BSD .FT                 9235 : BIT SIZE AT DEPTH
DFT .               GEL CHEM : DRILLING FLUID TYPE
DFD .                    9.5 : DRILLING FLUID DENSITY
DFV .                     85 : DRILLING FLUID VISCOSITY
DFPH.                   10.4 : DRILLING FLUID PH
DFL .                    7.8 : DRILLING FLUID LOSS
MSS .               FLOWLINE : MUD SAMPLE SOURCE
RMS .OHMM                3.1 : RESISTIVITY MUD SAMPLE
MST .DEGF                 61 : MUD SAMPLE TEMPERATURE
RMF .OHMM               1.95 : RESISTIVITY MUD FILTRATE SAMPLE
MFST.DEGF                 69 : MUD FILTRATE SAMPLE TEMPERATURE
RMB .OHMM               0.75 : RESISTIVITY MUD AT BHT
TCS .HRS                 2.5 : TIME CIRCULATED STOPPED
LUN .                   7690 : LOGGING UNIT NUMBER
LUL .                    EDM : LOGGING UNIT LOCATION
ENGI.                SIMPSON : RECORDING ENGINEER
WITN.                BISSETT : WITNESSED BY
CLNT.                A2DTECH : CLIENT CODE
ORIG.            2" 5" PRINT : ORIGIN OF DATA
UWI .       100040706512W500 : UNIQUE WELL ID
DICO. A2D Technologies, Inc. : DIGITIZING COMPANY
~Other -----------------------------------------------------
IE-SONIC LOGS RUN
IE LOG DATA ALL CURVES TOP-8480' FROM 2" SCALE
SONIC LOG DATA ALL CURVES TOP-8490 FROM 2" SCALE
~ASCII -----------------------------------------------------
  650.00000    -999.25    -999.25    -999.25    -999.25    -999.25    -999.25    -999.25   59.73670   59.73670    -999.25    -999.25    -999.25    -999.25    -999.25    -999.25    -999.25
  700.00000   10.01510   10.01510  140.54500  136.96190    7.30130  139.93120  139.93120   61.17200   61.17200    7.30130    -999.25    8.01510    -999.25 -100.30500   -7.60230    8.01510
  750.00000   12.87530   12.87530  317.81230  300.96010    3.32270  167.90100  167.90100   61.97690   61.97690    3.32270    -999.25    2.71280    -999.25  -99.19580   -6.42690    2.71280
  800.00000    8.96000    8.96000  210.98310  199.08230    5.02630  129.90150  129.90150   71.41580   71.41580    5.02630    -999.25    3.59090    -999.25  -97.32500   -4.49020    3.59090
  850.00000    9.57790    9.57790  163.48500  159.50490    6.26940  115.14690  115.14690   67.86010   67.86010    6.26940    -999.25    4.60900    -999.25 -101.73530   -8.83400    4.60900
  900.00000    9.34620    9.34620  155.91440  151.09790    6.62620  110.78040  110.78040   76.17910   76.17910    6.62620    -999.25    4.99160    -999.25  -98.76050   -5.79330    4.99160
  950.00000   10.90630   10.90630  247.48380  247.56150    4.03940  122.40670  122.40670   79.29640   79.29640    4.03940    -999.25    3.29780    -999.25  -96.57010   -3.53640    3.29780
 1000.00000    8.05470    8.05470  112.33860  100.31100    9.96900  107.40500  107.40500   62.58870   62.58870    9.96900    -999.25    6.97710    -999.25 -106.13700  -13.03710    6.97710
 1050.00000   11.43890   11.43890  296.90930  284.92110    3.51170  133.88100  133.88100   71.12810   71.12810    3.51170    -999.25    2.97800    -999.25  -94.39200   -1.22630    2.97800
 1100.00000    8.53370    8.53370  199.07420  178.18320    5.61220  107.05680  107.05680   76.44560   76.44560    5.61220    -999.25    4.53420    -999.25 -101.73820   -8.50600    4.53420
 1150.00000    9.75780    9.75780  194.92650  185.47680    5.39710  119.54330  119.54330   80.90730   80.90730    5.39710    -999.25    4.23290    -999.25  -98.85210   -5.55400    4.23290
 1200.00000   10.98940   10.98940  208.45850  193.58460    5.16570  114.76040  114.76040   65.29630   65.29630    5.16570    -999.25    3.64570    -999.25  -94.67790   -1.31330    3.64570
 1250.00000    8.81880    8.81880  177.62850  184.07050    5.43270  106.06490  106.06490   64.76990   64.76990    5.43270    -999.25    4.44520    -999.25  -99.99730   -6.56650    4.44520
 1300.00000   11.48980   11.48980  325.83220  314.09560    3.18460  125.66140  125.66140   69.04170   69.04170    3.18460    -999.25    2.64240    -999.25  -95.18430   -1.74320    2.64240
 1350.00000   11.32870   11.32870  332.59960  291.09540    3.43530  128.86220  128.86220   68.07370   68.07370    3.43530    -999.25    2.52050    -999.25  -95.43070   -2.37040    2.52050
 1400.00000    8.48130    8.48130  113.68150  109.62090    9.12230  111.39920  111.39920   44.41260   44.41260    9.12230    -999.25    7.83930    -999.25 -109.02780  -16.34440    7.83930
 1450.00000    8.60570    8.60570  104.50780  100.38650    9.96150  101.84110  101.84110   59.78630   59.78630    9.96150    -999.25    8.15840    -999.25 -111.29670  -18.99410    8.15840
 1500.00000   13.16970   13.16970  345.69560  320.74930    3.11770  126.81520  126.81520   79.66150   79.66150    3.11770    -999.25    2.59630    -999.25  -95.26650   -3.34270    2.59630
 1550.00000    9.20530    9.20530  229.67980  216.07330    4.63460  113.16850  113.16850   69.51700   69.51700    4.63460    -999.25    3.99470    -999.25  -94.20250   -2.65560    3.99470
 1600.00000   10.12560   10.12560  397.33740  382.90700    2.61160  143.04420  143.04420   72.49890   72.49890    2.61160    -999.25    2.57060    -999.25  -94.34620   -3.18010    2.57060
 1650.00000   14.02180   14.02180  207.24520  214.05050    4.68350  169.08820  169.08820   64.94990   64.94990    4.68350    -999.25    3.83740    -999.25  -94.07210   -3.28280    3.83740
 1700.00000    9.75450    9.75450  297.08570  285.95940    3.49700  111.59950  111.59950   79.97150   79.97150    3.49700    -999.25    3.30720    -999.25  -92.75930   -2.35080    3.30720
 1750.00000    8.90580    8.90580  173.10530  167.12630    5.98350  104.87950  104.87950   82.93940   82.93940    5.98350    -999.25    4.95840    -999.25  -93.35430   -3.23960    4.95840
 1800.00000    9.54110    9.54110  203.70650  202.06330    4.95190  104.10150  104.10150   68.59200   68.59200    4.95190    -999.25    3.80090    -999.25  -92.07500   -2.04530    3.80090
 1850.00000    7.20720    7.20720  200.96840  188.81460    5.29620  104.00740  104.00740   57.61780   57.61780    5.29620    -999.25    4.53560    -999.25  -99.86620   -9.92240    4.53560
 1900.00000    9.23180    9.23180  313.94290  292.03280    3.42450  114.25430  114.25430   61.20570   61.20570    3.42450    -999.25    2.63240    -999.25  -92.48250   -2.62380    2.63240
 1950.00000    7.99510    7.99510  146.53030  141.58690    7.06280  102.68150  102.68150   57.06670   57.06670    7.06280    -999.25    6.04300    -999.25 -111.82640  -22.05360    6.04300
 2000.00000    7.75010    7.75010  211.71270  193.60330    5.16520  106.69330  106.69330   67.21260   67.21260    5.16520    -999.25    3.56670    -999.25  -99.06280   -9.37540    3.56670
 2050.00000    9.28970    9.28970  360.55960  341.68750    2.92690  118.90120  118.90120   56.09950   56.09950    2.92690    -999.25    2.39590    -999.25  -93.48180   -3.87950    2.39590
 2100.00000    9.76050    9.76050  257.54360  255.87230    3.90820  116.33250  116.33250   70.99900   70.99900    3.90820    -999.25    3.19280    -999.25  -92.27600   -2.75960    3.19280
 2150.00000    9.18060    9.18060  266.97490  259.72950    3.85060  116.42130  116.42130   65.08910   65.08910    3.85060    -999.25    3.11020    -999.25  -92.00350   -2.57210    3.11020
 2200.00000    9.65120    9.65120  300.76540  292.55160    3.41820  119.79970  119.79970   65.03300   65.03300    3.41820    -999.25    2.59250    -999.25  -92.56760   -3.22210    2.59250
 2250.00000    9.42130    9.42130  183.03660  167.09550    5.98460  125.57840  125.57840   53.87760   53.87760    5.98460    -999.25    3.92750    -999.25 -104.97580  -15.71580    3.92750
 2300.00000   13.67420   13.67420  345.28580  304.44850    3.28470  144.12500  144.12500   57.00280   57.00280    3.28470    -999.25    2.93700    -999.25  -89.66420   -0.48920    2.93700
 2350.00000    8.65120    8.65120  272.01090  243.58760    4.10530  111.77070  111.77070   56.63650   56.63650    4.10530    -999.25    3.45860    -999.25  -93.96370   -4.87470    3.45860
 2400.00000   11.90310   11.90310  391.15460  399.41580    2.50610  140.98040  140.98040   50.25720   50.25720    2.50610    -999.25    5.80680    -999.25  -93.22670   -4.22270    5.80680
 2450.00000    8.57630    8.57630  259.46740  255.01100    3.92140  103.80460  103.80460   65.54950   65.54950    3.92140    -999.25    4.06130    -999.25  -91.00680   -2.08870    4.06130
 2500.00000    8.35670    8.35670  275.31040  266.64530    3.75030  107.24920  107.24920   63.41460   63.41460    3.75030    -999.25    3.19390    -999.25  -91.51120   -2.67860    3.19390
 2550.00000   11.94830   11.94830  332.22470  316.37730    3.16090  137.42120  137.42120   52.83340   52.83340    3.16090    -999.25    3.43870    -999.25  -90.01640   -1.26880    3.43870
 2600.00000    8.89170    8.89170  263.03990  258.46470    3.86900  108.43880  108.43880   56.60130   56.60130    3.86900    -999.25    2.96550    -999.25  -90.97360   -2.31190    2.96550
 2650.00000    8.89130    8.89130  257.66840  249.53630    4.00750  106.68910  106.68910   56.90500   56.90500    4.00750    -999.25    3.32810    -999.25  -92.18820   -3.61160    3.32810
 2700.00000   14.49330   14.49330  293.58490  284.98150    3.50900  130.22970  130.22970   52.77190   52.77190    3.50900    -999.25    2.96680    -999.25  -89.50220   -1.01150    2.96680
 2750.00000    8.20300    8.20300  180.82150  188.46940    5.30590  104.94580  104.94580   52.58700   52.58700    5.30590    -999.25    6.17840    -999.25 -111.80860  -23.34350    6.17840
