~Version ---------------------------------------------------
VERS.      2.0 : CWLS log ASCII Standard -VERSION 2.0
WRAP.       NO : One line per depth step
CREA. 12/14/17 : LAS Creation Date
~Well ------------------------------------------------------
STRT.FT                      600.0 : START DEPTH
STOP.FT                     5700.0 : STOP DEPTH
STEP.FT                   50.00000 : STEP LENGTH
NULL.                      -999.25 : NULL VALUE
COMP.              SUN OIL COMPANY : COMPANY
WELL. SUN ET AL STROME 10-18-43-16 : WELL
FLD .                              : FIELD
LOC .                              : LOCATION
CTRY.                       CANADA : COUNTRY
SRVC.                 Schlumberger : SERVICE COMPANY
DATE.                  12-Jul-1972 : LOGDATE
PROV.                      Alberta : PROVINCE
UWI .             100101804316W400 : UNIQUE WELL ID
SLAT.WGS84                52.70708 : SURFACE LATITUDE
SLON.WGS84               -112.3082 : SURFACE LONGITUDE
~Curve Information -----------------------------------------
DEPT  .FT    : Depth Curve
CALSED.IN    : CALIPER FROM SONIC LOG
CALWS .IN    : CALIPER [CALSED]
CILDED.MMHO  : CONDUCTIVITY FROM RESISTIVITY LOG
CONDWS.MMHO  : CONDUCTIVITY [1000/DRESWS]
DRESWS.OHMM  : DEEP RESISTIVITY [ILDED] FROM START TO 2695' IF ILDED<2;1000/CILDED;ELSE ILDED
DTED  .US/F  : DELTA TIME FROM SONIC LOG
DTWS  .US/F  : DELTA TIME [DTED]
GRSED .GAPI  : GAMMA RAY FROM SONIC LOG
GRWS  .GAPI  : GAMMA RAY [GRSED]
ILDED .OHMM  : INDUCTION LOG DEEP RESISTIVITY
ILMED .OHMM  : INDUCTION LOG MEDIUM RESISTIVITY
LL8ED .OHMM  : 8 INCH LATEROLOG RESISTIVITY
MRESWS.OHMM  : MEDIUM RESISTIVITY [ILMED]
SPRED .MV    : SPONTANEOUS POTENTIAL FROM RESISTIVITY LOG
SPWS  .MV    : SPONTANEOUS POTENTIAL [BASELINE 0 MV] [SPRED]
SRESWS.OHMM  : SHALLOW RESISTIVITY [LL8ED]
~Params ----------------------------------------------------
PD  .                     GL : PERMANENT DATUM
EPD .FT                 2349 : ELEVATION PERMANENT DATUM
LMF .                     KB : LOG MEASURED FROM
DAPD.FT                   13 : FEET ABOVE PERMANENT DATUM
EKB .FT                 2362 : KELLY BUSHING
EGL .FT                 2349 : GROUND LEVEL
DATE.               07/12/72 : RUN DATE
RUN .                      1 : RUN NUMBER
DD  .FT                 5745 : DEPTH DRILLER
DL  .FT                 5739 : DEPTH LOGGER
BLI .FT                 5733 : BOTTOM LOG INTERVAL
TLI .FT                  650 : TOP LOG INTERVAL
CBD .FT                  649 : CASING BOTTOM DRILLER
CBL .FT                  650 : CASING BOTTOM LOGGER
BS  .IN                7.875 : BIT SIZE
BSD .FT                 5745 : BIT SIZE AT DEPTH
DFT .               CHEM GEL : DRILLING FLUID TYPE
DFD .                    9.2 : DRILLING FLUID DENSITY
DFV .                     70 : DRILLING FLUID VISCOSITY
DFPH.                   10.5 : DRILLING FLUID PH
DFL .                   10.6 : DRILLING FLUID LOSS
MSS .               FLOWLINE : MUD SAMPLE SOURCE
RMS .OHMM              0.531 : RESISTIVITY MUD SAMPLE
MST .DEGF                 82 : MUD SAMPLE TEMPERATURE
RMF .OHMM               0.34 : RESISTIVITY MUD FILTRATE SAMPLE
MFST.DEGF                 83 : MUD FILTRATE SAMPLE TEMPERATURE
RMB .OHMM               0.25 : RESISTIVITY MUD AT BHT
TCS .HRS                 2.5 : TIME CIRCULATED STOPPED
LUN .                   7640 : LOGGING UNIT NUMBER
LUL .                     RD : LOGGING UNIT LOCATION
ENGI.    SLUSARCHUK WILLIGAR : RECORDING ENGINEER
WITN.                PATMORE : WITNESSED BY
CLNT.                A2DTECH : CLIENT CODE
ORIG.            2" 5" PRINT : ORIGIN OF DATA
UWI .       100101804316W400 : UNIQUE WELL ID
DICO. A2D Technologies, Inc. : DIGITIZING COMPANY
~Other -----------------------------------------------------
DIL-SON LOG RUN
ALL CURVES FROM DIL LOG AT START TO 2695' AVAILABLE FROM 2" SCALES.
~ASCII -----------------------------------------------------
# ...
 2750.00000    8.28180    8.28180    -999.25  235.73230    4.24210  104.81130  104.81130   47.82630   47.82630    4.24210    4.56620    6.04870    4.56620  -66.81800  -23.43900    6.04870
 2800.00000   11.42480   11.42480    -999.25  325.22440    3.07480  109.72800  109.72800   24.24060   24.24060    3.07480    3.17660    3.73040    3.17660  -57.51110  -13.92220    3.73040
 2850.00000   12.24610   12.24610    -999.25  539.95680    1.85200  112.32060  112.32060   23.26390   23.26390    1.85200    1.91280    2.33480    1.91280  -52.12410   -8.32530    2.33480
 2900.00000   10.98230   10.98230    -999.25  373.53850    2.67710  104.58160  104.58160   23.41040   23.41040    2.67710    2.76520    3.06860    2.76520  -52.46920   -8.46050    3.06860
 2950.00000    8.87670    8.87670    -999.25  218.78910    4.57570   90.61050   90.61050   24.23940   24.23940    4.57570    4.87410    6.08810    4.87410  -58.80840  -14.58860    6.08810
 3000.00000   14.25800   14.25800    -999.25  666.62220    1.50010  109.54120  109.54120   20.03200   20.03200    1.50010    1.57760    1.75920    1.57760  -49.98700   -5.55840    1.75920
 3050.00000   13.93450   13.93450    -999.25  540.92060    1.84870  109.92590  109.92590   19.34730   19.34730    1.84870    1.68500    1.99880    1.68500  -52.16630   -7.52780    1.99880
 3100.00000   10.09900   10.09900    -999.25  276.90860    3.61130   84.14990   84.14990   12.82780   12.82780    3.61130    3.74810    3.58760    3.74810  -70.54650  -25.69810    3.58760
 3150.00000   10.58470   10.58470    -999.25  321.48140    3.11060   88.71120   88.71120   14.85330   14.85330    3.11060    3.21120    3.38160    3.21120  -67.63950  -22.58110    3.38160
 3200.00000   11.64050   11.64050    -999.25  238.30930    4.19670   94.88790   94.88790   24.95100   24.95100    4.19670    4.80610    5.22690    4.80610  -63.40330  -18.13390    5.22690
 3250.00000   10.11310   10.11310    -999.25  218.45990    4.57750   85.76180   85.76180   21.18410   21.18410    4.57750    4.81830    6.17290    4.81830  -71.72970  -26.25150    6.17290
 3300.00000   10.63730   10.63730    -999.25  191.93120    5.21020   72.61580   72.61580   13.03070   13.03070    5.21020    5.84470    8.50630    5.84470  -89.23840  -43.55030    8.50630
 3350.00000   10.42040   10.42040    -999.25  209.05630    4.78340   98.37810   98.37810   17.75660   17.75660    4.78340    5.32940    8.03320    5.32940  -81.50230  -35.60420    8.03320
 3400.00000    7.63020    7.63020    -999.25  554.04730    1.80490   90.31020   90.31020    6.56680    6.56680    1.80490    3.21920    5.69130    3.21920 -119.06400  -72.95600    5.69130
 3450.00000   11.16070   11.16070    -999.25  179.11920    5.58320   81.24370   81.24370   25.12560   25.12560    5.58320    5.97590    7.39570    5.97590  -75.02490  -28.70590    7.39570
 3500.00000    7.75850    7.75850    -999.25  222.50900    4.49420   82.27120   82.27120   15.09480   15.09480    4.49420    7.31130   11.06450    7.31130 -110.77650  -64.24870   11.06450
 3550.00000    7.67470    7.67470    -999.25  583.56680    1.71360   84.33820   84.33820    8.97370    8.97370    1.71360    2.79760    5.22940    2.79760 -124.76240  -78.02460    5.22940
 3600.00000    7.78500    7.78500    -999.25  750.86350    1.33180   85.84600   85.84600    4.15780    4.15780    1.33180    1.85990    3.90360    1.85990 -121.30360  -74.35590    3.90360
 3650.00000    9.31500    9.31500    -999.25  482.55560    2.07230   66.79830   66.79830    3.79690    3.79690    2.07230    3.39050    6.49710    3.39050 -120.81140  -73.65380    6.49710
 3700.00000   10.24950   10.24950    -999.25   73.54480   13.59980   59.32230   59.32230    6.58770    6.58770   13.59980   18.00880   46.86220   18.00880 -120.05680  -72.68830   46.86220
 3750.00000    9.77970    9.77970    -999.25    2.22540  449.35750   49.19770   49.19770    2.52270    2.52270  449.35750 1508.01950 1218.17740 1508.01950 -101.17070  -53.59320 1218.17740
 3800.00000    9.40630    9.40630    -999.25   93.19400   10.73030   61.44830   61.44830   14.24070   14.24070   10.73030   12.75150   13.70970   12.75150  -88.92610  -41.13870   13.70970
 3850.00000    8.88490    8.88490    -999.25    6.28650  159.07210   53.20340   53.20340   14.14470   14.14470  159.07210  190.34480  356.08410  190.34480 -107.66120  -59.66390  356.08410
 3900.00000    9.32050    9.32050    -999.25    2.61850  381.90360   49.15960   49.15960    2.73890    2.73890  381.90360  266.06200 1098.74440  266.06200 -107.31980  -59.11260 1098.74440
 3950.00000    9.06470    9.06470    -999.25   61.12480   16.37070   54.36420   54.36420    5.17400    5.17400   16.37070   23.81630   46.34100   23.81630 -114.34980  -65.93150   46.34100
 4000.00000    7.72420    7.72420    -999.25   30.97960   32.27930   53.73290   53.73290    3.66190    3.66190   32.27930   73.76540  135.64000   73.76540 -123.59250  -74.96540  135.64000
 4050.00000   11.00850   11.00850    -999.25  112.86680    8.86000   66.98300   66.98300   16.18050   16.18050    8.86000    9.53660    9.87740    9.53660  -70.50110  -21.66410    9.87740
 4100.00000   10.12280   10.12280    -999.25  106.44750    9.39430   64.04360   64.04360   13.82860   13.82860    9.39430   10.64270   14.66220   10.64270  -72.93940  -23.89250   14.66220
 4150.00000   11.48270   11.48270    -999.25  195.66410    5.11080   78.44620   78.44620   24.65680   24.65680    5.11080    5.58150    7.29410    5.58150  -65.58040  -16.32350    7.29410
 4200.00000   10.62210   10.62210    -999.25  180.49610    5.54040   74.27700   74.27700   24.34670   24.34670    5.54040    5.74890    6.74180    5.74890  -71.69070  -22.22280    6.74180
 4250.00000   11.21410   11.21410    -999.25  214.33010    4.66570   83.49720   83.49720   29.88830   29.88830    4.66570    4.82380    5.69080    4.82380  -69.38520  -19.70850    5.69080
 4300.00000   11.05850   11.05850    -999.25  246.29940    4.06010   86.45240   86.45240   30.18540   30.18540    4.06010    4.19800    5.26790    4.19800  -68.10290  -18.21630    5.26790
 4350.00000   10.87950   10.87950    -999.25  196.28240    5.09470   81.75960   81.75960   25.15920   25.15920    5.09470    5.26840    6.54140    5.26840  -66.44760  -16.35100    6.54140
 4400.00000   11.22040   11.22040    -999.25  195.68320    5.11030   82.36090   82.36090   26.65950   26.65950    5.11030    5.30390    6.65380    5.30390  -64.97800  -14.67150    6.65380
 4450.00000    8.70900    8.70900    -999.25   44.67330   22.90880   54.76160   54.76160    6.90350    6.90350   22.90880   27.07120   50.46110   27.07120  -71.43100  -20.91350   50.46110
 4500.00000   11.03840   11.03840    -999.25  135.82340    7.36250   75.58420   75.58420   19.67040   19.67040    7.36250    7.61270    9.43650    7.61270  -59.05860   -8.33230    9.43650
 4550.00000    8.81680    8.81680    -999.25   34.74420   28.78180   79.71030   79.71030   36.91680   36.91680   28.78180   30.41940   47.54330   30.41940  -64.47330  -13.53700   47.54330
 4600.00000    8.96880    8.96880    -999.25   33.06500   30.24350   59.74110   59.74110   10.51330   10.51330   30.24350   31.70910   40.53070   31.70910  -68.38770  -17.24150   40.53070
 4650.00000    8.98870    8.98870    -999.25   29.69760   33.67280   59.49390   59.49390    9.53250    9.53250   33.67280   41.80890   63.14700   41.80890  -65.78820  -14.43210   63.14700
 4700.00000   10.05250   10.05250    -999.25   79.73140   12.54220   65.69560   65.69560   12.79270   12.79270   12.54220   12.96960   15.49500   12.96960  -56.85440   -5.28740   15.49500
 4750.00000    9.26610    9.26610    -999.25   59.19540   16.89320   54.03030   54.03030    3.00480    3.00480   16.89320   17.46480   48.36350   17.46480  -92.78750  -41.01150   48.36350
 4800.00000    8.97970    8.97970    -999.25   22.63970   44.17020   51.49520   51.49520    3.25790    3.25790   44.17020   51.38370   56.54340   51.38370 -108.98590  -57.00000   56.54340
 4850.00000    8.13690    8.13690    -999.25  137.22500    7.28730   58.92660   58.92660    2.78940    2.78940    7.28730   11.15520   32.48320   11.15520 -115.89270  -63.69690   32.48320
