~Version ---------------------------------------------------
VERS.      2.0 : CWLS log ASCII Standard -VERSION 2.0
WRAP.       NO : One line per depth step
CREA. 11/22/17 : LAS Creation Date
~Well ------------------------------------------------------
STRT.FT                       1500.0 : START DEPTH
STOP.FT                      10400.0 : STOP DEPTH
STEP.FT                     50.00000 : STEP LENGTH
NULL.                        -999.25 : NULL VALUE
COMP.   MERLAND EXPLORATIONS LIMITED : COMPANY
WELL. MERLAND ET AL GIROUXLUX 10-11- : WELL
FLD .                                : FIELD
LOC .                                : LOCATION
CTRY.                         CANADA : COUNTRY
SRVC.                        Unknown : SERVICE COMPANY
DATE.                    26-Feb-1978 : LOGDATE
PROV.                        Alberta : PROVINCE
UWI .               100101106622W500 : UNIQUE WELL ID
SLAT.WGS84                  54.70081 : SURFACE LATITUDE
SLON.WGS84                 -117.2093 : SURFACE LONGITUDE
~Curve Information -----------------------------------------
DEPT    .FT    : Depth Curve
CALDED  .IN    : CALIPER FROM DENSITY LOG [ADJ. TO RESISTIVITY LOG]
CALSED  .IN    : CALIPER FROM SONIC LOG [ADJ. TO RESISTIVITY LOG]
CALWS   .IN    : CALIPER [CALDED SPL. TO CALSED @ 8272']
CONDWS  .MMHO  : CONDUCTIVITY [1000/DRESWS]
DCORED  .G/C3  : DENSITY CORRECTION FROM DENSITY LOG [ADJ. TO RESISTIVITY LOG]SMALL SCALE
DCORWS  .G/C3  : DENSITY CORRECTION [DCORED]
DENWS   .G/C3  : FORMATION BULK DENSITY [CALC FROM DPOLSWS, M=2.71, F=1.0]
DPHILSED.V/V   : DENSITY POROSITY LIMESTONE [M=2.71,F=1.0] FROM DENSITY LOG [ADJ. TO RESISTIVITY LOG]
DPHISSED.V/V   : DENSITY POROSITY SANDSTONE [M=2.65,F=1.0] FROM DENSITY LOG [ADJ. TO RESISTIVITY LOG]
DPOLSWS .V/V   : DENSITY POROSITY LIMESTONE [DPHISSED CONVERTED TO LIMESTONE MATRIX, M=2.71, F=1.00 SPL.TO DPHILSED @ 5906']
DRESWS  .OHMM  : DEEP RESISTIVITY [ILDED]
DTED    .US/F  : DELTA-T FROM SONIC LOG [ADJ. TO RESISTIVITY LOG]
DTWS    .US/F  : COMPRESSIONAL SONIC [DTED]
GRDED   .GAPI  : GAMMA RAY FROM DENSITY LOG [ADJ. TO RESISTIVITY LOG]
GRSED   .GAPI  : GAMMA RAY FROM SONIC LOG [ADJ. TO RESISTIVITY LOG]
GRWS    .GAPI  : GAMMA RAY [GRDED SPL. TO GRSED @ 8262.5']
ILDED   .OHMM  : DEEP INDUCTION RESISTIVITY FROM RESISTIVITY LOG
ILMED   .OHMM  : MEDIUM INDUCTION RESISTIVITY FROM RESISTIVITY LOG
LL8ED   .OHMM  : LATEROLOG 8 FROM RESISTIVITY LOG
MRESWS  .OHMM  : MEDIUM RESISTIVITY [ILMED]
NPHILSED.V/V   : NEUTRON POROSITY LIMESTONE FROM DENSITY LOG [ADJ. TO RESISTIVITY LOG]
NPHISSED.V/V   : NEUTRON POROSITY SANDSTONE FROM DENSITY LOG [ADJ. TO RESISTIVITY LOG]
NPOLSWS .V/V   : NEUTRON POROSITY LIMESTONE [NPHISSED MATRIX (SLB) CONVERSION FOR LIMESTONE, SPL.TO NPHILSED @ 5914']
RHOBED  .G/C3  : BULK DENSITY FROM DENSITY LOG [ADJ. TO RESISTIVITY LOG] SMALL SCALE
SPRED   .MV    : SPONTANEOUS POTENTIAL FROM RESISTIVITY LOG
SPWS    .MV    : SPONTANEOUS POTENTIAL [BASELINE 0 MV, SPRED]
SRESWS  .OHMM  : SHALLOW RESISTIVITY [LL8ED]
~Params ----------------------------------------------------
PD  .                     GL : PERMANENT DATUM
EPD .FT                 2391 : ELEVATION PERMANENT DATUM
LMF .                     KB : LOG MEASURED FROM
DAPD.FT                   16 : FEET ABOVE PERMANENT DATUM
DMF .                     KB : DRILLING MEASURED FROM
EKB .FT                 2407 : KELLY BUSHING
EGL .FT                 2391 : GROUND LEVEL
DATE.               02/26/78 : RUN DATE
RUN .                      2 : RUN NUMBER
DD  .FT                10409 : DEPTH DRILLER
DL  .FT                10410 : DEPTH LOGGER
BLI .FT                10404 : BOTTOM LOG INTERVAL
TLI .FT                 8200 : TOP LOG INTERVAL
CBD .FT                 1515 : CASING BOTTOM DRILLER
CBL .FT                 1514 : CASING BOTTOM LOGGER
BS  .IN                 8.75 : BIT SIZE
BSD .FT                10409 : BIT SIZE AT DEPTH
DFT .               GEL CHEM : DRILLING FLUID TYPE
DFD .                    9.3 : DRILLING FLUID DENSITY
DFV .                     75 : DRILLING FLUID VISCOSITY
DFPH.                    9.5 : DRILLING FLUID PH
DFL .                    9.2 : DRILLING FLUID LOSS
MSS .               FLOWLINE : MUD SAMPLE SOURCE
RMS .OHMM               2.47 : RESISTIVITY MUD SAMPLE
MST .DEGF                 51 : MUD SAMPLE TEMPERATURE
RMF .OHMM               3.21 : RESISTIVITY MUD FILTRATE SAMPLE
MFST.DEGF                 60 : MUD FILTRATE SAMPLE TEMPERATURE
RMB .OHMM               1.02 : RESISTIVITY MUD AT BHT
TCS .HRS                 3.5 : TIME CIRCULATED STOPPED
LUN .                   7730 : LOGGING UNIT NUMBER
LUL .                    EDM : LOGGING UNIT LOCATION
ENGI.               ACKERMAN : RECORDING ENGINEER
WITN.                  GAWNE : WITNESSED BY
CLNT.                A2DTECH : CLIENT CODE
ORIG.            2" 5" PRINT : ORIGIN OF DATA
UWI .       100101106622W500 : UNIQUE WELL ID
DICO. A2D Technologies, Inc. : DIGITIZING COMPANY
~Other -----------------------------------------------------
~ASCII -----------------------------------------------------
# ...
 6700.00000   10.29290   10.92730   10.29290   36.35980    0.01880    0.01880    2.56820    0.08290    -999.25    0.08290   27.56390   58.10040   58.10040   60.44140   63.47460   60.44140   27.56390   28.68060   37.07690   28.68060    0.05690    -999.25    0.05690    2.58020   67.16630  -12.62920   37.07690
 6750.00000   10.61140   10.06070   10.61140  368.36480    0.12050    0.12050    2.54870    0.09430    -999.25    0.09430    2.71470   54.39490   54.39490   24.53880   25.27110   24.53880    2.71470    4.39910   48.08370    4.39910    0.14730    -999.25    0.14730    2.56870  -29.40310 -109.70940   48.08370
 6800.00000    9.97030   10.50270    9.97030  310.86790    0.01470    0.01470    2.64810    0.03620    -999.25    0.03620    3.21680   64.47350   64.47350   56.76300   62.48190   56.76300    3.21680    3.45200    8.31680    3.45200    0.19450    -999.25    0.19450    2.64220   16.38410  -64.43560    8.31680
 6850.00000    9.85480   10.42310    9.85480  158.05750   -0.00600   -0.00600    2.62220    0.05140    -999.25    0.05140    6.34840   58.25780   58.25780   37.36960   42.08360   37.36960    6.34840    7.19300   19.65340    7.19300    0.11970    -999.25    0.11970    2.61420   23.64960  -57.68600   19.65340
 6900.00000   10.26580   10.71360   10.26580   49.95200   -0.00920   -0.00920    2.68010    0.01750    -999.25    0.01750   20.01920   60.22300   60.22300   79.46820   90.21900   79.46820   20.01920   24.09080   28.03810   24.09080    0.07810    -999.25    0.07810    2.67470   64.40500  -17.44150   28.03810
 6950.00000    9.40300    9.99540    9.40300   19.02960    0.01150    0.01150    2.71090   -0.00060    -999.25   -0.00060   52.58190   49.54780   49.54780   15.85940   16.35920   15.85940   52.58190   56.20810  125.61590   56.20810    0.01730    -999.25    0.01730    2.70210  -33.83110 -116.19350  125.61590
 7000.00000    9.94470   10.55400    9.94470   18.06880    0.01250    0.01250    2.72420   -0.00830    -999.25   -0.00830   55.34390   49.52340   49.52340   12.30380   19.97680   12.30380   55.34390   64.70660  146.96650   64.70660    0.01040    -999.25    0.01040    2.71600  -23.60770 -106.48090  146.96650
 7050.00000    9.93470   10.57620    9.93470   18.74440    0.00470    0.00470    2.69530    0.00860    -999.25    0.00860   53.34940   49.93930   49.93930   16.77030   16.21070   16.77030   53.34940   62.44010  180.47680   62.44010    0.01080    -999.25    0.01080    2.68810  -22.79850 -106.18510  180.47680
 7100.00000    8.99550    9.82310    8.99550   69.69610    0.01720    0.01720    2.67750    0.01900    -999.25    0.01900   14.35320   53.69510   53.69510   64.12740   63.37740   64.12740   14.35320   20.29240  164.21830   20.29240    0.03020    -999.25    0.03020    2.65980   61.03590  -22.86670  164.21830
 7150.00000    9.93930   10.46050    9.93930  269.66530    0.03770    0.03770    2.62300    0.05090    -999.25    0.05090    3.70830   65.12640   65.12640   80.76640   79.08060   80.76640    3.70830    5.10420    8.54940    5.10420    0.17640    -999.25    0.17640    2.62720   31.47630  -52.93710    8.54940
 7200.00000   10.11150   10.83730   10.11150  205.82970    0.00380    0.00380    2.64860    0.03590    -999.25    0.03590    4.86140   68.97750   68.97750   89.80620   83.17630   89.80620    4.86140    5.20160    7.26540    5.20160    0.21040    -999.25    0.21040    2.64250   68.19470  -16.73460    7.26540
 7250.00000    9.79450   10.51880    9.79450   54.44870    0.02160    0.02160    2.71360   -0.00210    -999.25   -0.00210   18.36590   52.41890   52.41890   45.20710   48.55050   45.20710   18.36590   23.74290  106.31080   23.74290    0.03900    -999.25    0.03900    2.68330   76.88160   -8.55850  106.31080
 7300.00000   10.01110   10.59600   10.01110   40.89280    0.01630    0.01630    2.70590    0.00240    -999.25    0.00240   24.45420   55.94740   55.94740   38.78480   49.90740   38.78480   24.45420   26.92920   51.82900   26.92920    0.06520    -999.25    0.06520    2.70990   69.66320  -16.29030   51.82900
 7350.00000    9.00030    9.95530    9.00030   26.02390   -0.00060   -0.00060    2.68100    0.01690    -999.25    0.01690   38.46900   54.19730   54.19730   28.68370   28.60370   28.68370   38.46900   41.73770   64.57100   41.73770    0.03100    -999.25    0.03100    2.67710   39.22890  -47.24060   64.57100
 7400.00000    8.75210    9.65540    8.75210   22.82690    0.00270    0.00270    2.68260    0.01600    -999.25    0.01600   43.80790   54.78300   54.78300   44.00770   47.82440   44.00770   43.80790   49.55100   79.15830   49.55100    0.03720    -999.25    0.03720    2.67770   73.73660  -13.24370   79.15830
 7450.00000    8.79290    9.72160    8.79290    7.96450    0.00710    0.00710    2.68510    0.01460    -999.25    0.01460  125.61650   51.27080   51.27080   26.56470   28.80360   26.56470  125.61650  134.27710  229.14430  134.27710    0.01420    -999.25    0.01420    2.67840   38.64760  -48.84870  229.14430
 7500.00000    8.77390    9.73410    8.77390    8.89200    0.01480    0.01480    2.73980   -0.01740    -999.25   -0.01740  112.46110   52.01280   52.01280   34.27270   39.30360   34.27270  112.46110  120.36460  165.73420  120.36460    0.01910    -999.25    0.01910    2.74340   57.32590  -30.68110  165.73420
 7550.00000    8.76500    9.75350    8.76500    9.88120   -0.00140   -0.00140    2.68090    0.01700    -999.25    0.01700  101.20250   52.74990   52.74990   42.19100   37.65780   42.19100  101.20250  111.95280  164.79480  111.95280    0.02400    -999.25    0.02400    2.68310   64.78360  -23.73680  164.79480
 7600.00000    8.76870    9.55940    8.76870   15.02640    0.01130    0.01130    2.66730    0.02490    -999.25    0.02490   66.55050   54.80360   54.80360   48.57980   54.59040   48.57980   66.55050   78.79730   90.16890   78.79730    0.03950    -999.25    0.03950    2.68590   74.52300  -14.51330   90.16890
 7650.00000    8.72960    9.58270    8.72960   20.35040   -0.00410   -0.00410    2.66450    0.02660    -999.25    0.02660   49.13920   54.97720   54.97720   51.78290   56.18800   51.78290   49.13920   56.10700   67.63200   56.10700    0.05070    -999.25    0.05070    2.65930   82.72250   -6.82470   67.63200
 7700.00000    8.76050    9.56510    8.76050   16.29050   -0.00590   -0.00590    2.66270    0.02760    -999.25    0.02760   61.39060   55.04720   55.04720   49.71910   56.93800   49.71910   61.39060   67.80820   81.87220   67.80820    0.04670    -999.25    0.04670    2.66000   83.80210   -6.26110   81.87220
 7750.00000    9.03560    9.95680    9.03560   50.02250    0.01970    0.01970    2.67070    0.02300    -999.25    0.02300   19.99100   57.55630   57.55630   91.95790  102.19080   91.95790   19.99100   22.88730   26.86200   22.88730    0.08170    -999.25    0.08170    2.67230   86.70660   -3.86740   26.86200
 7800.00000   10.13390    9.70190   10.13390    0.60720    0.21120    0.21120    2.62690    0.04860    -999.25    0.04860 1646.93420   47.64200   47.64200   17.62650   20.23410   17.62650 1646.93420 1452.93430 1372.38350 1452.93430    0.00220    -999.25    0.00220    2.63440  -33.99350 -123.79570 1372.38350
 7850.00000    8.82440    9.63550    8.82440    2.31720   -0.00340   -0.00340    2.70030    0.00570    -999.25    0.00570  432.41360   48.60390   48.60390   12.64390   19.53890   12.64390  432.41360  319.83710  392.68860  319.83710    0.00720    -999.25    0.00720    2.69440   -7.64890  -96.24480  392.68860
 7900.00000    9.37000    9.66690    9.37000    3.08810    0.13600    0.13600    2.69080    0.01120    -999.25    0.01120  323.82320   48.44850   48.44850   17.60530   20.50240   17.60530  323.82320  276.68640  363.74180  276.68640    0.00820    -999.25    0.00820    2.67960   -0.04270  -87.44450  363.74180
 7950.00000    9.33130    9.83820    9.33130    3.31840    0.05120    0.05120    2.66380    0.02700    -999.25    0.02700  301.57830   48.89300   48.89300   11.35100   12.44030   11.35100  301.57830  205.32380  280.34110  205.32380   -0.00050    -999.25   -0.00050    2.66060  -17.90860 -104.10420  280.34110
