~Version ---------------------------------------------------
VERS.      2.0 : CWLS log ASCII Standard -VERSION 2.0
WRAP.       NO : One line per depth step
CREA. 01/04/18 : LAS Creation Date
~Well ------------------------------------------------------
STRT.FT                               300.0 : START DEPTH
STOP.FT                             11400.0 : STOP DEPTH
STEP.FT                            50.00000 : STEP LENGTH
NULL.                               -999.25 : NULL VALUE
COMP.                  CHEVRON STANDARD LTD : COMPANY
WELL. CHEVRON CLARK 14-34-58-18 10-34-58-18 : WELL
FLD .                          KAYBOB SOUTH : FIELD
LOC .                                       : LOCATION
CTRY.                                CANADA : COUNTRY
SRVC.                          Schlumberger : SERVICE COMPANY
DATE.                           26-Oct-1968 : LOGDATE
PROV.                               Alberta : PROVINCE
UWI .                      100103405818W500 : UNIQUE WELL ID
SLAT.WGS84                         54.05952 : SURFACE LATITUDE
SLON.WGS84                        -116.5853 : SURFACE LONGITUDE
~Curve Information -----------------------------------------
DEPT   .FT    : Depth Curve
CALNED .IN    : CALIPER SIDEWALL NEUTRON  LOG (ADJ TO RES.)
CALSED .IN    : CALIPER  SONIC (ADJ TO RES.)
CALWS  .IN    : CALIPER (CALSED)
CONDWS .MMHO  : CONDUCTIVITY (1000/DRESWS)
DRESWS .OHMM  : DEEP RESISTIVITY (ILDED)
DTED   .US/F  : DELTA TIME (ADJ TO RES.)
DTWS   .US/F  : DELTA TIME
GR1ED  .GAPI  : GAMMA RAY GAMMA RAY LOG (ADJ TO RES.)
GRED   .GAPI  : GAMMA RAY GAMMA RAY LOG (ADJ TO RES.)
GRSED  .GAPI  : GAMMA RAY  SONIC (ADJ TO RES.)
GRWS   .GAPI  : GAMMA RAY (GR1ED/GRSED @ 1957')
ILDED  .OHMM  : DEEP INDUCTION RESISTIVITY
ILMED  .OHMM  : MEDIUM INDUCTION RESISTIVITY
LL8ED  .OHMM  : LATEROLOG-8 RESISTIVITY
MRESWS .OHMM  : MEDIUM RESISTIVITY (ILMED)
NPODLWS.V/V   : NEUTRON POROSITY DOLOMITE (SNPDMED)
SNPDMED.V/V   : SIDEWALL NEUTRON  DOLOMITE (ADJ TO RES.)
SPRED  .MV    : Spontaneous Potential  DIL
SPWS   .MV    : SPONTANEOUS POTENTIAL BASELINE 0 MV (SPRED)
SRESWS .OHMM  : SHALLOW RESISTIVITY (LL8ED)
~Params ----------------------------------------------------
PD  .                     GL : PERMANENT DATUM
EPD .FT               3407.1 : ELEVATION PERMANENT DATUM
LMF .                     KB : LOG MEASURED FROM
DAPD.FT                 13.9 : FEET ABOVE PERMANENT DATUM
DMF .                     KB : DRILLING MEASURED FROM
EKB .FT                 3421 : KELLY BUSHING
EDF .FT                 3407 : DRILLING FLOOR
EGL .FT               3407.1 : GROUND LEVEL
DATE.               10/26/68 : RUN DATE
RUN .                      1 : RUN NUMBER
DD  .FT                11418 : DEPTH DRILLER
DL  .FT                11421 : DEPTH LOGGER
BLI .FT                11420 : BOTTOM LOG INTERVAL
TLI .FT                10900 : TOP LOG INTERVAL
CBD .FT                 2021 : CASING BOTTOM DRILLER
CBL .FT                 2021 : CASING BOTTOM LOGGER
BS  .IN                 8.75 : BIT SIZE
BSD .FT                11418 : BIT SIZE AT DEPTH
DFT .                    GEL : DRILLING FLUID TYPE
DFD .                    9.4 : DRILLING FLUID DENSITY
DFV .                    148 : DRILLING FLUID VISCOSITY
DFPH.                   11.5 : DRILLING FLUID PH
DFL .                    6.4 : DRILLING FLUID LOSS
RMS .OHMM                1.0 : RESISTIVITY MUD SAMPLE
MST .DEGF                 62 : MUD SAMPLE TEMPERATURE
RMF .OHMM               0.84 : RESISTIVITY MUD FILTRATE SAMPLE
MFST.DEGF                 70 : MUD FILTRATE SAMPLE TEMPERATURE
RMC .OHMM               1.22 : RESISTIVITY MUD CAKE
MCST.DEGF                 70 : MUD CAKE SAMPLE TEMPERATURE
TCS .HRS                 300 : TIME CIRCULATED STOPPED
LUN .                   7501 : LOGGING UNIT NUMBER
LUL .                    EDM : LOGGING UNIT LOCATION
ENGI.               STUEHMER : RECORDING ENGINEER
WITN.                HOVDEBO : WITNESSED BY
CLNT.                A2DTECH : CLIENT CODE
ORIG.        2" 5" 10" PRINT : ORIGIN OF DATA
UWI .       100103405818W500 : UNIQUE WELL ID
DICO. A2D Technologies, Inc. : DIGITIZING COMPANY
~Other -----------------------------------------------------
~ASCII -----------------------------------------------------
# ...
 3800.00000    -999.25   11.82670   11.82670  224.12980    4.46170  100.11190  100.11190   74.47270   41.29860   56.84390   56.84390    4.46170    4.06890    3.33620    4.06890    -999.25    -999.25 -114.00010   -2.99280    3.33620
 3850.00000    -999.25   11.52880   11.52880  216.36120    4.62190   92.96660   92.96660   80.05370   48.22850   56.52810   56.52810    4.62190    4.27530    3.75180    4.27530    -999.25    -999.25 -117.07120   -7.55300    3.75180
 3900.00000    -999.25   12.12500   12.12500  188.54410    5.30380   96.59780   96.59780   64.60930   36.68840   53.65850   53.65850    5.30380    5.01350    4.91990    5.01350    -999.25    -999.25 -114.13770   -6.10850    4.91990
 3950.00000    -999.25   11.61460   11.61460  185.84600    5.38080   96.44440   96.44440   83.93120   49.62550   48.51740   48.51740    5.38080    5.18900    4.77400    5.18900    -999.25    -999.25 -110.38920   -3.84900    4.77400
 4000.00000    -999.25   12.10410   12.10410  168.61420    5.93070  108.60980  108.60980   66.55900   44.07260   47.50930   47.50930    5.93070    4.56780    4.00080    4.56780    -999.25    -999.25 -110.21230   -3.97460    4.00080
 4050.00000    -999.25    9.99110    9.99110  141.39270    7.07250   86.05850   86.05850   74.73230   39.76540   54.78830   54.78830    7.07250    6.72320    5.72620    6.72320    -999.25    -999.25 -116.74690  -10.20050    5.72620
 4100.00000    -999.25   13.65020   13.65020  226.81390    4.40890  117.90810  117.90810   76.91420   37.96890   50.20370   50.20370    4.40890    3.84410    3.26970    3.84410    -999.25    -999.25 -109.55350   -2.69840    3.26970
 4150.00000    -999.25    9.48000    9.48000   34.16460   29.27010   83.58510   83.58510   51.28390   26.68380   32.95910   32.95910   29.27010   22.31690   21.22930   22.31690    -999.25    -999.25 -126.29180  -19.12790   21.22930
 4200.00000    -999.25   11.32410   11.32410  188.59740    5.30230   89.02500   89.02500   73.00460   42.92520   52.80290   52.80290    5.30230    4.92170    4.89510    4.92170    -999.25    -999.25 -113.53040   -6.05780    4.89510
 4250.00000    -999.25   10.88200   10.88200   96.01440   10.41510   84.27200   84.27200   70.54820   35.36110   49.29030   49.29030   10.41510    9.38060    6.52250    9.38060    -999.25    -999.25 -119.54160  -11.76030    6.52250
 4300.00000    -999.25   11.50560   11.50560  188.10430    5.31620   93.82830   93.82830   84.44020   46.67780   52.86720   52.86720    5.31620    4.98230    4.46420    4.98230    -999.25    -999.25 -112.71620   -4.62620    4.46420
 4350.00000    -999.25   10.72850   10.72850  112.09630    8.92090   80.63000   80.63000   80.28790   40.68460   47.97490   47.97490    8.92090    8.30210    8.14910    8.30210    -999.25    -999.25 -117.81600   -9.41720    8.14910
 4400.00000    -999.25   13.08820   13.08820  162.87710    6.13960   90.84160   90.84160   74.62380   39.27290   53.25760   53.25760    6.13960    5.24170    4.47650    5.24170    -999.25    -999.25 -114.20320   -5.49570    4.47650
 4450.00000    -999.25   11.30070   11.30070  134.94910    7.41020   85.03730   85.03730   63.76450   40.29850   51.39460   51.39460    7.41020    6.96300    5.55260    6.96300    -999.25    -999.25 -117.19010   -8.17390    5.55260
 4500.00000    -999.25   10.51050   10.51050  204.57010    4.88830   88.52440   88.52440   81.85550   49.94180   56.91270   56.91270    4.88830    4.63610    3.49450    4.63610    -999.25    -999.25 -113.45460   -4.12960    3.49450
 4550.00000    -999.25   10.61240   10.61240   85.39130   11.71080   83.32480   83.32480   82.10330   42.20910   59.07710   59.07710   11.71080   10.23530    9.72560   10.23530    -999.25    -999.25 -114.95160   -5.74320    9.72560
 4600.00000    -999.25   12.05110   12.05110  135.17900    7.39760   89.22230   89.22230   99.89090   51.14970   74.87600   74.87600    7.39760    6.67040    5.93930    6.67040    -999.25    -999.25 -114.52230   -5.54350    5.93930
 4650.00000    -999.25   11.46700   11.46700  130.72240    7.64980   91.47560   91.47560  102.04710   54.86120   78.55030   78.55030    7.64980    6.49900    6.18080    6.49900    -999.25    -999.25 -112.98510   -4.23590    6.18080
 4700.00000    -999.25   12.03520   12.03520  112.46060    8.89200   87.63300   87.63300  110.14090   56.41510   73.47160   73.47160    8.89200    7.61320    7.25680    7.61320    -999.25    -999.25 -113.61600   -5.09640    7.25680
 4750.00000    -999.25   11.41140   11.41140  132.84090    7.52780   91.80260   91.80260  118.36980   64.36650   75.63290   75.63290    7.52780    6.96270    6.56240    6.96270    -999.25    -999.25 -114.53830   -6.24840    6.56240
 4800.00000    -999.25   10.52160   10.52160   85.59230   11.68330   95.49910   95.49910  167.67490   90.22180  106.60180  106.60180   11.68330    9.87450   11.09140    9.87450    -999.25    -999.25 -116.34760   -8.28730   11.09140
 4850.00000    -999.25   10.92800   10.92800  103.66130    9.64680   88.40110   88.40110  122.82500   68.48130   79.27410   79.27410    9.64680    9.06510    8.80460    9.06510    -999.25    -999.25 -115.16690   -7.33620    8.80460
 4900.00000    -999.25   10.55350   10.55350  120.44270    8.30270   89.92310   89.92310  125.98140   65.86960   85.74170   85.74170    8.30270    7.35870    6.92920    7.35870    -999.25    -999.25 -114.45380   -6.85270    6.92920
 4950.00000    -999.25   10.50160   10.50160  150.93660    6.62530   87.75990   87.75990  110.62100   71.29830   81.21070   81.21070    6.62530    5.81890    5.13300    5.81890    -999.25    -999.25 -114.37140   -6.99990    5.13300
 5000.00000    -999.25   10.80220   10.80220  127.08100    7.86900   87.48480   87.48480   96.64620   60.23060   83.57950   83.57950    7.86900    6.73820    6.19120    6.73820    -999.25    -999.25 -114.35710   -7.21520    6.19120
 5050.00000    -999.25   10.28950   10.28950  127.45020    7.84620   84.00000   84.00000  105.24880   62.39030   80.02790   80.02790    7.84620    7.11080    6.15730    7.11080    -999.25    -999.25 -114.12660   -7.21440    6.15730
 5100.00000    -999.25   11.03850   11.03850   98.65050   10.13680   81.36970   81.36970   93.03920   53.71150   70.66430   70.66430   10.13680    9.15510    7.46260    9.15510    -999.25    -999.25 -115.13950   -8.45690    7.46260
 5150.00000    -999.25   11.06140   11.06140  115.72200    8.64140   82.77820   82.77820  115.81150   66.35900   78.49960   78.49960    8.64140    7.71470    6.75060    7.71470    -999.25    -999.25 -113.98690   -7.53390    6.75060
 5200.00000    -999.25   12.36200   12.36200  145.70460    6.86320   90.06660   90.06660  116.99280   63.63490   85.68790   85.68790    6.86320    6.10380    5.76450    6.10380    -999.25    -999.25 -112.27460   -6.05120    5.76450
 5250.00000    -999.25   12.60220   12.60220  133.41870    7.49520   86.80740   86.80740  115.00230   60.16550   78.40020   78.40020    7.49520    6.51530    6.23570    6.51530    -999.25    -999.25 -116.95670  -10.96290    6.23570
 5300.00000    -999.25   11.83680   11.83680  136.70910    7.31480   86.31160   86.31160  107.64870   59.27850   73.56550   73.56550    7.31480    6.64360    6.29490    6.64360    -999.25    -999.25 -110.57600   -4.81180    6.29490
 5350.00000    -999.25    9.73810    9.73810   71.25200   14.03470   78.89470   78.89470   67.15410   35.54780   52.27450   52.27450   14.03470   14.62350   19.75720   14.62350    -999.25    -999.25 -133.78310  -28.24850   19.75720
 5400.00000    -999.25   10.99660   10.99660   79.05700   12.64910   77.96890   77.96890  112.97460   60.21220   76.69990   76.69990   12.64910   11.56170   10.82310   11.56170    -999.25    -999.25 -113.87180   -8.56690   10.82310
 5450.00000    -999.25   10.97780   10.97780   98.06710   10.19710   81.07040   81.07040  103.62480   61.44970   75.59520   75.59520   10.19710    9.31630    8.99110    9.31630    -999.25    -999.25 -122.43750  -17.36220    8.99110
 5500.00000    -999.25   11.37150   11.37150  108.22510    9.24000   81.79350   81.79350  113.46800   66.76240   81.21160   81.21160    9.24000    8.26390    7.79270    8.26390    -999.25    -999.25 -115.83400  -10.98830    7.79270
