~Version ---------------------------------------------------
VERS.      2.0 : CWLS log ASCII Standard -VERSION 2.0
WRAP.       NO : One line per depth step
CREA. 01/04/18 : LAS Creation Date
~Well ------------------------------------------------------
STRT.FT                               300.0 : START DEPTH
STOP.FT                             11400.0 : STOP DEPTH
STEP.FT                            50.00000 : STEP LENGTH
NULL.                               -999.25 : NULL VALUE
COMP.                  CHEVRON STANDARD LTD : COMPANY
WELL. CHEVRON CLARK 14-34-58-18 10-34-58-18 : WELL
FLD .                          KAYBOB SOUTH : FIELD
LOC .                                       : LOCATION
CTRY.                                CANADA : COUNTRY
SRVC.                          Schlumberger : SERVICE COMPANY
DATE.                           26-Oct-1968 : LOGDATE
PROV.                               Alberta : PROVINCE
UWI .                      100103405818W500 : UNIQUE WELL ID
SLAT.WGS84                         54.05952 : SURFACE LATITUDE
SLON.WGS84                        -116.5853 : SURFACE LONGITUDE
~Curve Information -----------------------------------------
DEPT   .FT    : Depth Curve
CALNED .IN    : CALIPER SIDEWALL NEUTRON  LOG (ADJ TO RES.)
CALSED .IN    : CALIPER  SONIC (ADJ TO RES.)
CALWS  .IN    : CALIPER (CALSED)
CONDWS .MMHO  : CONDUCTIVITY (1000/DRESWS)
DRESWS .OHMM  : DEEP RESISTIVITY (ILDED)
DTED   .US/F  : DELTA TIME (ADJ TO RES.)
DTWS   .US/F  : DELTA TIME
GR1ED  .GAPI  : GAMMA RAY GAMMA RAY LOG (ADJ TO RES.)
GRED   .GAPI  : GAMMA RAY GAMMA RAY LOG (ADJ TO RES.)
GRSED  .GAPI  : GAMMA RAY  SONIC (ADJ TO RES.)
GRWS   .GAPI  : GAMMA RAY (GR1ED/GRSED @ 1957')
ILDED  .OHMM  : DEEP INDUCTION RESISTIVITY
ILMED  .OHMM  : MEDIUM INDUCTION RESISTIVITY
LL8ED  .OHMM  : LATEROLOG-8 RESISTIVITY
MRESWS .OHMM  : MEDIUM RESISTIVITY (ILMED)
NPODLWS.V/V   : NEUTRON POROSITY DOLOMITE (SNPDMED)
SNPDMED.V/V   : SIDEWALL NEUTRON  DOLOMITE (ADJ TO RES.)
SPRED  .MV    : Spontaneous Potential  DIL
SPWS   .MV    : SPONTANEOUS POTENTIAL BASELINE 0 MV (SPRED)
SRESWS .OHMM  : SHALLOW RESISTIVITY (LL8ED)
~Params ----------------------------------------------------
PD  .                     GL : PERMANENT DATUM
EPD .FT               3407.1 : ELEVATION PERMANENT DATUM
LMF .                     KB : LOG MEASURED FROM
DAPD.FT                 13.9 : FEET ABOVE PERMANENT DATUM
DMF .                     KB : DRILLING MEASURED FROM
EKB .FT                 3421 : KELLY BUSHING
EDF .FT                 3407 : DRILLING FLOOR
EGL .FT               3407.1 : GROUND LEVEL
DATE.               10/26/68 : RUN DATE
RUN .                      1 : RUN NUMBER
DD  .FT                11418 : DEPTH DRILLER
DL  .FT                11421 : DEPTH LOGGER
BLI .FT                11420 : BOTTOM LOG INTERVAL
TLI .FT                10900 : TOP LOG INTERVAL
CBD .FT                 2021 : CASING BOTTOM DRILLER
CBL .FT                 2021 : CASING BOTTOM LOGGER
BS  .IN                 8.75 : BIT SIZE
BSD .FT                11418 : BIT SIZE AT DEPTH
DFT .                    GEL : DRILLING FLUID TYPE
DFD .                    9.4 : DRILLING FLUID DENSITY
DFV .                    148 : DRILLING FLUID VISCOSITY
DFPH.                   11.5 : DRILLING FLUID PH
DFL .                    6.4 : DRILLING FLUID LOSS
RMS .OHMM                1.0 : RESISTIVITY MUD SAMPLE
MST .DEGF                 62 : MUD SAMPLE TEMPERATURE
RMF .OHMM               0.84 : RESISTIVITY MUD FILTRATE SAMPLE
MFST.DEGF                 70 : MUD FILTRATE SAMPLE TEMPERATURE
RMC .OHMM               1.22 : RESISTIVITY MUD CAKE
MCST.DEGF                 70 : MUD CAKE SAMPLE TEMPERATURE
TCS .HRS                 300 : TIME CIRCULATED STOPPED
LUN .                   7501 : LOGGING UNIT NUMBER
LUL .                    EDM : LOGGING UNIT LOCATION
ENGI.               STUEHMER : RECORDING ENGINEER
WITN.                HOVDEBO : WITNESSED BY
CLNT.                A2DTECH : CLIENT CODE
ORIG.        2" 5" 10" PRINT : ORIGIN OF DATA
UWI .       100103405818W500 : UNIQUE WELL ID
DICO. A2D Technologies, Inc. : DIGITIZING COMPANY
~Other -----------------------------------------------------
~ASCII -----------------------------------------------------
# ...
 9050.00000    -999.25    9.65950    9.65950    0.59410 1683.09030   50.93390   50.93390    8.56010    4.18960    8.55890    8.55890 1683.09030  131.16950   97.94130  131.16950    -999.25    -999.25 -147.12130  -89.67810   97.94130
 9100.00000    -999.25   12.01600   12.01600    8.23570  121.42190   65.80330   65.80330   15.81570   10.34510   14.10350   14.10350  121.42190   87.88790   47.66720   87.88790    -999.25    -999.25 -144.18790  -87.09650   47.66720
 9150.00000    -999.25   10.76460   10.76460    1.55600  642.68400   52.79470   52.79470   15.73390    6.06160   14.57360   14.57360  642.68400  125.47050  136.12750  125.47050    -999.25    -999.25 -151.40380  -94.66410  136.12750
 9200.00000    -999.25   10.53260   10.53260   11.30200   88.48010   51.39860   51.39860   14.38440    5.58770   16.87100   16.87100   88.48010   59.02570   62.68560   59.02570    -999.25    -999.25 -152.44170  -96.05380   62.68560
 9250.00000    -999.25    9.97640    9.97640    0.58430 1711.45120   54.19660   54.19660    9.61730    5.17670    9.80080    9.80080 1711.45120  113.50090   52.62870  113.50090    -999.25    -999.25 -151.15380  -95.11770   52.62870
 9300.00000    -999.25   10.31580   10.31580    0.58960 1695.92960   53.78130   53.78130   13.33000    8.03960   10.83490   10.83490 1695.92960  140.46960   28.52110  140.46960    -999.25    -999.25 -145.85100  -90.16670   28.52110
 9350.00000    -999.25   11.34680   11.34680    0.72800 1373.66260   50.90700   50.90700   13.89580   10.98210   12.91760   12.91760 1373.66260   78.70170   30.51710   78.70170    -999.25    -999.25 -143.89840  -88.56580   30.51710
 9400.00000    -999.25   10.64130   10.64130    0.56420 1772.57150   53.16520   53.16520   14.42730    7.60740   12.52250   12.52250 1772.57150   99.74730   29.45840   99.74730    -999.25    -999.25 -142.72120  -87.74040   29.45840
 9450.00000    -999.25   10.78790   10.78790    1.13910  877.87850   52.75390   52.75390   18.21830    8.48940   12.17000   12.17000  877.87850   62.34530   60.41900   62.34530    -999.25    -999.25 -144.14070  -89.51170   60.41900
 9500.00000    -999.25   10.25560   10.25560    0.77220 1294.93810   64.20810   64.20810   10.51900    6.51150   11.76270   11.76270 1294.93810   70.94040   74.49320   70.94040    -999.25    -999.25 -147.29530  -93.01810   74.49320
 9550.00000    -999.25   10.97020   10.97020    1.55680  642.36370   54.50470   54.50470   12.89730    7.45920   13.61260   13.61260  642.36370   79.27830   72.59770   79.27830    -999.25    -999.25 -147.50870  -93.58320   72.59770
 9600.00000    -999.25   10.05120   10.05120    4.08720  244.66470   50.65840   50.65840   13.06310    7.71580   18.20460   18.20460  244.66470  103.11370  102.86590  103.11370    -999.25    -999.25 -146.15640  -92.58270  102.86590
 9650.00000    -999.25    9.71580    9.71580   53.92580   18.54400   56.88860   56.88860   27.11240   11.37440   40.83160   40.83160   18.54400   16.26240   36.57780   16.26240    -999.25    -999.25 -133.90110  -80.67920   36.57780
 9700.00000    -999.25    9.93060    9.93060    0.53910 1854.84730   51.46580   51.46580  180.72760  115.15460   12.86140   12.86140 1854.84730   85.35380  235.45360   85.35380    -999.25    -999.25 -152.87080 -100.00070  235.45360
 9750.00000    -999.25   11.66480   11.66480   52.83760   18.92590   61.89190   61.89190   26.93490   13.60220   20.39310   20.39310   18.92590   14.54960   12.61660   14.54960    -999.25    -999.25 -143.69220  -91.17380   12.61660
 9800.00000    -999.25   10.06020   10.06020    0.64600 1547.98130   50.84290   50.84290   19.04430   11.29520   38.13750   38.13750 1547.98130  115.98920  117.01740  115.98920    -999.25    -999.25 -103.32460  -51.15800  117.01740
 9850.00000    -999.25    9.53850    9.53850    4.94210  202.34260   52.26210   52.26210   37.31670   19.30910   37.60950   37.60950  202.34260   99.27020   95.89890   99.27020    -999.25    -999.25  -71.83850  -20.02370   95.89890
 9900.00000    -999.25    9.80870    9.80870   11.52780   86.74710   53.53430   53.53430   32.80970   18.93260   40.31730   40.31730   86.74710   63.77820   73.10570   63.77820    -999.25    -999.25  -66.34920  -14.88610   73.10570
 9950.00000    -999.25    9.59830    9.59830   20.26380   49.34910   54.66030   54.66030   47.77980   25.38010   48.20650   48.20650   49.34910   41.26130   38.92760   41.26130    -999.25    -999.25  -63.17630  -12.06500   38.92760
 10000.00000    -999.25    9.48930    9.48930   12.61330   79.28150   54.03540   54.03540   32.77500   23.75890   40.46680   40.46680   79.28150   63.00920   57.98110   63.00920    -999.25    -999.25  -65.60110  -14.84160   57.98110
 10050.00000    -999.25    9.53440    9.53440   16.76310   59.65470   54.92170   54.92170   34.31660   20.68640   34.77190   34.77190   59.65470   44.84300   46.56800   44.84300    -999.25    -999.25  -61.23600  -10.82830   46.56800
 10100.00000    -999.25    9.46500    9.46500   22.64090   44.16780   55.09300   55.09300   42.33190   21.16060   43.30940   43.30940   44.16780   37.81610   42.81000   37.81610    -999.25    -999.25  -57.38850   -7.33250   42.81000
 10150.00000    -999.25    9.74460    9.74460   48.34160   20.68610   59.51900   59.51900   51.08590   30.83940   45.67220   45.67220   20.68610   18.36930   19.67030   18.36930    -999.25    -999.25  -52.45860   -2.75440   19.67030
 10200.00000    -999.25   10.26040   10.26040   77.13010   12.96510   63.01870   63.01870   70.62220   37.69580   52.28160   52.28160   12.96510   12.14000   13.66110   12.14000    -999.25    -999.25  -49.81380   -0.46140   13.66110
 10250.00000    -999.25   11.44420   11.44420  133.08140    7.51420   69.50300   69.50300   88.42780   47.48270   60.36980   60.36980    7.51420    7.15110    8.29470    7.15110    -999.25    -999.25  -50.62810   -1.62750    8.29470
 10300.00000    -999.25    9.72280    9.72280   84.48590   11.83630   68.21540   68.21540  113.94110   42.59790   66.77510   66.77510   11.83630   11.12220   14.19280   11.12220    -999.25    -999.25  -49.27720   -0.62830   14.19280
 10350.00000    -999.25   11.84110   11.84110  174.90470    5.71740   76.51750   76.51750  116.39440   58.05140   73.43360   73.43360    5.71740    5.31740    8.44740    5.31740    -999.25    -999.25  -54.91070   -6.61360    8.44740
 10400.00000    -999.25   10.00000   10.00000  127.36420    7.85150   71.17000   71.17000   73.19640   46.74310   50.34100   50.34100    7.85150    7.54520    9.56580    7.54520    -999.25    -999.25  -51.03990   -3.09460    9.56580
 10450.00000    -999.25   10.19980   10.19980  119.60580    8.36080   72.00070   72.00070   97.01040   58.56880   55.22330   55.22330    8.36080    7.68600    9.52130    7.68600    -999.25    -999.25  -55.03440   -7.44080    9.52130
 10500.00000    -999.25    9.40340    9.40340   51.57910   19.38770   61.95270   61.95270    -999.25    -999.25   44.89250   44.89250   19.38770   15.49420   47.95330   15.49420    -999.25    -999.25  -55.54010   -8.29830   47.95330
 10550.00000    -999.25    9.69750    9.69750  112.86300    8.86030   67.07890   67.07890    -999.25    -999.25   67.75300   67.75300    8.86030    8.50590   10.06550    8.50590    -999.25    -999.25  -54.84450   -7.95450   10.06550
 10600.00000    -999.25    9.83710    9.83710  127.44540    7.84650   70.27180   70.27180    -999.25    -999.25   81.27390   81.27390    7.84650    8.94500    8.13420    8.94500    -999.25    -999.25  -56.94060  -10.40240    8.13420
 10650.00000    -999.25    9.78800    9.78800  120.34710    8.30930   72.06370   72.06370    -999.25    -999.25   73.83850   73.83850    8.30930    9.14050   10.20750    9.14050    -999.25    -999.25  -52.55760   -6.37110   10.20750
 10700.00000    -999.25    9.66470    9.66470   99.66710   10.03340   70.76340   70.76340    -999.25    -999.25   69.60630   69.60630   10.03340   11.00700   15.03200   11.00700    -999.25    -999.25  -55.11000   -9.27530   15.03200
 10750.00000    -999.25   10.76940   10.76940  108.63070    9.20550   79.72390   79.72390    -999.25    -999.25   87.89960   87.89960    9.20550    9.73370    7.49030    9.73370    -999.25    -999.25  -57.92440  -12.44150    7.49030
