~Version ---------------------------------------------------
VERS.      2.0 : CWLS log ASCII Standard -VERSION 2.0
WRAP.       NO : One line per depth step
CREA. 01/05/18 : LAS Creation Date
~Well ------------------------------------------------------
STRT.FT                   1000.0 : START DEPTH
STOP.FT                   9850.0 : STOP DEPTH
STEP.FT                 50.00000 : STEP LENGTH
NULL.                    -999.25 : NULL VALUE
COMP.    TRIAD OIL COMPANY, LTD. : COMPANY
WELL. TRIAD BP KAYBOB 2-14-64-18 : WELL
FLD .                     KAYBOB : FIELD
LOC .                            : LOCATION
CTRY.                     CANADA : COUNTRY
SRVC.               Schlumberger : SERVICE COMPANY
DATE.                29-Feb-1964 : LOGDATE
PROV.                    Alberta : PROVINCE
UWI .           100021406418W500 : UNIQUE WELL ID
SLAT.WGS84              54.53307 : SURFACE LATITUDE
SLON.WGS84             -116.6057 : SURFACE LONGITUDE
~Curve Information -----------------------------------------
DEPT    .FT    : Depth Curve
CALWS   .IN    : CALIPER [MCALED]
CILDED  .MMHO  : DEEP CONDUCTIVITY INDUCTION FROM RESISTIVITY LOG
CONDWS  .MMHO  : CONDUCTIVITY [1000/DRESWS]
DRESWS  .OHMM  : DEEP RESISTIVITY [1000/CILDED, IF ILDED < 1, ILDED]
DT1ED   .US/F  : DELTA TIME FROM SONIC LOG [ADJ. TO RESISTIVITY LOG]
DTED    .US/F  : DELTA TIME FROM SONIC LOG [ADJ. TO RESISTIVITY LOG]
DTWS    .US/F  : COMPRESSIONAL SONIC [DTED]
GRDED   .GAPI  : GAMMA RAY FROM DENSITY LOG [ADJ. TO RESISTIVITY LOG]
GRED    .GAPI  : GAMMA RAY FROM SBT-CCL-SBL LOG [ADJ. TO RESISTIVITY LOG]
GRSED   .GAPI  : GAMMA RAY FROM SONIC LOG [ADJ. TO RESISTIVITY LOG]
GRWS    .GAPI  : GAMMA RAY [GRSED]
ILDED   .OHMM  : DEEP INDUCTION FROM RESISTIVITY LOG
MCALED  .IN    : MLT CALIPER FROM MICROLOG
NPORSSED.V/V   : NEUTRON POROSITY SANDSTONE FROM DENSITY LOG [ADJ. TO RESISTIVITY LOG]
NPOSSWS .V/V   : NEUTRON POROSITY SANDSTONE [NPORSSED]
SNED    .OHMM  : SHORT NORMAL 16" FROM RESISTIVITY LOG
SPRED   .MV    : SELF POTENTIAL FROM RESISTIVITY LOG
SPWS    .MV    : SELF POTENTIAL [BASELINE 0MV, SPRED]
SRESWS  .OHMM  : SHALLOW RESISTIVITY [SNED]
~Params ----------------------------------------------------
PD  .                     GL : PERMANENT DATUM
EPD .FT                 2679 : ELEVATION PERMANENT DATUM
LMF .                     KB : LOG MEASURED FROM
DAPD.FT                 12.5 : FEET ABOVE PERMANENT DATUM
EKB .FT               2691.5 : KELLY BUSHING
EGL .FT                 2679 : GROUND LEVEL
DATE.               02/29/64 : RUN DATE
RUN .                      1 : RUN NUMBER
DD  .FT                 9881 : DEPTH DRILLER
DL  .FT                 9881 : DEPTH LOGGER
BLI .FT                 9880 : BOTTOM LOG INTERVAL
TLI .FT                  988 : TOP LOG INTERVAL
CBD .FT                  990 : CASING BOTTOM DRILLER
CBL .FT                  988 : CASING BOTTOM LOGGER
BS  .IN                7.625 : BIT SIZE
BSD .FT                 9881 : BIT SIZE AT DEPTH
DFT .               GEL CHEM : DRILLING FLUID TYPE
DFD .                    9.9 : DRILLING FLUID DENSITY
DFV .                    148 : DRILLING FLUID VISCOSITY
DFPH.                     10 : DRILLING FLUID PH
DFL .                    7.8 : DRILLING FLUID LOSS
RMS .OHMM               2.32 : RESISTIVITY MUD SAMPLE
MST .DEGF                 70 : MUD SAMPLE TEMPERATURE
RMF .OHMM               1.83 : RESISTIVITY MUD FILTRATE SAMPLE
MFST.DEGF                 68 : MUD FILTRATE SAMPLE TEMPERATURE
RMC .OHMM               3.17 : RESISTIVITY MUD CAKE
MCST.DEGF                 60 : MUD CAKE SAMPLE TEMPERATURE
RMB .OHMM               0.91 : RESISTIVITY MUD AT BHT
TCS .HRS                   4 : TIME CIRCULATED STOPPED
LUN .                   3534 : LOGGING UNIT NUMBER
LUL .                    WCT : LOGGING UNIT LOCATION
ENGI.                HAMPTON : RECORDING ENGINEER
WITN.                OBERTOS : WITNESSED BY
CLNT.                A2DTECH : CLIENT CODE
ORIG.            2" 5" PRINT : ORIGIN OF DATA
UWI .       100021406418W500 : UNIQUE WELL ID
DICO. A2D Technologies, Inc. : DIGITIZING COMPANY
~Other -----------------------------------------------------
IEL-CNL-BHC-SBT-CCL-SBL LOG
ALL RESISTIVITY CURVES ARE FROM TOP TO 4577' FROM 2" SECTION AND FROM 4577' TO FR FROM LARGE SECTION
~ASCII -----------------------------------------------------
# ...
 4700.00000    9.77300   98.67600  109.37450    9.14290    -999.25   77.52250   77.52250    -999.25    -999.25   80.40830   80.40830    9.14290    9.77300    -999.25    -999.25   12.29100  -63.84740   -6.43380   12.29100
 4750.00000   11.07580  220.27050  252.39780    3.96200    -999.25   93.77010   93.77010    -999.25    -999.25   84.23720   84.23720    3.96200   11.07580    -999.25    -999.25    5.03950  -62.11800   -4.70440    5.03950
 4800.00000    9.50650  104.01280  114.35240    8.74490    -999.25   74.59580   74.59580    -999.25    -999.25   63.70040   63.70040    8.74490    9.50650    -999.25    -999.25   12.25370  -73.24770  -15.83410   12.25370
 4850.00000   10.62000  124.75840  142.06560    7.03900    -999.25   99.19850   99.19850    -999.25    -999.25   84.22600   84.22600    7.03900   10.62000    -999.25    -999.25   11.28760  -66.21770   -8.80410   11.28760
 4900.00000   11.20120  136.34820  147.84590    6.76380    -999.25   94.67480   94.67480    -999.25    -999.25   78.24210   78.24210    6.76380   11.20120    -999.25    -999.25   10.06680  -61.13890   -3.72530   10.06680
 4950.00000    8.46930  116.04420  126.64800    7.89590    -999.25   72.17740   72.17740    -999.25    -999.25   80.77970   80.77970    7.89590    8.46930    -999.25    -999.25    9.54960  -60.76240   -3.35080    9.54960
 5000.00000    9.46770  131.65280  142.58830    7.01320    -999.25   76.85410   76.85410    -999.25    -999.25   58.83170   58.83170    7.01320    9.46770    -999.25    -999.25   10.42450  -64.98530   -7.59920   10.42450
 5050.00000    9.34950  116.68950  131.16990    7.62370    -999.25   73.68510   73.68510    -999.25    -999.25   66.94270   66.94270    7.62370    9.34950    -999.25    -999.25   10.26180  -68.47360  -11.11300   10.26180
 5100.00000    8.89970   87.50830   96.38370   10.37520    -999.25   77.48510   77.48510    -999.25    -999.25   79.52030   79.52030   10.37520    8.89970    -999.25    -999.25   15.62260  -73.51800  -16.18290   15.62260
 5150.00000    8.87710  162.40210  179.97590    5.55630    -999.25   81.64000   81.64000    -999.25    -999.25   61.94810   61.94810    5.55630    8.87710    -999.25    -999.25   11.82280  -97.90060  -40.59090   11.82280
 5200.00000    8.96110  151.37960  166.93650    5.99030    -999.25   77.88140   77.88140    -999.25    -999.25   69.67310   69.67310    5.99030    8.96110    -999.25    -999.25   12.40110  -83.64790  -26.36370   12.40110
 5250.00000    7.87900  176.99030  196.30170    5.09420    -999.25   79.36350   79.36350    -999.25    -999.25   62.50000   62.50000    5.09420    7.87900    -999.25    -999.25   12.84320  -96.13120  -38.87250   12.84320
 5300.00000    9.77070  107.02720  117.08920    8.54050    -999.25   78.72870   78.72870    -999.25    -999.25   84.09550   84.09550    8.54050    9.77070    -999.25    -999.25   10.36630  -64.83940   -7.60610   10.36630
 5350.00000    9.71040  126.66570  138.63090    7.21340    -999.25   77.47930   77.47930    -999.25    -999.25   79.51490   79.51490    7.21340    9.71040    -999.25    -999.25    9.82080  -61.30380   -4.09600    9.82080
 5400.00000    9.59680  184.83490  201.82860    4.95470    -999.25   74.25970   74.25970    -999.25    -999.25   66.71670   66.71670    4.95470    9.59680    -999.25    -999.25   11.93990  -88.48030  -31.29800   11.93990
 5450.00000    9.29520  120.32280  131.48380    7.60550    -999.25   74.90690   74.90690    -999.25    -999.25   85.28870   85.28870    7.60550    9.29520    -999.25    -999.25   11.22540  -61.00720   -3.85040   11.22540
 5500.00000    9.50070  109.15350  118.93580    8.40790    -999.25   75.82470   75.82470    -999.25    -999.25  109.00120  109.00120    8.40790    9.50070    -999.25    -999.25   11.87100  -60.12310   -2.99170   11.87100
 5550.00000    9.56790   74.62820   80.30970   12.45180    -999.25   66.02780   66.02780    -999.25    -999.25   58.39450   58.39450   12.45180    9.56790    -999.25    -999.25   25.97330  -95.77300  -38.66710   25.97330
 5600.00000    8.98330   49.34410   50.89550   19.64810    -999.25   70.57820   70.57820    -999.25    -999.25   71.46770   71.46770   19.64810    8.98330    -999.25    -999.25   32.27710  -70.62360  -13.54320   32.27710
 5650.00000    9.35140   62.53570   69.88220   14.30980    -999.25   68.40200   68.40200    -999.25    -999.25   76.32740   76.32740   14.30980    9.35140    -999.25    -999.25   20.33730  -66.96630   -9.91130   20.33730
 5700.00000   11.23420  103.09400  114.75650    8.71410    -999.25   75.56010   75.56010    -999.25    -999.25  104.54680  104.54680    8.71410   11.23420    -999.25    -999.25   12.48370  -60.13470   -3.10520   12.48370
 5750.00000   11.90350  209.01350  223.99930    4.46430    -999.25   88.40550   88.40550    -999.25    -999.25   86.30280   86.30280    4.46430   11.90350    -999.25    -999.25    6.03900  -60.25660   -3.25260    6.03900
 5800.00000    9.42240   63.26010   69.38950   14.41140    -999.25   81.52500   81.52500   75.21500   85.96180  123.23880  123.23880   14.41140    9.42240    0.41360    0.41360   31.73680  -59.83160   -2.85310   31.73680
 5850.00000   12.40770  134.73840  147.46870    6.78110    -999.25   97.05560   97.05560   72.26090   76.03370   97.80260   97.80260    6.78110   12.40770    0.41330    0.41330   12.94220  -62.58640   -5.63330   12.94220
 5900.00000    7.73890    4.40660    4.04650  247.12770    -999.25   56.57060   56.57060   44.36220   64.16280   34.90020   34.90020  247.12770    7.73890    0.15210    0.15210  225.68410  -80.44270  -23.51510  225.68410
 5950.00000    8.52850    8.30290    8.09410  123.54670    -999.25   93.49300   93.49300  164.46490  188.75120  211.55400  211.55400  123.54670    8.52850    0.41130    0.41130  124.84180  -98.75950  -41.85740  124.84180
 6000.00000   10.24000  111.56780  122.33010    8.17460    -999.25   66.23010   66.23010   65.67650   72.78430   88.85430   88.85430    8.17460   10.24000    0.23200    0.23200   13.04410  -74.45170  -17.57500   13.04410
 6050.00000    6.67550   78.68200   90.59280   11.03840    -999.25   53.42950   53.42950   48.41870   58.13170   31.26060   31.26060   11.03840    6.67550    0.22080    0.22080   60.08850 -157.99080 -101.13960   60.08850
 6100.00000    6.52940   57.10700   63.02110   15.86770    -999.25   50.40360   50.40360   73.87540   72.37390   22.53960   22.53960   15.86770    6.52940    0.22890    0.22890   61.73050 -141.46660  -84.64090   61.73050
 6150.00000    9.07930  113.18940  121.07120    8.25960    -999.25   56.41040   56.41040  106.33450   96.44920   39.71690   39.71690    8.25960    9.07930    0.21580    0.21580   19.85830 -119.68080  -62.88060   19.85830
 6200.00000    9.17800   31.51250   35.17990   28.42530    -999.25   56.85130   56.85130    -999.25    -999.25   71.01980   71.01980   28.42530    9.17800    -999.25    -999.25   38.68570  -92.86360  -36.08880   38.68570
 6250.00000    9.05600   12.66040   20.13420   49.66680    -999.25   50.56660   50.56660    -999.25    -999.25   45.83470   45.83470   49.66680    9.05600    -999.25    -999.25   82.34670  -93.73700  -36.98770   82.34670
 6300.00000    7.82230  369.54820  363.62310    2.75010    -999.25   60.80080   60.80080    -999.25    -999.25   53.40570   53.40570    2.75010    7.82230    -999.25    -999.25   19.54750 -182.69820 -125.97440   19.54750
 6350.00000    8.91520   57.70950   66.08690   15.13160    -999.25   56.44330   56.44330    -999.25    -999.25   43.87890   43.87890   15.13160    8.91520    -999.25    -999.25   37.97280 -135.07880  -78.38040   37.97280
 6400.00000    8.90220   20.19930   22.08120   45.28740    -999.25   54.41140   54.41140    -999.25    -999.25   35.70920   35.70920   45.28740    8.90220    -999.25    -999.25   61.70980 -114.77850  -58.10560   61.70980
 6450.00000    8.27240   63.78680   72.65700   13.76330    -999.25   52.68520   52.68520    -999.25    -999.25   28.66020   28.66020   13.76330    8.27240    -999.25    -999.25   78.23110 -190.68610 -134.03870   78.23110
 6500.00000    9.32380   29.37910   32.82900   30.46090    -999.25   50.38310   50.38310    -999.25    -999.25   19.66930   19.66930   30.46090    9.32380    -999.25    -999.25   86.65040 -196.52880 -139.90690   86.65040
