~Version ---------------------------------------------------
VERS.      2.0 : CWLS log ASCII Standard -VERSION 2.0
WRAP.       NO : ONE LINE PER DEPTH STEP
CREA. 09/17/14 : LAS CREATION DATE
~Well ------------------------------------------------------
STRT.M                   450.0 : START DEPTH
STOP.M                  4200.0 : STOP DEPTH
STEP.M                50.00000 : STEP LENGTH
NULL.                  -999.25 : NULL VALUE
COMP.     CHEVRON STANDARD LTD : COMPANY
WELL. CHEVRON WEALD 3-22-52-19 : WELL
FLD .                          : FIELD
LOC .                          : LOCATION
CTRY.                   CANADA : COUNTRY
SRVC.   Schlumberger of Canada : SERVICE COMPANY
DATE.              29-Nov-1978 : LOGDATE
PROV.                  Alberta : PROVINCE
UWI .         100032205219W500 : UNIQUE WELL ID
SLAT.WGS84            53.50026 : SURFACE LATITUDE
SLON.WGS84           -116.7206 : SURFACE LONGITUDE
~Curve Information -----------------------------------------
DEPT    .M      : DEPTH METERS
CALDED  .MM     : CALIPER FROM DENSITY LOG [ADJ. TO RESISTIVITY LOG]
CALSED  .MM     : CALIPER FROM SONIC LOG [ADJ. TO RESISTIVITY LOG]
CALWS   .MM     : CALIPER [CALDED]
CONDWS  .MMHO   : CONDUCTIVITY [1000/DRESWS]
DCORWS  .KG/M3  : DENSITY CORRECTION [DRHOED]
DENWS   .KG/M3  : BULK DENSITY [M=2710 F=1000] [RHOBED]
DPHILSED.V/V    : DENSITY POROSITY [M=2710 F=1000] FROM DENSITY LOG [ADJ. TO RESISTIVITY LOG]
DPHISSED.V/V    : DENSITY POROSITY [M=2650 F=1000] FROM DENSITY LOG [ADJ. TO RESISTIVITY LOG]
DPOLSWS .V/V    : DENSITY POROSITY [M=2710 F=1000] [CAL. FROM DENWS]
DRESWS  .OHMM   : DEEP RESISTIVITY [ILDED]
DRHOED  .KG/M3  : DENSITY CORRECTION FROM DENSITY LOG [ADJ. TO RESISTIVITY LOG]
DTED    .US/M   : DELTA TIME FROM SONIC LOG
DTWS    .US/M   : DELTA TIME [DTED]
GRDED   .GAPI   : GAMMA RAY FROM DENSITY LOG [ADJ. TO RESISTIVITY LOG]
GRNED   .GAPI   : GAMMA RAY FROM NEUTRON LOG [CASEDHOLE] [ADJ. TO RESISTIVITY LOG]
GRRED   .GAPI   : GAMMA RAY FROM RESISTIVITY LOG
GRSED   .GAPI   : GAMMA RAY FROM SONIC LOG
GRWS    .GAPI   : GAMMA RAY [448 GRSED 463 GRDED3343 GRSED 4210 GRDED]
ILDED   .OHMM   : INDUCTION LOG DEEP RESISTIVITY
ILMED   .OHMM   : INDUCTION LOG MEDIUM RESISTIVITY
MRESWS  .OHMM   : MEDIUM RESISTIVITY [ILMED]
NEUTED  .NAPI   : NEUTRON FROM NEUTRON LOG [CASEDHOLE][ADJ. TO RESISTIVITY LOG]
NEUTWS  .NAPI   : NEUTRON [NEUTED]
NPHILSED.V/V    : NEUTRON POROSITY LIMESTONE FROM DENSITY LOG [ADJ. TO RESISTIVITY LOG]
NPHISSED.V/V    : NEUTRON POROSITY SANDSTONE FROM DENSITY LOG [ADJ. TO RESISTIVITY LOG]
NPOLSWS .V/V    : NEUTRON POROSITY LIMESTONE [NPHISSED CONVERTED FOR LIMESTONE SPL. TO NPHILSED@ 2997.8 M ]
RHOBED  .KG/M3  : BULK DENSITY FROM DENSITY LOG [ADJ. TO RESISTIVITY LOG]
SFLED   .OHMM   : SPHERICALLY FOCUSED LOG RESISTIVITY
SPRED   .MV     : SPONTANEOUS POTENTIAL FROM RESISTIVITY LOG [SPR IS DIVIDED BY 3 TO REDUCE READINGS]
SPWS    .MV     : SPONTANEOUS POTENTIAL [BASELINE 0 MV] [SPRED]
SRESWS  .OHMM   : SHALLOW RESISTIVITY [SFLED]
TENDED  .N      : TENSION FROM DENSITY LOG [ADJ. TO RESISTIVITY LOG]
TENSED  .N      : TENSION FROM SONIC LOG [ADJ. TO RESISTIVITY LOG]
~Params ----------------------------------------------------
PD  .                           GL : PERMANENT DATUM
EPD .FT                      981.3 : ELEVATION PERMANENT DATUM
LMF .                           KB : LOG MEASURED FROM
DAPD.FT                        7.5 : FEET ABOVE PERMANENT DATUM
DMF .                           KB : DRILLING MEASURED FROM
EKB .FT                      988.8 : KELLY BUSHING
EGL .FT                      981.3 : GROUND LEVEL
DATE.                     11/29/78 : RUN DATE
RUN .                            2 : RUN NUMBER
DD  .FT                       4238 : DEPTH DRILLER
DL  .FT                     4235.5 : DEPTH LOGGER
BLI .FT                     4231.7 : BOTTOM LOG INTERVAL
TLI .FT                       3354 : TOP LOG INTERVAL
DFT .                          GEL : DRILLING FLUID TYPE
DFD .                         1065 : DRILLING FLUID DENSITY
DFV .                           82 : DRILLING FLUID VISCOSITY
DFPH.                         10.5 : DRILLING FLUID PH
DFL .                          8.6 : DRILLING FLUID LOSS
MSS .                         CIRC : MUD SAMPLE SOURCE
TLAB.HRS                       500 : TIME LOGGER AT BOTTOM
LUN .                         7802 : LOGGING UNIT NUMBER
LUL .                          EDM : LOGGING UNIT LOCATION
ENGI.                      ROVELLI : RECORDING ENGINEER
WITN.              SPRAGUE BARROWS : WITNESSED BY
CLNT.                      A2DTECH : CLIENT CODE
ORIG. 6.5IN/100M 16.5IN/100M PRINT : ORIGIN OF DATA
UWI .             100032205219W500 : UNIQUE WELL ID
DICO.       A2D Technologies, Inc. : DIGITIZING COMPANY
~Other -----------------------------------------------------
~ASCII -----------------------------------------------------
# ...
 2650.00000  231.10860  238.60790  231.10860   77.73270    8.43410 2664.29420    -999.25   -0.01930    0.02670   12.86460    8.43410  223.33930  223.33930   85.20670   47.54200   79.72940   73.08420   85.20670   12.86460   15.45030   15.45030  217.65880  217.65880    -999.25    0.23510    0.19130 2664.29420    -999.25    -999.25    -999.25    -999.25  980.35990 2665.67770
 2700.00000  390.38210  327.74190  390.38210   32.38180   22.40320 1500.52320    -999.25    0.45000    0.70730   30.88150   22.40320  390.98080  390.98080   77.66740   51.03160   76.04930   70.82260   77.66740   30.88150   32.89720   32.89720  153.93610  153.93610    -999.25    0.44960    0.40790 1500.52320    -999.25    -999.25    -999.25    -999.25 1945.99740    -999.25
 2750.00000  227.85360  236.46440  227.85360   42.08490  -26.09170 2677.44730    -999.25   -0.01950    0.01900   23.76150  -26.09170  202.99290  202.99290   63.53450   43.31790   61.76350   54.62990   63.53450   23.76150   34.35380   34.35380  245.02520  245.02520    -999.25    0.20430    0.16080 2677.44730    -999.25    -999.25    -999.25    -999.25 2665.57740  234.69760
 2800.00000  226.68260  232.60410  226.68260   76.33700  -13.47540 2578.50420    -999.25    0.03980    0.07690   13.09980  -13.47540  217.12360  217.12360   63.18730   46.57890   59.31390   59.67120   63.18730   13.09980   15.19590   15.19590  245.71450  245.71450    -999.25    0.14410    0.10170 2578.50420    -999.25    -999.25    -999.25    -999.25 3718.26320  879.49800
 2850.00000  234.50390  232.21020  234.50390   30.06420   90.38840 2655.94650    -999.25   -0.00050    0.03160   33.26210   90.38840  206.77520  206.77520   84.59320   54.50440   85.05880   77.57960   84.59320   33.26210   45.76280   45.76280  243.53250  243.53250    -999.25    0.18780    0.14450 2655.94650    -999.25    -999.25    -999.25    -999.25 4358.20310 1641.04580
 2900.00000  258.36360  233.15030  258.36360   67.57580  144.40900 2557.03300    -999.25    0.05670    0.08950   14.79820  144.40900  228.74060  228.74060  118.26060   67.88510  108.41100  110.96030  118.26060   14.79820   15.17630   15.17630  225.59710  225.59710    -999.25    0.25660    0.21270 2557.03300    -999.25    -999.25    -999.25    -999.25 2195.99020 2202.34520
 2950.00000  240.54650  231.78200  240.54650   29.14280  126.49560 2520.21460    -999.25    0.08330    0.11100   34.31380  126.49560  220.86950  220.86950  111.18500   64.60020  104.66940  107.21100  111.18500   34.31380   69.86580   69.86580  242.31970  242.31970    -999.25    0.15550    0.11280 2520.21460    -999.25    -999.25    -999.25    -999.25 2932.59450  688.12240
 3000.00000  216.77770  227.20180  216.77770   20.59880    5.66510 2435.76660    0.16320    -999.25    0.16040   48.54660    5.66510  199.67780  199.67780   23.14060   25.49080   19.91050   24.14600   23.14060   48.54660   60.04940   60.04940  269.37760  269.37760    0.16080    -999.25    0.16080 2435.76660    -999.25    -999.25    -999.25    -999.25 2989.18750 1329.58480
 3050.00000  239.58960  227.33290  239.58960    6.29270   11.72570 2708.64210   -0.00210    -999.25    0.00080  158.91390   11.72570  165.22190  165.22190   36.04390   29.21220   34.31150   34.59170   36.04390  158.91390  460.73040  460.73040  301.37780  301.37780    0.07400    -999.25    0.07400 2708.64210    -999.25    -999.25    -999.25    -999.25 2001.80270  315.02540
 3100.00000  220.77000  244.26180  220.77000    7.33450  -13.02610 2887.74730   -0.11780    -999.25   -0.10390  136.34140  -13.02610  170.34360  170.34360   41.47440    -999.25   38.77480   43.77620   41.47440  136.34140  189.12430  189.12430    -999.25    -999.25    0.02140    -999.25    0.02140 2887.74730    -999.25    -999.25    -999.25    -999.25 1912.84990  711.71620
 3150.00000  222.13390  243.73370  222.13390    1.67120    8.12300 2958.17090   -0.15600    -999.25   -0.14510  598.38430    8.12300  166.13460  166.13460    8.17540    -999.25    8.92030   11.52680    8.17540  598.38430  766.22280  766.22280    -999.25    -999.25    0.00370    -999.25    0.00370 2958.17090    -999.25    -999.25    -999.25    -999.25 2591.49930 1767.14030
 3200.00000  220.43260  243.54320  220.43260   93.08990    2.93320 2775.18430   -0.04920    -999.25   -0.03810   10.74230    2.93320  192.23720  192.23720   73.50310    -999.25   67.66600   71.80690   73.50310   10.74230   12.44590   12.44590    -999.25    -999.25    0.16420    -999.25    0.16420 2775.18430    -999.25    -999.25    -999.25    -999.25 1477.59890  369.05420
 3250.00000  218.54870  244.29430  218.54870   31.72070    1.87280 2717.78880   -0.01190    -999.25   -0.00460   31.52520    1.87280  183.37570  183.37570   49.56920    -999.25   45.14940   51.64800   49.56920   31.52520   36.53480   36.53480    -999.25    -999.25    0.05120    -999.25    0.05120 2717.78880    -999.25    -999.25    -999.25    -999.25 1967.33190 1349.98550
 3300.00000  216.84780  244.03150  216.84780   44.80010  -11.59630 2704.22730   -0.00470    -999.25    0.00340   22.32140  -11.59630  191.89790  191.89790   61.13920    -999.25   60.85750   61.94380   61.13920   22.32140   25.45420   25.45420    -999.25    -999.25    0.08100    -999.25    0.08100 2704.22730    -999.25    -999.25    -999.25    -999.25 1539.20870 1931.17960
 3350.00000  215.45510  238.93220  215.45510    0.78360   -7.31190 2733.03120   -0.02540    -999.25   -0.01350 1276.08690   -7.31190    -999.25    -999.25   25.95090    -999.25    -999.25   70.74950   70.74950 1276.08690 1357.04600 1357.04600    -999.25    -999.25   -0.02010    -999.25   -0.02010 2733.03120    -999.25    -999.25    -999.25    -999.25 2959.17900 2596.26420
 3400.00000  191.29210  177.44730  191.29210    6.69750   69.78150 2222.71830    0.29140    -999.25    0.28500  149.30990   69.78150  157.74710  157.74710   11.31080    -999.25    -999.25   48.89140   48.89140  149.30990   76.18100   76.18100    -999.25    -999.25    0.03700    -999.25    0.03700 2222.71830  334.29280 -201.41860  -59.50900  334.29280    -999.25 4716.50730
 3450.00000  235.07810  181.27920  235.07810    3.96760  250.05980 2475.76170    0.13970    -999.25    0.13700  252.04170  250.05980  155.89490  155.89490   11.12170    -999.25    -999.25   40.00000   40.00000  252.04170 1509.13920 1509.13920    -999.25    -999.25    0.02290    -999.25    0.02290 2475.76170 1412.94040 -184.91570  -43.00610 1412.94040    -999.25 6212.21580
 3500.00000  175.60960  169.06040  175.60960    0.64300  199.34550 2541.93210    0.09920    -999.25    0.09830 1555.12590  199.34550  158.46360  158.46360   15.32490    -999.25    -999.25   40.05720   40.05720 1555.12590 1482.66460 1482.66460    -999.25    -999.25    0.00910    -999.25    0.00910 2541.93210 1420.73630 -207.53410  -65.62450 1420.73630    -999.25 7722.04640
 3550.00000  157.91830  169.01010  157.91830   12.13160   15.40370 2675.78170    0.02000    -999.25    0.02000   82.42960   15.40370  159.26850  159.26850    7.24980    -999.25    -999.25   30.42030   30.42030   82.42960  138.40640  138.40640    -999.25    -999.25    0.01190    -999.25    0.01190 2675.78170  174.23510 -162.38910  -20.47950  174.23510    -999.25  772.78810
 3600.00000  169.61330  166.23200  169.61330    0.62630  257.50900 2327.64940    0.29860    -999.25    0.22360 1596.60850  257.50900  156.16070  156.16070   38.50930    -999.25    -999.25   52.06170   52.06170 1596.60850 1856.80440 1856.80440    -999.25    -999.25    0.03120    -999.25    0.03120 2327.64940 1405.63540 -181.47030  -31.19160 1405.63540    -999.25 2598.65330
 3650.00000  183.35680  173.17260  183.35680   36.24400  205.69950 2595.74710    0.06510    -999.25    0.06680   27.59080  205.69950  189.21110  189.21110   65.26820    -999.25    -999.25   71.19210   71.19210   27.59080   44.11600   44.11600    -999.25    -999.25    0.09860    -999.25    0.09860 2595.74710   46.30270 -164.01690  -19.34370   46.30270    -999.25 4900.27150
 3700.00000  171.49780  170.34780  171.49780   55.09430   -2.38320 2652.83330    0.03430    -999.25    0.03340   18.15070   -2.38320  195.83930  195.83930   69.49980    -999.25    -999.25   72.48460   72.48460   18.15070   26.43540   26.43540    -999.25    -999.25    0.11450    -999.25    0.11450 2652.83330   28.18510 -164.76340  -25.69560   28.18510    -999.25 6386.77250
