~Version ---------------------------------------------------
VERS.      2.0 : CWLS log ASCII Standard -VERSION 2.0
WRAP.       NO : One line per depth step
CREA. 08/01/17 : LAS Creation Date
~Well ------------------------------------------------------
STRT.FT                           1450.0 : START DEPTH
STOP.FT                          10150.0 : STOP DEPTH
STEP.FT                         50.00000 : STEP LENGTH
NULL.                            -999.25 : NULL VALUE
COMP.               CHEVRON STANDARD LTD : COMPANY
WELL. CHEVRON GULF PASS CREEK 6-10-61-17 : WELL
FLD .                                    : FIELD
LOC .                                    : LOCATION
CTRY.                             CANADA : COUNTRY
SRVC.                       Schlumberger : SERVICE COMPANY
DATE.                        29-Nov-1977 : LOGDATE
PROV.                            Alberta : PROVINCE
UWI .                   100061006117W500 : UNIQUE WELL ID
SLAT.WGS84                      54.25885 : SURFACE LATITUDE
SLON.WGS84                     -116.4678 : SURFACE LONGITUDE
~Curve Information -----------------------------------------
DEPT    .FT    : Depth Curve
CALDED  .IN    : CALIPER FROM DENSITY LOG [ADJ TO GRSED]
CALSED  .IN    : CALIPER FROM SONIC LOG
CALWS   .IN    : CALIPER [CALSED]
CONDWS  .MMHO  : CONDUCTIVITY [1000/DRESWS]
DCORWS  .G/C3  : DENSITY CORRECTION [DRHOED]
DENWS   .G/C3  : BULK DENSITY RHOBED]
DPHILSED.V/V   : DENSITY POROSITY [M=2.71, F=1.00] FROM DENSITY LOG [ADJ TO GRSED]
DPHISSED.V/V   : DENSITY POROSITY [M=2.65, F=1.00] FROM DENSITY LOG [ADJ TO GRSED]
DPOLSWS .V/V   : DENSITY POROSITY [M=2.71, F=1.00] [CALCULATED FROM DENWS]
DRESWS  .OHMM  : DEEP RESISTIVITY [ILDED]
DRHOED  .G/C3  : DENSITY CORRECTION FROM DENSITY LOG[ADJ TO GRSED]
DTED    .US/F  : DELTA TIME FROM SONIC LOG
DTWS    .US/F  : DELTA TIME [DTED]
GRDED   .GAPI  : GAMMA RAY FROM DENSITY LOG[ADJ TO GRSED]
GRSED   .GAPI  : GAMMA RAY FROM SONIC LOG
GRWS    .GAPI  : GAMMA RAY [GRSED, CSG <1537']
ILDED   .OHMM  : INDUCTION LOG DEEP RESISTIVITY
ILMED   .OHMM  : INDUCTION LOG MEDIUM RESISTIVITY
LL8ED   .OHMM  : 8 INCH LATEROLOG RESISTIVITY
MRESWS  .OHMM  : MEDIUM RESISTIVITY [ILMED]
NPHILSED.V/V   : NEUTRON POROSITY LIMESTONE FROM DENSITY LOG [ADJ TO GRSED]
NPHISSED.V/V   : NEUTRON POROSITY SANDSTONE FROM DENSITY LOG [ADJ TO GRSED]
NPOLSWS .V/V   : NEUTRON POROSITY LIMESTONE [CONVERTED NPHISSED TO LIMESTONE SPL WITH NPHILSED @9598']
RHOBED  .G/C3  : BULK DENSITY FROM DENSITY LOG [ADJ TO GRSED]
SPRED   .MV    : SPONTANEOUS POTENTIAL FROM RESISTIVITY LOG
SPWS    .MV    : SPONTANEOUS POTENTIAL [BASELINE 0 MV] [SPRED]
SRESWS  .OHMM  : SHALLOW RESISTIVITY [LL8ED]
TENDED  .LBF   : TENSION FROM DENSITY LOG [ADJ TO GRSED]
TENSED  .LBF   : TENSION FROM SONIC LOG
~Params ----------------------------------------------------
PD  .                     GL : PERMANENT DATUM
LMF .                     GL : LOG MEASURED FROM
EKB .FT                 2726 : KELLY BUSHING
DATE.               11/29/77 : RUN DATE
RUN .                      1 : RUN NUMBER
DFD .                    9.7 : DRILLING FLUID DENSITY
DFV .                    145 : DRILLING FLUID VISCOSITY
DFPH.                    9.5 : DRILLING FLUID PH
DFL .                    7.6 : DRILLING FLUID LOSS
MSS .               FLOWLINE : MUD SAMPLE SOURCE
TCS .HRS                 7.5 : TIME CIRCULATED STOPPED
ENGI.              BIGG GUNN : RECORDING ENGINEER
WITN.               WILLIAMS : WITNESSED BY
CLNT.                A2DTECH : CLIENT CODE
ORIG.            2" 5" PRINT : ORIGIN OF DATA
UWI .       100061006117W500 : UNIQUE WELL ID
DICO. A2D Technologies, Inc. : DIGITIZING COMPANY
~Other -----------------------------------------------------
~ASCII -----------------------------------------------------
# ...
 7700.00000    -999.25    9.61760    9.61760    0.66540    -999.25    -999.25    -999.25    -999.25    -999.25 1502.91550    -999.25   48.45850   48.45850    -999.25   13.55410   13.55410 1502.91550  675.14710  987.63960  675.14710    -999.25    -999.25    -999.25    -999.25 -124.19350 -108.58670  987.63960    -999.25 1346.06610
 7750.00000    -999.25    9.17570    9.17570    2.55000    -999.25    -999.25    -999.25    -999.25    -999.25  392.15690    -999.25   48.23710   48.23710    -999.25   11.60250   11.60250  392.15690  252.34040  327.10800  252.34040    -999.25    -999.25    -999.25    -999.25 -120.35810 -105.14120  327.10800    -999.25 1381.83690
 7800.00000    -999.25    9.95910    9.95910    1.13930    -999.25    -999.25    -999.25    -999.25    -999.25  877.76590    -999.25   49.73020   49.73020    -999.25   14.07070   14.07070  877.76590  140.97210  948.00360  140.97210    -999.25    -999.25    -999.25    -999.25 -143.00350 -128.17840  948.00360    -999.25 1483.18590
 7850.00000    -999.25    8.26240    8.26240   30.80470    -999.25    -999.25    -999.25    -999.25    -999.25   32.46260    -999.25   52.20470   52.20470    -999.25   14.78460   14.78460   32.46260   50.74590  229.42980   50.74590    -999.25    -999.25    -999.25    -999.25 -142.96640 -128.53310  229.42980    -999.25 1334.54050
 7900.00000    -999.25    9.23100    9.23100    4.67850    -999.25    -999.25    -999.25    -999.25    -999.25  213.74390    -999.25   48.80150   48.80150    -999.25   15.98340   15.98340  213.74390  190.18500  257.79780  190.18500    -999.25    -999.25    -999.25    -999.25 -124.77630 -110.73480  257.79780    -999.25 1642.31290
 7950.00000    -999.25    9.45750    9.45750    0.65180    -999.25    -999.25    -999.25    -999.25    -999.25 1534.13540    -999.25   48.96950   48.96950    -999.25   21.11230   21.11230 1534.13540 1206.99080 1445.71780 1206.99080    -999.25    -999.25    -999.25    -999.25 -128.68540 -115.03770 1445.71780    -999.25 1660.47440
 8000.00000    -999.25    9.48440    9.48440    0.65580    -999.25    -999.25    -999.25    -999.25    -999.25 1524.80710    -999.25   48.47050   48.47050    -999.25   18.28290   18.28290 1524.80710  288.87740  900.03450  288.87740    -999.25    -999.25    -999.25    -999.25 -131.94660 -118.68880  900.03450    -999.25 1701.42060
 8050.00000    -999.25    9.48210    9.48210    0.65980    -999.25    -999.25    -999.25    -999.25    -999.25 1515.70420    -999.25   48.90450   48.90450    -999.25   18.29440   18.29440 1515.70420  267.17890 1211.93520  267.17890    -999.25    -999.25    -999.25    -999.25 -143.67260 -130.80660 1211.93520    -999.25 1699.07500
 8100.00000    -999.25    9.33240    9.33240   10.33960    -999.25    -999.25    -999.25    -999.25    -999.25   96.71580    -999.25   48.38590   48.38590    -999.25   14.00010   14.00010   96.71580   84.45820  159.42180   84.45820    -999.25    -999.25    -999.25    -999.25 -124.37420 -111.90000  159.42180    -999.25 1841.53980
 8150.00000    -999.25    9.05660    9.05660   10.40800    -999.25    -999.25    -999.25    -999.25    -999.25   96.07960    -999.25   49.38380   49.38380    -999.25   18.61560   18.61560   96.07960  143.04950  148.48890  143.04950    -999.25    -999.25    -999.25    -999.25 -132.05770 -119.97530  148.48890    -999.25 1826.15240
 8200.00000    -999.25    9.12350    9.12350    0.74510    -999.25    -999.25    -999.25    -999.25    -999.25 1343.75630    -999.25   47.19580   47.19580    -999.25   14.67170   14.67170 1343.75630  173.50680  947.24780  173.50680    -999.25    -999.25    -999.25    -999.25 -114.12110 -102.43240  947.24780    -999.25 1939.16090
 8250.00000    -999.25    9.31680    9.31680  122.62570    -999.25    -999.25    -999.25    -999.25    -999.25    8.15490    -999.25   54.83950   54.83950    -999.25   97.50060   97.50060    8.15490    9.70140   15.69920    9.70140    -999.25    -999.25    -999.25    -999.25  -28.97380  -17.67510   15.69920    -999.25 1969.69350
 8300.00000    -999.25    8.92890    8.92890   22.99130    -999.25    -999.25    -999.25    -999.25    -999.25   43.49470    -999.25   55.59680   55.59680    -999.25   54.60030   54.60030   43.49470   39.21300   50.63740   39.21300    -999.25    -999.25    -999.25    -999.25  -80.62620  -69.35880   50.63740    -999.25 2020.32850
 8350.00000    -999.25   10.16340   10.16340    2.99610    -999.25    -999.25    -999.25    -999.25    -999.25  333.77180    -999.25   50.07060   50.07060    -999.25   20.49070   20.49070  333.77180  180.56880  290.77800  180.56880    -999.25    -999.25    -999.25    -999.25  -99.02120  -87.75380  290.77800    -999.25 2109.22340
 8400.00000    -999.25    9.64780    9.64780    5.83050    -999.25    -999.25    -999.25    -999.25    -999.25  171.51110    -999.25   48.94570   48.94570    -999.25   27.82180   27.82180  171.51110   87.96250  123.52050   87.96250    -999.25    -999.25    -999.25    -999.25  -80.11270  -68.84530  123.52050    -999.25 2173.29380
 8450.00000    -999.25    9.48250    9.48250   45.36810    -999.25    -999.25    -999.25    -999.25    -999.25   22.28840    -999.25   52.45720   52.45720    -999.25   36.17450   36.17450   22.28840   22.82950   27.96310   22.82950    -999.25    -999.25    -999.25    -999.25  -63.62030  -52.35290   27.96310    -999.25 2302.43160
 8500.00000    -999.25    9.06730    9.06730    7.72350    -999.25    -999.25    -999.25    -999.25    -999.25  129.47440    -999.25   51.61690   51.61690    -999.25   37.92370   37.92370  129.47440  115.61430  205.94680  115.61430    -999.25    -999.25    -999.25    -999.25  -15.05160   -4.18270  205.94680    -999.25 2269.15070
 8550.00000    -999.25    9.09970    9.09970    1.83830    -999.25    -999.25    -999.25    -999.25    -999.25  543.96640    -999.25   51.13580   51.13580    -999.25   32.37800   32.37800  543.96640  321.77860  458.56790  321.77860    -999.25    -999.25    -999.25    -999.25  -41.45720  -33.07870  458.56790    -999.25 2302.73940
 8600.00000    -999.25    9.16960    9.16960    1.80460    -999.25    -999.25    -999.25    -999.25    -999.25  554.12900    -999.25   50.84240   50.84240    -999.25   31.49290   31.49290  554.12900  343.06550  485.85290  343.06550    -999.25    -999.25    -999.25    -999.25  -44.16210  -38.27400  485.85290    -999.25 2362.16340
 8650.00000    -999.25    9.18400    9.18400    2.30080    -999.25    -999.25    -999.25    -999.25    -999.25  434.63690    -999.25   50.71840   50.71840    -999.25   30.48860   30.48860  434.63690  367.75750  548.55550  367.75750    -999.25    -999.25    -999.25    -999.25  -37.06120  -33.66360  548.55550    -999.25 2385.88020
 8700.00000    -999.25    9.29970    9.29970   23.74400    -999.25    -999.25    -999.25    -999.25    -999.25   42.12070    -999.25   55.01000   55.01000    -999.25   37.88210   37.88210   42.12070   47.64900   53.83910   47.64900    -999.25    -999.25    -999.25    -999.25   -8.02060   -7.12580   53.83910    -999.25 2509.90700
 8750.00000    -999.25    9.84530    9.84530   79.54060    -999.25    -999.25    -999.25    -999.25    -999.25   12.57220    -999.25   61.70230   61.70230    -999.25   66.00260   66.00260   12.57220   14.05250   18.30390   14.05250    -999.25    -999.25    -999.25    -999.25   -9.41810  -11.00130   18.30390    -999.25 2561.76190
 8800.00000    -999.25    9.47070    9.47070   86.99890    -999.25    -999.25    -999.25    -999.25    -999.25   11.49440    -999.25   62.77820   62.77820    -999.25   60.65140   60.65140   11.49440   13.06430   15.93950   13.06430    -999.25    -999.25    -999.25    -999.25   -9.70010  -13.77380   15.93950    -999.25 1239.62220
 8850.00000    -999.25    9.47220    9.47220   75.96650    -999.25    -999.25    -999.25    -999.25    -999.25   13.16370    -999.25   61.64180   61.64180    -999.25   67.85900   67.85900   13.16370   14.92610   18.43510   14.92610    -999.25    -999.25    -999.25    -999.25   -8.39300  -14.95710   18.43510    -999.25 1305.45280
 8900.00000    -999.25    9.46450    9.46450   90.06820    -999.25    -999.25    -999.25    -999.25    -999.25   11.10270    -999.25   62.97060   62.97060    -999.25   72.22660   72.22660   11.10270   12.89930   15.68430   12.89930    -999.25    -999.25    -999.25    -999.25   -7.87630  -16.93080   15.68430    -999.25 1350.47050
