~Version ---------------------------------------------------
VERS.      2.0 : CWLS log ASCII Standard -VERSION 2.0
WRAP.       NO : One line per depth step
CREA. 08/01/17 : LAS Creation Date
~Well ------------------------------------------------------
STRT.FT                          1050.0 : START DEPTH
STOP.FT                         10150.0 : STOP DEPTH
STEP.FT                        50.00000 : STEP LENGTH
NULL.                           -999.25 : NULL VALUE
COMP.        WESTCOAST PETROLEUM CO LTD : COMPANY
WELL. WESTCOAST FINA HSOUND 10-19-61-16 : WELL
FLD .                                WC : FIELD
LOC .                                   : LOCATION
CTRY.                            CANADA : COUNTRY
SRVC.                      Schlumberger : SERVICE COMPANY
DATE.                       26-Jun-1972 : LOGDATE
PROV.                           Alberta : PROVINCE
UWI .                  100101906116W500 : UNIQUE WELL ID
SLAT.WGS84                     54.29359 : SURFACE LATITUDE
SLON.WGS84                    -116.3826 : SURFACE LONGITUDE
~Curve Information -----------------------------------------
DEPT  .FT    : Depth Curve
CALSED.IN    : CALIPER FROM BCS LOG
CALWS .IN    : CALIPER [CALSED]
CILDED.MMHO  : DEEP INDUCTION CONDUCTIVITY FROM DILL LOG
CONDWS.MMHO  : CONDUCTIVITY [1000/DRESWS]
DRESWS.OHMM  : DEEP RESISTIVITY [1000/CILDED IF ILDED<1, ILDED]
DTED  .US/F  : DELTA T FROM BCS LOG [ADJ. TO ILDED]
DTWS  .US/F  : COMPRESSIONAL SONIC [DTED]
GRSED .GAPI  : GAMMA RAY FROM BCS LOG [ADJ. TO ILDED]
GRWS  .GAPI  : GAMMA RAY [GRSED]
ILDED .OHMM  : DEEP INDUCTION RESISTIVITY FROM DILL LOG
ILMED .OHMM  : MEDIUM INDUCTION RESISTIVITY FROM DILL LOG
LL8ED .OHMM  : LATEROLOG 8 FROM DILL LOG
MCALED.IN    : MLT (MICROLOG) CALIPER FROM MCL LOG
MRESWS.OHMM  : MEDIUM RESISTIVITY [ILMED]
SPRED .MV    : SPONTANEOUS POTENTIAL FROM DILL LOG
SPWS  .MV    : SPONTANEOUS POTENTIAL [BASELINED 0 MV, SPRED]
SRESWS.OHMM  : SHALLOW RESISTIVITY [LL8ED]
~Params ----------------------------------------------------
PD  .                     GL : PERMANENT DATUM
EPD .FT                 2935 : ELEVATION PERMANENT DATUM
LMF .                     KB : LOG MEASURED FROM
DAPD.FT                   18 : FEET ABOVE PERMANENT DATUM
EKB .FT                 2953 : KELLY BUSHING
EGL .FT                 2935 : GROUND LEVEL
DATE.               06/26/72 : RUN DATE
RUN .                      1 : RUN NUMBER
DD  .FT                10200 : DEPTH DRILLER
DL  .FT                10200 : DEPTH LOGGER
BLI .FT                10194 : BOTTOM LOG INTERVAL
TLI .FT                 1040 : TOP LOG INTERVAL
CBD .FT                 1040 : CASING BOTTOM DRILLER
CBL .FT                 1040 : CASING BOTTOM LOGGER
BS  .IN                 8.75 : BIT SIZE
BSD .FT                10200 : BIT SIZE AT DEPTH
DFT .               CHEM GEL : DRILLING FLUID TYPE
DFD .                    8.9 : DRILLING FLUID DENSITY
DFV .                     90 : DRILLING FLUID VISCOSITY
DFPH.                   10.5 : DRILLING FLUID PH
DFL .                    9.6 : DRILLING FLUID LOSS
MSS .               FLOWLINE : MUD SAMPLE SOURCE
RMS .OHMM               1.97 : RESISTIVITY MUD SAMPLE
MST .DEGF                 74 : MUD SAMPLE TEMPERATURE
RMF .OHMM               1.62 : RESISTIVITY MUD FILTRATE SAMPLE
MFST.DEGF                 75 : MUD FILTRATE SAMPLE TEMPERATURE
RMC .OHMM                  2 : RESISTIVITY MUD CAKE
MCST.DEGF                 73 : MUD CAKE SAMPLE TEMPERATURE
RMB .OHMM              0.667 : RESISTIVITY MUD AT BHT
TCS .HRS                 3.5 : TIME CIRCULATED STOPPED
LUN .                   5628 : LOGGING UNIT NUMBER
LUL .                    EDM : LOGGING UNIT LOCATION
ENGI.                  LEITH : RECORDING ENGINEER
WITN.    CHAUDHRY BERTHIAUME : WITNESSED BY
CLNT.                A2DTECH : CLIENT CODE
ORIG.            2" 5" PRINT : ORIGIN OF DATA
UWI .       100101906116W500 : UNIQUE WELL ID
DICO. A2D Technologies, Inc. : DIGITIZING COMPANY
~Other -----------------------------------------------------
~ASCII -----------------------------------------------------
# ...
 5150.00000    9.65520    9.65520    -999.25  261.58840    3.82280   99.31090   99.31090  189.25120  189.25120    3.82280    4.23410    7.30850   10.36010    4.23410  -42.61760   -3.20160    7.30850
 5200.00000   10.05940   10.05940    -999.25  255.29090    3.91710   86.54440   86.54440   86.58610   86.58610    3.91710    4.14460    5.20510   11.86630    4.14460  -43.12860   -4.35100    5.20510
 5250.00000   10.03440   10.03440    -999.25  222.64280    4.49150   90.84270   90.84270   92.97340   92.97340    4.49150    4.71760    5.78800   11.17870    4.71760  -41.68270   -3.34050    5.78800
 5300.00000    8.89060    8.89060    -999.25   69.74040   14.33890   69.58060   69.58060   64.19440   64.19440   14.33890   13.67800   19.87330    8.81080   13.67800  -43.30030   -5.05930   19.87330
 5350.00000    9.58370    9.58370    -999.25  152.85380    6.54220   78.53470   78.53470   84.31900   84.31900    6.54220    5.91580    7.44180   10.14390    5.91580  -45.02510   -7.13860    7.44180
 5400.00000    9.54770    9.54770    -999.25  153.44250    6.51710   84.68500   84.68500   63.50330   63.50330    6.51710    6.76020    8.25940    9.53340    6.76020  -43.40200   -5.87020    8.25940
 5450.00000    9.45890    9.45890    -999.25  111.13700    8.99790   77.11560   77.11560   74.25930   74.25930    8.99790    8.49370   10.44660    9.57520    8.49370  -44.11450   -6.93730   10.44660
 5500.00000    9.35890    9.35890    -999.25   97.92690   10.21170   71.72790   71.72790   42.57150   42.57150   10.21170    9.30070   10.75840    9.26960    9.30070  -46.66060   -9.83800   10.75840
 5550.00000    9.53730    9.53730    -999.25  146.49650    6.82610   84.74560   84.74560   86.21670   86.21670    6.82610    7.17350   11.27770    9.61060    7.17350  -42.67880   -6.21080   11.27770
 5600.00000    9.62420    9.62420    -999.25  102.03040    9.80100  139.76850  139.76850   57.69710   57.69710    9.80100   10.88720   12.08730    9.38350   10.88720  -45.87200   -9.75870   12.08730
 5650.00000    9.08750    9.08750    -999.25   89.37110   11.18930   62.67430   62.67430   63.51690   63.51690   11.18930   10.31090   12.29820    9.24410   10.31090  -44.12450   -8.36570   12.29820
 5700.00000   10.25080   10.25080    -999.25   25.25220   39.60050  124.44630  124.44630   56.61090   56.61090   39.60050   24.96220   84.27050   10.61220   24.96220  -47.65930  -12.25520   84.27050
 5750.00000    9.58690    9.58690    -999.25   75.84320   13.18510   67.98950   67.98950   51.99260   51.99260   13.18510   11.87110   24.92290    9.83590   11.87110  -56.64350  -21.59390   24.92290
 5800.00000    8.94120    8.94120    -999.25   65.14960   15.34930   68.84470   68.84470   70.68020   70.68020   15.34930   13.85700   17.67240    9.16140   13.85700  -46.57330  -11.87830   17.67240
 5850.00000    9.20270    9.20270    -999.25   80.71290   12.38960   75.14360   75.14360   69.80200   69.80200   12.38960   11.64580   16.01860    9.39420   11.64580  -53.42820  -19.08790   16.01860
 5900.00000    9.23560    9.23560    -999.25  103.14380    9.69520   72.09260   72.09260   70.12650   70.12650    9.69520    9.17080   11.86190    9.17810    9.17080  -51.02850  -17.04270   11.86190
 5950.00000    9.20600    9.20600    -999.25   76.36440   13.09510   64.00770   64.00770   51.24660   51.24660   13.09510   12.23970   19.95410    9.35340   12.23970  -57.05760  -23.42650   19.95410
 6000.00000    9.39300    9.39300    -999.25  205.49490    4.86630   82.12150   82.12150   85.58950   85.58950    4.86630    5.23840    5.14610   10.12710    5.23840  -43.75120  -10.47470    5.14610
 6050.00000    9.50690    9.50690    -999.25  107.38600    9.31220   73.21240   73.21240   77.54260   77.54260    9.31220    8.66110   11.70190    9.83710    8.66110  -43.76230  -10.84040   11.70190
 6100.00000    9.18510    9.18510    -999.25   58.34580   17.13920   67.85040   67.85040   49.65510   49.65510   17.13920   14.47770   24.75150    9.20860   14.47770  -48.75700  -16.18970   24.75150
 6150.00000    9.04400    9.04400    -999.25   96.37630   10.37600   72.91310   72.91310   38.51320   38.51320   10.37600    7.75880   23.79560    8.86010    7.75880 -105.99930  -73.78660   23.79560
 6200.00000    8.81110    8.81110    -999.25  127.42590    7.84770   73.74810   73.74810   36.15230   36.15230    7.84770    5.90340   18.04180    8.91000    5.90340  -96.52110  -64.66300   18.04180
 6250.00000    9.69360    9.69360    -999.25  207.51620    4.81890   84.94750   84.94750   82.49750   82.49750    4.81890    4.54860    6.78740   11.52490    4.54860  -44.10320  -12.59970    6.78740
 6300.00000    9.97930    9.97930    -999.25  223.91900    4.46590   86.63520   86.63520   96.50140   96.50140    4.46590    4.22130    6.14470   10.22350    4.22130  -42.54630  -11.06980    6.14470
 6350.00000    9.14400    9.14400    -999.25   91.31000   10.95170   76.96660   76.96660   75.91820   75.91820   10.95170   10.02330   13.00030    9.02590   10.02330  -43.02730   -8.92670   13.00030
 6400.00000    9.47960    9.47960    -999.25   90.75230   11.01900   72.61690   72.61690   71.60240   71.60240   11.01900    8.74240   22.71120   10.69070    8.74240  -41.52270   -4.79810   22.71120
 6450.00000    8.85570    8.85570    -999.25    5.57960  179.22550   59.02680   59.02680   29.12140   29.12140  179.22550  169.36280  281.02070    8.81870  169.36280  -66.22890  -26.59460  281.02070
 6500.00000    8.85610    8.85610    -999.25   39.70460   25.18600   99.75840   99.75840   68.01570   68.01570   25.18600   22.82020   29.31940    8.76350   22.82020  -63.77130  -21.12710   29.31940
 6550.00000    8.15870    8.15870    -999.25  462.77010    2.16090   74.76410   74.76410   17.93940   17.93940    2.16090    1.23430   10.88960    7.73150    1.23430 -156.49200 -110.83780   10.88960
 6600.00000    8.19550    8.19550    -999.25  116.25880    8.60150   57.89250   57.89250   12.88030   12.88030    8.60150    5.74640   40.06210    7.67390    5.74640 -147.87840  -99.21420   40.06210
 6650.00000    9.07520    9.07520    -999.25   32.81290   30.47580   50.03950   50.03950   13.33830   13.33830   30.47580   22.32020   91.46880    9.45990   22.32020  -95.80390  -44.12970   91.46880
 6700.00000    8.93860    8.93860    -999.25  216.50650    4.61880   60.13630   60.13630   28.60500   28.60500    4.61880    4.02630   16.19010    8.98990    4.02630 -112.51090  -57.82680   16.19010
 6750.00000    8.90990    8.90990    -999.25   20.95550   47.72010   53.01220   53.01220   16.01800   16.01800   47.72010   42.88850   47.91830    8.93150   42.88850  -86.79860  -29.10450   47.91830
 6800.00000    8.64770    8.64770    -999.25   13.99520   71.45320   51.44220   51.44220    8.73560    8.73560   71.45320   36.95730  162.06520    8.60350   36.95730 -166.46090 -105.75680  162.06520
 6850.00000    8.29580    8.29580    -999.25   43.69180   22.88760   52.94610   52.94610   10.60560   10.60560   22.88760   13.14580  125.18770    8.13690   13.14580 -192.96810 -129.25400  125.18770
 6900.00000    8.91600    8.91600    -999.25  167.08160    5.98510   60.16490   60.16490   80.28390   80.28390    5.98510    4.48250    7.21780    9.10740    4.48250  -98.42700  -31.70300    7.21780
 6950.00000    8.91360    8.91360    -999.25   80.36650   12.44300   39.97890   39.97890   66.81800   66.81800   12.44300   11.35810   18.27590    8.97050   11.35810  -85.15960  -15.42560   18.27590
 7000.00000    9.10250    9.10250    -999.25  159.39050    6.27390   65.16080   65.16080   36.10800   36.10800    6.27390    5.90440    7.82910    9.10370    5.90440  -79.89660   -7.13550    7.82910
 7050.00000    8.93010    8.93010    -999.25   16.18800   61.77420   52.93220   52.93220   39.20460   39.20460   61.77420   50.44570  130.41380    8.96360   50.44570  -88.75050  -19.95240  130.41380
 7100.00000    8.92130    8.92130    -999.25    4.65120  214.99650   50.24370   50.24370   12.04320   12.04320  214.99650  160.51890  417.26470    8.88540  160.51890  -87.70930  -23.16560  417.26470
 7150.00000    8.79610    8.79610    -999.25   18.00400   55.54320   54.16050   54.16050   25.43710   25.43710   55.54320   48.23600   73.82430    8.86100   48.23600  -75.73090  -15.44170   73.82430
