~Version ---------------------------------------------------
VERS. 2.0 : CWLS log ASCII Standard -VERSION 2.0
WRAP.  NO : ONE LINE PER DEPTH STEP
~Well ------------------------------------------------------
STRT.F                  1500.0 : START DEPTH
STOP.F                 10050.0 : STOP DEPTH
STEP.F                50.00000 : STEP LENGTH
NULL.                  -999.25 : NULL VALUE
COMP.     CHEVRON STANDARD LTD : COMPANY
WELL. CHEVRON PEMBINA 6-3-51-7 : WELL
FLD .                          : FIELD
LOC .                          : LOCATION
CTRY.                   CANADA : COUNTRY
SRVC.             Schlumberger : SERVICE COMPANY
DATE.              05-Jul-1978 : LOGDATE
PROV.                  Alberta : PROVINCE
UWI .         100060305107W500 : UNIQUE WELL ID
SLAT.WGS84            53.37366 : SURFACE LATITUDE
SLON.WGS84           -114.9508 : SURFACE LONGITUDE
~Curve Information -----------------------------------------
DEPT   .F    0   1   0  0 : 1 MEASURED DEPTH
GRD    .GAPI 45 310 01 00 : GAMMA RAY FROM DENSITY LOG
RHOB   .G/C3 45 350 01 00 : BULK DENSITY
DCOR   .G/C3 45 356 01 00 : DENSITY CORRECTION
TEND   .LB   45 635 00 00 : TENSION FROM DENSITY LOG
NPHI_SS.DEC  42 890 03 00 : NEUTRON POROSITY SANDSTONE
CALD   .IN   45 280 60 00 : CALIPER FROM DENSITY LOG
DPHI_SS.DEC  45 890 12 00 : DENSITY POROSITY SANDSTONE
NPHI_LS.DEC  42 890 01 00 : NEUTRON POROSITY LIMESTONE
DPHI_LS.DEC  45 890 10 00 : DENSITY POROSITY LIMESTONE
GRS    .GAPI 60 310 01 00 : GAMMA RAY FROM SONIC LOG
DT     .US/F 60 500 00 00 : DELTA-T (INTERVAL TRANSIT TIME)
CALS   .IN   60 280 50 00 : CALIPER FROM SONIC LOG
TENS   .LB   60 635 00 00 : TENSION FROM SONIC LOG
SPR    .MV   07 010 01 00 : SPONTANEOUS POTENTIAL FROM RESISTIVITY LOG
ILD    .OHMM 07 120 46 00 : INDUCTION DEEP RESISTIVITY
ILM    .OHMM 07 120 44 00 : INDUCTION MEDIUM RESISTIVITY
SFL    .OHMM 07 220 01 00 : SPHERICALLY FOCUSED LOG
~Params ----------------------------------------------------
PD  .                     GL : PERMANENT DATUM
EPD .FT               2688.6 : ELEVATION PERMANENT DATUM
LMF .                     KB : LOG MEASURED FROM
DAPD.FT                 17.4 : FEET ABOVE PERMANENT DATUM
EKB .FT                 2706 : KELLY BUSHING
EGL .FT               2688.6 : GROUND LEVEL
DATE.                0705/78 : RUN DATE
RUN .                      1 : RUN NUMBER
DD  .FT              3066.28 : DEPTH DRILLER
DL  .FT              3065.67 : DEPTH LOGGER
BLI .FT              3064.76 : BOTTOM LOG INTERVAL
TLI .FT               473.96 : TOP LOG INTERVAL
CBD .FT               473.96 : CASING BOTTOM DRILLER
CBL .FT               472.44 : CASING BOTTOM LOGGER
BS  .IN                 8.75 : BIT SIZE
BSD .FT              3066.28 : BIT SIZE AT DEPTH
DFT .                    GEL : DRILLING FLUID TYPE
DFD .                    110 : DRILLING FLUID DENSITY
DFV .                     75 : DRILLING FLUID VISCOSITY
DFPH.                    9.5 : DRILLING FLUID PH
MSS .            CIRCULATION : MUD SAMPLE SOURCE
RMS .OHMM               0.33 : RESISTIVITY MUD SAMPLE
MST .DEGF                 58 : MUD SAMPLE TEMPERATURE
RMF .OHMM               0.14 : RESISTIVITY MUD FILTRATE SAMPLE
MFST.DEGF                 68 : MUD FILTRATE SAMPLE TEMPERATURE
RMC .OHMM               0.15 : RESISTIVITY MUD CAKE
MCST.DEGF                 68 : MUD CAKE SAMPLE TEMPERATURE
TCS .HRS                   8 : TIME CIRCULATED STOPPED
LUN .                   7738 : LOGGING UNIT NUMBER
LUL .                    EDM : LOGGING UNIT LOCATION
ENGI.                ALVAREZ : RECORDING ENGINEER
WITN.                SPRAGUE : WITNESSED BY
CLNT.                A2DTECH : CLIENT CODE
ORIG.            2" 5" PRINT : ORIGIN OF DATA
UWI .       100060305107W500 : UNIQUE WELL ID
DICO. A2D Technologies, Inc. : DIGITIZING COMPANY
~Other -----------------------------------------------------
~ASCII -----------------------------------------------------
# ...
 5600.00000   81.55010    2.19730   -0.01400 8528.12110    0.42260   10.97460    0.40820    -999.25    -999.25   97.42900   86.06530    9.30770 9177.72270  -25.54270   10.20140   11.50490   13.32940
 5650.00000   96.82190    2.23670    0.04690 8478.76560    0.33770   10.57560    0.25910    -999.25    -999.25  111.30310   83.06480    9.06940 8753.14750  -25.43530    9.38320   10.07650   13.00300
 5700.00000   93.34260    2.10080    0.05070 8347.49510    0.42450   13.75960    0.34990    -999.25    -999.25  101.72310   80.43380   10.41960 8863.22560  -24.97150    6.92780    7.43270    7.51870
 5750.00000   91.88800    2.57630   -0.03780 8382.31350    0.28100   10.89210    0.05550    -999.25    -999.25   96.55080   72.66290    9.29880 8484.11040  -22.84690   12.65180   14.72420   14.76780
 5800.00000   41.97290    2.35650    0.03380 8351.05180    0.22390    8.51330    0.17210    -999.25    -999.25   44.38270   70.60650    7.88540 9196.07320  -73.09390    9.52140   15.21080   22.09150
 5850.00000   79.83060    1.90650    0.08290 7865.16750    0.31800   12.78930    0.35450    -999.25    -999.25   90.14100   81.71330   10.20940 8742.75490  -19.67430    9.14780   10.85060    9.25620
 5900.00000   51.16080    2.46830   -0.01560 8267.64360    0.17380   10.43820    0.08500    -999.25    -999.25   55.82410   69.32750    9.23780 8935.20900  -39.33030   12.39170   14.09280   15.67660
 5950.00000   84.90660    2.01340    0.00980 8238.52730    0.43870   12.67880    0.44710    -999.25    -999.25   84.06940   91.00990   11.34330 8793.38280  -25.31220    4.52900    4.83580    7.33930
 6000.00000   24.77580    2.56170   -0.04000 8081.01810    0.06990    9.13230    0.06740    -999.25    -999.25   22.47930   54.72940    8.22310 8675.87990  -55.79580   75.15970   79.91130  103.59070
 6050.00000   34.04870    2.64770   -0.04430 7239.44290    -999.25   10.35740    -999.25    0.05880    0.04490   37.91230   57.55420    8.95900 7518.20410  -56.49810   17.95560   18.85050   21.35560
 6100.00000   64.95000    2.63810   -0.04170 8920.99320    -999.25   10.58630    -999.25    0.10260    0.03270   72.13510   57.19150    9.23650 8951.88280  -36.19120   18.68680   22.01320   29.55730
 6150.00000   19.25140    2.62900   -0.04760 8740.48440    -999.25   10.05100    -999.25    0.00880    0.03390   21.73810   51.34530    9.13190 8846.16110  -69.12130  756.25710  190.38690  622.73960
 6200.00000   32.36640    2.66970   -0.04330 8757.12400    -999.25    9.97680    -999.25    0.00610    0.01150   31.83570   50.80160    8.79380 8655.70020  -38.34750  154.30330  128.97870  181.08240
 6250.00000   44.10160    2.66230   -0.05020 8490.49220    -999.25    9.61530    -999.25    0.01880    0.01030   48.10140   53.78540    8.58760 8483.29980  -36.84640   52.86640   57.34200   59.26260
 6300.00000   30.38580    2.62840   -0.07120 8450.10060    -999.25    9.44630    -999.25    0.02660    0.04190   36.52030   70.81930    8.52720 8345.56540  -37.12720   59.21590   63.81650   71.35320
 6350.00000   37.07660    2.68360   -0.04690 8343.31540    -999.25    9.58300    -999.25    0.02440    0.02660   39.25210   54.79570    8.52390 8370.37600  -34.54440   62.07050   68.24990   72.18780
 6400.00000   32.20720    2.67150   -0.04280 8265.41110    -999.25    9.55330    -999.25    0.02270    0.03030   37.77560   53.99300    8.52990 8289.79200  -32.60910   87.84940   97.07440  114.62630
 6450.00000   31.15490    2.67600   -0.03790 8225.27250    -999.25    9.23350    -999.25    0.01760    0.02590   35.32450   53.13130    8.32260 8234.17870  -35.18120  134.29360  125.64780  153.87240
 6500.00000   33.90370    2.64830   -0.05490 8179.24020    -999.25    9.17410    -999.25    0.02400    0.03620   39.65720   53.48560    8.30770 8147.69780  -33.16210  150.98120  147.66500  163.70400
 6550.00000   48.73500    2.65410   -0.05370 7912.16260    -999.25    9.20030    -999.25    0.03050    0.02010   52.53120   54.97670    8.30460 8231.02540  -36.35740  523.20780  388.02190  416.72330
 6600.00000   17.45400    2.61120   -0.01290 7860.45510    -999.25    9.91920    -999.25    0.00220    0.04450   19.34960   50.94500    8.75320 8080.89360  -72.87000 1510.99950  192.70000 1118.91560
 6650.00000   16.83400    2.56130    0.08550 7902.05620    -999.25   10.53400    -999.25    0.06320    0.07410   16.78910   51.67500    8.51660 7934.75390 -117.27210   47.33910   49.45530   83.05660
 6700.00000   18.84230    2.51310    0.00660 7910.38570    -999.25   10.75120    -999.25    0.08310    0.13420   23.58770   51.56940    8.46490 8007.72170 -108.77020   13.88840   19.35200   57.94160
 6750.00000   15.12520    2.80420   -0.02650 8737.71970    -999.25    9.89390    -999.25    0.02720    0.01150   15.01850   47.38180    8.47850 7766.31150 -104.09310  110.88080  249.58030 1260.31300
 6800.00000   16.57180    2.64910    0.05290 8694.10450    -999.25    9.17610    -999.25    0.06340    0.04350   17.44460   47.25760    8.15440 7972.15330 -128.67940   68.74470  112.55000  313.15630
 6850.00000   16.76710    2.59910   -0.00600 8657.24510    -999.25    8.56310    -999.25    0.11730    0.06230   18.51480   50.63340    7.65310 7510.78420 -128.47690   11.03650   17.32980   56.06400
 6900.00000   16.06650    2.55200   -0.02420 8535.33110    -999.25    8.52590    -999.25    0.17340    0.09540   15.41060   55.94110    7.59050 7453.71340 -153.60460    4.27790    6.16510   22.51800
 6950.00000   16.66550    2.64440   -0.01570 8227.84380    -999.25    8.57230    -999.25    0.11380    0.04530   17.47000   51.01640    7.60940 7175.65430 -148.28260    8.81740   14.24060  113.03930
 7000.00000   16.59450    2.60730   -0.01030 8075.71390    -999.25    8.44080    -999.25    0.12820    0.05000   18.66860   50.69550    7.66680 7000.08890 -147.51150   15.42570   27.58100  132.83970
 7050.00000   15.02320    2.63040   -0.02200 8118.95900    -999.25    8.93190    -999.25    0.13390    0.03350   16.79680   51.91280    7.89650 10446.59570 -147.24240   10.52810   12.08580   33.27240
 7100.00000   14.17830    2.58960   -0.00010 7981.53320    -999.25    8.40430    -999.25    0.14740    0.06650   16.26700   51.44080    7.51350 10144.37790 -149.62170    7.60780   11.65390   79.59520
 7150.00000   12.98510    2.74850   -0.05200 7597.50390    -999.25    8.71590    -999.25    0.05800   -0.03290   13.85960   47.30080    8.07650 10155.49220 -127.82470   70.33310  150.41690  384.84990
 7200.00000   14.66650    2.93750   -0.04100 7771.56880    -999.25    9.09190    -999.25    0.00270   -0.10520   15.00830   48.05310    8.19000 9904.91800 -103.30290  203.42940  293.10300 1500.67270
 7250.00000   75.80130    2.63640   -0.04830 7507.58690    -999.25    9.16640    -999.25    0.15370    0.05210   88.04590   56.93540    8.26880 9599.56150  -37.36150   10.07260   12.03300   11.73960
 7300.00000   23.47450    2.62460    0.02590 7702.58540    -999.25    9.69030    -999.25    0.09420    0.03540   25.76980   48.24320    8.17110 9773.10450 -109.32110   32.63860   58.74650  174.22530
 7350.00000   20.92740    2.68890   -0.05290 7438.40330    -999.25    9.00070    -999.25    0.08440    0.00170   24.79400   49.65000    7.97760 9723.78520 -114.22400   43.26810   55.82230  104.20830
 7400.00000   51.15300    2.70080   -0.02630 7301.60450    -999.25    9.16720    -999.25    0.13010   -0.00100   51.95460   52.72700    8.21590 9121.25100  -56.67070   26.82240   29.58710   40.36860
 7450.00000   16.88310    2.64670   -0.03880 8858.23830    -999.25    8.83280    -999.25    0.14760    0.03150   18.87630   54.83540    7.96970 9442.73340 -138.63980    6.82320    8.86570   34.15090
 7500.00000   23.38170    2.69840    0.03340 8444.89160    -999.25    9.22580    -999.25    0.09310    0.01320   23.34510   49.13360    8.27120 9261.05760  -72.80090   86.03930  102.59880  169.96130
 7550.00000   73.11440    2.62400   -0.04610 8552.67290    -999.25    9.08820    -999.25    0.12570    0.05220   80.56130   58.38290    8.24220 9294.45120  -48.03380   11.28070   11.95540   12.40860
 7600.00000   33.66080    2.66250   -0.01870 8459.15820    -999.25    9.00750    -999.25    0.02490    0.03780   36.24630   51.09100    8.14490 8799.60060  -26.72880  191.42910  229.67570  249.51620
