~Version ---------------------------------------------------
VERS.      2.0 : CWLS log ASCII Standard -VERSION 2.0
WRAP.       NO : One line per depth step
CREA. 09/27/13 : LAS Creation Date
~Well ------------------------------------------------------
STRT.M                        400.0 : START DEPTH
STOP.M                       2600.0 : STOP DEPTH
STEP.M                     50.00000 : STEP LENGTH
NULL.                       -999.25 : NULL VALUE
COMP.         UNOCAL CANADA LIMITED : COMPANY
WELL. UCEL ET AL TWINING 6-22-33-25 : WELL
FLD .                               : FIELD
LOC .                               : LOCATION
CTRY.                        CANADA : COUNTRY
SRVC.                  Schlumberger : SERVICE COMPANY
DATE.                   26-Aug-1992 : LOGDATE
PROV.                       Alberta : PROVINCE
UWI .              100062203325W400 : UNIQUE WELL ID
SLAT.WGS84                 51.84227 : SURFACE LATITUDE
SLON.WGS84                -113.4694 : SURFACE LONGITUDE
~Curve Information -----------------------------------------
DEPT    .M      : DEPTH METER
AIBDED  .MM     : AIT INPUT BHOLE DIAMETER FROM AIT LOG
AT10ED  .OHMM   : 10 INCH RESISTIVITY TWO FOOT RESOLUTION FROM AIT LOG
AT20ED  .OHMM   : 20 INCH RESISTIVITY TWO FOOT RESOLUTION FROM AIT LOG
AT30ED  .OHMM   : 30 INCH RESISTIVITY TWO FOOT RESOLUTION FROM AIT LOG
AT60ED  .OHMM   : 60 INCH RESISTIVITY TWO FOOT RESOLUTION FROM AIT LOG
AT90ED  .OHMM   : 90 INCH RESISTIVITY TWO FOOT RESOLUTION FROM AIT LOG
CAL2ED  .MM     : CALIPER 2 FROM DENSITY LOG [ADJ. TO RESISTIVITY LOG]
CALDED  .MM     : CALIPER FROM DENSITY LOG [ADJ. TO RESISTIVITY LOG]
CALWS   .MM     : CALIPER [CALDED]
CONDWS  .MMHO   : CONDUCTIVITY [1000/DRESWS]
DCORWS  .KG/M3  : DENSITY CORRECTION [DRHOED]
DENWS   .KG/M3  : FORMATION BULK DENSITY [CALC FROM DPOLSWS,M=2710,F=1000]
DPHILSED.V/V    : DENSITY POROSITY LIMESTONE [M=2710,F=1000] FROM DENSITY LOG [ADJ. TO RESISTIVITY LOG]
DPOLSWS .V/V    : DENSITY POROSITY LIMESTONE [DPHILSED]
DRESWS  .OHMM   : DEEP RESISTIVITY [AT90ED]
DRHOED  .KG/M3  : DENSITY CORRECTION FROM DENSITY LOG [ADJ. TO RESISTIVITY LOG]
DTED    .US/M   : DELTA TIME FROM SONIC LOG
DTWS    .US/M   : COMPRESSIONAL  SONIC [DTED]
GRDED   .GAPI   : GAMMA RAY FROM DENSITY LOG [ADJ. TO RESISTIVITY LOG]
GRRED   .GAPI   : GAMMA RAY FROM AIT LOG
GRWS    .GAPI   : GAMMA RAY [GRRED SPL. TO GRDED @2625M]
MRESWS  .OHMM   : MEDIUM RESISTIVITY [AT30ED]
NPOLSWS .V/V    : NEUTRON POROSITY LIMESTONE [NPORLSED]
NPORLSED.V/V    : NEUTRON POROSITY LIMESTONE FROM DENSITY LOG [ADJ. TO RESISTIVITY LOG]
PEFED   .B/E    : PHOTOELECTRIC FACTOR FROM DENSITY LOG [ADJ. TO RESISTIVITY LOG]
PEFWS   .B/E    : PHOTOLELECTRIC FACTOR [PEFED]
RHOBED  .KG/M3  : BULK DENSITY FROM DENSITY LOG [ADJ. TO RESISTIVITY LOG]
SPRED   .MV     : SPONTANEOUS POTENTIAL FROM AIT LOG
SPWS    .MV     : SPONTANEOUS POTENTIAL [BASELINE 0 MV, SPRED]
SRESWS  .OHMM   : SHALLOW RESISTIVITY [AT10ED]
TENDED  .N      : TENSION FROM DENSITY LOG [ADJ. TO RESISTIVITY LOG]
TENRED  .N      : TENSION FROM AIT LOG
~Params ----------------------------------------------------
PD  .                       GL : PERMANENT DATUM
EPD .M                   922.3 : ELEVATION PERMANENT DATUM
LMF .                       KB : LOG MEASURED FROM
DAPD.M                     6.3 : FEET ABOVE PERMANENT DATUM
DMF .                       KB : DRILLING MEASURED FROM
EKB .M                   926.6 : KELLY BUSHING
EDF .M                   928.3 : DRILLING FLOOR
EGL .M                   922.3 : GROUND LEVEL
DATE.                 08/26/92 : RUN DATE
RUN .                        1 : RUN NUMBER
DD  .M                    2648 : DEPTH DRILLER
DL  .M                  2645.5 : DEPTH LOGGER
BLI .M                  2640.2 : BOTTOM LOG INTERVAL
TLI .M                     449 : TOP LOG INTERVAL
CS  .IN                244.50M : CASING SIZE
CBD .M                     449 : CASING BOTTOM DRILLER
CBL .M                     449 : CASING BOTTOM LOGGER
BS  .IN                   222M : BIT SIZE
BSD .M                    2648 : BIT SIZE AT DEPTH
DFT .                 GEL CHEM : DRILLING FLUID TYPE
DFD .                     1075 : DRILLING FLUID DENSITY
DFV .                       75 : DRILLING FLUID VISCOSITY
DFPH.                      7.8 : DRILLING FLUID PH
DFL .                     10.5 : DRILLING FLUID LOSS
MSS .                 FLOWLINE : MUD SAMPLE SOURCE
RMS .OHMM                0.631 : RESISTIVITY MUD SAMPLE
MST .DEGC                   26 : MUD SAMPLE TEMPERATURE
RMF .OHMM                0.585 : RESISTIVITY MUD FILTRATE SAMPLE
MFST.DEGC                   22 : MUD FILTRATE SAMPLE TEMPERATURE
RMC .OHMM                0.596 : RESISTIVITY MUD CAKE
MCST.DEGC                   19 : MUD CAKE SAMPLE TEMPERATURE
MFSS.                 MEASURED : MUD FILTRATE SAMPLE SOURCE
MCSS.                 MEASURED : MUD CAKE SAMPLE SOURCE
RMB .OHMM                0.331 : RESISTIVITY MUD AT BHT
TCS .HRS                    30 : TIME CIRCULATED STOPPED
TLAB.HRS                  1110 : TIME LOGGER AT BOTTOM
LUN .                     2018 : LOGGING UNIT NUMBER
LUL .                 EDMONTON : LOGGING UNIT LOCATION
ENGI.                   TAZUMI : RECORDING ENGINEER
WITN.                 MCMURTRY : WITNESSED BY
CLNT.                  A2DTECH : CLIENT CODE
ORIG. 6.5"/100 16.5"/100 PRINT : ORIGIN OF DATA
UWI .         100062203325W400 : UNIQUE WELL ID
DICO.   A2D Technologies, Inc. : DIGITIZING COMPANY
~Other -----------------------------------------------------
AIT-BCS LOG RAN IN COMBO & CNL-LDT LOG RAN
CNL-LDT: GRD,CAL2,CALD @TOP-1485M & RHOB @TOP-BOTTOM HAVE BEEN VERIFIED FROM SMALL SECTION.
~ASCII -----------------------------------------------------
  400.00000    -999.25    -999.25    -999.25    -999.25    -999.25    -999.25    -999.25    -999.25    -999.25    -999.25    -999.25    -999.25    -999.25    -999.25    -999.25    -999.25    -999.25    -999.25    -999.25   44.88380   44.88380    -999.25    -999.25    -999.25    -999.25    -999.25    -999.25    -999.25    -999.25    -999.25    -999.25    -999.25
  450.00000  255.40610    -999.25    -999.25    -999.25    -999.25    -999.25  244.98400  368.86970  368.86970    -999.25    -999.25    -999.25    -999.25    -999.25    -999.25    -999.25    -999.25    -999.25   71.88910   67.97710   67.97710    -999.25    -999.25    -999.25    -999.25    -999.25    -999.25    -999.25    -999.25    -999.25 7587.79390 7389.09380
  500.00000  242.97220    6.63970    7.06240    7.44230    8.21240    8.72330  252.13140  244.31260  244.31260  114.63550    -999.25    -999.25    -999.25    -999.25    8.72330    -999.25    -999.25    -999.25   61.42550   62.11210   62.11210    7.44230    -999.25    -999.25    -999.25    -999.25    -999.25  -23.63100   -8.48900    6.63970 7806.44340 7362.93950
  550.00000  246.80310    5.00120    5.41830    6.72660    7.32920    7.69250  260.99310  257.74420  257.74420  129.99680    -999.25    -999.25    -999.25    -999.25    7.69250    -999.25    -999.25    -999.25   63.76010   63.24240   63.24240    6.72660    -999.25    -999.25    -999.25    -999.25    -999.25  -27.01900  -10.10900    5.00120 8064.06490 7690.02540
  600.00000  232.46620    4.08910    4.68940    5.10650    7.56890    9.27430  228.90230  256.87810  256.87810  107.82480    -999.25    -999.25    -999.25    -999.25    9.27430    -999.25    -999.25    -999.25   69.11250   70.67190   70.67190    5.10650    -999.25    -999.25    -999.25    -999.25    -999.25  -31.88100  -13.97570    4.08910 8570.11720 7761.45070
  650.00000  242.07900    4.63720    5.08450    5.74520    8.76440   10.12010  228.98840  305.87110  305.87110   98.81330    -999.25    -999.25    -999.25    -999.25   10.12010    -999.25    -999.25    -999.25   86.69090   78.52740   78.52740    5.74520    -999.25    -999.25    -999.25    -999.25    -999.25  -27.06930   -8.16870    4.63720 8950.12990 8053.42820
  700.00000  269.15700    2.25880    2.43690    2.59130    2.74000    3.14710  298.01070  259.02250  259.02250  317.75290    -999.25    -999.25    -999.25    -999.25    3.14710    -999.25    -999.25    -999.25   71.51200   72.66670   72.66670    2.59130    -999.25    -999.25    -999.25    -999.25    -999.25  -27.15600   -7.26020    2.25880 9067.28610 8418.31450
  750.00000  227.78030    2.96850    3.12750    3.58430    4.59470    4.71990  245.61340  258.07230  258.07230  211.86890    -999.25    -999.25    -999.25    -999.25    4.71990    -999.25    -999.25    -999.25   85.66310   78.33890   78.33890    3.58430    -999.25    -999.25    -999.25    -999.25    -999.25  -33.73560  -12.84450    2.96850 9011.59670 8435.30470
  800.00000  243.65700    3.35390    3.59450    4.05140    4.63080    5.14970  226.28630  285.43370  285.43370  194.18610    -999.25    -999.25    -999.25    -999.25    5.14970    -999.25    -999.25    -999.25   64.76090   64.44930   64.44930    4.05140    -999.25    -999.25    -999.25    -999.25    -999.25  -36.79300  -11.26880    3.35390 9186.19140 8836.97460
  850.00000  229.03610    4.91590    5.42120    5.93950    6.58980    7.54630  244.70320  267.25810  267.25810  132.51530    -999.25    -999.25    -999.25    -999.25    7.54630    -999.25    -999.25    -999.25   67.83470   59.15910   59.15910    5.93950    -999.25    -999.25    -999.25    -999.25    -999.25  -45.45430  -13.85050    4.91590 9769.69240 8863.49120
  900.00000  235.98310    3.94430    4.23600    4.52010    5.18800    5.43700  231.58140  279.72990  279.72990  183.92500    -999.25    -999.25    -999.25    -999.25    5.43700    -999.25    -999.25    -999.25   51.00840   60.82830   60.82830    4.52010    -999.25    -999.25    -999.25    -999.25    -999.25  -53.32720  -16.39250    3.94430 9744.30660 9072.26070
  950.00000  246.66980    4.60970    4.69180    5.23750    5.52480    5.85510  282.91590  245.48920  245.48920  170.79130    -999.25    -999.25    -999.25    -999.25    5.85510    -999.25    -999.25    -999.25   58.04370   56.41920   56.41920    5.23750    -999.25    -999.25    -999.25    -999.25    -999.25  -63.56390  -21.29830    4.60970 9971.51170 9178.94920
 1000.00000  267.27830    3.95900    4.42140    4.91350    5.29600    5.66330  198.91110  379.55100  379.55100  176.57550    -999.25    -999.25    -999.25    -999.25    5.66330    -999.25    -999.25    -999.25   78.30070   83.10500   83.10500    4.91350    -999.25    -999.25    -999.25    -999.25    -999.25  -66.79830  -19.59880    3.95900 10014.21290 9367.79490
 1050.00000  299.22650    6.18030    7.03210    7.83650    8.28770    8.51690  248.08000  323.35360  323.35360  117.41360    -999.25    -999.25    -999.25    -999.25    8.51690    -999.25    -999.25    -999.25   74.43700   77.78700   77.78700    7.83650    -999.25    -999.25    -999.25    -999.25    -999.25  -69.98710  -22.07240    6.18030 9989.28030 9507.70510
 1100.00000  263.95330    7.94840    8.15830    8.63620    9.05030   10.37390  233.67370  333.92350  333.92350   96.39580    -999.25    -999.25    -999.25    -999.25   10.37390    -999.25    -999.25    -999.25   92.66190  108.88280  108.88280    8.63620    -999.25    -999.25    -999.25    -999.25    -999.25  -63.71450  -15.08460    7.94840 10122.21480 9618.43070
 1150.00000  238.96260    5.90700    6.05490    6.24340    6.33130    6.49830  255.50840  281.34270  281.34270  153.88640    -999.25    -999.25    -999.25    -999.25    6.49830    -999.25    -999.25    -999.25  106.27110   92.92550   92.92550    6.24340    -999.25    -999.25    -999.25    -999.25    -999.25  -60.50830  -11.16320    5.90700 10480.78910 9957.36330
 1200.00000  270.34650    5.51630    6.01070    6.13340    6.28110    6.58040  289.82060  288.17890  288.17890  151.96640    -999.25    -999.25    -999.25    -999.25    6.58040    -999.25    -999.25    -999.25   95.60840   96.23510   96.23510    6.13340    -999.25    -999.25    -999.25    -999.25    -999.25  -69.14300  -19.74780    5.51630 10925.50880 9969.38770
 1250.00000  263.01240    5.96400    6.53830    6.81300    7.04810    7.21970  298.08980  281.37990  281.37990  138.50990    -999.25    -999.25    -999.25    -999.25    7.21970    -999.25    -999.25    -999.25   82.07230   76.86080   76.86080    6.81300    -999.25    -999.25    -999.25    -999.25    -999.25  -68.78060  -19.38540    5.96400 11069.98540 10146.87700
 1300.00000  247.02870    8.08670    8.56140    9.01410    9.17450    9.34830  255.07050  289.34870  289.34870  106.97130    -999.25    -999.25    -999.25    -999.25    9.34830    -999.25    -999.25    -999.25   83.30270   83.75580   83.75580    9.01410    -999.25    -999.25    -999.25    -999.25    -999.25  -58.64670   -9.25150    8.08670 11331.31640 10512.40920
 1350.00000  274.08510    5.88480    5.86330    5.96600    6.39170    6.66500  268.21230  305.99700  305.99700  150.03750    -999.25    -999.25    -999.25    -999.25    6.66500    -999.25    -999.25    -999.25  106.98620   96.87130   96.87130    5.96600    -999.25    -999.25    -999.25    -999.25    -999.25  -58.05730   -8.66210    5.88480 11083.71480 10631.55760
 1400.00000  249.65770    7.85810    8.02040    8.89370    9.15180    9.32520  244.02370  272.68840  272.68840  107.23630    -999.25    -999.25    -999.25    -999.25    9.32520    -999.25    -999.25    -999.25  105.33280  101.53880  101.53880    8.89370    -999.25    -999.25    -999.25    -999.25    -999.25  -68.27480  -18.87960    7.85810 11501.14650 11030.87300
 1450.00000  253.94230    7.61990    7.73220    7.90260    8.14910    8.59030  242.30080  293.47380  293.47380  116.41040    -999.25    -999.25    -999.25    -999.25    8.59030    -999.25    -999.25    -999.25  132.52270  114.08220  114.08220    7.90260    -999.25    -999.25    -999.25    -999.25    -999.25  -60.30830  -10.91310    7.61990 11220.64450 11013.54690
