~Version ---------------------------------------------------
VERS.      2.0 : CWLS log ASCII Standard -VERSION 2.0
WRAP.       NO : One line per depth step
CREA. 11/22/17 : LAS Creation Date
~Well ------------------------------------------------------
STRT.FT                              1100.0 : START DEPTH
STOP.FT                             10450.0 : STOP DEPTH
STEP.FT                            50.00000 : STEP LENGTH
NULL.                               -999.25 : NULL VALUE
COMP. HUDSONS BAY OIL & GAS COMPANY LIMITED : COMPANY
WELL.       HB ET AL EAGLE TOWER 7-14-63-17 : WELL
FLD .                                       : FIELD
LOC .                                       : LOCATION
CTRY.                                CANADA : COUNTRY
SRVC.                          Schlumberger : SERVICE COMPANY
DATE.                           30-Mar-1973 : LOGDATE
PROV.                               Alberta : PROVINCE
UWI .                      100071406317W500 : UNIQUE WELL ID
SLAT.WGS84                         54.44795 : SURFACE LATITUDE
SLON.WGS84                        -116.4526 : SURFACE LONGITUDE
~Curve Information -----------------------------------------
DEPT  .FT    : Depth Curve
CALSED.IN    : CALIPER FROM SONIC LOG
CALWS .IN    : CALIPER [CALSED]
CILDED.MMHO  : CONDUCTIVITY FROM RESISTIVITY LOG
CONDWS.MMHO  : CONDUCTIVITY [1000/DRESWS]
DRESWS.OHMM  : DEEP RESISTIVITY [1080' 1000/CILDED 10472' ILDED]
DTED  .US/F  : DELTA TIME FROM SONIC LOG
DTWS  .US/F  : DELTA TIME [DTED]
GRSED .GAPI  : GAMMA RAY FROM SONIC LOG
GRWS  .GAPI  : GAMMA RAY [GRSED]
ILDED .OHMM  : INDUCTION LOG DEEP RESISTIVITY
ILMED .OHMM  : INDUCTION LOG MEDIUM RESISTIVITY
LL8ED .OHMM  : 8 INCH LATEROLOG RESISTIVITY
MRESWS.OHMM  : MEDIUM RESISTIVITY [ILMED]
SPRED .MV    : SPONTANEOUS POTENTIAL FROM RESISTIVITY LOG [NUMEROUS SHIFTS ARE REMOVED, PATCHED, TOOK HOURS]
SPWS  .MV    : SPONTANEOUS POTENTIAL [BASELINE 0 MV] [SPRED] [STILL, PL. USE W/ A HUGE RESERVATION]
SRESWS.OHMM  : SHALLOW RESISTIVITY [LL8ED]
~Params ----------------------------------------------------
PD  .                     GL : PERMANENT DATUM
EPD .FT                 3394 : ELEVATION PERMANENT DATUM
LMF .                     KB : LOG MEASURED FROM
DAPD.FT                   13 : FEET ABOVE PERMANENT DATUM
EKB .FT                 3407 : KELLY BUSHING
EGL .FT                 3394 : GROUND LEVEL
DATE.               03/30/73 : RUN DATE
RUN .                      1 : RUN NUMBER
DD  .FT                10470 : DEPTH DRILLER
DL  .FT                10480 : DEPTH LOGGER
BLI .FT                10474 : BOTTOM LOG INTERVAL
TLI .FT                 1076 : TOP LOG INTERVAL
CBD .FT                 1075 : CASING BOTTOM DRILLER
CBL .FT                 1076 : CASING BOTTOM LOGGER
BS  .IN                 8.75 : BIT SIZE
BSD .FT                10470 : BIT SIZE AT DEPTH
DFT .               GEL CHEM : DRILLING FLUID TYPE
DFD .                    9.6 : DRILLING FLUID DENSITY
DFV .                    126 : DRILLING FLUID VISCOSITY
DFPH.                   11.4 : DRILLING FLUID PH
DFL .                    9.2 : DRILLING FLUID LOSS
RMF .OHMM                1.1 : RESISTIVITY MUD FILTRATE SAMPLE
MFST.DEGF                 60 : MUD FILTRATE SAMPLE TEMPERATURE
LUN .                   7636 : LOGGING UNIT NUMBER
LUL .                    EDM : LOGGING UNIT LOCATION
ENGI.                  SCOTT : RECORDING ENGINEER
WITN.                  WIEBE : WITNESSED BY
CLNT.                A2DTECH : CLIENT CODE
ORIG.            2" 5" PRINT : ORIGIN OF DATA
UWI .       100071406317W500 : UNIQUE WELL ID
DICO. A2D Technologies, Inc. : DIGITIZING COMPANY
~Other -----------------------------------------------------
~ASCII -----------------------------------------------------
 1100.00000    9.48180    9.48180  224.72140  224.72140    4.45000  131.41760  131.41760   71.95640   71.95640    4.45800    -999.25    3.27000    -999.25  -83.26830   -9.79400    3.27000
 1150.00000    8.40110    8.40110   96.07650   96.07650   10.40910  110.84260  110.84260   61.59640   61.59640   10.09360    -999.25    9.29770    -999.25  -96.99330  -23.51910    9.29770
 1200.00000   10.30150   10.30150  309.22930  309.22930    3.23380  121.83150  121.83150   75.85080   75.85080    3.48350    -999.25    3.04670    -999.25  -86.35260  -12.87830    3.04670
 1250.00000    9.99570    9.99570  208.07940  208.07940    4.80590  127.58210  127.58210   73.08670   73.08670    4.80750    -999.25    3.87430    -999.25  -86.50980  -12.28840    3.87430
 1300.00000    9.37270    9.37270  103.52290  103.52290    9.66650   98.83250   98.83250   53.96630   53.96630    9.24630    -999.25    7.89610    -999.25  -90.98600  -15.97370    7.89610
 1350.00000   10.33870   10.33870  217.59260  217.59260    4.59570  110.80420  110.80420   77.75020   77.75020    4.93500    -999.25    4.10220    -999.25  -88.76790  -12.95690    4.10220
 1400.00000   11.21570   11.21570  214.21070  214.21070    4.67170  112.21410  112.21410   68.90860   68.90860    4.91520    -999.25    3.82020    -999.25  -88.76770  -12.16590    3.82020
 1450.00000    9.40840    9.40840   91.49640   91.49640   10.92940   74.77060   74.77060   57.78870   57.78870   10.29590    -999.25    9.17600    -999.25  -93.81070  -16.41020    9.17600
 1500.00000    9.83260    9.83260  218.26460  218.26460    4.58160  107.81410  107.81410   76.04430   76.04430    4.65800    -999.25    4.23020    -999.25  -90.39860  -12.20330    4.23020
 1550.00000   10.80610   10.80610  219.51160  219.51160    4.55710  112.62740  112.62740   95.67180   95.67180    4.79770    -999.25    4.19720    -999.25  -87.10780   -8.12170    4.19720
 1600.00000   11.30720   11.30720  568.19480  568.19480    1.76000  140.38200  140.38200   78.56200   78.56200    2.11120    -999.25    4.98140    -999.25  -85.24410   -6.78070    4.98140
 1650.00000   13.14930   13.14930  311.35240  311.35240    3.21210  143.67280  143.67280   66.00150   66.00150    3.34590    -999.25    2.91880    -999.25  -86.21280   -8.41970    2.91880
 1700.00000    9.64270    9.64270  190.52900  190.52900    5.24850  107.30720  107.30720   74.88620   74.88620    5.31280    -999.25    4.19760    -999.25  -86.36950   -9.25330    4.19760
 1750.00000    8.97010    8.97010  232.06680  232.06680    4.30910  110.84330  110.84330   66.14300   66.14300    4.65830    -999.25    3.91920    -999.25  -86.54710  -10.10450    3.91920
 1800.00000   10.90780   10.90780  279.83730  279.83730    3.57840  132.84350  132.84350   72.43250   72.43250    3.74200    -999.25    3.07850    -999.25  -84.96020   -9.18780    3.07850
 1850.00000    9.80740    9.80740   91.54930   91.54930   10.92310  101.54540  101.54540   66.25890   66.25890    9.75350    -999.25    8.16000    -999.25  -87.69380  -12.59840    8.16000
 1900.00000    9.80300    9.80300  291.35580  291.35580    3.43680  106.34220  106.34220   68.87400   68.87400    3.63790    -999.25    3.04070    -999.25  -84.67830  -10.25310    3.04070
 1950.00000   10.58100   10.58100  217.46770  217.46770    4.59840  118.30840  118.30840   74.23780   74.23780    4.89800    -999.25    3.88260    -999.25  -82.68990   -8.94170    3.88260
 2000.00000   10.05950   10.05950  266.69870  266.69870    3.74950  116.76940  116.76940   70.37350   70.37350    3.93710    -999.25    3.34740    -999.25  -82.52010   -9.44550    3.34740
 2050.00000   10.34090   10.34090  277.44700  277.44700    3.60500  113.55960  113.55960   72.40630   72.40630    3.75960    -999.25    3.20850    -999.25  -82.33330   -9.92890    3.20850
 2100.00000   10.05120   10.05120  446.51000  446.51000    2.23960  141.11010  141.11010   82.03040   82.03040    2.51980    -999.25    2.02840    -999.25  -81.59010   -9.86260    2.02840
 2150.00000   10.73550   10.73550  296.20830  296.20830    3.37620  119.20370  119.20370   71.46640   71.46640    3.54520    -999.25    2.91750    -999.25  -79.91530   -8.85810    2.91750
 2200.00000    8.89400    8.89400  102.15120  102.15120    9.78940  100.63620  100.63620   63.25600   63.25600    9.51040    -999.25    8.06940    -999.25  -89.13220  -18.75190    8.06940
 2250.00000   10.83460   10.83460  324.42920  324.42920    3.08230  130.12070  130.12070   82.99000   82.99000    3.27790    -999.25    2.59260    -999.25  -78.83370   -9.12700    2.59260
 2300.00000    9.47270    9.47270  287.02160  287.02160    3.48450  134.27280  134.27280   67.18050   67.18050    3.67540    -999.25    3.08200    -999.25  -78.28920   -9.25270    3.08200
 2350.00000    8.97440    8.97440  115.54780  115.54780    8.65440   93.81970   93.81970   84.96710   84.96710    8.94140    -999.25    7.26720    -999.25  -83.04920  -14.68970    7.26720
 2400.00000    9.54710    9.54710  377.88200  377.88200    2.65050  113.16270  113.16270   77.76510   77.76510    3.11360    -999.25    2.67960    -999.25  -77.10030   -9.41100    2.67960
 2450.00000   10.09680   10.09680  266.37810  266.37810    3.75410  113.26980  113.26980   78.10050   78.10050    3.12280    -999.25    3.75390    -999.25  -77.50730  -10.49500    3.75390
 2500.00000    8.87090    8.87090  216.52630  216.52630    4.61840  103.50120  103.50120   74.35560   74.35560    4.47980    -999.25    3.71920    -999.25  -81.46320  -15.12450    3.71920
 2550.00000    8.68020    8.68020  113.78240  113.78240    8.81150   94.44590   94.44590   64.63610   64.63610    8.33900    -999.25    6.95940    -999.25  -89.39800  -23.72950    6.95940
 2600.00000   11.32010   11.32010  300.62630  300.62630    3.32640  114.63440  114.63440   52.92320   52.92320    3.62760    -999.25    3.00340    -999.25  -74.53970   -9.54820    3.00340
 2650.00000    8.96480    8.96480  200.96480  200.96480    4.99160  102.24820  102.24820   54.18420   54.18420    5.60070    -999.25    4.51020    -999.25  -83.77420  -19.45290    4.51020
 2700.00000   11.14480   11.14480  228.24690  228.24690    4.38120  106.52730  106.52730   68.52590   68.52590    4.67280    -999.25    3.89100    -999.25  -74.74150  -11.09710    3.89100
 2750.00000    9.99110    9.99110  233.76900  233.76900    4.27770   98.26580   98.26580   70.25140   70.25140    4.77730    -999.25    3.87460    -999.25  -75.35210  -12.38130    3.87460
 2800.00000    9.37630    9.37630  220.98030  220.98030    4.52660  102.31430  102.31430   67.61520   67.61520    4.66350    -999.25    3.89320    -999.25  -74.17150  -11.87100    3.89320
 2850.00000    9.69180    9.69180   94.43510   94.43510   10.58930   88.97220   88.97220   42.58310   42.58310   10.21440    -999.25    8.98130    -999.25  -79.04450  -17.30810    8.98130
 2900.00000   10.58440   10.58440  237.73700  237.73700    4.21220  113.92240  113.92240   63.48700   63.48700    4.10880    -999.25    3.61390    -999.25  -73.15130  -11.97070    3.61390
 2950.00000    8.86100    8.86100  242.36620  242.36620    4.12600  100.30830  100.30830   60.22030   60.22030    4.26570    -999.25    3.75550    -999.25  -72.39550  -11.77620    3.75550
 3000.00000    8.78470    8.78470  173.05040  173.05040    5.77870   99.51060   99.51060   48.66220   48.66220    6.38470    -999.25    4.99480    -999.25  -78.00820  -17.94740    4.99480
 3050.00000    9.71850    9.71850  187.66160  187.66160    5.35100   99.82860   99.82860   51.42390   51.42390    5.20790    -999.25    5.17060    -999.25  -74.44190  -14.93690    5.17060
 3100.00000    9.26230    9.26230  191.48470  191.48470    5.22230   95.83500   95.83500   55.06530   55.06530    5.58110    -999.25    4.82250    -999.25  -72.38500  -13.44120    4.82250
 3150.00000    8.76050    8.76050  181.83380  181.83380    5.53510  101.88310  101.88310   62.85160   62.85160    5.86630    -999.25    6.38490    -999.25  -73.50300  -15.11500    6.38490
 3200.00000    8.87130    8.87130  121.20630  121.20630    8.25040   93.32980   93.32980   60.91820   60.91820    7.63600    -999.25    6.14360    -999.25  -72.79740  -14.97070    6.14360
