~Version ---------------------------------------------------
VERS.      2.0 : CWLS log ASCII Standard -VERSION 2.0
WRAP.       NO : One line per depth step
CREA. 11/20/17 : LAS Creation Date
~Well ------------------------------------------------------
STRT.FT                            1200.0 : START DEPTH
STOP.FT                           11350.0 : STOP DEPTH
STEP.FT                          50.00000 : STEP LENGTH
NULL.                             -999.25 : NULL VALUE
COMP.       AMOCO CANADA PETROLEUM CO LTD : COMPANY
WELL. AMOCO MOBIL L-2 WAHIGAN 10-16-64-23 : WELL
FLD .                                     : FIELD
LOC .                                     : LOCATION
CTRY.                              CANADA : COUNTRY
SRVC.                             Unknown : SERVICE COMPANY
DATE.                         06-Feb-1976 : LOGDATE
PROV.                             Alberta : PROVINCE
UWI .                    100101606423W500 : UNIQUE WELL ID
SLAT.WGS84                       54.53986 : SURFACE LATITUDE
SLON.WGS84                      -117.4124 : SURFACE LONGITUDE
~Curve Information -----------------------------------------
DEPT    .FT    : Depth Curve
ACED    .US/F  : ACOUSTIC TIME FROM SONIC LOG [ADJ. TO RESISTIVITY LOG]
CALDED  .IN    : CALIPER FROM DENSITY LOG
CALSED  .IN    : CALIPER FROM SONIC LOG [ADJ. TO RESISTIVITY LOG]
CALWS   .IN    : CALIPER [CALDED]
CONDWS  .MMHO  : CONDUCTIVITY [1000/DRESWS]
CORRED  .G/C3  : DENSITY CORRECTION FROM DENSITY LOG [ADJ. TO RESISTIVITY LOG]
DCORWS  .G/C3  : DENSITY CORRECTION [CORRED]
DENWS   .G/C3  : FORMATION BULK DENSITY [RHOBED]
DPHILSED.V/V   : DENSITY POROSITY LIMESTONE [M=2.71, F=1.00] FROM DENSITY LOG [ADJ. TO RESISTIVITY LOG]
DPHISSED.V/V   : DENSITY POROSITY SANDSTONE [M=2.65, F=1.00]FROM DENSITY LOG [ADJ. TO RESISTIVITY LOG]
DPOLSWS .V/V   : DENSITY POROSITY LIMESTONE [CALC. FROM DENWS, M=2.71, F=1.00]
DRESWS  .OHMM  : DEEP RESISTIVITY [ILDED]
DTWS    .US/F  : COMPRESSIONAL SONIC [ACED]
GRDED   .GAPI  : GAMMA RAY FROM DENSITY LOG
GRSED   .GAPI  : GAMMA RAY FROM SONIC LOG [ADJ. TO RESISTIVITY LOG]
GRWS    .GAPI  : GAMMA RAY [GRSED SPL. TO GRDED @ 11348']
ILDED   .OHMM  : DEEP INDUCTION LOG RESISTIVITY FROM RESISTIVITY LOG
ILMED   .OHMM  : MEDIUM INDUCTION LOG RESISTIVITY FROM RESISTIVITY LOG
MRESWS  .OHMM  : MEDIUM RESISTIVITY [ILMED]
NPHILSED.V/V   : NEUTRON POROSITY LIMESTONE FROM DENSITY LOG [ADJ. TO RESISTIVITY LOG]
NPHISSED.V/V   : NEUTRON POROSITY SANDSTONE FROM DENSITY LOG [ADJ. TO RESISTIVITY LOG]
NPOLSWS .V/V   : NEUTRON POROSITY LIMESTONE [NPHISSED MATRIX CONVERSION FOR LIMESTONE & SPL. TO NPHILSED @ 6845']
RHOBED  .G/C3  : BULK DENSITY FROM DENSITY LOG [ADJ. TO RESISTIVITY LOG]
SFLED   .OHMM  : SPHERICALLY FOCUSED RESISTIVITY FROM RESISTIVITY LOG
SPRED   .MV    : SPONTANEOUS POTENTIAL FROM RESISTIVITY LOG
SPWS    .MV    : SPONTANEOUS POTENTIAL [BASELINE 0 MV, SPRED]
SRESWS  .OHMM  : SHALLOW RESISTIVITY [SFLED]
~Params ----------------------------------------------------
PD  .                     GL : PERMANENT DATUM
EPD .FT               2628.5 : ELEVATION PERMANENT DATUM
LMF .                     KB : LOG MEASURED FROM
DAPD.FT                 13.5 : FEET ABOVE PERMANENT DATUM
DMF .                     KB : DRILLING MEASURED FROM
EKB .FT                 2642 : KELLY BUSHING
EGL .FT               2628.5 : GROUND LEVEL
DATE.               02/06/76 : RUN DATE
RUN .                      1 : RUN NUMBER
DD  .FT                11378 : DEPTH DRILLER
DL  .FT                11410 : DEPTH LOGGER
BLI .FT                11408 : BOTTOM LOG INTERVAL
TLI .FT                 1219 : TOP LOG INTERVAL
CS  .IN                9.625 : CASING SIZE
CBD .FT                 1208 : CASING BOTTOM DRILLER
CBL .FT                 1219 : CASING BOTTOM LOGGER
BS  .IN                 8.75 : BIT SIZE
BSD .FT                11378 : BIT SIZE AT DEPTH
DFT .           MUD GEL CHEM : DRILLING FLUID TYPE
DFD .                    9.3 : DRILLING FLUID DENSITY
DFV .                    135 : DRILLING FLUID VISCOSITY
DFPH.                     10 : DRILLING FLUID PH
DFL .                    8.1 : DRILLING FLUID LOSS
MSS .                   CIRC : MUD SAMPLE SOURCE
RMS .OHMM                3.5 : RESISTIVITY MUD SAMPLE
MST .DEGF                 67 : MUD SAMPLE TEMPERATURE
RMF .OHMM                3.5 : RESISTIVITY MUD FILTRATE SAMPLE
MFST.DEGF                 62 : MUD FILTRATE SAMPLE TEMPERATURE
RMC .OHMM                2.8 : RESISTIVITY MUD CAKE
MCST.DEGF                 67 : MUD CAKE SAMPLE TEMPERATURE
MFSS.                   MEAS : MUD FILTRATE SAMPLE SOURCE
MCSS.                   MEAS : MUD CAKE SAMPLE SOURCE
RMB .OHMM               1.21 : RESISTIVITY MUD AT BHT
TCS .HRS                   7 : TIME CIRCULATED STOPPED
LUN .                   6155 : LOGGING UNIT NUMBER
LUL .                    EDM : LOGGING UNIT LOCATION
ENGI.                    GAU : RECORDING ENGINEER
WITN.                  KAREL : WITNESSED BY
CLNT.                A2DTECH : CLIENT CODE
ORIG.            2" 5" PRINT : ORIGIN OF DATA
UWI .       100101606423W500 : UNIQUE WELL ID
DICO. A2D Technologies, Inc. : DIGITIZING COMPANY
~Other -----------------------------------------------------
~ASCII -----------------------------------------------------
# ...
 7700.00000   51.58980    9.90270    9.29790    9.90270   61.78680    0.16510    0.16510    2.49100    0.12010    -999.25    0.12810   16.30720   51.58980   55.54370   30.93250   30.93250   16.30720   32.28180   32.28180    0.03610    -999.25    0.03610    2.49100  166.86060 -125.48840  -91.65720  166.86060
 7750.00000   51.19920    9.84260    9.10260    9.84260    6.22310    0.01760    0.01760    2.65150    0.03230    -999.25    0.03420  160.69290   51.19920   57.11430   30.30670   30.30670  160.69290  169.30560  169.30560   -0.01830    -999.25   -0.01830    2.65150  288.94260  -52.53780  -19.07370  288.94260
 7800.00000   52.14200   10.53500    9.57890   10.53500    5.37740    0.16310    0.16310    2.58820    0.06760    -999.25    0.07130  185.96460   52.14200   50.62700   30.27000   30.27000  185.96460  992.52410  992.52410   -0.02620    -999.25   -0.02620    2.58820  619.14060  -99.64510  -66.54810  619.14060
 7850.00000   65.50300   10.16230    9.38670   10.16230  135.20270    0.18760    0.18760    2.56660    0.07790    -999.25    0.08390    7.39630   65.50300   74.12980   60.77010   60.77010    7.39630    9.59190    9.59190    0.12810    -999.25    0.12810    2.56660   28.28880 -150.45950 -117.73200   28.28880
 7900.00000   52.34110    9.22040    9.15110    9.22040   62.27970    0.02480    0.02480    2.67360    0.01940    -999.25    0.02130   16.05660   52.34110   65.45530   49.81140   49.81140   16.05660   24.07950   24.07950    0.03930    -999.25    0.03930    2.67360   80.85570  -90.71720  -58.35670   80.85570
 7950.00000   50.61660    9.34960    9.16090    9.34960   26.18670    0.00570    0.00570    2.67210    0.02150    -999.25    0.02220   38.29090   50.61660   46.02790   25.95590   25.95590   38.29090   45.84920   45.84920    0.02380    -999.25    0.02380    2.67210  109.24070  -71.68550  -39.69450  109.24070
 8000.00000   51.94670    9.61160    9.74600    9.61160   41.27400    0.02690    0.02690    2.84300   -0.07870    -999.25   -0.07780   24.22830   51.94670   34.89400   21.77190   21.77190   24.22830   43.44250   43.44250   -0.03000    -999.25   -0.03000    2.84300  596.78230 -102.51740  -70.89350  596.78230
 8050.00000   54.63340    9.13680    9.48540    9.13680   19.49900    0.08380    0.08380    2.64740    0.03470    -999.25    0.03660   51.28460   54.63340   47.04230   35.72650   35.72650   51.28460   58.87430   58.87430   -0.00620    -999.25   -0.00620    2.64740  156.05440 -183.90250 -152.64570  156.05440
 8100.00000   52.12600    9.42870    9.22750    9.42870   47.79680    0.13990    0.13990    2.62300    0.05100    -999.25    0.05090   20.92190   52.12600   47.04320   25.05580   25.05580   20.92190   49.77780   49.77780    0.08110    -999.25    0.08110    2.62300  228.51060 -179.88850 -149.00120  228.51060
 8150.00000   50.62010   10.09960    9.63400   10.09960    3.13810    0.16530    0.16530    2.64660    0.04130    -999.25    0.03710  318.66040   50.62010   40.49030   21.19150   21.19150  318.66040 1224.39720 1224.39720    0.03370    -999.25    0.03370    2.64660 1915.13390 -139.78820 -109.26800 1915.13390
 8200.00000   63.32220    9.47810    9.25140    9.47810   73.06720    0.08480    0.08480    2.61870    0.05280    -999.25    0.05340   13.77020   63.32220  129.81490   88.82810   88.82810   13.77020   18.16980   18.16980    0.12740    -999.25    0.12740    2.61870   55.65200  -66.79410  -37.23610   55.65200
 8250.00000   63.29060    9.64050    9.27070    9.64050   93.42300    0.02080    0.02080    2.66620    0.02290    -999.25    0.02560   10.70400   63.29060  118.45320   72.61740   72.61740   10.70400   12.21380   12.21380    0.13320    -999.25    0.13320    2.66620   14.51960  -40.98820  -13.37810   14.51960
 8300.00000   61.04690    9.69880    9.28970    9.69880   81.08460    0.08710    0.08710    2.62530    0.04490    -999.25    0.04950   12.33280   61.04690  113.88580   88.56660   88.56660   12.33280   13.11180   13.11180    0.10540    -999.25    0.10540    2.62530   29.82770  -40.73950  -15.07730   29.82770
 8350.00000   57.05800    9.93270    9.42010    9.93270   42.76430    0.05270    0.05270    2.66300    0.02750    -999.25    0.02750   23.38400   57.05800   85.94320   54.30500   54.30500   23.38400   25.22320   25.22320    0.05020    -999.25    0.05020    2.66300   48.37280  -36.61840  -12.91680   48.37280
 8400.00000   55.83790   10.15250    9.67110   10.15250   21.55040    0.07310    0.07310    2.62940    0.04340    -999.25    0.04720   46.40280   55.83790   50.25080   31.88450   31.88450   46.40280   52.67670   52.67670    0.03090    -999.25    0.03090    2.62940   80.65140  -14.12360    7.63010   80.65140
 8450.00000   52.27700    9.57650    9.21330    9.57650    9.61200    0.08780    0.08780    2.61370    0.05330    -999.25    0.05630  104.19750   52.27700   55.34830   36.22350   36.22350  104.19750  158.93110  158.93110    0.03510    -999.25    0.03510    2.61370  315.23400  -46.00000  -26.20690  315.23400
 8500.00000   53.68280    9.80560    9.11430    9.80560    4.99270    0.05070    0.05070    2.67540    0.01750    -999.25    0.02020  200.29180   53.68280   66.11030   34.85690   34.85690  200.29180  390.15340  390.15340   -0.00020    -999.25   -0.00020    2.67540  569.73600  -73.60650  -55.76130  569.73600
 8550.00000   53.06880    9.33670    9.08480    9.33670    4.38040    0.01890    0.01890    2.67110    0.01910    -999.25    0.02270  228.28850   53.06880   59.83390   36.29030   36.29030  228.28850  453.41740  453.41740   -0.00800    -999.25   -0.00800    2.67110  517.53660 -138.60200 -122.70460  517.53660
 8600.00000   52.70150    9.19090    8.87990    9.19090    2.78980    0.02380    0.02380    2.64380    0.03670    -999.25    0.03870  358.44600   52.70150   53.76000   30.05040   30.05040  358.44600  902.59060  902.59060   -0.01060    -999.25   -0.01060    2.64380 1107.53270 -158.70490 -144.76820 1107.53270
 8650.00000   53.62470    9.29090    8.87590    9.29090    1.50880    0.03380    0.03380    2.65960    0.02680    -999.25    0.02950  662.77560   53.62470   68.27820   46.94390   46.94390  662.77560 2657.47830 2657.47830    0.00600    -999.25    0.00600    2.65960 2259.58640 -101.93860  -89.94980 2259.58640
 8700.00000   53.59860    9.23230    8.86840    9.23230    5.45980    0.01650    0.01650    2.67760    0.01670    -999.25    0.01890  183.24460   53.59860   70.39560   45.60760   45.60760  183.24460  345.65930  345.65930   -0.01220    -999.25   -0.01220    2.67760  664.84370 -100.08890  -90.06070  664.84370
 8750.00000   55.82190    9.18280    8.91580    9.18280    0.92020    0.01780    0.01780    2.64660    0.03290    -999.25    0.03710 1086.77640   55.82190   84.51680   52.89250   52.89250 1086.77640 2610.93020 2610.93020    0.05620    -999.25    0.05620    2.64660 2254.41090  -72.51630  -64.43600 2254.41090
 8800.00000   55.40340   11.43070   10.07220   11.43070    1.92280    0.28420    0.28420    2.43630    0.15400    -999.25    0.16010  520.06570   55.40340   54.68650   34.40590   34.40590  520.06570 1224.20300 1224.20300    0.09750    -999.25    0.09750    2.43630 1306.27390  -94.75320  -88.62070 1306.27390
 8850.00000   51.05430   10.58860    9.28410   10.58860    3.18950    0.27880    0.27880    2.48190    0.13130    -999.25    0.13340  313.52980   51.05430   45.75850   27.18940   27.18940  313.52980  756.53700  756.53700    0.03380    -999.25    0.03380    2.48190 2249.98460 -176.17240 -172.00060 2249.98460
 8900.00000   50.76210    9.84030    9.10150    9.84030    0.72730    0.21860    0.21860    2.70850   -0.00370    -999.25    0.00090 1374.90080   50.76210   45.59500   28.91970   28.91970 1374.90080 2612.55180 2612.55180    0.01060    -999.25    0.01060    2.70850 2250.22530 -201.90450 -199.68060 2250.22530
 8950.00000   49.92390    9.72910    9.41020    9.72910    0.86620    0.29990    0.29990    2.57070    0.07840    -999.25    0.08150 1158.21460   49.92390   50.52680   27.67580   27.67580 1158.21460 2594.09810 2594.09810    0.02470    -999.25    0.02470    2.57070 2251.29310 -144.31410 -144.05080 2251.29310
