~Version ---------------------------------------------------
VERS.      2.0 : CWLS log ASCII Standard -VERSION 2.0
WRAP.       NO : One line per depth step
CREA. 11/17/17 : LAS Creation Date
~Well ------------------------------------------------------
STRT.FT                              950.0 : START DEPTH
STOP.FT                             9900.0 : STOP DEPTH
STEP.FT                           50.00000 : STEP LENGTH
NULL.                              -999.25 : NULL VALUE
COMP.        HUDSON'S BAY OIL & GAS CO LTD : COMPANY
WELL. HB QUINTANA UNION GIROUX 10-25-66-20 : WELL
FLD .                                      : FIELD
LOC .                                      : LOCATION
CTRY.                               CANADA : COUNTRY
SRVC.                         Schlumberger : SERVICE COMPANY
DATE.                          21-Feb-1973 : LOGDATE
PROV.                              Alberta : PROVINCE
UWI .                     100102506620W500 : UNIQUE WELL ID
SLAT.WGS84                        54.74426 : SURFACE LATITUDE
SLON.WGS84                       -116.8814 : SURFACE LONGITUDE
~Curve Information -----------------------------------------
DEPT  .FT    : Depth Curve
CALSED.IN    : CALIPER FROM SONIC LOG [ADJ. TO RESISTIVITY LOG]
CALWS .IN    : CALIPER [CALSED]
CILDED.MMHO  : DEEP INDUCTION CONDUCTIVITY FROM RESISTIVITY LOG
CONDWS.MMHO  : CONDUCTIVITY [1000/DRESWS]
DRESWS.OHMM  : DEEP RESISTIVITY [ILDED]
DTED  .US/F  : DELTA-T FROM SONIC LOG [ADJ. TO RESISTIVITY LOG]
DTWS  .US/F  : COMPRESSIONAL SONIC [DTED]
GRSED .GAPI  : GAMMA RAY FROM SONIC LOG [ADJ. TO RESISTIVITY LOG]
GRWS  .GAPI  : GAMMA RAY [GRSED]
ILDED .OHMM  : DEEP INDUCTION RESISTIVITY FROM RESISTIVITY LOG
ILMED .OHMM  : MEDIUM INDUCTION RESISTIVITY FROM RESISTIVITY LOG
LL8ED .OHMM  : LATEROLOG 8 FROM RESISTIVITY LOG
MRESWS.OHMM  : MEDIUM RESISTIVITY [ILMED]
SPRED .MV    : SPONTANEOUS POTENTIAL FROM RESISTIVITY LOG
SPWS  .MV    : SPONTANEOUS POTENTIAL [BASELINE 0 MV,SPRED]
SRESWS.OHMM  : SHALLOW RESISTIVITY [LL8ED]
~Params ----------------------------------------------------
PD  .                     GL : PERMANENT DATUM
EPD .FT                 2603 : ELEVATION PERMANENT DATUM
LMF .                     KB : LOG MEASURED FROM
DAPD.FT                   15 : FEET ABOVE PERMANENT DATUM
EKB .FT                 2618 : KELLY BUSHING
EGL .FT                 2603 : GROUND LEVEL
DATE.               02/21/73 : RUN DATE
RUN .                      1 : RUN NUMBER
DD  .FT                 9904 : DEPTH DRILLER
DL  .FT                 9905 : DEPTH LOGGER
BLI .FT                 9902 : BOTTOM LOG INTERVAL
TLI .FT                  994 : TOP LOG INTERVAL
CBD .FT                  993 : CASING BOTTOM DRILLER
CBL .FT                  994 : CASING BOTTOM LOGGER
BS  .IN                 8.75 : BIT SIZE
BSD .FT                 9904 : BIT SIZE AT DEPTH
DFT .                    GEL : DRILLING FLUID TYPE
DFD .                    9.4 : DRILLING FLUID DENSITY
DFV .                    310 : DRILLING FLUID VISCOSITY
DFPH.                   10.5 : DRILLING FLUID PH
DFL .                    7.2 : DRILLING FLUID LOSS
MSS .             CIRCULATED : MUD SAMPLE SOURCE
RMS .OHMM               1.85 : RESISTIVITY MUD SAMPLE
MST .DEGF                 58 : MUD SAMPLE TEMPERATURE
RMF .OHMM               1.56 : RESISTIVITY MUD FILTRATE SAMPLE
MFST.DEGF                 68 : MUD FILTRATE SAMPLE TEMPERATURE
RMC .OHMM                1.5 : RESISTIVITY MUD CAKE
MCST.DEGF                 58 : MUD CAKE SAMPLE TEMPERATURE
RMB .OHMM               0.56 : RESISTIVITY MUD AT BHT
TCS .HRS                   3 : TIME CIRCULATED STOPPED
LUN .                   7667 : LOGGING UNIT NUMBER
LUL .                  LLOYD : LOGGING UNIT LOCATION
ENGI.                  LEWIS : RECORDING ENGINEER
WITN.                 HARRIS : WITNESSED BY
CLNT.                A2DTECH : CLIENT CODE
ORIG.            2" 5" PRINT : ORIGIN OF DATA
UWI .       100102506620W500 : UNIQUE WELL ID
DICO. A2D Technologies, Inc. : DIGITIZING COMPANY
~Other -----------------------------------------------------
DILL-BCS LOG RUN
ALL DATA FROM TOP TO 4000' FROM  2" SECTION
~ASCII -----------------------------------------------------
# ...
 7400.00000    9.13520    9.13520    -999.25   16.35600   61.13980   45.22030   45.22030   13.95640   13.95640   61.13980  104.78220  877.59190  104.78220 -302.39240 -235.68060  877.59190
 7450.00000    9.49680    9.49680    -999.25   13.14960   76.04810   46.05980   46.05980   11.91590   11.91590   76.04810   88.07130  541.69780   88.07130 -327.57810 -260.73510  541.69780
 7500.00000    9.43120    9.43120    -999.25   11.83290   84.51040   45.21310   45.21310   17.66690   17.66690   84.51040   98.44870 1335.81120   98.44870 -378.31430 -311.34020 1335.81120
 7550.00000    9.25880    9.25880    -999.25   18.97580   52.71220   45.77480   45.77480   10.13440   10.13440   52.71220   67.81910  211.04990   67.81910 -367.75350 -300.64890  211.04990
 7600.00000    9.34900    9.34900    -999.25   11.92180   83.88000   45.66730   45.66730   17.53360   17.53360   83.88000   91.10300 1480.94570   91.10300 -307.86360 -240.62710 1480.94570
 7650.00000    9.26300    9.26300    -999.25   14.12340   70.80430   45.68500   45.68500   12.70100   12.70100   70.80430   71.09160  315.06830   71.09160 -254.92740 -187.55970  315.06830
 7700.00000    9.28960    9.28960    -999.25   12.90520   77.48810   45.04480   45.04480   13.32100   13.32100   77.48810   90.88790  433.42820   90.88790 -253.88580 -186.38690  433.42820
 7750.00000    9.25020    9.25020    -999.25   14.55620   68.69940   45.37930   45.37930    8.84720    8.84720   68.69940   83.63240  315.24900   83.63240 -258.42250 -190.79240  315.24900
 7800.00000    9.21820    9.21820    -999.25   10.77040   92.84780   44.73590   44.73590   14.37190   14.37190   92.84780  112.41670 1414.52910  112.41670 -205.02630 -137.26570 1414.52910
 7850.00000    9.27530    9.27530    -999.25   24.01890   41.63390   47.93740   47.93740   15.37180   15.37180   41.63390   66.24770  217.47220   66.24770 -200.03950 -132.14700  217.47220
 7900.00000    8.65650    8.65650    -999.25   50.72380   19.71460   50.09670   50.09670   13.93650   13.93650   19.71460   31.41600  148.45790   31.41600 -247.10420 -179.08050  148.45790
 7950.00000    8.51120    8.51120    -999.25  166.73060    5.99770   51.28300   51.28300   12.43630   12.43630    5.99770    8.98050   82.63170    8.98050 -288.05610 -219.90120   82.63170
 8000.00000    8.88310    8.88310    -999.25   68.76730   14.54180   48.22760   48.22760   11.54720   11.54720   14.54180   26.39650  240.45560   26.39650 -371.80470 -303.51860  240.45560
 8050.00000    8.85940    8.85940    -999.25   83.99490   12.00920   48.77010   48.77010   24.31830   24.31830   12.00920   12.78060   54.20600   12.78060 -355.51200 -287.09540   54.20600
 8100.00000    9.08550    9.08550    -999.25   22.82870   43.80460   47.34480   47.34480   17.70660   17.70660   43.80460   51.41960   97.61900   51.41960 -251.96710 -183.41860   97.61900
 8150.00000    9.00050    9.00050    -999.25  197.04050    5.07510   53.47070   53.47070   37.67130   37.67130    5.07510    7.67810   11.40800    7.67810 -122.19770  -53.51800   11.40800
 8200.00000    8.89320    8.89320    -999.25   18.19790   54.95150   45.96730   45.96730   29.58940   29.58940   54.95150   66.36740  255.75660   66.36740 -169.08520 -101.91420  255.75660
 8250.00000    9.20770    9.20770    -999.25   50.14540   19.94200   56.80250   56.80250   67.33420   67.33420   19.94200   18.17670   30.67930   18.17670 -119.23690  -55.94590   30.67930
 8300.00000    8.90770    8.90770    -999.25   30.34030   32.96990   50.08180   50.08180   36.55260   36.55260   32.96990   37.07790   66.65880   37.07790 -162.65670 -103.22640   66.65880
 8350.00000    8.94350    8.94350    -999.25   34.35230   29.11010   47.21760   47.21760   24.61200   24.61200   29.11010   37.23560   93.80470   37.23560 -169.34950 -113.81850   93.80470
 8400.00000    9.28540    9.28540    -999.25   75.69790   13.21040   48.65370   48.65370   40.20270   40.20270   13.21040   17.80720   39.92190   17.80720 -165.33410 -113.68310   39.92190
 8450.00000    9.30000    9.30000    -999.25   72.14280   13.86140   54.87710   54.87710   53.63560   53.63560   13.86140   15.00550   23.50190   15.00550 -126.49740  -78.72640   23.50190
 8500.00000   11.92920   11.92920    -999.25  270.22640    3.70060   76.60010   76.60010  100.27360  100.27360    3.70060    3.80350    5.40590    3.80350 -223.09710 -179.20610    5.40590
 8550.00000   13.56080   13.56080    -999.25  277.22140    3.60730   75.21900   75.21900   79.00370   79.00370    3.60730    3.73980    4.76270    3.73980 -275.00760 -234.97730    4.76270
 8600.00000   12.63940   12.63940    -999.25  229.20010    4.36300   72.08050   72.08050   71.37520   71.37520    4.36300    4.12070    5.45170    4.12070 -212.20730 -176.07630    5.45170
 8650.00000   13.74930   13.74930    -999.25  248.48420    4.02440   73.44520   73.44520   71.62260   71.62260    4.02440    3.72570    4.83340    3.72570 -149.84160 -117.59060    4.83340
 8700.00000   14.33330   14.33330    -999.25  255.85920    3.90840   76.69140   76.69140   64.22000   64.22000    3.90840    3.41540    4.73030    3.41540  -64.91480  -36.54380    4.73030
 8750.00000   14.33960   14.33960    -999.25  284.82730    3.51090   78.46910   78.46910   65.26910   65.26910    3.51090    3.37470    4.50010    3.37470  -36.80790  -12.44050    4.50010
 8800.00000   13.27450   13.27450    -999.25  301.43690    3.31750   79.36990   79.36990   84.25100   84.25100    3.31750    3.35220    4.81040    3.35220  -52.51490  -32.85500    4.81040
 8850.00000    8.93900    8.93900    -999.25   99.28610   10.07190   58.85090   58.85090   67.47590   67.47590   10.07190   11.61950   17.39050   11.61950  -78.36370  -63.45870   17.39050
 8900.00000    8.93650    8.93650    -999.25  116.06990    8.61550   60.75110   60.75110   70.85220   70.85220    8.61550    9.91780   14.72360    9.91780 -161.09420 -150.92040   14.72360
 8950.00000    9.02260    9.02260    -999.25  118.98950    8.40410   62.39230   62.39230   87.66500   87.66500    8.40410    9.65430   14.14990    9.65430 -160.73020 -155.28760   14.14990
 9000.00000    8.98900    8.98900    -999.25  140.46720    7.11910   64.66150   64.66150   84.05270   84.05270    7.11910    8.03530   11.14390    8.03530 -142.37440 -141.66300   11.14390
 9050.00000    8.89960    8.89960    -999.25  121.15570    8.25390   64.73210   64.73210   79.02630   79.02630    8.25390    9.31100   12.80280    9.31100 -166.45670 -170.45280   12.80280
 9100.00000    9.99010    9.99010    -999.25  219.75120    4.55060   72.04670   72.04670   78.52790   78.52790    4.55060    5.13290    7.33030    5.13290 -148.21330 -156.96420    7.33030
 9150.00000   10.66930   10.66930    -999.25  154.19960    6.48510   75.06940   75.06940  103.50650  103.50650    6.48510    6.64340   11.44360    6.64340 -101.62170 -115.10380   11.44360
 9200.00000    8.88030    8.88030    -999.25  156.77420    6.37860   63.40820   63.40820   72.19230   72.19230    6.37860    7.03620   11.88310    7.03620  -17.66370  -35.87700   11.88310
 9250.00000    8.94840    8.94840    -999.25  163.17210    6.12850   67.61060   67.61060   85.83080   85.83080    6.12850    6.72010    9.82510    6.72010  -56.47280  -82.42680    9.82510
 9300.00000    9.41770    9.41770    -999.25  136.64040    7.31850   73.47120   73.47120   83.33440   83.33440    7.31850    7.82560   11.19130    7.82560  -83.38640 -118.58500   11.19130
 9350.00000    8.75350    8.75350    -999.25   43.77170   22.84580   53.41110   53.41110   37.82620   37.82620   22.84580   29.23980   56.28660   29.23980 -169.61480 -214.15100   56.28660
 9400.00000    8.92330    8.92330    -999.25   21.06760   47.46630   75.38440   75.38440  127.74770  127.74770   47.46630   65.62110  777.44350   65.62110 -172.73100 -226.55820  777.44350
 9450.00000    8.75460    8.75460    -999.25   72.37670   13.81660   54.76750   54.76750   44.89460   44.89460   13.81660   16.00730   30.55630   16.00730    2.25110  -60.86720   30.55630
 9500.00000    8.74200    8.74200    -999.25   37.97390   26.33390   48.43890   48.43890   31.36070   31.36070   26.33390   31.72350   82.85390   31.72350   40.51690  -24.65120   82.85390
