~Version ---------------------------------------------------
VERS.      2.0 : CWLS log ASCII Standard -VERSION 2.0
WRAP.       NO : One line per depth step
CREA. 01/03/18 : LAS Creation Date
~Well ------------------------------------------------------
STRT.FT                         650.0 : START DEPTH
STOP.FT                        8900.0 : STOP DEPTH
STEP.FT                      50.00000 : STEP LENGTH
NULL.                         -999.25 : NULL VALUE
COMP.    J. RAY MCDERMOTT & CO., INC. : COMPANY
WELL. MCDERMOTT JUDY CREEK 2-14-64-11 : WELL
FLD .                                 : FIELD
LOC .                                 : LOCATION
CTRY.                          CANADA : COUNTRY
SRVC.          Schlumberger of Canada : SERVICE COMPANY
DATE.                     14-Mar-1960 : LOGDATE
PROV.                         Alberta : PROVINCE
UWI .                100021406411W500 : UNIQUE WELL ID
SLAT.WGS84                   54.53274 : SURFACE LATITUDE
SLON.WGS84                  -115.5482 : SURFACE LONGITUDE
~Curve Information -----------------------------------------
DEPT   .FT         : Depth Curve
CALWS  .IN         : CALIPER [MCALED]
CGRED  .GAPI       : COMPUTED GAMMA RAY FROM GR LOG [CASED HOLE]
CILDED .MMHO       : CONDUCTIVITY FROM RESISTIVITY LOG
CONDWS .MMHO       : CONDUCTIVITY [1000/DRESWS]
DRESWS .OHMM       : DEEP RESISTIVITY [1000/CILDED]
DTED   .US/F       : DELTA TIME FROM SONIC LOG
DTWS   .US/F       : DELTA TIME [DTED]
GRED   .GAPI       : GAMMA RAY FROM GR LOG [CASEDHOLE]
GRSED  .UgRa-Eq/T  : GAMMA RAY FROM SONIC LOG
GRWS   .GAPI       : GAMMA RAY [2575' GRED 8448' GRSED]
ILDED  .OHMM       : INDUCTION LOG DEEP RESISTIVITY
MCALED .IN         : CALIPER FROM MICROLOG
MINVED .OHMM       : MICROINVERSE RESISTIVITY FROM MICROLOG
MNORED .OHMM       : MICRONORMAL RESISTIVITY FROM MICROLOG
NEUTED .CPS        : NEUTRON FROM NEUTRON LOG [CASEDHOLE]
NEUTWS .CPS        : NEUTRON
SIGMAED.CU         : FORMATION SIGMA (NEUTRON CAPTURE CROSS SECTION)[CASEDHOLE]
SNED   .OHMM       : 16 INCH SHORT NORMAL RESISTIVITY FROM IEL
SPRED  .MV         : SPONTANEOUS POTENTIAL FROM RESISTIVITY LOG
SPWS   .MV         : SPONTANEOUS POTENTIAL [BASELINE 0 MV] [SPRED]
SRESWS .OHMM       : SHALLOW RESISTIVITY [SNED]
TENSED .LBF        : TENSION FROM SONIC LOG
~Params ----------------------------------------------------
LMF .                     KB : LOG MEASURED FROM
DMF .                     KB : DRILLING MEASURED FROM
EKB .FT                 3450 : KELLY BUSHING
EGL .FT               3438.8 : GROUND LEVEL
DATE.               03/14/60 : RUN DATE
RUN .                      1 : RUN NUMBER
DD  .FT                 8925 : DEPTH DRILLER
DL  .FT                 8920 : DEPTH LOGGER
BLI .FT                 8914 : BOTTOM LOG INTERVAL
TLI .FT                  627 : TOP LOG INTERVAL
CS  .IN                10.75 : CASING SIZE
CBL .FT                  627 : CASING BOTTOM LOGGER
BS  .IN                 8.75 : BIT SIZE
BSD .FT                 8925 : BIT SIZE AT DEPTH
DFT .                    GYP : DRILLING FLUID TYPE
DFD .                   10.2 : DRILLING FLUID DENSITY
DFV .                     64 : DRILLING FLUID VISCOSITY
RMS .OHMM                1.6 : RESISTIVITY MUD SAMPLE
MST .DEGF                 75 : MUD SAMPLE TEMPERATURE
TCS .HRS                 2.5 : TIME CIRCULATED STOPPED
LUN .                   2786 : LOGGING UNIT NUMBER
LUL .                     SH : LOGGING UNIT LOCATION
ENGI.               WILLIAMS : RECORDING ENGINEER
WITN.                 STEELE : WITNESSED BY
CLNT.                A2DTECH : CLIENT CODE
ORIG.            2" 5" PRINT : ORIGIN OF DATA
UWI .       100021406411W500 : UNIQUE WELL ID
DICO. A2D Technologies, Inc. : DIGITIZING COMPANY
~Other -----------------------------------------------------
~ASCII -----------------------------------------------------
# ...
 7050.00000    8.76460    -999.25    5.58010    5.57990  179.21400    -999.25    -999.25    -999.25    -999.25    -999.25  216.49930    8.76460   38.21160    -999.25    -999.25    -999.25    -999.25  101.69300 -158.42980  -65.25510  101.69300    -999.25
 7100.00000    8.70550    -999.25   66.11700   66.11700   15.12470    -999.25    -999.25    -999.25    -999.25    -999.25   15.59150    8.70550   15.29030   24.14580    -999.25    -999.25    -999.25   42.59760 -172.41900  -81.21310   42.59760    -999.25
 7150.00000    8.73910    -999.25  141.76110  141.73030    7.05570    -999.25    -999.25    -999.25    -999.25    -999.25    7.09900    8.73910   37.23680   35.73130    -999.25    -999.25    -999.25   14.16330 -141.47560  -52.21890   14.16330    -999.25
 7200.00000    8.74670    -999.25   29.07040   29.07040   34.39930    -999.25    -999.25    -999.25    -999.25    -999.25   38.63880    8.74670   30.05300    -999.25    -999.25    -999.25    -999.25   41.06200  -96.02240   -8.73450   41.06200    -999.25
 7250.00000    8.80030    -999.25   45.94620   45.94620   21.76460    -999.25    -999.25    -999.25    -999.25    -999.25   22.45280    8.80030   32.12890   29.50810    -999.25    -999.25    -999.25   26.63880  -96.38970  -11.06080   26.63880    -999.25
 7300.00000    9.03720    -999.25  102.41950  102.41450    9.76420    -999.25    -999.25    -999.25    -999.25    -999.25    9.94270    9.03720   14.39240   11.41230    -999.25    -999.25    -999.25   13.98800  -89.23650   -4.95170   13.98800    -999.25
 7350.00000   11.56550    -999.25  219.47600  219.47600    4.55630    -999.25    -999.25    -999.25    -999.25    -999.25    4.70270   11.56550    1.27590    1.61940    -999.25    -999.25    -999.25    7.34210  -88.75990   -5.27010    7.34210    -999.25
 7400.00000   12.23700    -999.25   77.90270   77.90250   12.83660    -999.25    -999.25    -999.25    -999.25    -999.25   12.23680   12.23700    1.39630    1.67450    -999.25    -999.25    -999.25    8.45540  -92.82410  -10.12130    8.45540    -999.25
 7450.00000    9.55950    -999.25  120.41800  120.41800    8.30440    -999.25    -999.25    -999.25    -999.25    -999.25    8.76280    9.55950   18.50900   13.17940    -999.25    -999.25    -999.25   13.25460  -88.48470   -6.57700   13.25460    -999.25
 7500.00000    9.12910    -999.25  164.04550  164.04550    6.09590    -999.25    -999.25    -999.25    -999.25    -999.25    7.11860    9.12910   20.45810   13.32920    -999.25    -999.25    -999.25   11.27070  -88.97160   -7.85490   11.27070    -999.25
 7550.00000    9.02390    -999.25  143.35080  143.34630    6.97610    -999.25    -999.25    -999.25    -999.25    -999.25    6.97950    9.02390   17.08980   11.46670    -999.25    -999.25    -999.25   10.56380 -103.38480  -23.05520   10.56380    -999.25
 7600.00000    9.21110    -999.25   99.88450   99.88450   10.01160    -999.25    -999.25    -999.25    -999.25    -999.25    8.37990    9.21110    2.47590    7.87200    -999.25    -999.25    -999.25   13.54330  -90.74480  -11.21020   13.54330    -999.25
 7650.00000   10.96370    -999.25  315.26840  315.25740    3.17200    -999.25    -999.25    -999.25    -999.25    -999.25    3.53020   10.96370    1.49260    1.75100    -999.25    -999.25    -999.25    5.62350  -91.44750  -12.70000    5.62350    -999.25
 7700.00000   10.82220    -999.25  235.23410  235.23410    4.25110    -999.25    -999.25    -999.25    -999.25    -999.25    4.47610   10.82220    1.86310    2.11310    -999.25    -999.25    -999.25    6.54380  -85.71920   -7.76670    6.54380    -999.25
 7750.00000   10.79680    -999.25  270.47130  270.47130    3.69720    -999.25    -999.25    -999.25    -999.25    -999.25    4.08920   10.79680    1.65790    1.95140    -999.25    -999.25    -999.25    6.02990  -83.98180   -6.82030    6.02990    -999.25
 7800.00000   10.35120    -999.25  248.88250  248.57680    4.02290    -999.25    -999.25    -999.25    -999.25    -999.25    4.41070   10.35120    2.98170    3.21820    -999.25    -999.25    -999.25    6.69340  -88.75520  -12.38080    6.69340    -999.25
 7850.00000    8.99140    -999.25  105.86590  105.86590    9.44590    -999.25    -999.25    -999.25    -999.25    -999.25    9.01670    8.99140    9.44030    8.57940    -999.25    -999.25    -999.25   14.03730  -83.23630   -7.65690   14.03730    -999.25
 7900.00000    8.81010    -999.25  101.71190  101.69440    9.83340    -999.25    -999.25    -999.25    -999.25    -999.25    9.76960    8.81010   15.69890   11.27520    -999.25    -999.25    -999.25   14.92760  -82.15860   -7.36630   14.92760    -999.25
 7950.00000    9.01830    -999.25  132.68940  132.68940    7.53640    -999.25    -999.25    -999.25    -999.25    -999.25    7.45410    9.01830    4.55660    4.92410    -999.25    -999.25    -999.25   10.79220  -83.71880   -9.72150   10.79220    -999.25
 8000.00000   10.42930    -999.25  219.34670  219.34670    4.55900    -999.25    -999.25    -999.25    -999.25    -999.25    4.65850   10.42930    1.98280    2.30860    -999.25    -999.25    -999.25    7.04270  -86.71930  -13.51310    7.04270    -999.25
 8050.00000    9.83960    -999.25  226.94490  226.94490    4.40640    -999.25    -999.25    -999.25    -999.25    -999.25    4.58110    9.83960    2.08480    2.50440    -999.25    -999.25    -999.25    6.75710  -86.20310  -13.78400    6.75710    -999.25
 8100.00000   10.38820    -999.25  177.85650  177.85650    5.62250    -999.25    -999.25    -999.25    -999.25    -999.25    5.65850   10.38820    2.21100    2.73020    -999.25    -999.25    -999.25    8.33920  -84.13980  -12.51570    8.33920    -999.25
 8150.00000    9.31700    -999.25  231.23280  231.20830    4.32510    -999.25    -999.25    -999.25    -999.25    -999.25    4.62180    9.31700    1.72580    2.30920    -999.25    -999.25    -999.25    7.12970  -83.43120  -12.59410    7.12970    -999.25
 8200.00000    8.81030    -999.25  117.77910  117.77910    8.49050    -999.25    -999.25    -999.25    -999.25    -999.25    8.31910    8.81030   20.08560   12.44860    -999.25    -999.25    -999.25   12.88460  -79.84350   -9.80140   12.88460    -999.25
 8250.00000    8.80530    -999.25  134.43740  134.43740    7.43840    -999.25    -999.25    -999.25    -999.25    -999.25    7.29990    8.80530   10.26510    6.63360    -999.25    -999.25    -999.25   12.22510  -79.15380   -9.90280   12.22510    -999.25
 8300.00000    8.81270    -999.25   26.30410   26.30020   38.02260    -999.25    -999.25    -999.25    -999.25    -999.25   45.28780    8.81270   39.04220   40.07840    -999.25    -999.25    -999.25   38.76910  -75.76170   -7.29770   38.76910    -999.25
 8350.00000    9.69550    -999.25  188.35620  188.35620    5.30910    -999.25    -999.25    -999.25    -999.25    -999.25    5.34070    9.69550    1.16620    1.84650    -999.25    -999.25    -999.25    8.10500  -79.22700  -11.39090    8.10500    -999.25
 8400.00000    9.31080    -999.25  158.35070  158.32780    6.31600    -999.25    -999.25    -999.25    -999.25    -999.25    6.32200    9.31080    3.26550    3.31790    -999.25    -999.25    -999.25   10.51160  -77.32620   -9.98010   10.51160    -999.25
 8450.00000    9.11900    -999.25   57.79040   57.79040   17.30390   66.53130   66.53130    -999.25    7.52560  127.18260   17.18560    9.11900   11.16630   39.96270    -999.25    -999.25    -999.25   27.28210  -69.27280   -2.42170   27.28210    -999.25
 8500.00000    8.99210    -999.25  122.25200  122.25200    8.17980   69.94320   69.94320    -999.25    8.88520  150.15990    7.68920    8.99210    6.55340    4.80790  175.32640  175.32640   46.18870   12.77990  -70.00170   -3.64310   12.77990    -999.25
 8550.00000    8.92530    -999.25    7.05200    7.05040  141.83560   49.36780   49.36780    -999.25    2.24470   37.93540  210.28370    8.92530   40.04590   27.51790  321.57600  321.57600   15.78300   97.11870 -112.90580  -46.80810   97.11870    -999.25
 8600.00000    8.78630    -999.25    6.03130    6.03130  165.80170   49.07400   49.07400    -999.25    1.72990   29.23530  239.54540    8.78630   39.97090    -999.25  372.04410  372.04410   10.35470    -999.25 -156.30430  -90.20670    -999.25    -999.25
