~Version ---------------------------------------------------
VERS.      2.0 : CWLS log ASCII Standard -VERSION 2.0
WRAP.       NO : One line per depth step
CREA. 12/11/17 : LAS Creation Date
~Well ------------------------------------------------------
STRT.FT                         300.0 : START DEPTH
STOP.FT                        7450.0 : STOP DEPTH
STEP.FT                      50.00000 : STEP LENGTH
NULL.                         -999.25 : NULL VALUE
COMP.         BRALORNE RESOURCES LTD. : COMPANY
WELL. BRALORNE ET AL HEARTR 9-1-77-16 : WELL
FLD .                                 : FIELD
LOC .                                 : LOCATION
CTRY.                          CANADA : COUNTRY
SRVC.                         Unknown : SERVICE COMPANY
DATE.                     01-Apr-1977 : LOGDATE
PROV.                         Alberta : PROVINCE
UWI .                100090107716W500 : UNIQUE WELL ID
SLAT.WGS84                   55.64558 : SURFACE LATITUDE
SLON.WGS84                  -116.3326 : SURFACE LONGITUDE
~Curve Information -----------------------------------------
DEPT    .FT    : Depth Curve
CALDED  .IN    : CALIPER FROM DENSITY LOG [ADJ. TO RESISTIVITY LOG]
CALWS   .IN    : CALIPER [CALDED]
CONDWS  .MMHO  : CONDUCTIVITY [1000/DRESWS]
DCORWS  .G/C3  : DENSITY CORRECTION [DRHOED]
DENWS   .G/C3  : FORMATION BULK DENSITY [CALC. FROM DPOLSWS M=2.71, F=1.00]
DPHILSED.V/V   : DENSITY POROSITY LIMESTONE  [M=2.71, F=1.00]  FROM DENSITY LOG [ADJ. TO RESISTIVITY LOG]
DPHISSED.V/V   : DENSITY POROSITY SANDSTONE [M=2.65, F=1.00] FROM DENSITY LOG [ADJ. TO RESISTIVITY LOG]
DPOLSWS .V/V   : DENSITY POROSITY SANDSTONE [DPHISSED CONVERTED TO LIMESTONE MATRIX, M=2.71, F=1.00, SPL. TO DPHILSED @ 2694']
DRESWS  .OHMM  : DEEP RESISTIVITY [ILDED]
DRHOED  .G/C3  : BULK DENSITY CORRECTION FROM DENSITY LOG [ADJ. TO RESISTIVITY LOG/DPHISSED/DPHILSED] [DRHOED*1000]
GRDED   .GAPI  : GAMMA RAY FROM DENSITY LOG [ADJ. TO RESISTIVITY LOG]
GRWS    .GAPI  : GAMMA RAY [GRDED]
ILDED   .OHMM  : DEEP INDUCTION FROM RESISTIVITY LOG
ILMED   .OHMM  : MEDIUM INDUCTION FROM RESISTIVITY LOG
LL8ED   .OHMM  : LATEROLOG 8 FROM RESISTIVITY LOG
MRESWS  .OHMM  : MEDIUM RESISTIVITY [ILMED]
NPHILSED.V/V   : NEUTRON POROSITY LIMESTONE FROM DENSITY LOG [ADJ. TO RESISTIVITY LOG]
NPHISSED.V/V   : NEUTRON POROSITY SANDSTONE FROM DENSITY LOG [ADJ. TO RESISTIVITY LOG]
NPOLSWS .V/V   : NEUTRON POROSITY LIMESTONE [NPHISSED MATRIX CONVERSION FOR LIMESTONE FROM SCHLUMBERGER (CNL), SPL. TP NPHILSED @ 2694']
RHOBED  .G/C3  : BULK DENSITY FROM DENSITY LOG [ADJ. TO RESISTIVITY LOG/DPHISSED/DPHILSED]
SPRED   .MV    : SPONTANEOUS POTENTIAL FROM RESISTIVITY LOG
SPWS    .MV    : SPONTANEOUS POTENTIAL [BASELINE 0 MV, SPRED]
SRESWS  .OHMM  : SHALLOW RESISTIVITY [LL8ED]
~Params ----------------------------------------------------
PD  .                     GL : PERMANENT DATUM
EPD .FT               2310.5 : ELEVATION PERMANENT DATUM
LMF .                     KB : LOG MEASURED FROM
DAPD.FT                 14.4 : FEET ABOVE PERMANENT DATUM
EKB .FT               2324.9 : KELLY BUSHING
EGL .FT               2310.5 : GROUND LEVEL
DATE.               04/01/77 : RUN DATE
RUN .                      1 : RUN NUMBER
DD  .FT                 7520 : DEPTH DRILLER
DL  .FT                 7486 : DEPTH LOGGER
BLI .FT                 7480 : BOTTOM LOG INTERVAL
TLI .FT                  796 : TOP LOG INTERVAL
CBD .FT                  796 : CASING BOTTOM DRILLER
CBL .FT                  796 : CASING BOTTOM LOGGER
BS  .IN                7.875 : BIT SIZE
BSD .FT                 7520 : BIT SIZE AT DEPTH
DFT .              GEL BENEX : DRILLING FLUID TYPE
DFD .                    9.2 : DRILLING FLUID DENSITY
DFV .                     80 : DRILLING FLUID VISCOSITY
DFPH.                   10.5 : DRILLING FLUID PH
DFL .                     12 : DRILLING FLUID LOSS
MSS .             CIRCULATED : MUD SAMPLE SOURCE
RMS .OHMM               0.49 : RESISTIVITY MUD SAMPLE
MST .DEGF                 64 : MUD SAMPLE TEMPERATURE
RMF .OHMM               0.35 : RESISTIVITY MUD FILTRATE SAMPLE
MFST.DEGF                 66 : MUD FILTRATE SAMPLE TEMPERATURE
RMB .OHMM               0.17 : RESISTIVITY MUD AT BHT
TCS .HRS                 2.5 : TIME CIRCULATED STOPPED
LUN .                   7809 : LOGGING UNIT NUMBER
LUL .                    EDM : LOGGING UNIT LOCATION
ENGI.      CROCKFORD BUSHMAN : RECORDING ENGINEER
WITN.      KIRKPATRICK MOORE : WITNESSED BY
CLNT.                A2DTECH : CLIENT CODE
ORIG.            2" 5" PRINT : ORIGIN OF DATA
UWI .       100090107716W500 : UNIQUE WELL ID
DICO. A2D Technologies, Inc. : DIGITIZING COMPANY
~Other -----------------------------------------------------
DIL-CNFD LOG RUN
RHOBED & DRHOED VERIFY FROM 2" SCALE
~ASCII -----------------------------------------------------
# ...
 4950.00000    8.51840    8.51840    9.82150   -0.00750    2.77600   -0.03860    -999.25   -0.03860  101.99300   -0.00750   17.41410   17.41410  101.99300  149.39780  149.73450  149.39780    0.02060    -999.25    0.02060    2.76060  -97.77810  -46.78030  149.73450
 5000.00000    8.52800    8.52800   26.08550    0.00250    2.64450    0.03830    -999.25    0.03830   38.33550    0.00250   14.26390   14.26390   38.33550   34.61480   39.11560   34.61480    0.03000    -999.25    0.03000    2.64020 -105.29810  -54.37940   39.11560
 5050.00000    8.53350    8.53350   35.41090   -0.00740    2.66180    0.02820    -999.25    0.02820   28.23990   -0.00740   13.63900   13.63900   28.23990   30.81890   43.43850   30.81890    0.04690    -999.25    0.04690    2.65810 -103.40730  -52.56770   43.43850
 5100.00000    8.40240    8.40240   58.93240    0.06920    2.60770    0.05980    -999.25    0.05980   16.96950    0.06920   20.79860   20.79860   16.96950   24.87110   73.06050   24.87110    0.07050    -999.25    0.07050    2.61570 -119.24230  -68.48230   73.06050
 5150.00000    8.50130    8.50130   64.86430    0.06610    2.62310    0.05080    -999.25    0.05080   15.41680    0.06610   16.93640   16.93640   15.41680   22.72420   61.49310   22.72420    0.06970    -999.25    0.06970    2.64140 -116.84620  -66.16530   61.49310
 5200.00000    8.34080    8.34080   78.07020    0.05140    2.61760    0.05410    -999.25    0.05410   12.80910    0.05140   12.99050   12.99050   12.80910   18.42840   56.68340   18.42840    0.07150    -999.25    0.07150    2.62030 -114.43040  -63.82910   56.68340
 5250.00000    8.42530    8.42530   64.03610    0.04630    2.62430    0.05010    -999.25    0.05010   15.61620    0.04630   18.46330   18.46330   15.61620   22.21870   61.55130   22.21870    0.06900    -999.25    0.06900    2.63670 -111.06750  -60.54530   61.55130
 5300.00000    8.39760    8.39760    9.68310    0.01060    2.73070   -0.01210    -999.25   -0.01210  103.27320    0.01060   14.14630   14.14630  103.27320  153.86060  143.82980  153.86060    0.01200    -999.25    0.01200    2.73080 -108.87480  -58.43160  143.82980
 5350.00000    8.39870    8.39870   27.45380    0.00140    2.70300    0.00410    -999.25    0.00410   36.42510    0.00140   12.39030   12.39030   36.42510   35.19020   67.20980   35.19020    0.03390    -999.25    0.03390    2.69670 -105.93980  -55.57620   67.20980
 5400.00000    8.58960    8.58960    9.58790    0.00500    2.70710    0.00170    -999.25    0.00170  104.29860    0.00500   15.73990   15.73990  104.29860   92.75930  125.28920   92.75930    0.02260    -999.25    0.02260    2.69920 -105.61980  -55.33530  125.28920
 5450.00000    8.38640    8.38640   17.81140    0.01810    2.70990    0.00010    -999.25    0.00010   56.16990    0.01810   18.07830   18.07830   56.16990   51.95150   74.21360   51.95150    0.03370    -999.25    0.03370    2.71080 -104.42710  -54.22220   74.21360
 5500.00000    8.41190    8.41190   13.26750    0.00070    2.72330   -0.00780    -999.25   -0.00780   75.37190    0.00070   16.36250   16.36250   75.37190  101.09930  165.70030  101.09930    0.01350    -999.25    0.01350    2.72690 -107.87520  -57.74940  165.70030
 5550.00000    8.16570    8.16570   67.59730    0.00480    2.58890    0.07080    -999.25    0.07080   14.79350    0.00480   13.46030   13.46030   14.79350   21.44590   57.14020   21.44590    0.08040    -999.25    0.08040    2.58520 -115.54340  -65.49670   57.14020
 5600.00000    8.35840    8.35840   39.10790    0.00750    2.70700    0.00170    -999.25    0.00170   25.57030    0.00750   13.17440   13.17440   25.57030   37.98750  119.67880   37.98750    0.02730    -999.25    0.02730    2.70460 -108.83180  -58.86470  119.67880
 5650.00000    8.11830    8.11830  131.75750    0.01440    2.82590   -0.06780    -999.25   -0.06780    7.58970    0.01440   16.17520   16.17520    7.58970   24.59060  136.02890   24.59060    0.06730    -999.25    0.06730    2.80650 -103.62180  -53.73380  136.02890
 5700.00000    7.91030    7.91030  100.59000   -0.00730    2.75510   -0.02640    -999.25   -0.02640    9.95230   -0.00730   39.91770   39.91770    9.95230   14.13030   45.19830   14.13030    0.09590    -999.25    0.09590    2.74190  -95.27380  -45.46540   45.19830
 5750.00000    8.32750    8.32750  127.82000    0.01410    2.72450   -0.00850    -999.25   -0.00850    7.82350    0.01410   54.22850   54.22850    7.82350    5.45840    7.00080    5.45840    0.15770    -999.25    0.15770    2.71870  -79.25290  -29.52350    7.00080
 5800.00000    8.23140    8.23140   52.41830    0.01500    2.79480   -0.04960    -999.25   -0.04960   19.07730    0.01500   31.87260   31.87260   19.07730   22.71890   57.21080   22.71890    0.10100    -999.25    0.10100    2.77920 -100.96640  -51.31610   57.21080
 5850.00000    8.24520    8.24520   10.52460    0.00650    2.78120   -0.04160    -999.25   -0.04160   95.08820    0.00650   32.22660   32.22660   95.08820   96.08650  144.93260   96.08650    0.02480    -999.25    0.02480    2.79120  -74.60270  -25.03200  144.93260
 5900.00000    8.12220    8.12220   46.35190   -0.00940    2.69790    0.00710    -999.25    0.00710   21.57410   -0.00940   29.14350   29.14350   21.57410   20.97040   29.25960   20.97040    0.05990    -999.25    0.05990    2.68600  -79.70320  -30.21160   29.25960
 5950.00000    8.15770    8.15770   65.71320    0.01340    2.70940    0.00030    -999.25    0.00030   15.21760    0.01340   54.02380   54.02380   15.21760   14.98490   19.28420   14.98490    0.09950    -999.25    0.09950    2.69710  -60.90610  -11.49410   19.28420
 6000.00000    8.15660    8.15660   59.08110   -0.00280    2.66690    0.02520    -999.25    0.02520   16.92590   -0.00280   45.05580   45.05580   16.92590   16.29830   21.67900   16.29830    0.08370    -999.25    0.08370    2.66620  -53.77870   -4.75990   21.67900
 6050.00000   11.04920   11.04920  386.51820    0.06110    2.39900    0.18190    -999.25    0.18190    2.58720    0.06110  120.16160  120.16160    2.58720    2.49110    3.27400    2.49110    0.37560    -999.25    0.37560    2.39370  -65.61450  -17.75980    3.27400
 6100.00000   14.07340   14.07340  387.11130    0.08480    2.29250    0.24410    -999.25    0.24410    2.58330    0.08480  122.90720  122.90720    2.58330    2.20590    2.96480    2.20590    0.43730    -999.25    0.43730    2.29520  -69.57660  -22.89370    2.96480
 6150.00000   15.00000   15.00000  355.92260    0.10470    2.26760    0.25870    -999.25    0.25870    2.80960    0.10470  118.62940  118.62940    2.80960    2.42770    3.36420    2.42770    0.41240    -999.25    0.41240    2.26210  -71.89360  -26.37480    3.36420
 6200.00000   15.00000   15.00000  254.53400    0.17610    2.35810    0.20580    -999.25    0.20580    3.92870    0.17610   96.85440   96.85440    3.92870    3.76640    4.60490    3.76640    0.35380    -999.25    0.35380    2.35690  -67.59940  -23.25240    4.60490
 6250.00000   15.00000   15.00000  320.82130    0.12530    1.66810    0.45000    -999.25    0.60930    3.11700    0.12530  104.37670  104.37670    3.11700    2.53550    3.37910    2.53550    0.46860    -999.25    0.46860    1.66810  -72.33220  -29.14930    3.37910
 6300.00000   10.58050   10.58050  308.08100    0.05950    1.48930    0.45000    -999.25    0.71390    3.24590    0.05950  114.80540  114.80540    3.24590    2.67480    3.48270    2.67480    0.37310    -999.25    0.37310    1.48930  -65.26770  -23.24890    3.48270
 6350.00000   15.00000   15.00000  264.60960    0.16430    2.37660    0.19500    -999.25    0.19500    3.77930    0.16430   94.43360   94.43360    3.77930    3.09040    3.66780    3.09040    0.37010    -999.25    0.37010    2.37500  -64.73260  -23.88560    3.66780
 6400.00000   15.00000   15.00000  325.01300    0.11540    2.46070    0.14580    -999.25    0.14580    3.07680    0.11540  104.25950  104.25950    3.07680    2.66160    3.16940    2.66160    0.38380    -999.25    0.38380    2.46290  -61.42980  -21.74690    3.16940
 6450.00000   15.00000   15.00000  330.55130    0.12550    2.54050    0.09910    -999.25    0.09910    3.02530    0.12550  111.26590  111.26590    3.02530    2.59570    3.12890    2.59570    0.37520    -999.25    0.37520    2.54570  -57.73120  -19.22010    3.12890
