~Version ---------------------------------------------------
VERS.      2.0 : CWLS log ASCII Standard -VERSION 2.0
WRAP.       NO : One line per depth step
CREA. 06/04/13 : LAS Creation Date
~Well ------------------------------------------------------
STRT.M                        350.0 : START DEPTH
STOP.M                       3350.0 : STOP DEPTH
STEP.M                     50.00000 : STEP LENGTH
NULL.                       -999.25 : NULL VALUE
COMP. HUDSON'S BAY OIL & GAS CO LTD : COMPANY
WELL.   H B UNION KAYBOB 2-19-61-19 : WELL
FLD .                               : FIELD
LOC .                               : LOCATION
CTRY.                        CANADA : COUNTRY
SRVC.        Schlumberger of Canada : SERVICE COMPANY
DATE.                   14-Mar-1958 : LOGDATE
PROV.                       Alberta : PROVINCE
UWI .              100021906119W500 : UNIQUE WELL ID
SLAT.WGS84                 54.28469 : SURFACE LATITUDE
SLON.WGS84                 -116.835 : SURFACE LONGITUDE
~Curve Information -----------------------------------------
DEPT  .M     : DEPTH METER
CILED .MMHO  : DEEP INDUCTION CONDUCTIVITY FROM RESISTIVITY LOG
CONDWS.MMHO  : CONDUCTIVITY [1000/DRESWS]
DRESWS.OHMM  : DEEP RESISTIVITY [CALC FROM 1000/CILED, IF ILED<1, ILED]
GRED  .GAPI  : GAMMA RAY (CASING & COLLARS) FROM CBL LOG [ADJ. TO RESISTIVITY LOG]
GRNED .RU    : GAMMA RAY FROM NEUTRON LOG [ADJ. TO RESISTIVITY LOG]
GRWS  .GAPI  : GAMMA RAY [GRED SPL @ 2086M TO GRNED*2.16]
ILED  .OHMM  : INDUCTION FROM RESISTIVITY LOG
LL7ED .OHMM  : LATEROLOG-7 FROM RESISTIVITY LOG
NEUTED.CU    : NEUTRON (CASING & COLLARS) FROM NEUTRON LOG [ADJ. TO RESISTIVITY LOG]
NEUTWS.CU    : NEUTRON [NEUTED]
SNED  .OHMM  : SHORT NORMAL 10 INCH FROM RESISTIVITY LOG
SPRED .MV    : SPONTANEOUS POTENTIAL FROM RESISTIVITY LOG
SPWS  .MV    : SPONTANEOUS POTENTIAL [BASELINE 0 MV, SPRED]
SRESWS.OHMM  : SHALLOW RESISTIVITY [SNED]
~Params ----------------------------------------------------
LMF .                     KB : LOG MEASURED FROM
DMF .                     KB : DRILLING MEASURED FROM
EKB .FT                 2944 : KELLY BUSHING
EGL .FT               2930.6 : GROUND LEVEL
DATE.               03/14/58 : RUN DATE
RUN .                      1 : RUN NUMBER
DD  .FT                11092 : DEPTH DRILLER
DL  .FT                11092 : DEPTH LOGGER
BLI .FT                11086 : BOTTOM LOG INTERVAL
TLI .FT                 1000 : TOP LOG INTERVAL
CBD .FT                 1000 : CASING BOTTOM DRILLER
CBL .FT                 1000 : CASING BOTTOM LOGGER
BS  .IN                8.625 : BIT SIZE
BSD .FT                11092 : BIT SIZE AT DEPTH
DFT .                    GEL : DRILLING FLUID TYPE
DFD .                  10.21 : DRILLING FLUID DENSITY
DFV .                    195 : DRILLING FLUID VISCOSITY
DFPH.                      9 : DRILLING FLUID PH
DFL .                    6.1 : DRILLING FLUID LOSS
MSS .            CIRCULATION : MUD SAMPLE SOURCE
RMS .OHMM                2.5 : RESISTIVITY MUD SAMPLE
MST .DEGF                 53 : MUD SAMPLE TEMPERATURE
RMF .OHMM                1.5 : RESISTIVITY MUD FILTRATE SAMPLE
MFST.DEGF                 74 : MUD FILTRATE SAMPLE TEMPERATURE
RMC .OHMM                2.2 : RESISTIVITY MUD CAKE
MCST.DEGF                 72 : MUD CAKE SAMPLE TEMPERATURE
MFSS.                   MEAS : MUD FILTRATE SAMPLE SOURCE
MCSS.                   MEAS : MUD CAKE SAMPLE SOURCE
RMB .OHMM               0.52 : RESISTIVITY MUD AT BHT
TCS .HRS                   6 : TIME CIRCULATED STOPPED
LUN .                   1573 : LOGGING UNIT NUMBER
LUL .                     WC : LOGGING UNIT LOCATION
ENGI.                LAVERTY : RECORDING ENGINEER
WITN.                  SMITH : WITNESSED BY
CLNT.                A2DTECH : CLIENT CODE
ORIG.            2" 5" PRINT : ORIGIN OF DATA
UWI .       100021906119W500 : UNIQUE WELL ID
DICO. A2D Technologies, Inc. : DIGITIZING COMPANY
~Other -----------------------------------------------------
IEL-LL-GRN-CBL tool RUN
CILED,SPRED,ILED & SNED VERIFIED FROM 1" LOG @1000-4250'
~ASCII -----------------------------------------------------
  350.00000  132.16420  120.25010    8.31600    -999.25    -999.25    -999.25    8.31600    -999.25    -999.25    -999.25    8.42490 -103.56000   -6.51210    8.42490
  400.00000  117.44870  106.19940    9.41630    -999.25    -999.25    -999.25    9.41630    -999.25    -999.25    -999.25   10.37690 -104.10180   -7.97980   10.39040
  450.00000  260.26150  230.66450    4.33530    -999.25    -999.25    -999.25    4.33530    -999.25    -999.25    -999.25    5.22100 -102.50200   -7.30590    5.22100
  500.00000  121.13360  160.75620    6.22060    -999.25    -999.25    -999.25    6.22060    -999.25    -999.25    -999.25    7.71980  -97.49880   -3.22860    7.71980
  550.00000  208.24090  171.64140    5.82610    -999.25    -999.25    -999.25    5.82610    -999.25    -999.25    -999.25    6.42610 -101.71270   -7.73390    6.42610
  600.00000  348.12060  293.35840    3.40880    -999.25    -999.25    -999.25    3.40880    -999.25    -999.25    -999.25    4.78620 -101.20080   -6.97730    4.78620
  650.00000  180.90970  160.67100    6.22390    -999.25    -999.25    -999.25    6.22390    -999.25    -999.25    -999.25    6.53020 -100.67810   -6.20990    6.53020
  700.00000   55.28860   55.16150   18.12860    -999.25    -999.25    -999.25   18.12860    -999.25    -999.25    -999.25   19.78880 -112.66850  -17.95560   19.78880
  750.00000  256.60170  194.55250    5.14000    -999.25    -999.25    -999.25    5.14000    -999.25    -999.25    -999.25    5.92250  -98.92580   -4.55850    5.92250
  800.00000  281.68660  219.63780    4.55300    -999.25    -999.25    -999.25    4.55300    -999.25    -999.25    -999.25    5.13410 -101.50880   -7.84290    5.13410
  850.00000   71.37860   72.13240   13.86340    -999.25    -999.25    -999.25   13.86340    -999.25    -999.25    -999.25   15.00620 -107.40390  -14.43940   15.00610
  900.00000  102.80680   98.62810   10.13910    -999.25    -999.25    -999.25   10.13910    -999.25    -999.25    -999.25   10.82810 -100.46870   -7.82290   10.82800
  950.00000  117.71130   99.80040   10.02000    -999.25    -999.25    -999.25   10.02000    -999.25    -999.25    -999.25   10.84870  -96.91540   -4.54110   10.84870
 1000.00000  274.52420  227.59340    4.39380    -999.25    -999.25    -999.25    4.39380    -999.25    -999.25    -999.25    5.05020 -101.17770   -9.07480    5.05020
 1050.00000   51.05280   51.13100   19.55760    -999.25    -999.25    -999.25   19.55760    -999.25    -999.25    -999.25   23.33510 -105.90580  -14.07210   23.33510
 1100.00000  247.81580  207.00930    4.83070    -999.25    -999.25    -999.25    4.83070    -999.25    -999.25    -999.25    5.57630 -103.82450  -12.25590    5.57630
 1150.00000  119.61560  112.90500    8.85700    -999.25    -999.25    -999.25    8.85700    -999.25    -999.25    -999.25   10.37200  -94.76940   -3.46600   10.37200
 1200.00000  143.38040  123.76540    8.07980   65.31530    -999.25   65.31530    8.07980    -999.25    -999.25    -999.25    8.60140 -102.14660  -11.10830    8.60140
 1250.00000  109.05680  101.67150    9.83560   86.26000    -999.25   86.26000    9.83560    -999.25    -999.25    -999.25   11.53230  -96.04740   -5.27430   11.53230
 1300.00000  141.02050  131.29730    7.61630   88.63790    -999.25   88.63790    7.61630    -999.25    -999.25    -999.25    8.42040  -96.67630   -6.16830    8.42040
 1350.00000  125.07180  121.47420    8.23220   71.79160    -999.25   71.79160    8.23220    -999.25    -999.25    -999.25    9.67170  -95.28680   -5.04400    9.67170
 1400.00000   89.70830   87.87730   11.37950   52.70620    -999.25   52.70620   11.37950    -999.25    -999.25    -999.25   15.12670 -100.94570  -11.05930   15.12670
 1450.00000  115.42780  118.92660    8.40860   81.54830    -999.25   81.54830    8.40860    -999.25    -999.25    -999.25    9.82180  -92.72850   -3.83220    9.82180
 1500.00000  148.66560  145.03680    6.89480   83.43400    -999.25   83.43400    6.89480    -999.25    -999.25    -999.25    8.51410  -95.34890   -7.44270    8.51410
 1550.00000   88.09610   87.10540   11.48040   94.33000    -999.25   94.33000   11.48040    -999.25    -999.25    -999.25   16.62930  -92.41430   -5.49820   16.62920
 1600.00000   59.52000   60.50560   16.52740   85.77690    -999.25   85.77690   16.52740    -999.25    -999.25    -999.25   27.37090  -95.14920   -9.22310   27.37090
 1650.00000  133.80490  129.19400    7.74030   87.27040    -999.25   87.27040    7.74030    -999.25    -999.25    -999.25    8.93020  -89.92610   -4.99010    8.93020
 1700.00000  256.68890  229.34200    4.36030   89.55700    -999.25   89.55700    4.36030    -999.25    -999.25    -999.25    5.41160  -89.34550   -5.39960    5.41160
 1750.00000  328.26310  284.53550    3.51450   70.93030    -999.25   70.93030    3.51450    -999.25    -999.25    -999.25    4.23990  -88.15740   -5.20150    4.23990
 1800.00000   37.83720   37.10520   26.95040   58.08750    -999.25   58.08750   26.95040    -999.25    -999.25    -999.25   30.69310 -100.00080  -18.03500   30.69310
 1850.00000  147.01040  124.90790    8.00590   54.59020    -999.25   54.59020    8.00590    -999.25    -999.25    -999.25   12.20480  -88.71790   -7.74220   12.20480
 1900.00000   63.63430   62.03550   16.11980   57.50760    -999.25   57.50760   16.11980    -999.25    -999.25    -999.25   19.44180  -84.84560   -4.85990   19.44180
 1950.00000   60.53840   59.56740   16.78770   49.29910    -999.25   49.29910   16.78770    -999.25    -999.25    -999.25   19.69610 -133.06220  -67.70530   19.69610
 2000.00000   70.92890   70.62770   14.15880   54.36750    -999.25   54.36750   14.15880    -999.25    -999.25    -999.25   17.90880  -52.07260  -16.47940   17.90880
 2050.00000   36.77460   37.97950   26.33000   62.89840    -999.25   62.89840   26.33000    -999.25    -999.25    -999.25   26.75970  -91.93650  -74.70290   26.75960
 2100.00000   70.22720   70.14710   14.25580    -999.25    -999.25    -999.25   14.25580    -999.25    -999.25    -999.25   18.40000  -76.25680  -56.01670   18.40000
 2150.00000  378.73000  304.16400    3.28770    -999.25   29.78400   64.33340    3.28770    -999.25  864.78450  864.78450    4.38690  -73.62930  -50.38270    4.38690
 2200.00000   27.08910   27.84930   35.90760    -999.25   39.42630   85.16090   35.90760    -999.25 1279.78830 1279.78830   39.59530  -70.63090  -46.57330   39.59530
 2250.00000   84.15390   73.53970   13.59810    -999.25   12.67310   27.37390   13.59810   32.15080 1481.28630 1481.28630   40.12030 -118.33190  -95.86110   40.12030
 2300.00000  132.52140  133.49710    7.49080    -999.25   20.47420   44.22430    7.49080   17.04190 1601.25890 1601.25890   21.68610 -171.52690 -150.64280   21.68610
 2350.00000   10.64730    3.91760  255.25880    -999.25    3.67730    7.94300  255.25880 15700.58590 1975.66080 1975.66080  172.24940 -117.52700  -98.22970  172.24940
 2400.00000  177.08330  149.33170    6.69650    -999.25   26.48220   57.20160    6.69650    7.79870 1312.36660 1312.36660    9.61290 -300.16350 -282.45290    9.61290
 2450.00000    9.56120    3.04670  328.22710    -999.25    7.29150   15.74960  328.22710    -999.25 2064.37740 2064.37740  112.69250  -22.95620   -7.10310  112.69250
 2500.00000   10.30820    5.15980  193.80510    -999.25   11.41250   24.65100  193.80510    -999.25 2403.77360 2403.77360  107.58100 -180.22800 -172.73100  107.58100
 2550.00000   13.50640    9.03240  110.71260    -999.25   22.84910   49.35410  110.71260    -999.25 1842.46630 1842.46630   73.90640   -5.99720   -6.85630   73.90640
 2600.00000   10.93430    2.01640  495.92600    -999.25    5.48980   11.85800  495.92600    -999.25 1828.25590 1828.25590  134.81590 -291.53630 -282.61670  134.81590
 2650.00000   19.12420   13.99800   71.43900    -999.25    2.68420    5.79790   71.43900    -999.25 2432.44530 2432.44530   99.82520 -128.63170 -106.98120   99.82520
 2700.00000    8.00840    4.71690  212.00190    -999.25    3.56180    7.69350  212.00190    -999.25 1307.24270 1307.24270  109.80680  -81.70670  -47.32530  109.80680
 2750.00000    8.78090    4.55880  219.35510    -999.25    4.92440   10.63660  219.35510    -999.25 1625.22570 1625.22570  118.42900  -65.83750  -18.72530  118.42900
