~Version ---------------------------------------------------
VERS.      2.0 : CWLS log ASCII Standard -VERSION 2.0
WRAP.       NO : One line per depth step
CREA. 10/25/17 : LAS Creation Date
~Well ------------------------------------------------------
STRT.FT                         1100.0 : START DEPTH
STOP.FT                        10800.0 : STOP DEPTH
STEP.FT                       50.00000 : STEP LENGTH
NULL.                          -999.25 : NULL VALUE
COMP. AMOCO CANADA PETROLEUM CO., LTD. : COMPANY
WELL.       AMOCO N-2 ANTE 11-25-65-23 : WELL
FLD .                                  : FIELD
LOC .                                  : LOCATION
CTRY.                           CANADA : COUNTRY
SRVC.           Schlumberger of Canada : SERVICE COMPANY
DATE.                      30-Oct-1976 : LOGDATE
PROV.                          Alberta : PROVINCE
UWI .                 100112506523W500 : UNIQUE WELL ID
SLAT.WGS84                    54.65705 : SURFACE LATITUDE
SLON.WGS84                   -117.3447 : SURFACE LONGITUDE
~Curve Information -----------------------------------------
DEPT    .FT    : Depth Curve
CALDED  .IN    : CALIPER FROM DENSITY LOG [DEP. ADJ. TO RESIST. LOG]
CALSED  .IN    : CALIPER FROM SONIC LOG [DEP. ADJ. TO RESIST. LOG]
CALWS   .IN    : CALIPER [1152' CALDED 10764' CALSED]
CONDWS  .MMHO  : CONDUCTIVITY [1000/DRESWS]
DCORWS  .G/C3  : DENSITY CORRECTION [DRHOED]
DENWS   .G/C3  : BULK DENSITY [M=2.71, F=1.00] [RHOBED]
DPHILSED.V/V   : DENSITY POROSITY [M=2.71, F=1.00] FROM DENSITY LOG [DEP. ADJ. TO RESIST. LOG]
DPHISSED.V/V   : DENSITY POROSITY [M=2.65, F=1.00] FROM DENSITY LOG [DEP. ADJ. TO RESIST. LOG]
DPOLSWS .V/V   : DENSITY POROSITY [M=2.71, F=1.00] [CAL. FROM DENWS]
DRESWS  .OHMM  : DEEP RESISTIVITY [ILDED]
DRHOED  .G/C3  : DENSITY CORRECTION FROM DENSITY LOG [DEP. ADJ. TO RESIST. LOG]
DTED    .US/F  : DELTA TIME FROM SONIC LOG [DEP. ADJ. TO RESIST. LOG]
DTWS    .US/F  : DELTA TIME [DTED]
GRDED   .GAPI  : GAMMA RAY FROM DENSITY LOG [DEP. ADJ. TO RESIST. LOG]
GRSED   .GAPI  : GAMMA RAY FROM SONIC LOG [DEP. ADJ. TO RESIST. LOG]
GRWS    .GAPI  : GAMMA RAY [1096' GRSED 1142' GRDED]
ILDED   .OHMM  : INDUCTION LOG DEEP RESISTIVITY
ILMED   .OHMM  : INDUCTION LOG MEDIUM RESISTIVITY
LL8ED   .OHMM  : 8 INCH LATEROLOG RESISTIVITY
MRESWS  .OHMM  : MEDIUM RESISTIVITY [ILMED]
NPHILSED.V/V   : NEUTRON POROSITY LIMESTONE FROM DENSITY LOG [DEP. ADJ. TO RESIST. LOG]
NPHISSED.V/V   : NEUTRON POROSITY SANDSTONE FROM DENSITY LOG [DEP. ADJ. TO RESIST. LOG]
NPOLSWS .V/V   : NEUTRON POROSITY LIMESTONE [NPHISSED CONVERTED FOR LIMESTONE, SPL. TO NPHILSED @ 6253']
RHOBED  .G/C3  : BULK DENSITY FROM DENSITY LOG [DEP. ADJ. TO RESIST. LOG]
SPRED   .MV    : SPONTANEOUS POTENTIAL FROM RESISTIVITY LOG
SPWS    .MV    : SPONTANEOUS POTENTIAL [BASELINE 0 MV] [SPRED]
SRESWS  .OHMM  : SHALLOW RESISTIVITY [LL8ED]
~Params ----------------------------------------------------
PD  .                     GL : PERMANENT DATUM
EPD .FT                 2441 : ELEVATION PERMANENT DATUM
LMF .                     KB : LOG MEASURED FROM
DAPD.FT                 13.6 : FEET ABOVE PERMANENT DATUM
EKB .FT               2454.6 : KELLY BUSHING
EGL .FT                 2441 : GROUND LEVEL
DATE.               10/30/76 : RUN DATE
RUN .                      1 : RUN NUMBER
DD  .FT                10805 : DEPTH DRILLER
DL  .FT                10818 : DEPTH LOGGER
BLI .FT                10812 : BOTTOM LOG INTERVAL
TLI .FT                 1155 : TOP LOG INTERVAL
CBD .FT                 1153 : CASING BOTTOM DRILLER
CBL .FT                 1155 : CASING BOTTOM LOGGER
BS  .IN                 8.75 : BIT SIZE
BSD .FT                10805 : BIT SIZE AT DEPTH
DFT .                    GEL : DRILLING FLUID TYPE
DFD .                      9 : DRILLING FLUID DENSITY
DFV .                    115 : DRILLING FLUID VISCOSITY
DFPH.                    9.5 : DRILLING FLUID PH
DFL .                    8.6 : DRILLING FLUID LOSS
MSS .             CIRCULATED : MUD SAMPLE SOURCE
RMS .OHMM               3.02 : RESISTIVITY MUD SAMPLE
MST .DEGF                 62 : MUD SAMPLE TEMPERATURE
RMF .OHMM               2.62 : RESISTIVITY MUD FILTRATE SAMPLE
MFST.DEGF                 52 : MUD FILTRATE SAMPLE TEMPERATURE
MFSS.             CALCULATED : MUD FILTRATE SAMPLE SOURCE
MCSS.             CALCULATED : MUD CAKE SAMPLE SOURCE
TCS .HRS                   3 : TIME CIRCULATED STOPPED
LUN .                   7809 : LOGGING UNIT NUMBER
LUL .                    EDM : LOGGING UNIT LOCATION
ENGI.               SEDGWICK : RECORDING ENGINEER
WITN.              SCHWIEDER : WITNESSED BY
CLNT.                A2DTECH : CLIENT CODE
ORIG.            2" 5" PRINT : ORIGIN OF DATA
UWI .       100112506523W500 : UNIQUE WELL ID
DICO. A2D Technologies, Inc. : DIGITIZING COMPANY
~Other -----------------------------------------------------
~ASCII -----------------------------------------------------
 1100.00000    -999.25    -999.25    -999.25    -999.25    -999.25    -999.25    -999.25    -999.25    -999.25    -999.25    -999.25    -999.25    -999.25    -999.25   52.34910   52.34910    -999.25    -999.25    -999.25    -999.25    -999.25    -999.25    -999.25    -999.25    -999.25    -999.25    -999.25
 1150.00000    -999.25    -999.25    -999.25    -999.25    -999.25    -999.25    -999.25    -999.25    -999.25    -999.25    -999.25    -999.25    -999.25   60.00000   53.49350   60.00000    -999.25    -999.25    -999.25    -999.25    -999.25    0.63920    0.60790    -999.25    -999.25    -999.25    -999.25
 1200.00000   10.06360    9.47400   10.06360  252.27660    0.20570    2.18390    -999.25    0.28420    0.30770    3.96690    0.20570  111.29410  111.29410  100.19250   95.11470  100.19250    3.96690    4.08930    4.34780    4.08930    -999.25    0.43560    0.39350    2.18390  -85.60300   -4.77800    4.34780
 1250.00000    9.02980    9.00000    9.02980  155.29160    0.08650    2.25470    -999.25    0.24980    0.26630    6.43950    0.08650  112.10490  112.10490   90.28500   92.65670   90.28500    6.43950    5.39370    4.50640    5.39370    -999.25    0.42850    0.38630    2.25470  -84.63900   -3.81400    4.50640
 1300.00000    9.69620    9.79900    9.69620  318.55250    0.07190    2.30500    -999.25    0.21770    0.23690    3.13920    0.07190  117.44650  117.44650   96.49500   94.31940   96.49500    3.13920    2.77190    2.93940    2.77190    -999.25    0.50640    0.46690    2.30500  -84.74540   -3.92040    2.93940
 1350.00000    9.53310    9.89950    9.53310  235.80810    0.02710    2.31610    -999.25    0.20900    0.23040    4.24090    0.02710  100.92410  100.92410   95.04000   91.91200   95.04000    4.24090    4.43990    4.60420    4.43990    -999.25    0.38120    0.33800    2.31610  -83.45860   -2.63360    4.60420
 1400.00000    9.69190    9.50000    9.69190   81.01100    0.11260    2.26950    -999.25    0.23800    0.25760   12.34400    0.11260  106.39470  106.39470   73.09500   66.73840   73.09500   12.34400   11.15750   10.00980   11.15750    -999.25    0.39250    0.34950    2.26950  -93.90370  -13.07880   10.00980
 1450.00000   11.13910   10.66150   11.13910  297.05790    0.09020    2.28890    -999.25    0.22770    0.24630    3.36630    0.09020  111.78780  111.78780   94.23750   90.14790   94.23750    3.36630    3.18420    3.04250    3.18420    -999.25    0.45100    0.40940    2.28890  -84.10880   -3.28390    3.04250
 1500.00000   10.88500   11.39900   10.88500  159.81330    0.04140    2.28970    -999.25    0.22120    0.24580    6.25730    0.04140  103.04490  103.04490   90.79500   88.57470   90.79500    6.25730    5.57930    5.03350    5.57930    -999.25    0.42360    0.38130    2.28970  -84.55970   -3.73480    5.03350
 1550.00000   10.19060    9.84900   10.19060   79.03700    0.06330    2.23420    -999.25    0.25550    0.27820   12.65230    0.06330  105.71510  105.71510   66.58500   55.95130   66.58500   12.65230   11.47210    9.17460   11.47210    -999.25    0.38130    0.33800    2.23420  -96.03470  -15.20980    9.17460
 1600.00000   10.66720   10.14900   10.66720  226.76320    0.04110    2.33890    -999.25    0.19030    0.21700    4.41710    0.04110  104.59320  104.59320   81.29250   73.82410   81.29250    4.41710    4.19130    3.81700    4.19130    -999.25    0.40320    0.36040    2.33890  -84.10830   -3.28340    3.81700
 1650.00000   10.37380    9.84900   10.37380  157.14620    0.04260    2.31820    -999.25    0.21040    0.22910    6.36350    0.04260  103.24650  103.24650   78.58500   76.82170   78.58500    6.36350    5.89020    5.01710    5.89020    -999.25    0.40020    0.35740    2.31820  -84.76160   -3.93660    5.01710
 1700.00000   10.02880    9.64900   10.02880  209.68550    0.03870    2.42650    -999.25    0.14710    0.16580    4.76920    0.03870  103.21490  103.21490   84.09000   80.45000   84.09000    4.76920    4.63740    4.21580    4.63740    -999.25    0.42290    0.38050    2.42650  -85.29260   -4.46760    4.21580
 1750.00000   10.50810   10.04900   10.50810  181.82150    0.02650    2.35340    -999.25    0.17900    0.20850    5.49990    0.02650  100.56740  100.56740   78.09000   72.38950   78.09000    5.49990    5.12240    4.78470    5.12240    -999.25    0.38390    0.34070    2.35340  -82.74480   -1.91980    4.78470
 1800.00000   11.06920   10.59900   11.06920  170.24750    0.07350    2.43500    -999.25    0.13020    0.16080    5.87380    0.07350  103.39780  103.39780   67.59000   66.10860   67.59000    5.87380    5.22590    5.22470    5.22590    -999.25    0.41600    0.37350    2.43500  -84.77450   -3.94950    5.22470
 1850.00000   10.97660   12.01200   10.97660  211.93210    0.06430    2.35520    -999.25    0.17980    0.20750    4.71850    0.06430  107.95320  107.95320   76.98750   74.70300   76.98750    4.71850    4.59140    4.10540    4.59140    -999.25    0.45000    0.40830    2.35520  -84.67860   -3.85360    4.10540
 1900.00000    8.99960    9.94900    8.99960  108.18530    0.03570    2.31050    -999.25    0.20610    0.23360    9.24340    0.03570   88.48540   88.48540   79.99500   70.90590   79.99500    9.24340    8.98970    8.15710    8.98970    -999.25    0.38790    0.34480    2.31050  -83.32620   -2.50120    8.15710
 1950.00000    9.91240    9.69900    9.91240  217.27210    0.10190    2.32890    -999.25    0.20170    0.22290    4.60390    0.10190  110.67780  110.67780   81.59250   76.10780   81.59250    4.60390    4.53050    3.84170    4.53050    -999.25    0.42910    0.38690    2.32890  -84.47050   -3.64550    3.84170
 2000.00000   10.48970    9.94900   10.48970  235.39380    0.04790    2.31420    -999.25    0.21830    0.23150    4.24820    0.04790  119.30910  119.30910   74.38500   74.42860   74.38500    4.24820    3.97130    3.74500    3.97130    -999.25    0.47580    0.43500    2.31420  -84.07040   -3.24540    3.74500
 2050.00000   10.64370    9.94900   10.64370  241.48170    0.05780    2.34980    -999.25    0.18440    0.21060    4.14110    0.05780  116.29370  116.29370   69.79500   65.88780   69.79500    4.14110    3.92530    3.57680    3.92530    -999.25    0.46890    0.42780    2.34980  -84.08580   -3.26080    3.57680
 2100.00000   12.58780    9.89900   12.58780  203.67290    0.09580    2.43700    -999.25    0.13800    0.15960    4.91020    0.09580   97.52210   97.52210   79.98750   71.65820   79.98750    4.91020    4.69660    4.43790    4.69660    -999.25    0.41620    0.37360    2.43700  -83.46270   -2.63770    4.43790
 2150.00000   10.52020   10.09900   10.52020   80.54580    0.04620    2.32460    -999.25    0.20290    0.22540   12.41530    0.04620   99.51580   99.51580   56.49000   52.93060   56.49000   12.41530   11.07690   10.51050   11.07690    -999.25    0.38050    0.33730    2.32460  -84.14070   -3.31570   10.51050
 2200.00000   10.81310   10.12400   10.81310   91.70090    0.04010    2.40550    -999.25    0.14880    0.17810   10.90850    0.04010   90.54540   90.54540   61.89000   58.43670   61.89000   10.90850   10.34410    9.48170   10.34410    -999.25    0.34570    0.30200    2.40550  -84.42710   -3.60210    9.48170
 2250.00000   10.15220    9.54900   10.15220   67.77500    0.11380    2.26260    -999.25    0.23930    0.26170   14.75470    0.11380  100.05820  100.05820   53.38500   49.50200   53.38500   14.75470   13.78980   11.00070   13.78980    -999.25    0.38220    0.33890    2.26260  -92.77410  -11.94910   11.00070
 2300.00000   11.86220   10.19900   11.86220  278.86220    0.14940    2.36250    -999.25    0.19060    0.20320    3.58600    0.14940  102.61670  102.61670   70.09500   67.78660   70.09500    3.58600    3.77070    4.80470    3.77070    -999.25    0.38410    0.34090    2.36250  -84.39070   -3.56570    4.80470
 2350.00000   10.36250    9.74900   10.36250  105.22630    0.05040    2.30020    -999.25    0.21760    0.23960    9.58460    0.05040   93.73320   93.73320   64.14000   62.35320   64.14000    9.58460    8.33290   10.48690    8.33290    -999.25    0.37820    0.33490    2.30020  -88.45400   -7.62900   10.48690
