~Version ---------------------------------------------------
VERS.      2.0 : CWLS log ASCII Standard -VERSION 2.0
WRAP.       NO : One line per depth step
CREA. 08/31/17 : LAS Creation Date
~Well ------------------------------------------------------
STRT.FT                        1050.0 : START DEPTH
STOP.FT                       10000.0 : STOP DEPTH
STEP.FT                      50.00000 : STEP LENGTH
NULL.                         -999.25 : NULL VALUE
COMP.     SAMEDAN OIL OF CANADA, INC. : COMPANY
WELL. SAMEDAN ET AL GROAT 11-26-58-14 : WELL
FLD .                              WC : FIELD
LOC .                                 : LOCATION
CTRY.                          CANADA : COUNTRY
SRVC.                    Schlumberger : SERVICE COMPANY
DATE.                     02-Sep-1971 : LOGDATE
PROV.                         Alberta : PROVINCE
UWI .                100112605814W500 : UNIQUE WELL ID
SLAT.WGS84              54.0443223027 : SURFACE LATITUDE
SLON.WGS84            -115.9745953407 : SURFACE LONGITUDE
~Curve Information -----------------------------------------
DEPT  .FT    : Depth Curve
CALSED.IN    : CALIPER FROM SONIC LOG
CALWS .IN    : CALIPER [CALSED]
CONDWS.MMHO  : CONDUCTIVITY [1000/DRESWS]
DRESWS.OHMM  : DEEP RESISTIVITY [ILDED]
DTED  .US/F  : DELTA-T (INTERVAL TRANSIT TIME) FROM SONIC LOG [DEPTH ADJ TO LL8]
DTWS  .US/F  : COMPRRESSIONAL SONIC [DTED]
GRSED .GAPI  : GAMMA RAY FROM SONIC LOG
GRWS  .GAPI  : GAMMA RAY [GRSED]
ILDED .OHMM  : DEEP INDUCTION FROM RESISTIVIY LOG
ILMED .OHMM  : MEDIUM INDUCTION  FROM RESISTIVIY LOG
LL8ED .OHMM  : LATEROLOG 8  FROM RESISTIVIY LOG
MRESWS.OHMM  : MEDIUM RESISTIVITY [ILMED]
SPRED .MV    : SPONTANEOUS POTENTIAL  FROM RESISTIVIY LOG
SPWS  .MV    : SPONTANEOUS POTENTIAL [BASELINE 0 MV, SPRED]
SRESWS.OHMM  : SHALLOW RESISTIVITY [LL8ED]
~Params ----------------------------------------------------
PD  .                     GL : PERMANENT DATUM
EPD .FT               3086.5 : ELEVATION PERMANENT DATUM
LMF .                     KB : LOG MEASURED FROM
DAPD.FT                   18 : FEET ABOVE PERMANENT DATUM
DMF .                     KB : DRILLING MEASURED FROM
EKB .FT               3104.5 : KELLY BUSHING
EGL .FT               3086.5 : GROUND LEVEL
DATE.               09/02/71 : RUN DATE
RUN .                      1 : RUN NUMBER
DD  .FT                10023 : DEPTH DRILLER
DL  .FT                10020 : DEPTH LOGGER
BLI .FT                10014 : BOTTOM LOG INTERVAL
TLI .FT                 1042 : TOP LOG INTERVAL
CBD .FT                 1043 : CASING BOTTOM DRILLER
CBL .FT                 1042 : CASING BOTTOM LOGGER
BS  .IN                 8.75 : BIT SIZE
BSD .FT                10023 : BIT SIZE AT DEPTH
DFT .                    GEL : DRILLING FLUID TYPE
DFD .                    9.1 : DRILLING FLUID DENSITY
DFV .                    145 : DRILLING FLUID VISCOSITY
DFPH.                    9.5 : DRILLING FLUID PH
DFL .                     88 : DRILLING FLUID LOSS
MSS .               FLOWLINE : MUD SAMPLE SOURCE
RMS .OHMM               1.22 : RESISTIVITY MUD SAMPLE
MST .DEGF                 82 : MUD SAMPLE TEMPERATURE
RMF .OHMM                1.0 : RESISTIVITY MUD FILTRATE SAMPLE
MFST.DEGF                 82 : MUD FILTRATE SAMPLE TEMPERATURE
TCS .HRS                 2.5 : TIME CIRCULATED STOPPED
LUN .                   7636 : LOGGING UNIT NUMBER
LUL .                    EDM : LOGGING UNIT LOCATION
ENGI.            LEITH KEOWN : RECORDING ENGINEER
WITN.           MASON MCLEOD : WITNESSED BY
CLNT.                A2DTECH : CLIENT CODE
ORIG.            2" 5" PRINT : ORIGIN OF DATA
UWI .       100112605814W500 : UNIQUE WELL ID
DICO. A2D Technologies, Inc. : DIGITIZING COMPANY
~Other -----------------------------------------------------
~ASCII -----------------------------------------------------
 1050.00000    9.53520    9.53520   69.96280   14.29330  111.95510  111.95510   52.60660   52.60660   14.29330   10.49380    7.85580   10.49380  -43.78530   11.93660    7.85580
 1100.00000    9.97520    9.97520  245.31450    4.07640  109.46800  109.46800   67.36390   67.36390    4.07640    4.88490    3.29030    4.88490  -45.78170   10.03280    3.29030
 1150.00000    9.93080    9.93080   79.49000   12.58020  100.40190  100.40190   55.93100   55.93100   12.58020   10.06670    8.04400   10.06670  -51.14620    4.81210    8.04400
 1200.00000    9.84250    9.84250   68.95080   14.50310   97.39260   97.39260   63.38940   63.38940   14.50310   11.15480    7.85610   11.15480  -52.75860    3.34430    7.85610
 1250.00000   10.01990   10.01990  155.71720    6.42190  102.87120  102.87120   78.15800   78.15800    6.42190    4.59530    4.03370    4.59530  -54.46090    1.78570    4.03370
 1300.00000    9.83750    9.83750  183.17700    5.45920  107.49050  107.49050   78.31600   78.31600    5.45920    3.59450    4.34890    3.59450  -49.94800    6.44230    4.34890
 1350.00000   10.10060   10.10060   87.94530   11.37070   94.58030   94.58030   49.49960   49.49960   11.37070    8.48310    7.75780    8.48310  -56.72010   -0.18520    7.75780
 1400.00000    9.95960    9.95960  139.92080    7.14690   91.34870   91.34870   72.99900   72.99900    7.14690    5.75640    5.10520    5.75640  -58.01140   -1.33270    5.10520
 1450.00000   10.47300   10.47300  170.00440    5.88220  101.07620  101.07620   71.78580   71.78580    5.88220    4.85250    3.95480    4.85250  -57.48030   -0.65700    3.95480
 1500.00000    9.44850    9.44850   97.72970   10.23230   93.01280   93.01280   68.56610   68.56610   10.23230    8.18900    6.57850    8.18900  -58.52660   -1.55960    6.57850
 1550.00000   10.16560   10.16560  206.37710    4.84550  112.46700  112.46700   71.50440   71.50440    4.84550    3.90880    2.98650    3.90880  -57.92400   -0.81330    2.98650
 1600.00000   11.14070   11.14070  220.99450    4.52500  104.69440  104.69440   69.02970   69.02970    4.52500    3.58240    2.77640    3.58240  -56.08140    1.17400    2.77640
 1650.00000   10.09660   10.09660  265.40690    3.76780  113.33660  113.33660   87.67680   87.67680    3.76780    3.17850    2.60030    3.17850  -56.86260    0.53650    2.60030
 1700.00000    9.47070    9.47070  155.31810    6.43840   92.13470   92.13470   71.25830   71.25830    6.43840    5.29780    4.31800    5.29780  -56.74840    0.79530    4.31800
 1750.00000    9.06370    9.06370  117.59590    8.50370   85.58290   85.58290   69.56390   69.56390    8.50370    7.10150    6.38150    7.10150  -57.98830   -0.30090    6.38150
 1800.00000   10.35110   10.35110  262.35700    3.81160  109.10190  109.10190   77.85020   77.85020    3.81160    3.10660    2.67430    3.10660  -53.16030    4.62540    2.67430
 1850.00000    9.83790    9.83790  241.65100    4.13820  116.99060  116.99060   79.10070   79.10070    4.13820    3.30640    3.08210    3.30640  -53.35840    4.51860    3.08210
 1900.00000   11.58390   11.58390  240.83620    4.15220  118.28130  118.28130   67.22940   67.22940    4.15220    3.49770    2.80650    3.49770  -50.66790    7.29980    2.80650
 1950.00000   10.04760   10.04760  226.70600    4.41100  105.93490  105.93490   77.61770   77.61770    4.41100    3.71710    3.06640    3.71710  -53.37240    4.68650    3.06640
 2000.00000    9.58850    9.58850  156.45780    6.39150   91.63010   91.63010   63.08890   63.08890    6.39150    5.49270    4.98120    5.49270  -57.83040    0.31920    4.98120
 2050.00000    9.47750    9.47750   80.15900   12.47520   92.11990   92.11990   56.41440   56.41440   12.47520    9.51370    7.67260    9.51370  -57.25830    0.98190    7.67260
 2100.00000   10.70820   10.70820  225.88660    4.42700  110.75470  110.75470   78.32310   78.32310    4.42700    3.73530    3.29500    3.73530  -51.94360    6.38790    3.29500
 2150.00000   10.37680   10.37680  184.95230    5.40680   99.68910   99.68910   87.72570   87.72570    5.40680    4.63170    3.98600    4.63170  -56.05970    2.36250    3.98600
 2200.00000   10.68830   10.68830  209.30140    4.77780   93.74090   93.74090   96.14530   96.14530    4.77780    4.57920    3.98390    4.57920  -59.57290   -1.05950    3.98390
 2250.00000   10.43050   10.43050  349.17420    2.86390  147.29350  147.29350   67.46210   67.46210    2.86390    2.59100    2.35570    2.59100  -47.14070   11.46340    2.35570
 2300.00000    9.59090    9.59090  159.08620    6.28590   89.63910   89.63910   90.08560   90.08560    6.28590    5.68400    5.20700    5.68400  -61.07810   -2.38340    5.20700
 2350.00000    9.62300    9.62300  246.65170    4.05430   94.10630   94.10630   74.45720   74.45720    4.05430    3.66200    3.29730    3.66200  -51.10200    6.97900    3.29730
 2400.00000    9.72500    9.72500  390.62500    2.56000  132.18310  132.18310  103.43840  103.43840    2.56000    2.31730    2.01300    2.31730  -56.54840    0.86850    2.01300
 2450.00000    9.65980    9.65980  109.43190    9.13810   91.62940   91.62940   82.23420   82.23420    9.13810    6.85350    6.92960    6.85350  -53.23590    3.51270    6.92960
 2500.00000    8.54940    8.54940  109.62510    9.12200   89.12170   89.12170   56.00660   56.00660    9.12200    7.15760   14.86660    7.15760  -59.57210   -3.48760   14.86660
 2550.00000   10.46300   10.46300  399.26540    2.50460  117.72300  117.72300   90.21000   90.21000    2.50460    2.31550    2.29250    2.31550  -50.36060    5.05990    2.29250
 2600.00000   10.69270   10.69270  376.01050    2.65950  108.55060  108.55060   98.39970   98.39970    2.65950    2.28530    1.81910    2.28530  -52.58700    2.16510    1.81910
 2650.00000   10.51030   10.51030  295.49080    3.38420  104.87150  104.87150   76.69610   76.69610    3.38420    3.06540    2.47850    3.06540  -50.46650    3.62160    2.47850
 2700.00000    9.20990    9.20990  148.15690    6.74960   83.08240   83.08240   74.62250   74.62250    6.74960    8.04080    7.20220    8.04080  -49.18270    4.23700    7.20220
 2750.00000    9.14940    9.14940  213.24690    4.68940   89.81500   89.81500   67.14720   67.14720    4.68940    4.19750    3.65990    4.19750  -53.32930   -0.57360    3.65990
 2800.00000    9.14920    9.14920    2.79340  357.98650   66.57690   66.57690   30.42210   30.42210  357.98650   82.37660   41.94390   82.37660  -46.70630    6.23880   41.94390
 2850.00000    9.43690    9.43690   78.82830   12.68580   87.68550   87.68550   50.91610   50.91610   12.68580    9.69210    8.39440    9.69210  -55.74680   -2.59380    8.39440
 2900.00000    8.99110    8.99110   45.55680   21.95060   88.30750   88.30750   49.40700   49.40700   21.95060   12.71000    9.85740   12.71000  -54.05780   -0.69820    9.85740
 2950.00000    9.28990    9.28990  104.75260    9.54630   89.30270   89.30270   68.37980   68.37980    9.54630    7.98790    5.82030    7.98790  -58.46580   -4.89830    5.82030
 3000.00000    9.49670    9.49670  150.35110    6.65110   88.78220   88.78220   67.95360   67.95360    6.65110    7.21340    9.02680    7.21340  -58.53430   -4.76020    9.02680
 3050.00000    9.17740    9.17740   45.07180   22.18680   80.87210   80.87210   47.36250   47.36250   22.18680   15.15420   10.89510   15.15420  -59.19730   -5.21660   10.89510
 3100.00000   11.15320   11.15320  201.50730    4.96260  109.99890  109.99890   57.50740   57.50740    4.96260    4.20090    3.05500    4.20090  -48.87350    5.31510    3.05500
 3150.00000   10.36190   10.36190  222.85120    4.48730  104.84500  104.84500   63.17220   63.17220    4.48730    4.20750    3.18110    4.20750  -51.34180    3.05340    3.18110
 3200.00000   10.01190   10.01190  143.37120    6.97490   88.09930   88.09930   60.66780   60.66780    6.97490    6.51300    6.15660    6.51300  -56.98970   -2.38660    6.15660
 3250.00000    9.37920    9.37920  113.76180    8.79030   88.33740   88.33740   66.08480   66.08480    8.79030    6.12900    5.74190    6.12900  -58.43360   -3.62390    5.74190
 3300.00000    9.20110    9.20110  106.25410    9.41140   85.43580   85.43580   58.68870   58.68870    9.41140    6.21200    8.14190    6.21200  -53.84470    1.17150    8.14190
