~Version ---------------------------------------------------
VERS.      2.0 : CWLS log ASCII Standard -VERSION 2.0
WRAP.       NO : One line per depth step
CREA. 09/27/17 : LAS Creation Date
~Well ------------------------------------------------------
STRT.FT                        300.0 : START DEPTH
STOP.FT                      12850.0 : STOP DEPTH
STEP.FT                     50.00000 : STEP LENGTH
NULL.                        -999.25 : NULL VALUE
COMP.  WESTERN DECALTA PETROLEUM LTD : COMPANY
WELL. DECALTA ET AL BRAZR 6-31-47-13 : WELL
FLD .                  BRAZEAU RIVER : FIELD
LOC .                                : LOCATION
CTRY.                         CANADA : COUNTRY
SRVC.                   Schlumberger : SERVICE COMPANY
DATE.                    15-Mar-1978 : LOGDATE
PROV.                        Alberta : PROVINCE
UWI .               100063104713W500 : UNIQUE WELL ID
SLAT.WGS84                  53.09535 : SURFACE LATITUDE
SLON.WGS84                 -115.8946 : SURFACE LONGITUDE
~Curve Information -----------------------------------------
DEPT    .FT    : Depth Curve
CALDED  .IN    : CALIPER FROM DENSITY LOG [ADJ. TO RESISTIVITY LOG]
CALSED  .IN    : CALIPER FROM SONIC LOG [ADJ. TO RESISTIVITY LOG]
CALWS   .IN    : CALIPER [CALSED]
CONDWS  .MMHO  : CONDUCTIVITY [1000/DRESWS]
DCORWS  .G/C3  : DENSITY CORRECTION [DRHOED]
DENWS   .G/C3  : FORAMTION BULK DENSITY [CALC FROM DPOLSWS,M=2.71, F=1.00]
DPHILSED.V/V   : DENSITY POROSITY LIMESTONE [M=2.71, F=1.00] FROM DENSITY LOG [ADJ. TO RESISTIVITY LOG]
DPHISSED.V/V   : DENSITY POROSITY SANDSTONE [M=2.65, F=1.00] FROM DENSITY LOG [ADJ. TO RESISTIVITY LOG]
DPOLSWS .V/V   : DENSITY POROSITY LIMESTONE [DPHISSED MATRIX CONVERTED TO LS & SPL. TO DPHILSED @ 9450']
DRESWS  .OHMM  : DEEP RESISTIVITY [ILDED]
DRHOED  .G/C3  : DENSITY CORRECTION FROM DENSITY LOG [ADJ. TO RESISTIVITY LOG]
DTED    .US/F  : DELTA TIME FROM SONIC LOG [ADJ. TO RESISTIVITY LOG]
DTWS    .US/F  : COMPRESSIONAL SONIC [DTED]
GRDED   .GAPI  : GAMMA RAY FROM DENSITY LOG [ADJ. TO RESISTIVITY LOG]
GRSED   .GAPI  : GAMMA RAY FROM SONIC LOG [ADJ. TO RESISTIVITY LOG]
GRWS    .GAPI  : GAMMA RAY [GRSED SPL. TO GRDED @ 12818']
ILDED   .OHMM  : DEEP INDUCTION RESISTIVITY FROM RESISTIVITY LOG
ILMED   .OHMM  : MEDIUM INDUCTION RESISTIVITY FROM RESISTIVITY LOG
LL8ED   .OHMM  : 8 INCH LATEROLOG RESISTIVITY FROM RESISTIVITY LOG
MRESWS  .OHMM  : MEDIUM RESISTIVITY [ILMED]
NPHILSED.V/V   : NEUTRON POROSITY LIMESTONE FROM DENSITY LOG [ADJ. TO RESISTIVITY LOG]
NPHISSED.V/V   : NEUTRON POROSITY SANDSTONE FROM DENSITY LOG [ADJ. TO RESISTIVITY LOG]
NPOLSWS .V/V   : NEUTRON POROSITY LIMESTONE [NPHISSED MATRIX CONVERTED TO LS & SPL. TO NPHILSED @ 9350']
RHOBED  .G/C3  : BULK DENSITY FROM DENSITY LOG [ADJ. TO RESISTIVITY LOG]
SPRED   .MV    : SPONTANEOUS POTENTIAL FROM RESISTIVITY LOG
SPWS    .MV    : SPONTANEOUS POTENTIAL [BASELINE 0 MV, SPRED]
SRESWS  .OHMM  : SHALLOW RESISTIVITY [LL8ED]
~Params ----------------------------------------------------
PD  .                     GL : PERMANENT DATUM
EPD .FT                 3420 : ELEVATION PERMANENT DATUM
LMF .                     KB : LOG MEASURED FROM
DAPD.FT                   27 : FEET ABOVE PERMANENT DATUM
DMF .                     KB : DRILLING MEASURED FROM
EGL .FT                 3420 : GROUND LEVEL
DATE.               03/15/78 : RUN DATE
RUN .                      2 : RUN NUMBER
DD  .FT                12857 : DEPTH DRILLER
DL  .FT                12856 : DEPTH LOGGER
BLI .FT                12850 : BOTTOM LOG INTERVAL
TLI .FT                10390 : TOP LOG INTERVAL
CS  .IN                9.625 : CASING SIZE
CBD .FT                10395 : CASING BOTTOM DRILLER
CBL .FT                10390 : CASING BOTTOM LOGGER
BS  .IN                6.125 : BIT SIZE
BSD .FT                12857 : BIT SIZE AT DEPTH
DFT .                    GEL : DRILLING FLUID TYPE
DFD .                   10.3 : DRILLING FLUID DENSITY
DFV .                     44 : DRILLING FLUID VISCOSITY
DFPH.                   11.5 : DRILLING FLUID PH
DFL .                    8.8 : DRILLING FLUID LOSS
MSS .               FLOWLINE : MUD SAMPLE SOURCE
RMS .OHMM               0.89 : RESISTIVITY MUD SAMPLE
MST .DEGF                 62 : MUD SAMPLE TEMPERATURE
TCS .HRS                 2.5 : TIME CIRCULATED STOPPED
LUN .                   7687 : LOGGING UNIT NUMBER
LUL .                    EDA : LOGGING UNIT LOCATION
ENGI.               BERNISKY : RECORDING ENGINEER
WITN.                  COWAN : WITNESSED BY
CLNT.                A2DTECH : CLIENT CODE
ORIG.            2" 5" PRINT : ORIGIN OF DATA
UWI .       100063104713W500 : UNIQUE WELL ID
DICO. A2D Technologies, Inc. : DIGITIZING COMPANY
~Other -----------------------------------------------------
DIL-LL-CNL-FDC-BHC LOG RUN
NEUTRON CONVERSION: SCHLUMBERGER, DESCRIPTION: CNL(NPHI)
~ASCII -----------------------------------------------------
# ...
 9400.00000    8.67620    8.61970    8.61970    8.38270   -0.00610    2.64910    0.01580   -0.00120    0.03390  119.29290   -0.00610   57.57760   57.57760   58.54180   54.24460   54.24460  119.29290  102.04140  198.80780  102.04140    0.05690    0.08650    0.05690    2.65140  -83.34020  -18.59100  198.80780
 9450.00000    8.57420    8.60240    8.60240    0.66680    0.00550    2.62430    0.05010    0.01380    0.05010 1499.61520    0.00550   50.72270   50.72270   26.69580   22.83230   22.83230 1499.61520 1589.08650 1346.68050 1589.08650    0.01340    0.04420    0.01340    2.64170 -106.62420  -41.04650 1346.68050
 9500.00000    8.64740    8.63150    8.63150    0.68570    0.03220    2.66120    0.02570    0.00460    0.02570 1458.39720    0.03220   57.57550   57.57550   39.55190   34.07990   34.07990 1458.39720  585.66710 1220.78030  585.66710    0.03970    0.08840    0.03970    2.66410 -101.11250  -34.70620 1220.78030
 9550.00000   10.33530    8.70540    8.70540   26.84160    0.17710    2.54410    0.10960    -999.25    0.10960   37.25560    0.17710   56.72830   56.72830   22.02490   18.87480   18.87480   37.25560   46.74960   80.92880   46.74960    0.07730    -999.25    0.07730    2.53880 -115.37550  -48.14070   80.92880
 9600.00000    8.73800    8.69430    8.69430   34.46340    0.01260    2.75020   -0.02350    -999.25   -0.02350   29.01630    0.01260   53.31220   53.31220   33.74450   33.51910   33.51910   29.01630   27.53890   87.37400   27.53890    0.07800    -999.25    0.07800    2.74900 -108.93680  -40.87340   87.37400
 9650.00000    8.92200    8.75060    8.75060    0.72740    0.00300    2.95670   -0.15020    -999.25   -0.15020 1374.85080    0.00300   51.14640   51.14640   12.94680    6.42090    6.42090 1374.85080  252.30930 1510.40890  252.30930    0.00210    -999.25    0.00210    2.97350 -108.26040  -39.36850 1510.40890
 9700.00000    8.90250    8.76720    8.76720   22.24890    0.03600    2.88310   -0.10120    -999.25   -0.10120   44.94600    0.03600   54.29620   54.29620   35.76010   34.86990   34.86990   44.94600   40.12630  129.18150   40.12630    0.04110    -999.25    0.04110    2.89470  -96.35120  -26.63070  129.18150
 9750.00000   10.86060    9.48220    9.48220   11.20420    0.26690    2.67610    0.04010    -999.25    0.04010   89.25210    0.26690   52.08250   52.08250   17.54550   15.48790   15.48790   89.25210   60.20460  184.33160   60.20460    0.06650    -999.25    0.06650    2.66770 -117.28390  -46.73490  184.33160
 9800.00000   10.35440    8.86170    8.86170   25.83120    0.24010    2.52550    0.11800    -999.25    0.11800   38.71280    0.24010   49.95360   49.95360   12.85700   13.67330   13.67330   38.71280   52.69940  100.50610   52.69940    0.07270    -999.25    0.07270    2.52180 -134.02460  -62.64700  100.50610
 9850.00000    8.70110    8.98510    8.98510   26.16080    0.03540    2.73910   -0.01700    -999.25   -0.01700   38.22520    0.03540   55.75800   55.75800   57.29890   58.04270   58.04270   38.22520   50.27430   62.21690   50.27430    0.12440    -999.25    0.12440    2.74470 -102.26850  -30.06240   62.21690
 9900.00000    8.86970    8.98420    8.98420   49.25600    0.00550    2.76570   -0.03010    -999.25   -0.03010   20.30210    0.00550   54.94180   54.94180   48.41840   47.70740   47.70740   20.30210   22.05190   23.42320   22.05190    0.09370    -999.25    0.09370    2.76090 -102.21550  -29.18080   23.42320
 9950.00000    8.81480    9.02170    9.02170  195.53400    0.01710    2.73770   -0.01620    -999.25   -0.01620    5.11420    0.01710   50.69650   50.69650   21.12200   20.68210   20.68210    5.11420    4.11810  137.78340    4.11810    0.01840    -999.25    0.01840    2.73300 -133.37770  -59.51450  137.78340
 10000.00000    8.79130    8.65100    8.65100   20.93540    0.01180    2.77010   -0.03320    -999.25   -0.03320   47.76600    0.01180   56.05030   56.05030   54.87750   48.65690   48.65690   47.76600   46.34390   63.21500   46.34390    0.06640    -999.25    0.06640    2.76880  -97.22780  -30.41960   63.21500
 10050.00000    8.80860    8.70840    8.70840    0.62070   -0.00890    2.67900    0.01710    -999.25    0.01710 1611.09750   -0.00890   50.96940   50.96940    8.36510    7.60610    7.60610 1611.09750 1435.86950 1538.41490 1435.86950    0.00740    -999.25    0.00740    2.68010 -135.00150  -80.72660 1538.41490
 10100.00000    8.86400    8.68460    8.68460   16.56570    0.04300    2.79260   -0.04830    -999.25   -0.04830   60.36560    0.04300   54.65100   54.65100   45.26540   44.19680   44.19680   60.36560   54.27470   96.63690   54.27470    0.04240    -999.25    0.04240    2.78990 -127.21990  -85.47840   96.63690
 10150.00000    8.89210    8.71000    8.71000   23.84880   -0.00620    2.69430    0.00760    -999.25    0.00760   41.93080   -0.00620   57.02390   57.02390   52.01970   53.80160   53.80160   41.93080   38.06530   67.72730   38.06530    0.05580    -999.25    0.05580    2.70070  -92.75560  -63.54750   67.72730
 10200.00000    8.88520    8.73170    8.73170   18.33510    0.01530    2.75870   -0.02850    -999.25   -0.02850   54.54030    0.01530   56.43670   56.43670   45.12190   42.76510   42.76510   54.54030   51.66130   71.14990   51.66130    0.06330    -999.25    0.06330    2.73080  -58.18850  -41.51370   71.14990
 10250.00000    8.90700    8.74620    8.74620   40.41140    0.02630    2.69770    0.00530    -999.25    0.00530   24.74550    0.02630   59.95460   59.95460   63.71180   58.84190   58.84190   24.74550   23.10160   35.95670   23.10160    0.08120    -999.25    0.08120    2.72740  -45.03980  -40.89840   35.95670
 10300.00000    8.88370    8.71830    8.71830    8.30910    0.00980    2.70820    0.01040    -999.25    0.01040  120.34980    0.00980   59.37550   59.37550   74.78980   59.49840   59.49840  120.34980  112.23620  134.31690  112.23620    0.07920    -999.25    0.07920    2.71230    3.29130   -5.10070  134.31690
 10350.00000    8.83480    8.68510    8.68510   27.05600    0.00870    2.70780    0.00130    -999.25    0.00130   36.96040    0.00870   57.13790   57.13790   88.53280   77.83380   77.83380   36.96040   34.78820   42.06260   34.78820    0.05270    -999.25    0.05270    2.69930  -74.17370  -67.38390   42.06260
 10400.00000    9.62390    8.74660    8.74660    2.35350    0.23840    2.75790   -0.03970    -999.25   -0.03970  424.90060    0.23840   49.73230   49.73230   25.98870   23.54400   23.54400  424.90060 1722.22340 1233.12540 1722.22340    0.04000    -999.25    0.04000    2.77880    -999.25    -999.25 1233.12540
 10450.00000    7.30260    6.38930    6.38930    1.40730    0.10400    2.79890   -0.05200    -999.25   -0.05200  710.59060    0.10400   49.10170   49.10170   10.03520    6.63760    6.63760  710.59060 1562.05480 1449.50850 1562.05480    0.00600    -999.25    0.00600    2.79480  -71.11120  -41.35310 1449.50850
 10500.00000   10.07610    7.04150    7.04150   10.34570    0.14450    2.59780    0.06290    -999.25    0.06290   96.65880    0.14450   49.24420   49.24420   13.19030   10.14710   10.14710   96.65880  204.12790  876.37730  204.12790    0.01820    -999.25    0.01820    2.60300 -138.56290 -102.70200  876.37730
 10550.00000    6.96000    5.94160    5.94160   39.45270    0.22660    2.71650   -0.01310    -999.25   -0.01310   25.34680    0.22660   49.90640   49.90640   12.07900    8.17660    8.17660   25.34680   48.54370  205.84970   48.54370    0.02880    -999.25    0.02880    2.73440 -146.43130 -104.46760  205.84970
 10600.00000    8.13450    6.54240    6.54240    0.78090    0.23540    2.73240   -0.01310    -999.25   -0.01310 1280.65140    0.23540   48.56350   48.56350   12.09840    8.49200    8.49200 1280.65140 1840.84720 1448.36880 1840.84720    0.00680    -999.25    0.00680    2.78740 -152.57540 -104.50900 1448.36880
 10650.00000    9.97460    7.38390    7.38390    7.42850    0.22170    2.66020    0.02640    -999.25    0.02640  134.61670    0.22170   50.07800   50.07800   11.47650   10.16400   10.16400  134.61670  290.78660  472.60500  290.78660    0.01520    -999.25    0.01520    2.66580 -143.97130  -89.80210  472.60500
