~Version ---------------------------------------------------
VERS.      2.0 : CWLS log ASCII Standard -VERSION 2.0
WRAP.       NO : One line per depth step
CREA. 12/11/17 : LAS Creation Date
~Well ------------------------------------------------------
STRT.FT                        300.0 : START DEPTH
STOP.FT                      10150.0 : STOP DEPTH
STEP.FT                     50.00000 : STEP LENGTH
NULL.                        -999.25 : NULL VALUE
COMP.           PETROFINA CANADA LTD : COMPANY
WELL. FINA AMOCO HB PASSCK 7-2-62-17 : WELL
FLD .                                : FIELD
LOC .                                : LOCATION
CTRY.                         CANADA : COUNTRY
SRVC.                   Schlumberger : SERVICE COMPANY
DATE.                    14-Mar-1978 : LOGDATE
PROV.                        Alberta : PROVINCE
UWI .               100070206217W500 : UNIQUE WELL ID
SLAT.WGS84                  54.33347 : SURFACE LATITUDE
SLON.WGS84                 -116.4328 : SURFACE LONGITUDE
~Curve Information -----------------------------------------
DEPT    .FT    : Depth Curve
CALDED  .IN    : CALIPER FROM DENSITY LOG [ADJ. TO RESISTIVITY LOG]
CALSED  .IN    : CALIPER FROM SONIC LOG
CALWS   .IN    : CALIPER [CALDED SPL. TO CALSED FROM 1027'-2457']
CILDED  .MMHO  : CONDUCTIVITY FROM RESISTIVITY LOG
CONDWS  .MMHO  : CONDUCTIVITY [1000/DRESWS]
DCORWS  .G/C3  : DENSITY CORRECTION [DRHOED]
DENWS   .G/C3  : FORMATION BULK DENSITY [CALC. FROM DPOLSWS, M=2.71, F=1.00]
DPHILSED.V/V   : DENSITY POROSITY LIMESTONE [M=2.71, F=1.00] FROM DENSITY LOG [ADJ. TO RESISTIVITY LOG]
DPHISSED.V/V   : DENSITY POROSITY SANDSTONE [M=2.65, F=1.00] FROM DENSITY LOG [ADJ. TO RESISTIVITY LOG]
DPOLSWS .V/V   : DENSITY POROSITY LIMESTONE [DPHISSED CONVERTED TO LIMESTONE MATRIX, M=2.71, F=1.00 SPL.TO DPHILSED @ 6300']
DRESWS  .OHMM  : DEEP RESISTIVITY [ILDED]
DRHOED  .G/C3  : DENSITY CORRECTION FROM DENSITY LOG [ADJ. TO RESISTIVITY LOG]
DTED    .US/F  : DELTA TIME FROM SONIC LOG
DTWS    .US/F  : COMPRESSIONAL SONIC [DTED]
GRDED   .GAPI  : GAMMA RAY FROM DENSITY LOG [ADJ. TO RESISTIVITY LOG]
GRSED   .GAPI  : GAMMA RAY FROM SONIC LOG
GRWS    .GAPI  : GAMM RAY [GRDED SPL. TO GRSED @ 35'] GRWS IN CSG. (+25 GAPI) FROM (994'-1027')
ILDED   .OHMM  : DEEP INDUCTION LOG RESISTIVITY FROM RESISTIVITY LOG
ILMED   .OHMM  : MEDIUM INDUCTION LOG RESISTIVITY FROM RESISTIVITY LOG
LL8ED   .OHMM  : 8 INCH LATEROLOG RESISTIVITY FROM RESISTIVITY LOG
MRESWS  .OHMM  : MEDIUM RESISTIVITY [ILMED]
NPHILSED.V/V   : NEUTRON POROSITY LIMESTONE FROM DENSITY LOG [ADJ. TO RESISTIVITY LOG]
NPHISSED.V/V   : NEUTRON POROSITY SANDSTONE FROM DENSITY LOG [ADJ. TO RESISTIVITY LOG]
NPOLSWS .V/V   : NEUTRON POROSITY LIMESTONE [NPHISSED MATRIX (SLB) CONVERSION FOR LIMESTONE, SPL.TO NPHILSED @ 6300']
RHOBED  .G/C3  : BULK DENSITY FROM DENSITY LOG [ADJ. TO RESISTIVITY LOG]
SPRED   .MV    : SPONTANEOUS POTENTIAL FROM RESISTIVITY LOG
SPWS    .MV    : SPONTANEOUS POTENTIAL [BASELINE 0 MV, SPRED]
SRESWS  .OHMM  : SHALLOW RESISTIVITY [LL8ED]
~Params ----------------------------------------------------
PD  .                     GL : PERMANENT DATUM
EPD .FT               2914.3 : ELEVATION PERMANENT DATUM
LMF .                     KB : LOG MEASURED FROM
DAPD.FT                 17.6 : FEET ABOVE PERMANENT DATUM
EKB .FT               2931.9 : KELLY BUSHING
EGL .FT               2914.3 : GROUND LEVEL
DATE.               03/14/78 : RUN DATE
RUN .                      2 : RUN NUMBER
DD  .FT                10155 : DEPTH DRILLER
DL  .FT                10163 : DEPTH LOGGER
BLI .FT                10157 : BOTTOM LOG INTERVAL
TLI .FT                 1027 : TOP LOG INTERVAL
CBD .FT                 1028 : CASING BOTTOM DRILLER
CBL .FT                 1027 : CASING BOTTOM LOGGER
BS  .IN                 8.75 : BIT SIZE
BSD .FT                10155 : BIT SIZE AT DEPTH
DFT .               GEL CHEM : DRILLING FLUID TYPE
DFD .                    9.3 : DRILLING FLUID DENSITY
DFV .                     90 : DRILLING FLUID VISCOSITY
DFPH.                     11 : DRILLING FLUID PH
DFL .                    9.0 : DRILLING FLUID LOSS
MSS .               FLOWLINE : MUD SAMPLE SOURCE
RMS .OHMM               1.87 : RESISTIVITY MUD SAMPLE
MST .DEGF                 74 : MUD SAMPLE TEMPERATURE
RMF .OHMM               1.52 : RESISTIVITY MUD FILTRATE SAMPLE
MFST.DEGF                 72 : MUD FILTRATE SAMPLE TEMPERATURE
RMB .OHMM               0.62 : RESISTIVITY MUD AT BHT
TCS .HRS                 3.5 : TIME CIRCULATED STOPPED
LUN .                   7730 : LOGGING UNIT NUMBER
LUL .                    EDM : LOGGING UNIT LOCATION
ENGI.               ACKERMAN : RECORDING ENGINEER
WITN.                 DAVIES : WITNESSED BY
CLNT.                A2DTECH : CLIENT CODE
ORIG.            2" 5" PRINT : ORIGIN OF DATA
UWI .       100070206217W500 : UNIQUE WELL ID
DICO. A2D Technologies, Inc. : DIGITIZING COMPANY
~Other -----------------------------------------------------
DIL-CNFD-BHC TOOLS RUN
DIL AND BHC TOOL CURVES FROM 1024' TO 2452' FROM 2" SCALE SECTION
~ASCII -----------------------------------------------------
# ...
 7800.00000   12.89620   10.14900   12.89620    -999.25    2.91850    0.17880    2.49680    0.12470    -999.25    0.12470  342.63620    0.17880   48.72570   48.72570    9.51570   12.49630   12.49630  342.63620 1050.58330  172.98970 1050.58330    0.01510    -999.25    0.01510    2.48550 -157.73530 -138.65540  172.98970
 7850.00000   12.10250    9.97060   12.10250    -999.25    3.95440    0.23180    2.40890    0.17610    -999.25    0.17610  252.88020    0.23180   50.27420   50.27420   14.76560   14.31780   14.31780  252.88020  190.14600  285.77290  190.14600    0.05710    -999.25    0.05710    2.44500 -147.81490 -148.56440  285.77290
 7900.00000   11.21900    9.51660   11.21900    -999.25    5.18690    0.15450    2.62590    0.04920    -999.25    0.04920  192.79180    0.15450   50.72810   50.72810   12.59510   15.12710   15.12710  192.79180  133.91690  123.60550  133.91690    0.05380    -999.25    0.05380    2.61890 -136.68140 -118.14790  123.60550
 7950.00000   10.70810    9.76950   10.70810    -999.25    7.24940    0.15850    2.46480    0.14340    -999.25    0.14340  138.66950    0.15850   50.73550   50.73550   11.25380   15.48790   15.48790  138.66950  104.06030  114.76220  104.06030    0.03160    -999.25    0.03160    2.45390 -144.17700 -125.91760  114.76220
 8000.00000   11.56050    9.82050   11.56050    -999.25    2.14900    0.18280    2.58820    0.07120    -999.25    0.07120  465.34200    0.18280   49.91550   49.91550   11.45870   13.05140   13.05140  465.34200  111.81060  193.26640  111.81060    0.01900    -999.25    0.01900    2.61000 -149.20880 -131.22180  193.26640
 8050.00000   11.48360    9.75730   11.48360    -999.25    5.00460    0.20210    2.59850    0.06520    -999.25    0.06520  199.81610    0.20210   51.99210   51.99210   13.48760   15.45590   15.45590  199.81610  117.68050  102.03810  117.68050    0.02340    -999.25    0.02340    2.60400 -147.19400 -129.47930  102.03810
 8100.00000    9.48580    9.15320    9.48580    -999.25   11.70480    0.08060    2.70060    0.00550    -999.25    0.00550   85.43530    0.08060   49.04740   49.04740    9.60850   11.12570   11.12570   85.43530  109.71300  145.62040  109.71300    0.01920    -999.25    0.01920    2.69280 -150.15390 -132.71330  145.62040
 8150.00000   10.29670    9.47940   10.29670    -999.25   14.00210    0.16810    2.63000    0.04680    -999.25    0.04680   71.41780    0.16810   49.33570   49.33570   11.28390   14.88860   14.88860   71.41780  123.85900  140.46460  123.85900    0.01240    -999.25    0.01240    2.61720 -143.59790 -126.42970  140.46460
 8200.00000   11.14900   10.34040   11.14900    -999.25    1.79440    0.12200    2.72330   -0.00780    -999.25   -0.00780  560.12210    0.12200   51.60420   51.60420   13.46990   15.12160   15.12160  560.12210  157.68630 1476.98140  157.68630    0.00630    -999.25    0.00630    2.72630 -130.33180 -113.43770 1476.98140
 8250.00000    8.68210    8.85620    8.68210    -999.25   26.30600    0.02660    2.78200   -0.04210    -999.25   -0.04210   38.01420    0.02660   54.27920   54.27920   37.98470   41.62650   41.62650   38.01420   28.29790   45.91470   28.29790    0.04440    -999.25    0.04440    2.76780  -85.23990  -68.61810   45.91470
 8300.00000    9.84290    9.02810    9.84290    -999.25   14.27100    0.10370    2.67730    0.01910    -999.25    0.01910   70.07220    0.10370   52.57580   52.57580   23.34580   25.50070   25.50070   70.07220   38.86330 1506.84190   38.86330    0.05960    -999.25    0.05960    2.68850 -149.37030 -133.02080 1506.84190
 8350.00000   10.57680    9.98400   10.57680    -999.25    1.56870    0.20370    2.60840    0.05940    -999.25    0.05940  637.46970    0.20370   46.55930   46.55930   17.00200   23.99940   23.99940  637.46970  571.11540  205.11490  571.11540    0.05690    -999.25    0.05690    2.64010 -165.95090 -149.87560  205.11490
 8400.00000   11.62500    9.93220   11.62500    -999.25    9.48310    0.22670    2.64950    0.03540    -999.25    0.03540  105.45060    0.22670   50.05040   50.05040   19.52890   18.95340   18.95340  105.45060   75.81310   99.55630   75.81310    0.07630    -999.25    0.07630    2.64440 -146.34260 -130.53960   99.55630
 8450.00000    8.71800    8.71830    8.71800    -999.25    3.58990    0.00200    2.71020   -0.00010    -999.25   -0.00010  280.84700    0.00200   49.99600   49.99600   32.50840   32.40550   32.40550  280.84700  147.08790  253.16800  147.08790    0.02170    -999.25    0.02170    2.69930  -75.63390  -60.10500  253.16800
 8500.00000    8.90600    9.25470    8.90600    -999.25    2.25860    0.04090    2.76400   -0.03160    -999.25   -0.03160  442.75740    0.04090   52.12110   52.12110   32.82430   37.71620   37.71620  442.75740  171.83480  254.59320  171.83480    0.03130    -999.25    0.03130    2.75380  -67.61250  -52.35590  254.59320
 8550.00000    8.96980    9.26650    8.96980    -999.25    0.61580    0.00460    2.66860    0.02420    -999.25    0.02420 1623.94130    0.00460   49.80560   49.80560   26.77490   29.76670   29.76670 1623.94130  458.89030  353.78580  458.89030    0.00900    -999.25    0.00900    2.66280  -96.27960  -81.29540  353.78580
 8600.00000    8.67210    8.92920    8.67210    -999.25    1.67870    0.00020    2.72800   -0.01050    -999.25   -0.01050  595.69400    0.00020   50.92960   50.92960   33.64800   37.08730   37.08730  595.69400  221.71360  244.38870  221.71360    0.01960    -999.25    0.01960    2.71690  -59.34610  -44.63600  244.38870
 8650.00000    8.76220    8.80260    8.76220    -999.25   10.01590    0.03060    2.71210   -0.00120    -999.25   -0.00120   99.84170    0.03060   52.58450   52.58450   29.25990   33.94470   33.94470   99.84170   83.14160  106.11220   83.14160    0.03250    -999.25    0.03250    2.70820  -37.08130  -22.64350  106.11220
 8700.00000    8.94800    8.90930    8.94800    -999.25   28.98470    0.01360    2.74100   -0.01810    -999.25   -0.01810   34.50160    0.01360   54.99000   54.99000   37.29240   43.90270   43.90270   34.50160   36.53480   38.57150   36.53480    0.05300    -999.25    0.05300    2.73440  -27.29360  -13.12990   38.57150
 8750.00000    9.49370    9.59260    9.49370    -999.25   89.06700    0.02370    2.70230    0.00450    -999.25    0.00450   11.22750    0.02370   61.25770   61.25770   58.15490   66.97250   66.97250   11.22750   12.01780   15.93680   12.01780    0.10270    -999.25    0.10270    2.70060  -17.38040   -3.48910   15.93680
 8800.00000    9.51820    9.46750    9.51820    -999.25  128.95570   -0.00670    2.66640    0.02550    -999.25    0.02550    7.75460   -0.00670   65.43810   65.43810   67.41270   74.07170   74.07170    7.75460    8.16360   11.32730    8.16360    0.13900    -999.25    0.13900    2.65570  -28.11220  -13.18450   11.32730
 8850.00000    8.83530    9.05280    8.83530    -999.25   91.04070    0.00030    2.71120   -0.00070    -999.25   -0.00070   10.98410    0.00030   62.34990   62.34990   65.90850   72.96440   72.96440   10.98410   11.73810   14.75470   11.73810    0.13270    -999.25    0.13270    2.69680  -36.18010  -20.17360   14.75470
 8900.00000    9.09430    9.30770    9.09430    -999.25  106.73730    0.00540    2.67730    0.01910    -999.25    0.01910    9.36880    0.00540   65.24210   65.24210   74.94600   77.24840   77.24840    9.36880   10.41580   13.01840   10.41580    0.15140    -999.25    0.15140    2.67060  -27.83490  -10.75670   13.01840
 8950.00000    9.23710    9.62650    9.23710    -999.25   59.10730    0.24340    2.60030    0.06410    -999.25    0.06410   16.95820    0.24340   71.27920   71.27920  100.14020  106.27660  106.27660   16.95820   19.12210   26.68790   19.12210    0.21420    -999.25    0.21420    2.60370  -29.64910  -11.49220   26.68790
 9000.00000    9.11290    9.40940    9.11290    -999.25   49.46800    0.04860    2.68470    0.01480    -999.25    0.01480   20.21510    0.04860   59.29460   59.29460   48.68460   51.35070   51.35070   20.21510   22.40900   31.07750   22.40900    0.09540    -999.25    0.09540    2.67840  -24.36890   -5.14020   31.07750
