~Version ---------------------------------------------------
VERS.      2.0 : CWLS log ASCII Standard -VERSION 2.0
WRAP.       NO : One line per depth step
CREA. 10/03/17 : LAS Creation Date
~Well ------------------------------------------------------
STRT.FT                        850.0 : START DEPTH
STOP.FT                       8400.0 : STOP DEPTH
STEP.FT                     50.00000 : STEP LENGTH
NULL.                        -999.25 : NULL VALUE
COMP.   PAN AMERICAN PETROLEUM CORP. : COMPANY
WELL. MUSKEG A-1 PARK COURT 12-34-54 : WELL
FLD .                                : FIELD
LOC .                                : LOCATION
CTRY.                         CANADA : COUNTRY
SRVC.                        Unknown : SERVICE COMPANY
DATE.                    25-Jan-1965 : LOGDATE
PROV.                        Alberta : PROVINCE
UWI .               100123405407W500 : UNIQUE WELL ID
SLAT.WGS84                  53.71025 : SURFACE LATITUDE
SLON.WGS84                 -114.9552 : SURFACE LONGITUDE
~Curve Information -----------------------------------------
DEPT  .FT    : Depth Curve
CALSED.IN    : CALIPER FROM SONIC LOG
CALWS .IN    : CALIPER [CALSED]
CILDED.MMHO  : CONDUCTIVITY FROM RESISTIVITY LOG
CONDWS.MMHO  : CONDUCTIVITY [1000/DRESWS]
DRESWS.OHMM  : DEEP RESISTIVITY [1000/CILDED, IF ILDED<5, ILDED]
DT1ED .US/F  : DELTA TIME 1 FT SPACING FROM SONIC LOG [ADJ. TO DTED]
DTED  .US/F  : DELTA TIME 3 FT SPACING FROM SONIC LOG
DTWS  .US/F  : COMPRESSIONAL SONIC [DTED]
GRSED .GAPI  : GAMMA RAY FROM SONIC LOG
GRWS  .GAPI  : GAMMA RAY [GRSED]
ILDED .OHMM  : DEEP INDUCTION RESISTIVITY FROM RESISTIVITY LOG
SNED  .OHMM  : 16 INCH SHORT NORMAL RESISTIVITY FROM RESISTIVITY LOG
SPRED .MV    : SPONTANEOUS POTENTIAL FROM RESISTIVITY LOG
SPWS  .MV    : SPONTANEOUS POTENTIAL [BASELINE 0 MV, SPRED]
SRESWS.OHMM  : SHALLOW RESISTIVITY [SNED]
~Params ----------------------------------------------------
PD  .                     GL : PERMANENT DATUM
EPD .FT                 2437 : ELEVATION PERMANENT DATUM
LMF .                     KB : LOG MEASURED FROM
DAPD.FT                 13.2 : FEET ABOVE PERMANENT DATUM
DMF .                     KB : DRILLING MEASURED FROM
EKB .FT               2450.2 : KELLY BUSHING
EGL .FT                 2437 : GROUND LEVEL
DATE.               01/25/65 : RUN DATE
RUN .                      1 : RUN NUMBER
DD  .FT                 8420 : DEPTH DRILLER
DL  .FT                 8420 : DEPTH LOGGER
BLI .FT                 8419 : BOTTOM LOG INTERVAL
TLI .FT                  875 : TOP LOG INTERVAL
CBD .FT                  875 : CASING BOTTOM DRILLER
CBL .FT                  875 : CASING BOTTOM LOGGER
BS  .IN                7.875 : BIT SIZE
BSD .FT                 8420 : BIT SIZE AT DEPTH
DFT .               GEL CHEM : DRILLING FLUID TYPE
DFD .                   10.1 : DRILLING FLUID DENSITY
DFV .                    123 : DRILLING FLUID VISCOSITY
DFPH.                    9.5 : DRILLING FLUID PH
DFL .                    8.1 : DRILLING FLUID LOSS
MSS .             CIRCULATED : MUD SAMPLE SOURCE
RMS .OHMM               1.93 : RESISTIVITY MUD SAMPLE
MST .DEGF                 66 : MUD SAMPLE TEMPERATURE
RMF .OHMM               1.62 : RESISTIVITY MUD FILTRATE SAMPLE
MFST.DEGF                 54 : MUD FILTRATE SAMPLE TEMPERATURE
RMC .OHMM               2.17 : RESISTIVITY MUD CAKE
MCST.DEGF                 62 : MUD CAKE SAMPLE TEMPERATURE
RMB .OHMM               0.88 : RESISTIVITY MUD AT BHT
TCS .HRS                   3 : TIME CIRCULATED STOPPED
LUN .                   1574 : LOGGING UNIT NUMBER
LUL .                    EDM : LOGGING UNIT LOCATION
ENGI.                  FIELD : RECORDING ENGINEER
WITN.                  SAMIS : WITNESSED BY
CLNT.                A2DTECH : CLIENT CODE
ORIG.           2"  5" PRINT : ORIGIN OF DATA
UWI .       100123405407W500 : UNIQUE WELL ID
DICO. A2D Technologies, Inc. : DIGITIZING COMPANY
~Other -----------------------------------------------------
IEL-SONIC TOOL RUN
CILD GAPS NOT FILLED DUE TO MISSING IMAGE
~ASCII -----------------------------------------------------
  850.00000    -999.25    -999.25    -999.25    -999.25    -999.25    -999.25    -999.25    -999.25   63.94720   63.94720    -999.25    -999.25    -999.25    -999.25    -999.25
  900.00000   15.06800   15.06800  256.07560  256.07560    3.90510    -999.25  176.36340  176.36340   56.67710   56.67710    3.64160    4.32600 -106.36090   -3.13570    4.32600
  950.00000    8.42090    8.42090  302.80090  302.80090    3.30250    -999.25  110.17670  110.17670   63.29160   63.29160    3.04990    4.23130 -109.14610   -5.63820    4.23130
 1000.00000    8.75880    8.75880  132.71580  128.87100    7.75970    -999.25  104.93360  104.93360   68.26970   68.26970    7.75970    6.65240 -108.51660   -4.72790    6.65240
 1050.00000    9.20470    9.20470  155.07800  155.57420    6.42780    -999.25   93.15800   93.15800   74.05370   74.05370    6.42780    5.09070 -108.39170   -4.32220    5.09070
 1100.00000    8.72490    8.72490  135.24310  137.30610    7.28300    -999.25   99.43490   99.43490   73.63930   73.63930    7.28300    7.99220 -109.24910   -4.89690    7.99220
 1150.00000   10.46110   10.46110  216.24190  216.24190    4.62450    -999.25  108.57870  108.57870   74.77540   74.77540    4.47690    4.08360 -108.32910   -3.69610    4.08360
 1200.00000    9.06880    9.06880  124.64350  119.38870    8.37600    -999.25   98.56940   98.56940   67.57160   67.57160    8.37600    6.84210 -108.57280   -3.82550    6.84210
 1250.00000   10.58430   10.58430  228.33150  228.33150    4.37960    -999.25  113.70110  113.70110   63.68450   63.68450    4.14660    4.40850 -107.02890   -2.39460    4.40850
 1300.00000    9.93640    9.93640  175.76250  176.69090    5.65960    -999.25  102.27050  102.27050   78.65200   78.65200    5.65960    6.11250 -108.27890   -3.75760    6.11250
 1350.00000    8.62530    8.62530  220.15260  220.15260    4.54230    -999.25  101.26950  101.26950   69.59850   69.59850    4.14850    4.55800 -106.34760   -1.94000    4.55800
 1400.00000    8.50080    8.50080  257.83230  257.83230    3.87850    -999.25  109.63240  109.63240   72.44490   72.44490    3.68250    4.07170 -106.71630   -2.42170    4.07170
 1450.00000   11.40920   11.40920  199.81140  195.77130    5.10800    -999.25  109.02090  109.02090   62.58160   62.58160    5.10800    4.72240 -107.00760   -2.82670    4.72240
 1500.00000    8.81930    8.81930  141.77610  144.43980    6.92330    -999.25  113.84920  113.84920   83.18430   83.18430    6.92330    7.06610 -107.78410   -3.71620    7.06610
 1550.00000    9.25410    9.25410  188.12930  172.66090    5.79170    -999.25  101.25860  101.25860   74.95970   74.95970    5.79170    4.21810 -108.06100   -4.10610    4.21810
 1600.00000    8.46050    8.46050  146.11200  138.31070    7.23010    -999.25  101.75740  101.75740   60.51520   60.51520    7.23010    6.92280 -111.54440   -7.70320    6.92280
 1650.00000    7.83530    7.83530  100.88830  100.46210    9.95400    -999.25  102.63360  102.63360   59.42180   59.42180    9.95400    7.63640 -116.71780  -12.98960    7.63640
 1700.00000    7.94330    7.94330  172.30110  171.95130    5.81560    -999.25  118.90690  118.90690   66.69980   66.69980    5.81560    5.53290 -108.55790   -4.94340    5.53290
 1750.00000   10.84230   10.84230  196.50670  194.28420    5.14710    -999.25  106.46860  106.46860   68.63940   68.63940    5.14710    4.58660 -107.28400   -3.78250    4.58660
 1800.00000    8.63700    8.63700  204.44620  204.44620    4.89130    -999.25  119.39260  119.39260   68.29630   68.29630    4.62280    4.75930 -107.05110   -3.66250    4.75930
 1850.00000    7.72940    7.72940   59.44420   55.41730   18.04490    -999.25   94.21380   94.21380   41.37620   41.37620   18.04490   19.92230 -126.35690  -23.08210   19.92230
 1900.00000    9.47580    9.47580  207.73300  197.80050    5.05560    -999.25  136.78810  136.78810   54.91180   54.91180    5.05560    4.58560 -106.96430   -3.80240    4.58560
 1950.00000    8.23980    8.23980   96.76840   90.44370   11.05660    -999.25  100.63390  100.63390   62.25730   62.25730   11.05660    9.71430 -113.49710  -10.44900    9.71430
 2000.00000    8.47580    8.47580   80.68820   71.55790   13.97470    -999.25   92.50630   92.50630   51.06950   51.06950   13.97470   13.42930 -108.92760   -5.99240   13.42930
 2050.00000   10.18620   10.18620  186.65390  193.40490    5.17050    -999.25  112.27430  112.27430   54.41140   54.41140    5.17050    4.82580 -105.19960   -2.37740    4.82580
 2100.00000   12.47000   12.47000  238.51070  238.51070    4.19270    -999.25  121.62280  121.62280   57.52200   57.52200    4.26740    3.83460 -104.69460   -1.98610    3.83460
 2150.00000    9.65460    9.65460  226.68790  226.68790    4.41140    -999.25  118.78270  118.78270   54.22780   54.22780    4.15070    4.49960 -106.32350   -3.72800    4.49960
 2200.00000    9.06090    9.06090  204.20270  204.20270    4.89710    -999.25  118.77110  118.77110   60.69670   60.69670    4.84380    4.29520 -105.00930   -2.52750    4.29520
 2250.00000   13.92130   13.92130  193.85240  193.51720    5.16750    -999.25  111.33140  111.33140   54.35720   54.35720    5.16750    4.62700 -105.78680   -3.41800    4.62700
 2300.00000    8.21560    8.21560  136.71700  139.90710    7.14760    -999.25   85.91900   85.91900   60.09620   60.09620    7.14760    6.05970 -106.33450   -4.07870    6.05970
 2350.00000   12.48460   12.48460  214.91770  214.91770    4.65290    -999.25   95.12520   95.12520   54.81780   54.81780    4.22530    4.36270 -104.63310   -2.28810    4.36270
 2400.00000    8.30350    8.30350  230.33350  230.33350    4.34150    -999.25  107.15290  107.15290   58.13890   58.13890    4.10980    4.81180 -104.60700   -2.15480    4.81180
 2450.00000   11.17270   11.17270  192.29240  196.87750    5.07930    -999.25  111.48240  111.48240   54.66680   54.66680    5.07930    5.77640 -104.47150   -1.91130    5.77640
 2500.00000    7.93690    7.93690  119.62290  116.36030    8.59400    -999.25   98.48980   98.48980   49.52220   49.52220    8.59400    9.84220 -121.39250  -18.72500    9.84220
 2550.00000    8.15360    8.15360  148.43330  147.52090    6.77870    -999.25   95.69400   95.69400   60.92490   60.92490    6.77870    7.32480 -107.10080   -4.32600    7.32480
 2600.00000    7.99300    7.99300  107.30370  101.59090    9.84340    -999.25   90.91620   90.91620   57.10450   57.10450    9.84340   11.05580 -112.77520   -9.89240   11.05580
 2650.00000    8.82710    8.82710  204.32300  204.32300    4.89420    -999.25  100.56330  100.56330   66.13730   66.13730    4.97480    5.38110 -106.82310   -3.83300    5.38110
 2700.00000    9.68630    9.68630  215.44890  215.44890    4.64150    -999.25  104.97440  104.97440   71.52690   71.52690    4.47400    5.28640 -105.35440   -2.25480    5.28640
 2750.00000   10.46800   10.46800  148.76660  144.42520    6.92400    -999.25   97.47210   97.47210   85.10620   85.10620    6.92400    6.37770 -108.99340   -5.71160    6.37770
 2800.00000   11.94910   11.94910  135.93890  127.68460    7.83180    -999.25   97.33570   97.33570   84.04740   84.04740    7.83180    7.45080 -109.79050   -6.32650    7.45080
 2850.00000    9.05100    9.05100  137.56960  134.36530    7.44240    -999.25  102.59510  102.59510   91.95020   91.95020    7.44240    7.10420 -111.02640   -7.37900    7.10420
 2900.00000   11.30990   11.30990  130.45190  123.85430    8.07400    -999.25  100.73000  100.73000   85.79930   85.79930    8.07400    7.75040 -109.56500   -5.73550    7.75040
 2950.00000   12.19140   12.19140  131.43150  125.10320    7.99340    -999.25  103.23130  103.23130   87.70160   87.70160    7.99340    8.35590 -108.40480   -4.39190    8.35590
 3000.00000   10.53490   10.53490  138.77600  135.26130    7.39310    -999.25  105.14540  105.14540  131.93290  131.93290    7.39310    9.84910 -105.97160   -1.77650    9.84910
 3050.00000   11.54420   11.54420  144.65260  140.46520    7.11920    -999.25  101.81440  101.81440   92.65250   92.65250    7.11920    8.39560 -106.56370   -2.18640    8.39560
 3100.00000   10.86090   10.86090  125.53850  122.79880    8.14340    -999.25   96.29180   96.29180   89.79760   89.79760    8.14340    8.69510 -108.58630   -4.02560    8.69510
