~Version ---------------------------------------------------
VERS.      2.0 : CWLS log ASCII Standard -VERSION 2.0
WRAP.       NO : One line per depth step
CREA. 11/17/17 : LAS Creation Date
~Well ------------------------------------------------------
STRT.FT                           1050.0 : START DEPTH
STOP.FT                           9750.0 : STOP DEPTH
STEP.FT                         50.00000 : STEP LENGTH
NULL.                            -999.25 : NULL VALUE
COMP.                TENNECO OIL COMPANY : COMPANY
WELL. TENN SUN A1 SAKWATAMAU 10-25-64-15 : WELL
FLD .                                    : FIELD
LOC .                                    : LOCATION
CTRY.                             CANADA : COUNTRY
SRVC.                       Schlumberger : SERVICE COMPANY
DATE.                        21-Feb-1963 : LOGDATE
PROV.                            Alberta : PROVINCE
UWI .                   100102506415W500 : UNIQUE WELL ID
SLAT.WGS84                      54.56867 : SURFACE LATITUDE
SLON.WGS84                     -116.1264 : SURFACE LONGITUDE
~Curve Information -----------------------------------------
DEPT  .FT    : Depth Curve
CALSED.IN    : CALIPER FROM SONIC LOG [ADJ. TO RESISTIVITY LOG]
CALWS .IN    : CALIPER [CALSED]
CILDED.MMHO  : CONDUCTIVITY FROM RESISTIVITY LOG
CONDWS.MMHO  : CONDUCTIVITY [1000/DRESWS]
DRESWS.OHMM  : DEEP RESISTIVITY [1000/CILDED IF ILDED < 1, ILDED]
DT1ED .US/F  : DELTA-T 1' SPAN FROM SONIC LOG [ADJ. TO RESISTIVITY LOG]
DTED  .US/F  : DELTA-T 3' SPAN FROM SONIC LOG [ADJ. TO RESISTIVITY LOG]
DTWS  .US/F  : COMPRESSIONAL SONIC [DTED]
GRSED .GAPI  : GAMMA RAY FROM SONIC LOG [ADJ. TO RESISTIVITY LOG]
GRWS  .GAPI  : GAMMA RAY [GRSED]
ILDED .OHMM  : DEEP INDUCTION FROM RESISTIVITY LOG
SNED  .OHMM  : SHORT NORMAL FROM RESISTIVITY LOG
SPRED .MV    : SPONTANEOUS POTENTIAL FROM RESISTIVITY LOG
SPWS  .MV    : SPONTANEOUS POTENTIAL [BASELINE 0 MV, SPRED]
SRESWS.OHMM  : SHALLOW RESISTIVITY [SNED]
~Params ----------------------------------------------------
PD  .                     GL : PERMANENT DATUM
EPD .FT              3480.18 : ELEVATION PERMANENT DATUM
LMF .                     KB : LOG MEASURED FROM
DAPD.FT                 11.6 : FEET ABOVE PERMANENT DATUM
DMF .                     KB : DRILLING MEASURED FROM
EKB .FT              3491.78 : KELLY BUSHING
EGL .FT              3490.18 : GROUND LEVEL
DATE.               02/21/63 : RUN DATE
RUN .                      1 : RUN NUMBER
DD  .FT                 9800 : DEPTH DRILLER
DL  .FT                 9804 : DEPTH LOGGER
BLI .FT                 9803 : BOTTOM LOG INTERVAL
TLI .FT                 1027 : TOP LOG INTERVAL
CBD .FT                 1024 : CASING BOTTOM DRILLER
CBL .FT                 1027 : CASING BOTTOM LOGGER
BS  .IN                 8.75 : BIT SIZE
BSD .FT                 9800 : BIT SIZE AT DEPTH
DFT .           OIL EMULSION : DRILLING FLUID TYPE
DFD .                    9.6 : DRILLING FLUID DENSITY
DFV .                     90 : DRILLING FLUID VISCOSITY
DFPH.                   10.5 : DRILLING FLUID PH
DFL .                    8.8 : DRILLING FLUID LOSS
RMS .OHMM               1.35 : RESISTIVITY MUD SAMPLE
MST .DEGF                 74 : MUD SAMPLE TEMPERATURE
RMF .OHMM              0.895 : RESISTIVITY MUD FILTRATE SAMPLE
MFST.DEGF                 74 : MUD FILTRATE SAMPLE TEMPERATURE
RMC .OHMM               1.92 : RESISTIVITY MUD CAKE
MCST.DEGF                 74 : MUD CAKE SAMPLE TEMPERATURE
RMB .OHMM              0.895 : RESISTIVITY MUD AT BHT
TCS .HRS                   3 : TIME CIRCULATED STOPPED
LUN .                   1572 : LOGGING UNIT NUMBER
LUL .                    EDM : LOGGING UNIT LOCATION
ENGI.                 HAINES : RECORDING ENGINEER
WITN.                 MORGAN : WITNESSED BY
CLNT.                A2DTECH : CLIENT CODE
ORIG.            2" 5" PRINT : ORIGIN OF DATA
UWI .       100102506415W500 : UNIQUE WELL ID
DICO. A2D Technologies, Inc. : DIGITIZING COMPANY
~Other -----------------------------------------------------
IEL-BHC LOG RUN
ALL DATA VERIFY FROM TOP - 5978' & 6430' - 9114' FROM 2" SCALE LOG
~ASCII -----------------------------------------------------
# ...
 5650.00000   11.69860   11.69860  115.03820  114.08510    8.77150    -999.25   74.89830   74.89830  106.36040  106.36040    8.77150    9.47560  -48.71560  -11.32790    9.47560
 5700.00000   13.02650   13.02650  172.05560  171.76230    5.82200    -999.25   81.08630   81.08630   87.56000   87.56000    5.82200    6.19900  -46.80650   -8.77510    6.19900
 5750.00000    7.93230    7.93230  198.83900  188.60100    5.30220    -999.25   80.27730   80.27730   47.40370   47.40370    5.30220   12.93070 -107.44600  -68.77400   12.93070
 5800.00000   13.32360   13.32360  133.25750  118.26650    8.48540    -999.25   77.96070   77.96070   68.29570   68.29570    8.48540    8.68500  -43.30510   -4.04420    8.68500
 5850.00000   14.56560   14.56560  106.57890  102.76440    9.73100    -999.25  104.45890  104.45890   88.73180   88.73180    9.73100   10.96120  -48.85560   -9.22920   10.96120
 5900.00000   11.90260   11.90260   76.31650   72.35870   13.82210    -999.25   72.33560   72.33560   61.14390   61.14390   13.82210   18.55260  -72.17160  -32.18340   18.55260
 5950.00000   12.81850   12.81850  103.17060   99.50740   10.04950    -999.25   71.98120   71.98120   98.42840   98.42840   10.04950    9.35110  -51.53170  -11.17810    9.35110
 6000.00000   14.59670   14.59670  294.87260  263.34500    3.79730    -999.25  102.51040  102.51040   85.84220   85.84220    3.79730    5.07850  -45.16450   -4.44720    5.07850
 6050.00000   10.03620   10.03620   11.48150    8.89000  112.49940    -999.25   64.14990   64.14990   49.49100   49.49100  112.49940   74.87170  -54.48780  -13.40870   74.87170
 6100.00000    8.84480    8.84480   50.74660   45.76620   21.85020    -999.25   56.04340   56.04340   56.88970   56.88970   21.85020   30.25600  -75.17660  -33.73210   30.25600
 6150.00000    9.98760    9.98760   44.53800   37.60030   26.75380    -999.25   54.95440   54.95440   41.07570   41.07570   26.75380   26.15470  -62.07200  -20.26570   26.15470
 6200.00000   10.21960   10.21960   44.34800   40.99860   24.39110    -999.25   57.70430   57.70430   45.74620   45.74620   24.39110   33.66580  -62.89050  -20.96830   33.66580
 6250.00000    9.18560    9.18560   24.82640   22.29650   44.85010    -999.25   55.41850   55.41850   17.68730   17.68730   44.85010   55.69240  -83.50100  -42.13950   55.69240
 6300.00000    9.92670    9.92670  431.03890  388.78890    2.60190    -999.25   63.68490   63.68490   46.07560   46.07560    2.60190   10.00210 -114.82360  -74.01990   10.00210
 6350.00000    9.29530    9.29530   24.40580   23.08160   43.32460    -999.25   53.76600   53.76600   16.00830   16.00830   43.32460   73.41820 -126.82070  -86.58050   73.41820
 6400.00000    8.81830    8.81830   36.39410   33.58140   29.79710    -999.25   56.75320   56.75320   16.21500   16.21500   29.79710   74.54500 -161.98160 -122.29930   74.54500
 6450.00000    9.38870    9.38870   27.10440   27.59630   36.23680    -999.25   55.38610   55.38610   19.15370   19.15370   36.23680   76.18100 -164.52540 -125.40650   76.18100
 6500.00000   10.75230   10.75230  367.46880  346.84890    2.88310    -999.25   67.16330   67.16330   90.34150   90.34150    2.88310    5.43700  -64.51500  -25.95680    5.43700
 6550.00000   10.18110   10.18110  214.31310  205.62350    4.86750    -999.25   65.65960   65.65960   72.10530   72.10530    4.86750    9.21790  -60.00980  -21.93680    9.21790
 6600.00000   10.23550   10.23550   86.29510   83.57640   11.96510    -999.25   59.96410   59.96410   44.11560   44.11560   11.96510   15.86950  -58.16980  -20.48850   15.86950
 6650.00000   11.01620   11.01620   10.76580   10.23710   97.78580    -999.25   54.78190   54.78190   17.96220   17.96220   97.78580   49.96460  -66.70110  -29.40760   49.96460
 6700.00000   11.12520   11.12520    1.44270    6.24640  160.09170    -999.25   54.33780   54.33780   22.49370   22.49370  160.09170   84.31490  -56.84200  -19.94020   84.31490
 6750.00000    8.66730    8.66730   29.11520   29.77210   33.58850    -999.25   59.35380   59.35380   38.28920   38.28920   33.58850   42.10610  -45.55940   -9.04730   42.10610
 6800.00000    9.72340    9.72340   26.00670   25.94800   38.54020    -999.25   55.67820   55.67820   30.89730   30.89730   38.54020   36.82580  -57.29960  -21.17530   36.82580
 6850.00000    9.16890    9.16890   19.35260   19.90220   50.24570    -999.25   55.63620   55.63620   29.43230   29.43230   50.24570   50.03940  -57.68250  -21.94990   50.03940
 6900.00000    9.60780    9.60780   17.15000   19.54350   51.16800    -999.25   55.36350   55.36350   29.45790   29.45790   51.16800   51.83120  -57.85960  -22.51480   51.83120
 6950.00000   10.51010   10.51010   23.71950   23.97210   41.71510    -999.25   57.61490   57.61490   36.87180   36.87180   41.71510   38.76170  -43.21230   -8.25920   38.76170
 7000.00000    8.79010    8.79010   13.78640   14.77450   67.68400    -999.25   59.33150   59.33150   41.92390   41.92390   67.68400   58.85750  -37.26490   -2.70150   58.85750
 7050.00000   13.28440   13.28440   96.65990   91.09070   11.04400    -999.25   88.91090   88.91090  127.57500  127.57500   11.04400   17.20260  -49.23080  -15.15830   17.20260
 7100.00000   10.94820   10.94820   71.64870   65.50420   15.26620    -999.25   64.15510   64.15510   82.32520   82.32520   15.26620   15.22000  -52.11110  -18.60750   15.22000
 7150.00000   11.03040   11.03040    9.78500    9.58460  104.40370    -999.25   52.66870   52.66870   41.54520   41.54520  104.40370   62.44030  -83.48060  -50.54020   62.44030
 7200.00000    9.99900    9.99900    2.19740    3.71910  268.87890    -999.25   50.25040   50.25040   19.25280   19.25280  268.87890   98.48490 -106.66820  -74.29660   98.48490
 7250.00000    9.90030    9.90030    2.44710    3.71680  269.05170    -999.25   49.71020   49.71020   13.96650   13.96650  269.05170   97.99710 -105.41240  -73.60680   97.99710
 7300.00000    9.46110    9.46110   11.74740   12.38470   80.75690    -999.25   52.16240   52.16240   16.18280   16.18280   80.75690   80.94660 -132.22080 -100.97840   80.94660
 7350.00000    9.15630    9.15630    8.86230    8.13090  122.98750    -999.25   51.37140   51.37140   13.92780   13.92780  122.98750   80.74360 -108.03070  -77.35720   80.74360
 7400.00000    8.43090    8.43090   15.90890   14.87700   67.21800    -999.25   53.08520   53.08520   18.84700   18.84700   67.21800   86.68140 -161.87270 -131.76240   86.68140
 7450.00000    9.46390    9.46390   33.76630   33.76640   29.61520    -999.25   51.64160   51.64160   10.31090   10.31090   29.61520   78.08270 -178.79700 -149.25550   78.08270
 7500.00000    9.46350    9.46350   12.38640   11.77050   84.95850    -999.25   51.13840   51.13840   16.04370   16.04370   84.95850   71.97480 -152.85310 -123.87760   71.97480
 7550.00000    9.42340    9.42340   20.59020   21.03900   47.53730    -999.25   51.70290   51.70290   13.42840   13.42840   47.53730   77.53030 -149.95940 -121.54720   77.53030
 7600.00000    9.27740    9.27740    5.03020    6.23860  160.29120    -999.25   48.96420   48.96420   16.83700   16.83700  160.29120   77.56430 -125.44980  -97.60640   77.56430
 7650.00000    9.60960    9.60960    8.46490    6.89070  146.63130    -999.25   49.59530   49.59530   18.93400   18.93400  146.63130   85.09960 -117.36840  -90.08820   85.09960
 7700.00000    9.40070    9.40070   16.99590   16.31980   61.27510    -999.25   52.15350   52.15350   15.23820   15.23820   61.27510   81.02980 -158.16580 -131.45440   81.02980
 7750.00000   10.23330   10.23330    8.12190    6.82060  146.61490    -999.25   49.71800   49.71800   17.13530   17.13530  146.61490   98.55330 -165.44580 -139.30050   98.55330
 7800.00000    8.65780    8.65780   18.47030   18.99490   52.89020    -999.25   53.47510   53.47510   14.40620   14.40620   52.89020   81.83940 -166.88130 -141.29910   81.83940
 7850.00000    9.36140    9.36140    5.99550    5.51200  181.42090    -999.25   49.89530   49.89530   20.36530   20.36530  181.42090  102.94810 -112.49630  -87.48300  102.94810
 7900.00000   10.39470   10.39470   61.97520   58.21730   17.17830    -999.25   55.34920   55.34920   45.73490   45.73490   17.17830   21.65210  -82.66230  -58.21220   21.65210
