~Version ---------------------------------------------------
VERS.      2.0 : CWLS log ASCII Standard -VERSION 2.0
WRAP.       NO : ONE LINE PER DEPTH STEP
CREA. 08/28/13 : LAS CREATION DATE
~Well ------------------------------------------------------
STRT.M                     450.0 : START DEPTH
STOP.M                    3750.0 : STOP DEPTH
STEP.M                  50.00000 : STEP LENGTH
NULL.                    -999.25 : NULL VALUE
COMP. ALBERTA ENERGY COMPANY LTD : COMPANY
WELL.   AEC NORTH KARR 4-26-66-1 : WELL
FLD .                            : FIELD
LOC .                            : LOCATION
CTRY.                     CANADA : COUNTRY
SRVC.                    Unknown : SERVICE COMPANY
DATE.                18-Oct-1996 : LOGDATE
PROV.                    Alberta : PROVINCE
UWI .           100042606601W600 : UNIQUE WELL ID
SLAT.WGS84              54.73603 : SURFACE LATITUDE
SLON.WGS84             -118.0441 : SURFACE LONGITUDE
~Curve Information -----------------------------------------
DEPT    .M      : DEPTH METERS
AHIBDED .MM     : ARRAY INDUCTION INPUT BOREHOLE DIAMETER TO AIT PROCESSING
AHT10ED .OHMM   : 10 INCH RESISTIVITY TWO FOOT RESOLUTION FROM AIT LOG
AHT20ED .OHMM   : 20 INCH RESISTIVITY TWO FOOT RESOLUTION FROM AIT LOG
AHT30ED .OHMM   : 30 INCH RESISTIVITY TWO FOOT RESOLUTION FROM AIT LOG
AHT60ED .OHMM   : 60 INCH RESISTIVITY TWO FOOT RESOLUTION FROM AIT LOG
AHT90ED .OHMM   : 90 INCH RESISTIVITY TWO FOOT RESOLUTION FROM AIT LOG
AHTRTED .OHMM   : ARRAY INDUCTION TWO FOOT RT
AHTRXED .OHMM   : ARRAY INDUCTION TWO FOOT RT
CALDED  .MM     : CALIPER FROM DENSITY LOG
CALRED  .MM     : CALIPER FROM RESISTIVITY LOG
CALWS   .MM     : CALIPER [HCLARED]<3625>[CALRED]
CGRDED  .GAPI   : GAMMA RAY FROM DENSITY LOG
CONDWS  .MMHO   : CONDUCTIVITY [1000/DRESWS]
DCORWS  .KG/M3  : DENSITY CORRECTION [HDRAED]<3625>[DRHOED]
DENWS   .KG/M3  : BULK DENSITY [RHOZED]<3625>[RHOBED]
DPHILSED.V/V    : DENSITY POROSITY [M=2710 F=1000] FROM DENSITY LOG
DPHZLSED.V/V    : DENSITY POROSITY LIMESTONE FROM DENSITY LOG
DPHZSSED.V/V    : DENSITY POROSITY SANDSTONE FROM DENSITY LOG
DPOLSWS .V/V    : DENSITY POROSITY LIMESTONE [CALCULATED FROM DENWS]
DRESWS  .OHMM   : DEEP RESISTIVITY [AHT90ED], SPLICED WITH [LLDED]AT 3625m
DRHOED  .KG/M3  : DENSITY CORRECTION FROM DENSITY LOG
DT4PED  .US/M   : DELTA TIME COMP - P & S FROM DIPOLE SONIC LOG
DTCOED  .US/M   : DELTA TIME COMPRESSIONAL FROM SONIC LOG
DTED    .US/M   : DELTA TIME FROM SONIC LOG
DTWS    .US/M   : DELTA TIME [DTED]
GRRED   .GAPI   : GAMMA RAY FROM RESISTIVITY LOG
GRSED   .GAPI   : GAMMA RAY FROM SONIC LOG
GRWS    .GAPI   : GAMMA RAY [GRRED]
HCALRED .MM     : HRCC CALIPER CALIBRATED FROM RES. LOG
HDDED   .MM     : HOLE DIAMETER FROM DENSITY LOG
HDRAED  .KG/M3  : DENSITY CORRECTION FROM DENSITY LOG
HDSED   .MM     : HOLE DIAMETER FROM SONIC LOG
LLDED   .OHMM   : LATEROLOG DEEP RESISTIVITY
LLSED   .OHMM   : LATEROLOG SHALLOW RESISTIVITY
MRESWS  .OHMM   : MEDIUM RESISTIVITY [LLSED]
MSFLED  .OHMM   : MICROSPHERICALLY FOCUSED LOG RESISTIVITY
NPOLSWS .V/V    : NUTRON POROSITY LIMESTONE [NPORLSED], MATRIX CONVERTED [NPORSSED] TO LIMESTONE FROM TOP TO 2150m
NPORLSED.V/V    : NUTRON POROSITY LIMESTONE FROM DENSITY LOG
NPORSSED.V/V    : NUTRON POROSITY SANDSTONE FROM DENSITY LOG
PEFED   .B/E    : PHOTOELECTRIC FACTOR FROM DENSITY LOG
PEFWS   .B/E    : PHOTOELECTRIC FACTOR [PEFED]
PEFZED  .B/E    : PHOTOELECTRIC FACTOR STANDARD RESOLUTION FROM DENSITY LOG
RHOBED  .KG/M3  : BULK DENSITY FROM DENSITY LOG
RHOZED  .KG/M3  : BULK DENSITY FROM DENSITY LOG
SGRDED  .GAPI   : GAMMA RAY FROM DENSITY LOG
SPRED   .MV     : SPONTANEOUS POTENTIAL FROM RESISTIVITY LOG
SPWS    .MV     : SPONTANEOUS POTENTIAL [BASELINE 0 MV] [SPRED]
SRESWS  .OHMM   : SHALLOW RESISTIVITY [AHT10ED], SPLICED WITH [LLSED] AT 3625m
TENDED  .N      : TENSION FROM DENSITY LOG
TENRED  .N      : TENSION FROM RESISTIVITY LOG
TENSED  .N      : TENSION FROM SONIC LOG
~Params ----------------------------------------------------
PD  .                        GL : PERMANENT DATUM
EPD .M                    811.6 : ELEVATION PERMANENT DATUM
LMF .                        KB : LOG MEASURED FROM
DAPD.M                      7.4 : FEET ABOVE PERMANENT DATUM
DMF .                        KB : DRILLING MEASURED FROM
EKB .M                      819 : KELLY BUSHING
EDF .M                    818.7 : DRILLING FLOOR
EGL .M                    811.6 : GROUND LEVEL
DATE.                  10/18/96 : RUN DATE
RUN .                         1 : RUN NUMBER
DD  .M                     3755 : DEPTH DRILLER
DL  .M                     3756 : DEPTH LOGGER
BLI .M                   3755.2 : BOTTOM LOG INTERVAL
TLI .M                     3627 : TOP LOG INTERVAL
CS  .MM                   177.8 : CASING SIZE
CBD .M                     3628 : CASING BOTTOM DRILLER
CBL .M                     3627 : CASING BOTTOM LOGGER
BS  .MM                     152 : BIT SIZE
BSD .M                     3755 : BIT SIZE AT DEPTH
DFT .                  GEL CHEM : DRILLING FLUID TYPE
DFD .                      1130 : DRILLING FLUID DENSITY
DFV .                        60 : DRILLING FLUID VISCOSITY
DFPH.                      10.5 : DRILLING FLUID PH
DFL .                         8 : DRILLING FLUID LOSS
MSS .                  FLOWLINE : MUD SAMPLE SOURCE
RMS .OHMM                  3.32 : RESISTIVITY MUD SAMPLE
MST .DEGC                     9 : MUD SAMPLE TEMPERATURE
RMF .OHMM                  2.76 : RESISTIVITY MUD FILTRATE SAMPLE
MFST.DEGC                     9 : MUD FILTRATE SAMPLE TEMPERATURE
RMC .OHMM                  1.85 : RESISTIVITY MUD CAKE
MCST.DEGC                    11 : MUD CAKE SAMPLE TEMPERATURE
MFSS.                  MEASURED : MUD FILTRATE SAMPLE SOURCE
MCSS.                  MEASURED : MUD CAKE SAMPLE SOURCE
RMB .OHMM                 0.824 : RESISTIVITY MUD AT BHT
TCS .HRS                   2230 : TIME CIRCULATED STOPPED
TLAB.HRS                   1545 : TIME LOGGER AT BOTTOM
LUN .                      2028 : LOGGING UNIT NUMBER
LUL .            GRANDE PRAIRIE : LOGGING UNIT LOCATION
ENGI.           GIESSEN CARRCLL : RECORDING ENGINEER
WITN.                    SHIPKA : WITNESSED BY
CLNT.                   A2DTECH : CLIENT CODE
ORIG. 16.5"/100M 33"/100M PRINT : ORIGIN OF DATA
UWI .          100042606601W600 : UNIQUE WELL ID
DICO.    A2D Technologies, Inc. : DIGITIZING COMPANY
~Other -----------------------------------------------------
~ASCII -----------------------------------------------------
# ...
 2550.00000  257.63780  593.80260  513.35720  341.35030  299.81320  245.54280  235.01320  436.45560    -999.25    -999.25  245.05300    -999.25    -999.25  229.30060 2725.65700    -999.25    0.00040   -0.04040   -0.00920  245.54280    -999.25  156.48060  162.79130  165.51580  165.51580    8.27880    7.28320    8.27880  245.05300  207.66520  229.30060  277.48390    -999.25    -999.25  341.35030    -999.25    0.07810    0.07810    0.11800    -999.25    2.86270    2.86270    -999.25 2725.65700    -999.25    -999.25    -999.25  593.80260    -999.25 15791.96390    -999.25
 2600.00000  218.55620  392.04800  352.39750  272.78060  241.48990  209.01140  216.07310  259.43530    -999.25    -999.25  215.15310    -999.25    -999.25   21.87830 2692.37010    -999.25    0.00840   -0.02720    0.01030  209.01140    -999.25  161.16150  164.46610  165.62950  165.62950   12.32680   10.51600   12.32680  215.15310  216.83360   21.87830  353.07760    -999.25    -999.25  272.78060    -999.25    0.02170    0.02170    0.05470    -999.25    4.74650    4.74650    -999.25 2692.37010    -999.25    -999.25    -999.25  392.04800    -999.25 15842.70610    -999.25
 2650.00000  219.99510   15.52330   14.47220   13.50410   11.51610   10.56220   11.89380   17.76810    -999.25    -999.25  218.55100    -999.25    -999.25   56.11460 2714.43580    -999.25   -0.00560   -0.04260   -0.00260   10.56220    -999.25  184.92130  185.41820  186.00410  186.00410   54.21130   46.61410   54.21130  218.55100  247.87860   56.11460  311.63490    -999.25    -999.25   13.50410    -999.25    0.09780    0.09780    0.14650    -999.25    3.61630    3.61630    -999.25 2714.43580    -999.25    -999.25    -999.25   15.52330    -999.25 16301.45800    -999.25
 2700.00000  220.36200   80.62930   75.45560   67.36200   57.39070   50.77300   47.77090   67.99510    -999.25    -999.25  220.16470    -999.25    -999.25   30.20630 2684.81350    -999.25    0.02030   -0.01510    0.01470   50.77300    -999.25  167.20690  164.82900  165.47060  165.47060   18.40700   17.91650   18.40700  220.16470  246.67230   30.20630  276.16820    -999.25    -999.25   67.36200    -999.25    0.04330    0.04330    0.07340    -999.25    4.40470    4.40470    -999.25 2684.81350    -999.25    -999.25    -999.25   80.62930    -999.25 16538.21090    -999.25
 2750.00000  225.58350    -999.25    -999.25 1855.20070  878.04880  645.27780  554.34740  773.10410    -999.25    -999.25  223.97530    -999.25    -999.25   43.95830 2669.35230    -999.25    0.02360   -0.01310    0.02380  645.27780    -999.25  178.02800  179.04040  180.01310  180.01310   14.49610   13.86360   14.49610  223.97530  340.43960   43.95830  352.60830    -999.25    -999.25 1855.20070    -999.25    0.02000    0.02000    0.05190    -999.25    4.85610    4.85610    -999.25 2669.35230    -999.25    -999.25    -999.25    -999.25    -999.25 16640.06640    -999.25
 2800.00000  226.83620    6.28610    6.03650    5.76620    5.49100    5.29380    5.52900    6.76670    -999.25    -999.25  226.68020    -999.25    -999.25   49.01600 2722.92190    -999.25   -0.00770   -0.04370   -0.00760    5.29380    -999.25  210.94630  212.86280  215.52490  215.52490   66.31390   69.44550   66.31390  226.68020  222.71210   49.01600  243.66120    -999.25    -999.25    5.76620    -999.25    0.14790    0.14790    0.20130    -999.25    3.41820    3.41820    -999.25 2722.92190    -999.25    -999.25    -999.25    6.28610    -999.25 16463.11130    -999.25
 2850.00000  230.35680  153.48800  147.54090  152.62170  134.22000  120.75330  120.53950  152.85410    -999.25    -999.25  230.01830    -999.25    -999.25  205.63530 2710.45240    -999.25   -0.00220   -0.03820   -0.00030  120.75330    -999.25  173.36040  174.80000  177.07430  177.07430   32.53050   29.19610   32.53050  230.01830  220.48590  205.63530  251.71600    -999.25    -999.25  152.62170    -999.25    0.03740    0.03740    0.07270    -999.25    4.51270    4.51270    -999.25 2710.45240    -999.25    -999.25    -999.25  153.48800    -999.25 17006.74800    -999.25
 2900.00000  216.97980   46.39350   55.28780   55.27520   49.17700   48.83010   46.10570   50.60250    -999.25    -999.25  216.69710    -999.25    -999.25   47.15870 2695.11690    -999.25    0.00670   -0.02920    0.00870   48.83010    -999.25  181.68910  182.35650  185.29620  185.29620   31.60540   29.99990   31.60540  216.69710  215.73060   47.15870  235.55990    -999.25    -999.25   55.27520    -999.25    0.04900    0.04900    0.08730    -999.25    4.24560    4.24560    -999.25 2695.11690    -999.25    -999.25    -999.25   46.39350    -999.25 17064.60350    -999.25
 2950.00000  216.54830   47.26550   57.12450   52.09540   50.11150   48.93190   48.58750   52.20410    -999.25    -999.25  215.96970    -999.25    -999.25   47.06010 2694.72850    -999.25    0.01130   -0.02480    0.00890   48.93190    -999.25  184.32320  184.61340  187.39800  187.39800   47.90460   39.86950   47.90460  215.96970  216.84340   47.06010  243.41350    -999.25    -999.25   52.09540    -999.25    0.05530    0.05530    0.09480    -999.25    4.48720    4.48720    -999.25 2694.72850    -999.25    -999.25    -999.25   47.26550    -999.25 17212.19730    -999.25
 3000.00000  215.82280   19.92180   19.56510   19.71060   16.54320   16.08770   17.16580   20.72540    -999.25    -999.25  215.14590    -999.25    -999.25   43.18230 2738.40530    -999.25   -0.02140   -0.06020   -0.01660   16.08770    -999.25  192.83470  195.02330  196.98420  196.98420   70.58300   67.15610   70.58300  215.14590  216.78100   43.18230  235.45550    -999.25    -999.25   19.71060    -999.25    0.10350    0.10350    0.14910    -999.25    3.60340    3.60340    -999.25 2738.40530    -999.25    -999.25    -999.25   19.92180    -999.25 17586.44140    -999.25
 3050.00000  215.88660    -999.25    -999.25    -999.25 2025.51840 2010.16830 1964.71770 2023.10350    -999.25    -999.25  215.49260    -999.25    -999.25   51.10300 2703.92040    -999.25    0.00080   -0.03360    0.00360 2010.16830    -999.25  158.44290  158.06790  161.01610  161.01610   12.13090    8.77430   12.13090  215.49260  245.46530   51.10300  257.69430    -999.25    -999.25    -999.25    -999.25    0.00720    0.00720    0.03510    -999.25    4.93890    4.93890    -999.25 2703.92040    -999.25    -999.25    -999.25    -999.25    -999.25 17416.98830    -999.25
 3100.00000  215.58830    -999.25 1603.19230  754.90700  526.13680  419.16250  444.34280 1938.27660    -999.25    -999.25  214.84410    -999.25    -999.25   19.27790 2705.34550    -999.25    0.00380   -0.03110    0.00270  419.16250    -999.25  161.00760  161.09390  163.16330  163.16330    6.80130    3.76800    6.80130  214.84410  253.46600   19.27790  243.78250    -999.25    -999.25  754.90700    -999.25    0.00340    0.00340    0.03080    -999.25    5.14810    5.14810    -999.25 2705.34550    -999.25    -999.25    -999.25    -999.25    -999.25 17985.12110    -999.25
 3150.00000  214.87350 1498.45830 1485.18020 1241.12920  670.70620  487.24160  462.68720 1534.64180    -999.25    -999.25  214.14610    -999.25    -999.25   32.49310 2685.12600    -999.25    0.01130   -0.02510    0.01450  487.24160    -999.25  158.23860  158.21520  158.79380  158.79380    6.93580    7.56180    6.93580  214.14610  263.01840   32.49310  277.49720    -999.25    -999.25 1241.12920    -999.25    0.00030    0.00030    0.03000    -999.25    4.94750    4.94750    -999.25 2685.12600    -999.25    -999.25    -999.25 1498.45830    -999.25 18185.52540    -999.25
 3200.00000  258.01630 2003.89140 1940.37280 1557.92690 1251.50310 1045.26990 1299.42420 1827.68410    -999.25    -999.25  254.44770    -999.25    -999.25  518.84030 2806.61330    -999.25   -0.05380   -0.09460   -0.05650 1045.26990    -999.25  158.70980  158.30160  159.93370  159.93370    8.33700    7.55220    8.33700  254.44770  213.25080  518.84030  278.61560    -999.25    -999.25 1557.92690    -999.25    0.01240    0.01240    0.04450    -999.25    4.78200    4.78200    -999.25 2806.61330    -999.25    -999.25    -999.25 2003.89140    -999.25 18505.25980    -999.25
