~Version ---------------------------------------------------
VERS.      2.0 : CWLS log ASCII Standard -VERSION 2.0
WRAP.       NO : One line per depth step
CREA. 08/31/13 : LAS Creation Date
~Well ------------------------------------------------------
STRT.M                      400.0 : START DEPTH
STOP.M                     3850.0 : STOP DEPTH
STEP.M                   50.00000 : STEP LENGTH
NULL.                     -999.25 : NULL VALUE
COMP.                  SUNCOR INC : COMPANY
WELL. SUNCOR ET AL KARR 14-2-66-1 : WELL
FLD .                             : FIELD
LOC .                             : Location
CTRY.                      CANADA : COUNTRY
SRVC.                     Unknown : SERVICE COMPANY
DATE.                 23-Jul-1995 : LOGDATE
LOC1.                             : Location 1
SECT.                             : Section
TOWN.                             : Township
RNGE.                             : Range
PDAT.                             : Perm Datum
EPD .                       904.8 : Elevation
LMF .                          KB : Log Measured From
DMF .                          KB : Drill Measured From
APD .                             : Above Perm Datum
EKB .                       914.6 : Elev-Kelly Bushing.
EDF .                             : Elev-Drill Floor
EGL .                       904.8 : Elev-Ground Level
PROV.                     Alberta : PROVINCE
UWI .            100140206601W600 : UNIQUE WELL ID
SLAT.WGS84               54.68824 : SURFACE LATITUDE
SLON.WGS84              -118.0395 : SURFACE LONGITUDE
~Curve Information -----------------------------------------
DEPT    .M      : DEPTH METER
CAL1ED  .MM     : CALIPER 1 FROM DENSITY LOG
CAL2ED  .MM     : CALIPER 2 FROM DENSITY LOG
CALWS   .MM     : CALIPER [CAL1ED]
CONDWS  .MMHO   : CONDUCTIVITY [1000/DRESWS]
DCORWS  .KG/M3  : DENSITY CORRECTION [DRHOED]
DENWS   .KG/M3  : FORMATION BULK DENSITY [CALC FROM DPOLSWS, M=2710.F=1000]
DPHIDMED.V/V    : DENSITY POROSITY DOLOMITE [M=2850,F=1000] FROM DENSITY LOG
DPHILSED.V/V    : DENSITY POROSITY LIMESTONE [M=2710,F=1000] FROM DENSITY LOG
DPHISSED.V/V    : DENSITY POROSITY SANDSTONE [M=2650,F=1000] FROM DENSITY LOG
DPOLSWS .V/V    : DENSITY POROSITY LIMESTONE [DPHISSED CONVERTED TO LIMESTONE MATRIX, M=2710,F=1000 & SPL TO DPHILSED @ 2100.1M]
DRESWS  .OHMM   : DEEP RESISTIVITY [IDPHED]
DRHOED  .KG/M3  : DENSITY CORRECTION FROM DENSITY LOG
DTED    .US/M   : DELTA TIME FROM SONIC LOG
DTWS    .US/M   : COMPRESSIONAL  SONIC [DTED]
GRDED   .GAPI   : GAMMA RAY FROM DENSITY LOG
GRRED   .GAPI   : GAMMA RAY FROM RESISTIVITY LOG
GRWS    .GAPI   : GAMMA RAY [GRRED SPL. TO GRDED @3860M]
HDED    .MM     : HOLE DIAMETER FROM SONIC LOG
IDPHED  .OHMM   : DEEP INDUCTION PHASE RESISTIVITY FROM RESISTIVITY LOG
IMPHED  .OHMM   : MEDIUM INDUCTION PHASE RESISTIVITY FROM RESISTIVITY LOG
MRESWS  .OHMM   : MEDIUM RESISTIVITY [IMPHED]
NPHIDMED.V/V    : NEUTRON POROSITY DOLOMITE FROM DENSITY LOG
NPHILSED.V/V    : NEUTRON POROSITY LIMESTONE FROM DENSITY LOG
NPHISSED.V/V    : NEUTRON POROSITY SANDSTONE FROM DENSITY LOG
NPOLSWS .V/V    : NEUTRON POROSITY LIMESTONE [NPHISSED MATRIX CONVERSION FOR LIMESTONE, SPL. TO NPHILSED @ 2100.1M]
PEFED   .B/E    : PHOTOELECTRIC FACTOR FROM DENSITY LOG
PEFWS   .B/E    : PHOTOLELECTRIC FACTOR [PEFED]
RHOBED  .KG/M3  : BULK DENSITY FROM DENSITY LOG
TENDED  .N      : TENSION FROM DENSITY LOG
TENRED  .N      : TENSION FROM RESISTIVITY LOG
~Params ----------------------------------------------------
RUN .       2 : Run #
DATE.         : Date log was run
TDD .    3889 : Depth - Driller
TDL .    3886 : Depth - Logger
BLI .  3884.2 : Bottom Log Interval
TLI .  2600.0 : Top Log Interval
CBD .     452 : Casing - Driller
CBL .   452.5 : Casing - Logger
BS  .     222 : Bit Size
DFT .  INVERT : Type of Fluid In Hole
DFD .    1120 : Drilling Fluid Density
DFV .      60 : Drilling Fluid Viscosity
DFPH.         : Drilling Fluid pH
DFL .         : Drilling Fluid Loss
MSS .         : Source of Sample
RMS .         : Mud Resitivity
RMFS.         : Mud Filtrate Resistivity
RMCS.         : Mud Cake Resitivity
MFSS.         : Source of Rmf
MCSS.         : Source of Rmc
RMBH.         : Rm at BHT
MRT .      95 : Max Recorded Temperature
CLNT. A2DTECH : CLIENT CODE
~Other -----------------------------------------------------
PI-SFL-BCS LOG RAN IN COMBO & CNL-LDT LOG RAN
RHOB FROM SMALL SCALE SECTION
NEUTRON MATRIX CONVERSION USING SCHLUMBERGER CHART
~ASCII -----------------------------------------------------
# ...
 2800.00000  253.31150  231.84920  253.31150   92.14130  181.64970 2608.42600    0.11940    0.05940    -999.25    0.05940   10.85290  181.64970  193.16030  193.16030   59.15620   64.31590   64.31590  228.69270   10.85290   10.90450   10.90450    0.10100    0.11280    -999.25    0.11280    3.57750    3.57750 2608.42600 19512.84570 16409.06050
 2850.00000  254.78140  219.79820  254.78140   42.58530  260.32170 2599.36300    0.16020    0.06470    -999.25    0.06470   23.48230  260.32170  179.82160  179.82160   46.47750   42.93430   42.93430  238.72450   23.48230   18.85280   18.85280    0.06150    0.07940    -999.25    0.07940    4.55700    4.55700 2599.36300 19593.89650 16638.89260
 2900.00000  284.81320  222.56190  284.81320    1.19360  208.20780 2625.35500    0.13800    0.04950    -999.25    0.04950  837.79620  208.20780  166.05040  166.05040   13.50130   16.25500   16.25500  240.05350  837.79620  964.41330  964.41330    0.01580    0.02330    -999.25    0.02330    5.07990    5.07990 2625.35500 20004.27540 16816.40430
 2950.00000  224.69340  251.55780  224.69340  137.38910   -1.65000 2718.37900    0.07480   -0.00490    -999.25   -0.00490    7.27860   -1.65000  224.11310  224.11310  119.25440  114.16960  114.16960  230.86990    7.27860    7.15700    7.15700    0.18290    0.20780    -999.25    0.20780    3.60500    3.60500 2718.37900 20783.03120 16694.94530
 3000.00000  223.85220  242.00900  223.85220   40.16050    2.61320 2678.19400    0.09330    0.01860    -999.25    0.01860   24.90010    2.61320  188.16410  188.16410   50.93290   53.22300   53.22300  230.53060   24.90010   31.07540   31.07540    0.06210    0.07170    -999.25    0.07170    4.58770    4.58770 2678.19400 20011.07420 17203.80660
 3050.00000  222.27880  255.79390  222.27880   36.55960    3.59740 2679.39100    0.09120    0.01790    -999.25    0.01790   27.35260    3.59740  189.78410  189.78410   41.06500   41.78940   41.78940  228.34150   27.35260   29.08490   29.08490    0.05990    0.07010    -999.25    0.07010    4.33360    4.33360 2679.39100 20261.79300 17142.96680
 3100.00000  224.10440  232.10240  224.10440   77.12840   -5.16360 2683.32400    0.09010    0.01560    -999.25    0.01560   12.96540   -5.16360  209.58660  209.58660   71.05470   78.11620   78.11620  229.58440   12.96540   13.84950   13.84950    0.09310    0.10610    -999.25    0.10610    4.27740    4.27740 2683.32400 20389.21680 17195.87700
 3150.00000  215.68340  320.50890  215.68340    1.01870  -10.57390 2682.98200    0.08890    0.01580    -999.25    0.01580  981.61880  -10.57390  162.86310  162.86310   21.67690   19.76110   19.76110  251.08940  981.61880  881.54460  881.54460    0.00170    0.00730    -999.25    0.00730    5.29320    5.29320 2682.98200 21062.99410 17548.10740
 3200.00000  220.35400  313.02580  220.35400    0.64770   -3.00050 2715.13000    0.07300   -0.00300    -999.25   -0.00300 1543.87950   -3.00050  156.11910  156.11910   15.46910   19.45310   19.45310  235.95460 1543.87950 1317.65150 1317.65150    0.00040    0.00770    -999.25    0.00770    4.78850    4.78850 2715.13000 20455.89840 17742.10160
 3250.00000  219.72400  286.72180  219.72400    0.50000    0.44730 2698.03000    0.07970    0.00700    -999.25    0.00700 2000.00000    0.44730  159.66150  159.66150   14.62280   15.65390   15.65390  236.66750 2000.00000 2000.00000 2000.00000   -0.00260    0.00340    -999.25    0.00340    5.21530    5.21530 2698.03000 20768.66600 18088.46090
 3300.00000  221.12020  251.30600  221.12020    0.50000   -0.69280 2706.06700    0.08050    0.00230    -999.25    0.00230 2000.00000   -0.69280  158.30780  158.30780   17.43900   14.40360   14.40360  232.50140 2000.00000 2000.00000 2000.00000   -0.00460    0.00170    -999.25    0.00170    5.75450    5.75450 2706.06700 20958.58200 18193.92190
 3350.00000  216.24620  328.31910  216.24620    0.55380   13.42780 2665.88200    0.10690    0.02580    -999.25    0.02580 1805.55070   13.42780  163.93450  163.93450   17.45370   15.66820   15.66820  239.02980 1805.55070 1336.44480 1336.44480    0.00310    0.00810    -999.25    0.00810    5.44300    5.44300 2665.88200 20386.53320 17554.40620
 3400.00000  221.34400  253.30210  221.34400    2.67220   -2.65840 2712.05200    0.07550   -0.00120    -999.25   -0.00120  374.22390   -2.65840  165.04220  165.04220   34.60000   36.60610   36.60610  231.79810  374.22390  430.74870  430.74870    0.02020    0.02620    -999.25    0.02620    4.55600    4.55600 2712.05200 20829.76760 17826.70700
 3450.00000  221.89150  290.14580  221.89150    0.51530    6.76630 2736.84700    0.06800   -0.01570    -999.25   -0.01570 1940.60290    6.76630  162.79040  162.79040   27.39620   31.52780   31.52780  226.63130 1940.60290 1460.41940 1460.41940   -0.00060    0.00520    -999.25    0.00520    4.89700    4.89700 2736.84700 21123.03320 17924.25590
 3500.00000  221.02140  232.56660  221.02140    2.63010   -3.59970 2663.14600    0.10260    0.02740    -999.25    0.02740  380.21770   -3.59970  176.18900  176.18900   37.54240   35.20040   35.20040  234.00870  380.21770  418.47180  418.47180    0.03180    0.03970    -999.25    0.03970    5.36370    5.36370 2663.14600 21284.32230 18150.73050
 3550.00000  231.64930  239.31280  231.64930  193.59580   44.17530 2592.01000    0.14530    0.06900    -999.25    0.06900    5.16540   44.17530  282.38180  282.38180  122.42900  113.07940  113.07940  238.92600    5.16540    5.06340    5.06340    0.23700    0.26730    -999.25    0.26730    3.56810    3.56810 2592.01000 21663.16020 18091.30860
 3600.00000  231.96390  227.13450  231.96390  156.15480   60.86470 2627.57800    0.12330    0.04820    -999.25    0.04820    6.40390   60.86470  279.99790  279.99790  115.20970  116.69100  116.69100  230.01980    6.40390    8.35910    8.35910    0.22590    0.25660    -999.25    0.25660    3.90530    3.90530 2627.57800 21778.08200 18344.60160
 3650.00000  220.58050  224.08480  220.58050  198.64130   -7.56540 2705.55400    0.07990    0.00260    -999.25    0.00260    5.03420   -7.56540  230.25500  230.25500   86.12570   92.56870   92.56870  215.78490    5.03420    5.30900    5.30900    0.15100    0.17120    -999.25    0.17120    4.21980    4.21980 2705.55400 22559.91410 18489.20900
 3700.00000  219.89240  223.68640  219.89240  172.93260   -2.92950 2690.67700    0.08050    0.01130    -999.25    0.01130    5.78260   -2.92950  223.91980  223.91980   83.64530   85.80950   85.80950  220.40930    5.78260    6.09090    6.09090    0.13800    0.15640    -999.25    0.15640    4.19390    4.19390 2690.67700 22306.61130 18870.97850
 3750.00000  221.16120  224.09560  221.16120   90.57810    9.27530 2621.59300    0.12700    0.05170    -999.25    0.05170   11.04020    9.27530  272.45790  272.45790  126.62330  126.04080  126.04080  224.80110   11.04020   10.69990   10.69990    0.19790    0.22120    -999.25    0.22120    3.84600    3.84600 2621.59300 22534.35740 19033.28520
 3800.00000  219.46730  225.91820  219.46730    6.00090    3.30470 2711.53900    0.08030   -0.00090    -999.25   -0.00090  166.64260    3.30470  163.12050  163.12050   27.38190   28.03590   28.03590  232.36350  166.64260  175.43350  175.43350    0.01750    0.02820    -999.25    0.02820    4.84940    4.84940 2711.53900 22118.54880 19173.54690
 3850.00000  214.74310  218.88320  214.74310   58.32260  109.98080 2723.68000    0.05810   -0.00800    -999.25   -0.00800   17.14600  109.98080  160.96050  160.96050   17.89440   19.26940   19.26940  219.50310   17.14600   17.72970   17.72970    0.10570    0.11870    -999.25    0.11870    3.72680    3.72680 2723.68000 23217.87500 19461.03910
