~Version ---------------------------------------------------
VERS.      2.0 : CWLS log ASCII Standard -VERSION 2.0
WRAP.       NO : One line per depth step
CREA. 11/16/17 : LAS Creation Date
~Well ------------------------------------------------------
STRT.FT                        1250.0 : START DEPTH
STOP.FT                       12550.0 : STOP DEPTH
STEP.FT                      50.00000 : STEP LENGTH
NULL.                         -999.25 : NULL VALUE
COMP.     ANADARKO CANADA CORPORATION : COMPANY
WELL. GPD NOEL AMOCO GOLD CK 5-8-69-5 : WELL
FLD .                              WC : FIELD
LOC .                                 : LOCATION
CTRY.                          CANADA : COUNTRY
SRVC.                    Schlumberger : SERVICE COMPANY
DATE.                     03-Nov-1970 : LOGDATE
PROV.                         Alberta : PROVINCE
UWI .                100050806905W600 : UNIQUE WELL ID
SLAT.WGS84                    54.9586 : SURFACE LATITUDE
SLON.WGS84                  -118.7315 : SURFACE LONGITUDE
~Curve Information -----------------------------------------
DEPT  .FT    : Depth Curve
CALSED.IN    : CALIPER FROM SONIC LOG
CALWS .IN    : CALIPER [CALSED]
CILDED.MMHO  : DEEP CONDUCTIVITY INDUCTION FROM RESISTIVITY LOG
CONDWS.MMHO  : CONDUCTIVITY [1000/DRESWS]
DRESWS.OHMM  : DEEP RESISTIVITY [1000/CILDED, IF ILDED <1, ILDED]
DTED  .US/F  : ACOUSTIC TRANSIT TIME SLOWNESS, DELTA T FROM SONIC LOG [ADJ. TO RESISTIVITY LOG]
DTWS  .US/F  : COMPRESSIONAL SONIC [ DTED]
GRSED .GAPI  : GAMMA RAY FROM SONIC LOG [ADJ. TO RESISTIVITY LOG]
GRWS  .GAPI  : GAMMA RAY [GRSED]
ILDED .OHMM  : DEEP INDUCTION RESISTIVITY FROM RESISTIVITY LOG
ILMED .OHMM  : MEDIUM INDUCTION RESISTIVITY FROM RESISTIVITY LOG
LL8ED .OHMM  : LATEROLOG-8 RESISTIVITY FROM RESISTIVITY LOG
MCALED.IN    : MLT [MICROLOG] CALIPER FROM MINILOG
MRESWS.OHMM  : MEDIUM RESISTIVITY [ILMED]
SPRED .MV    : SPONTANEOUS POTENTIAL FROM RESISTIVITY LOG
SPWS  .MV    : SPONTANEOUS POTENTIAL [BASELINE 0 MV, SPRED]
SRESWS.OHMM  : SHALLOW RESISTIVITY [LL8ED]
~Params ----------------------------------------------------
PD  .                     GL : PERMANENT DATUM
EPD .FT                 2152 : ELEVATION PERMANENT DATUM
LMF .                     KB : LOG MEASURED FROM
DAPD.FT                   14 : FEET ABOVE PERMANENT DATUM
EKB .FT                 2166 : KELLY BUSHING
EGL .FT                 2152 : GROUND LEVEL
DATE.               11/04/70 : RUN DATE
RUN .                      1 : RUN NUMBER
DD  .FT                 1319 : DEPTH DRILLER
DL  .FT                 1318 : DEPTH LOGGER
BLI .FT                12587 : BOTTOM LOG INTERVAL
TLI .FT                 1318 : TOP LOG INTERVAL
CBD .FT                12601 : CASING BOTTOM DRILLER
CBL .FT                12594 : CASING BOTTOM LOGGER
BS  .IN                 8.75 : BIT SIZE
BSD .FT                 1319 : BIT SIZE AT DEPTH
DFT .            MAGOBAR GEL : DRILLING FLUID TYPE
DFD .                   11.1 : DRILLING FLUID DENSITY
DFV .                    435 : DRILLING FLUID VISCOSITY
DFPH.                     11 : DRILLING FLUID PH
DFL .                    6.6 : DRILLING FLUID LOSS
MSS .               FLOWLINE : MUD SAMPLE SOURCE
TCS .HRS                 4.5 : TIME CIRCULATED STOPPED
LUN .                   3702 : LOGGING UNIT NUMBER
LUL .                     DC : LOGGING UNIT LOCATION
ENGI.                 SEAMAN : RECORDING ENGINEER
WITN.               SIMMONDS : WITNESSED BY
CLNT.                A2DTECH : CLIENT CODE
ORIG.            2" 5" PRINT : ORIGIN OF DATA
UWI .       100050806905W600 : UNIQUE WELL ID
DICO. A2D Technologies, Inc. : DIGITIZING COMPANY
~Other -----------------------------------------------------
~ASCII -----------------------------------------------------
# ...
 3300.00000   11.66500   11.66500    -999.25   89.49190   11.17420   88.87030   88.87030   77.06380   77.06380   11.17420   10.24750   12.90000    -999.25   10.24750 -225.44430   -7.56860   12.90000
 3350.00000   11.95750   11.95750    -999.25   90.12180   11.09610   89.88040   89.88040   73.24230   73.24230   11.09610   10.22550   12.18700    -999.25   10.22550 -227.12460   -9.35860   12.18700
 3400.00000   11.55450   11.55450    -999.25   71.15920   14.05300   81.05420   81.05420   64.16980   64.16980   14.05300   12.71990   15.01530    -999.25   12.71990 -226.63830   -8.98190   15.01530
 3450.00000   11.70640   11.70640    -999.25   96.91050   10.31880   93.22650   93.22650   81.49840   81.49840   10.31880    9.71850   11.28280    -999.25    9.71850 -225.17810   -7.63130   11.28280
 3500.00000   11.53470   11.53470    -999.25   78.04820   12.81260   92.54230   92.54230   81.39450   81.39450   12.81260   11.30890   15.38000    -999.25   11.30890 -225.81430   -8.37720   15.38000
 3550.00000   11.85320   11.85320    -999.25   73.38260   13.62720   81.94620   81.94620   64.51680   64.51680   13.62720   13.18370   14.28110    -999.25   13.18370 -225.19590   -7.86840   14.28110
 3600.00000   12.11130   12.11130    -999.25   74.18340   13.48010   86.94730   86.94730   79.06040   79.06040   13.48010   12.88030   15.79610    -999.25   12.88030 -225.24130   -8.02340   15.79610
 3650.00000   11.27660   11.27660    -999.25   57.06330   17.52440  101.28370  101.28370  111.25480  111.25480   17.52440   16.68960   26.47460    -999.25   16.68960 -224.39770   -7.28950   26.47460
 3700.00000   12.52060   12.52060    -999.25   81.18860   12.31700   81.26130   81.26130   68.10330   68.10330   12.31700   11.75570   11.28300    -999.25   11.75570 -225.13610   -8.13750   11.28300
 3750.00000   12.42160   12.42160    -999.25   74.29420   13.46000   82.76320   82.76320   74.33770   74.33770   13.46000   12.98460   14.06500    -999.25   12.98460 -224.26080   -7.37180   14.06500
 3800.00000   12.78710   12.78710    -999.25   88.74220   11.26860   84.82370   84.82370   68.79810   68.79810   11.26860   10.73830   10.47590    -999.25   10.73830 -223.86310   -7.08380   10.47590
 3850.00000   12.16560   12.16560    -999.25   62.15430   16.08900   71.64500   71.64500   59.72580   59.72580   16.08900   13.54670   14.77210    -999.25   13.54670 -223.41080   -6.74110   14.77210
 3900.00000   12.85780   12.85780    -999.25  104.62220    9.55820   82.77410   82.77410   61.86620   61.86620    9.55820    9.02590   10.19980    -999.25    9.02590 -222.34420   -5.78410   10.19980
 3950.00000   11.77670   11.77670    -999.25  117.05350    8.54310   82.45430   82.45430   73.45320   73.45320    8.54310    8.05690    9.87320    -999.25    8.05690 -224.03470   -7.59450    9.87320
 4000.00000   11.79210   11.79210    -999.25   71.58960   13.96850   77.77420   77.77420   64.34250   64.34250   13.96850   12.26860   14.76230    -999.25   12.26860 -223.77970   -7.70400   14.76230
 4050.00000   11.41670   11.41670    -999.25   56.31520   17.75720   76.13150   76.13150   53.34930   53.34930   17.75720   15.65520   19.48130    -999.25   15.65520 -231.28190  -15.57080   19.48130
 4100.00000   11.81190   11.81190    -999.25   62.93740   15.88880   77.51720   77.51720   73.39690   73.39690   15.88880   13.75730   18.71210    -999.25   13.75730 -223.97070   -8.62410   18.71210
 4150.00000   11.84870   11.84870    -999.25  130.06440    7.68850   86.12940   86.12940   82.26610   82.26610    7.68850    7.02120    8.35650    -999.25    7.02120 -219.13940   -4.15740    8.35650
 4200.00000   11.68350   11.68350    -999.25   90.22180   11.08380   78.90200   78.90200   75.00190   75.00190   11.08380   10.00940   11.10160    -999.25   10.00940 -218.88270   -4.26520   11.10160
 4250.00000   12.00020   12.00020    -999.25  102.10120    9.79420   82.68230   82.68230   83.84290   83.84290    9.79420    8.87290   10.84790    -999.25    8.87290 -219.06690   -4.81390   10.84790
 4300.00000   11.43380   11.43380    -999.25   50.07160   19.97140   73.63420   73.63420   52.52120   52.52120   19.97140   17.73810   20.72660    -999.25   17.73810 -230.90990  -17.02150   20.72660
 4350.00000   11.41100   11.41100    -999.25   54.31830   18.41000   69.61490   69.61490   64.21380   64.21380   18.41000   15.59220   17.81880    -999.25   15.59220 -217.00410   -3.48020   17.81880
 4400.00000   11.49280   11.49280    -999.25  102.76960    9.73050   80.35450   80.35450   81.16500   81.16500    9.73050    9.04770   11.16510    -999.25    9.04770 -215.24440   -2.08510   11.16510
 4450.00000   12.22120   12.22120    -999.25  123.25900    8.11300   86.43430   86.43430   73.19970   73.19970    8.11300    7.73700    8.88890    -999.25    7.73700 -214.51480   -1.72000    8.88890
 4500.00000   13.54920   13.54920    -999.25  180.84490    5.52960   94.06190   94.06190   69.73970   69.73970    5.52960    5.07200    6.18580    -999.25    5.07200 -212.67310   -0.24290    6.18580
 4550.00000   14.14050   14.14050    -999.25  156.46760    6.39110   93.60020   93.60020   63.98170   63.98170    6.39110    6.03630    7.08520    -999.25    6.03630 -212.29640   -0.23070    7.08520
 4600.00000   13.26540   13.26540    -999.25  161.44130    6.19420   93.37700   93.37700   69.58430   69.58430    6.19420    5.70930    6.69120    -999.25    5.70930 -211.86880   -0.16770    6.69120
 4650.00000   14.12170   14.12170    -999.25  222.46940    4.49500   93.59570   93.59570   59.79840   59.79840    4.49500    4.13640    5.01720    -999.25    4.13640 -212.06680   -0.73020    5.01720
 4700.00000   13.79190   13.79190    -999.25  163.30260    6.12360   84.13710   84.13710   56.27370   56.27370    6.12360    5.67840    6.71270    -999.25    5.67840 -211.65670   -0.68460    6.71270
 4750.00000   14.98640   14.98640    -999.25  254.25880    3.93300   99.50410   99.50410   55.51190   55.51190    3.93300    3.48440    4.67430    -999.25    3.48440 -211.08090   -0.47340    4.67430
 4800.00000   13.11990   13.11990    -999.25  157.14620    6.36350   81.61540   81.61540   63.59000   63.59000    6.36350    5.87570    7.06770    -999.25    5.87570 -211.21170   -0.96870    7.06770
 4850.00000   12.35950   12.35950    -999.25  100.09810    9.99020   82.94030   82.94030   71.80260   71.80260    9.99020    9.63880   11.03600    -999.25    9.63880 -210.94180   -1.06340   11.03600
 4900.00000   12.65530   12.65530    -999.25  142.15650    7.03450   93.96500   93.96500   60.80250   60.80250    7.03450    6.56090    8.39280    -999.25    6.56090 -210.56570   -1.05180    8.39280
 4950.00000   12.27000   12.27000    -999.25   75.95090   13.16640   82.72330   82.72330   82.95040   82.95040   13.16640   11.13470   14.89940    -999.25   11.13470 -210.40180   -1.25250   14.89940
 5000.00000   12.01180   12.01180    -999.25   98.20580   10.18270   84.37930   84.37930   87.89240   87.89240   10.18270    7.99500   12.63330    -999.25    7.99500 -211.58080   -2.79600   12.63330
 5050.00000   11.45340   11.45340    -999.25   52.69230   18.97810   70.68290   70.68290   23.91830   23.91830   18.97810   16.74850   22.73380    -999.25   16.74850 -256.73270  -49.10020   22.73380
 5100.00000   12.16690   12.16690    -999.25   75.38180   13.26580   73.16360   73.16360   68.49820   68.49820   13.26580   11.91570   14.11940    -999.25   11.91570 -210.90710   -4.42680   14.11940
 5150.00000   11.90480   11.90480    -999.25   70.72790   14.13870   74.50010   74.50010   84.46170   84.46170   14.13870   13.23050   15.83840    -999.25   13.23050 -209.51760   -4.18960   15.83840
 5200.00000   11.76680   11.76680    -999.25   63.72020   15.69360   74.09400   74.09400   58.88220   58.88220   15.69360   14.59230   15.78960    -999.25   14.59230 -210.95810   -6.78230   15.78960
 5250.00000   11.63400   11.63400    -999.25   58.60700   17.06280   62.64110   62.64110   57.42710   57.42710   17.06280   16.01270   20.30280    -999.25   16.01270 -212.82150   -9.79800   20.30280
 5300.00000   11.62520   11.62520    -999.25   40.27810   24.82740   71.29550   71.29550   65.42530   65.42530   24.82740   19.16340   25.84520    -999.25   19.16340 -218.29600  -16.42480   25.84520
