~Version ---------------------------------------------------
VERS.      2.0 : CWLS log ASCII Standard -VERSION 2.0
WRAP.       NO : One line per depth step
CREA. 11/20/17 : LAS Creation Date
~Well ------------------------------------------------------
STRT.FT                          1000.0 : START DEPTH
STOP.FT                         10550.0 : STOP DEPTH
STEP.FT                        50.00000 : STEP LENGTH
NULL.                           -999.25 : NULL VALUE
COMP.                  LL&E  CANADA LTD : COMPANY
WELL. LL&E ET AL SAKWATAMAU 10-22-61-14 : WELL
FLD .                                   : FIELD
LOC .                                   : LOCATION
CTRY.                            CANADA : COUNTRY
SRVC.                      Schlumberger : SERVICE COMPANY
DATE.                       05-Jan-1969 : LOGDATE
PROV.                           Alberta : PROVINCE
UWI .                  100102206114W500 : UNIQUE WELL ID
SLAT.WGS84                     54.29276 : SURFACE LATITUDE
SLON.WGS84                    -116.0087 : SURFACE LONGITUDE
~Curve Information -----------------------------------------
DEPT   .FT    : Depth Curve
CALDED .IN    : CALIPER FROM DENSITY LOG
CALSED .IN    : CALIPER FROM SONIC LOG
CALWS  .IN    : CALIPER [CALSED]
CILDED .MMHO  : CONDUCTIVITY FROM RESISTIVITY LOG
CONDWS .MMHO  : CONDUCTIVITY [1000/DRESWS]
DCORED .G/C3  : DENSITY CORRECTION FROM DENSITY LOG
DCORWS .G/C3  : DENSITY CORRECTION [DCORED]
DENWS  .G/C3  : FORMATION BULK DENSITY [RHOBED]
DPOLSWS.V/V   : DENSITY POROSITY LIMESTONE [CALC. FROM DENWS M=2.71, F=1.00 ASSUMED]
DRESWS .OHMM  : DEEP RESISTIVITY [ILDED]
DTED   .US/F  : DELTA TIME FROM SONIC LOG
DTWS   .US/F  : COMPRESSIONAL SONIC [DTED]
GRSED  .GAPI  : GAMMA RAY FROM SONIC LOG
GRWS   .GAPI  : GAMMA RAY [GRSED]
ILDED  .OHMM  : DEEP  INDUCTIONRESISTIVITY FROM RESISTIVITY LOG
RHOBED .G/C3  : BULK DENSITY FROM DENSITY LOG
SNED   .OHMM  : SHORT NORMAL RESISTIVITY FROM RESISTIVITY LOG
SPRED  .MV    : SPONTANEOUS POTENTIAL FROM RESISTIVITY LOG
SPWS   .MV    : SPONTANEOUS POTENTIAL [BASELINE 0 MV, SPRED]
SRESWS .OHMM  : SHALLOW RESISTIVITY [SNED]
~Params ----------------------------------------------------
PD  .                     GL : PERMANENT DATUM
EPD .FT              3084.84 : ELEVATION PERMANENT DATUM
LMF .                     KB : LOG MEASURED FROM
DAPD.FT                16.05 : FEET ABOVE PERMANENT DATUM
EKB .FT              3100.89 : KELLY BUSHING
EGL .FT              3084.84 : GROUND LEVEL
DATE.               01/05/69 : RUN DATE
RUN .                      1 : RUN NUMBER
DD  .FT                10596 : DEPTH DRILLER
DL  .FT                10595 : DEPTH LOGGER
BLI .FT                10594 : BOTTOM LOG INTERVAL
TLI .FT                 1003 : TOP LOG INTERVAL
CBD .FT                 1003 : CASING BOTTOM DRILLER
CBL .FT                 1003 : CASING BOTTOM LOGGER
BS  .IN                 8.75 : BIT SIZE
BSD .FT                10596 : BIT SIZE AT DEPTH
DFT .                    GEL : DRILLING FLUID TYPE
DFD .                    9.7 : DRILLING FLUID DENSITY
DFV .                     97 : DRILLING FLUID VISCOSITY
DFPH.                     11 : DRILLING FLUID PH
DFL .                    6.6 : DRILLING FLUID LOSS
RMS .OHMM               2.32 : RESISTIVITY MUD SAMPLE
MST .DEGF                 60 : MUD SAMPLE TEMPERATURE
RMF .OHMM                1.7 : RESISTIVITY MUD FILTRATE SAMPLE
MFST.DEGF                 64 : MUD FILTRATE SAMPLE TEMPERATURE
RMC .OHMM               2.51 : RESISTIVITY MUD CAKE
MCST.DEGF                 62 : MUD CAKE SAMPLE TEMPERATURE
TCS .HRS                   5 : TIME CIRCULATED STOPPED
LUN .                   7501 : LOGGING UNIT NUMBER
LUL .                    EDM : LOGGING UNIT LOCATION
ENGI.               STUEHMER : RECORDING ENGINEER
WITN.               LEVEILLE : WITNESSED BY
CLNT.                A2DTECH : CLIENT CODE
ORIG.            2" 5" PRINT : ORIGIN OF DATA
UWI .       100102206114W500 : UNIQUE WELL ID
DICO. A2D Technologies, Inc. : DIGITIZING COMPANY
~Other -----------------------------------------------------
IEL-FDC-BHC LOG RUN
~ASCII -----------------------------------------------------
# ...
 8000.00000    -999.25    9.36760    9.36760    9.05570    8.69180    -999.25    -999.25    -999.25    -999.25  115.05080   52.24490   52.24490   28.23430   28.23430  115.05080    -999.25   98.83560  -30.32080   -3.29540   98.83560
 8050.00000    -999.25    9.53870    9.53870   16.75600   17.37850    -999.25    -999.25    -999.25    -999.25   57.54240   53.42990   53.42990   34.36810   34.36810   57.54240    -999.25   62.15640  -27.47100   -0.61270   62.15640
 8100.00000    -999.25    9.07930    9.07930   35.32460   36.50790    -999.25    -999.25    -999.25    -999.25   27.39130   56.11030   56.11030   34.57080   34.57080   27.39130    -999.25   36.74520  -27.51050   -1.04290   36.74520
 8150.00000    -999.25    9.91730    9.91730   93.26240   93.80780    -999.25    -999.25    -999.25    -999.25   10.66010   63.42630   63.42630   54.62150   54.62150   10.66010    -999.25   15.49870  -27.09360   -1.01680   15.49870
 8200.00000    -999.25    9.45920    9.45920   92.12460   93.87680    -999.25    -999.25    -999.25    -999.25   10.65360   62.55740   62.55740   46.58420   46.58420   10.65360    -999.25   15.81630  -27.49800   -1.81390   15.81630
 8250.00000    -999.25   10.09260   10.09260  146.07590  148.37680    -999.25    -999.25    -999.25    -999.25    6.73960   67.65970   67.65970   60.18840   60.18840    6.73960    -999.25   10.71570  -28.75820   -3.46290   10.71570
 8300.00000    -999.25    9.38830    9.38830  119.90290  122.34960    -999.25    -999.25    -999.25    -999.25    8.17330   66.05660   66.05660   63.03000   63.03000    8.17330    -999.25   12.79900  -27.36830   -2.46380   12.79900
 8350.00000    -999.25   14.81960   14.81960  246.87630  275.96100    -999.25    -999.25    -999.25    -999.25    3.62370   84.88710   84.88710   72.75500   72.75500    3.62370    -999.25    5.37810  -33.99160   -9.47780    5.37810
 8400.00000    -999.25    9.18440    9.18440   94.97750   94.70150    -999.25    -999.25    -999.25    -999.25   10.55950   67.62490   67.62490   76.32670   76.32670   10.55950    -999.25   17.27670  -30.94990   -6.82690   17.27670
 8450.00000    -999.25   10.61880   10.61880  138.52420  142.75700    -999.25    -999.25    -999.25    -999.25    7.00660   71.80500   71.80500   65.20510   65.20510    7.00660    -999.25   12.52540  -30.75100   -7.02080   12.52540
 8500.00000    -999.25   14.59410   14.59410  206.07780  215.69390    -999.25    -999.25    -999.25    -999.25    4.63620   78.72420   78.72420   70.77710   70.77710    4.63620    -999.25    6.82600  -35.74580  -12.40430    6.82600
 8550.00000    -999.25   14.82090   14.82090  208.16530  218.53150    -999.25    -999.25    -999.25    -999.25    4.57600   80.80420   80.80420   65.51250   65.51250    4.57600    -999.25    6.64350  -31.72460   -8.77390    6.64350
 8600.00000    -999.25   10.41680   10.41680   73.02670   73.94100    -999.25    -999.25    -999.25    -999.25   13.52430   76.74020   76.74020   75.95430   75.95430   13.52430    -999.25   19.26410  -29.06630   -6.50630   19.26410
 8650.00000    -999.25   10.68280   10.68280  140.90560  143.70290    -999.25    -999.25    -999.25    -999.25    6.95880   71.18100   71.18100   76.40500   76.40500    6.95880    -999.25   10.75480  -34.93830  -12.76910   10.75480
 8700.00000    -999.25    9.59480    9.59480  117.61460  119.59110    -999.25    -999.25    -999.25    -999.25    8.36220   69.44570   69.44570   75.42170   75.42170    8.36220    -999.25   13.29710  -29.98250   -8.20590   13.29710
 8750.00000    -999.25    9.72780    9.72780  180.42710  184.41680    -999.25    -999.25    -999.25    -999.25    5.42250   74.57590   74.57590   81.58020   81.58020    5.42250    -999.25    9.55230  -35.59120  -14.20350    9.55230
 8800.00000    -999.25   12.53060   12.53060  170.59250  173.53880    -999.25    -999.25    -999.25    -999.25    5.76240   74.61570   74.61570   79.09670   79.09670    5.76240    -999.25    8.86670  -38.19960  -17.20270    8.86670
 8850.00000    -999.25   13.70400   13.70400  175.63980  174.87100    -999.25    -999.25    -999.25    -999.25    5.71850   80.21200   80.21200   88.22350   88.22350    5.71850    -999.25    8.17180  -36.56110  -15.95490    8.17180
 8900.00000    -999.25   12.76240   12.76240  170.80820  173.93720    -999.25    -999.25    -999.25    -999.25    5.74920   75.18100   75.18100   77.17320   77.17320    5.74920    -999.25    8.08640  -36.59030  -16.37490    8.08640
 8950.00000    -999.25   10.13150   10.13150  135.48930  135.66960    -999.25    -999.25    -999.25    -999.25    7.37090   72.96510   72.96510   80.14920   80.14920    7.37090    -999.25   10.16800  -32.82380  -13.00100   10.16800
 9000.00000   13.59970   14.15470   14.15470  176.10070  179.05420    0.15610    0.15610    2.06770    0.37560    5.58490   82.63110   82.63110   90.82770   90.82770    5.58490    2.06770    7.98080  -40.67340  -21.23950    7.98080
 9050.00000   10.28600    9.93280    9.93280   71.58260   72.19170    0.02200    0.02200    2.56340    0.08570   13.85200   80.00480   80.00480  119.75140  119.75140   13.85200    2.56340   19.77940  -25.49910   -6.45590   19.77940
 9100.00000    9.72640    9.47260    9.47260   41.93930   42.26060    0.05230    0.05230    2.60780    0.05980   23.66270   57.70750   57.70750   41.28130   41.28130   23.66270    2.60780   36.05310  -26.94420   -9.00470   36.05310
 9150.00000   10.30910    9.79550    9.79550   25.82080   26.44980    0.01920    0.01920    2.60440    0.06180   37.80750   64.58180   64.58180   59.13790   59.13790   37.80750    2.60440   51.57370  -20.17470   -4.92570   51.57370
 9200.00000    9.95010    9.36080    9.36080    8.40760    7.33910    0.02790    0.02790    2.58080    0.07560  136.56660   56.73030   56.73030   47.54680   47.54680  136.56660    2.58080   96.19070  -18.97950   -6.43430   96.19070
 9250.00000   11.20820   10.45360   10.45360    8.98090    7.30950    0.09530    0.09530    2.33420    0.21980  136.80910   50.77260   50.77260   13.97920   13.97920  136.80910    2.33420   96.12420  -88.14060  -75.81100   96.12420
 9300.00000   11.01590   10.75530   10.75530    8.05370    7.39140    0.07250    0.07250    2.39710    0.18300  135.29260   50.45900   50.45900   17.07250   17.07250  135.29260    2.39710  105.68230 -116.44580 -102.52440  105.68230
 9350.00000   11.06720   11.15320   11.15320   15.68870   15.15670    0.06970    0.06970    2.55260    0.09200   65.97740   50.18710   50.18710   14.00350   14.00350   65.97740    2.55260   96.30850 -169.58150 -154.06840   96.30850
 9400.00000   10.59790   10.21560   10.21560   35.41610   35.37380    0.03360    0.03360    2.54780    0.09490   28.26950   51.31540   51.31540   17.37660   17.37660   28.26950    2.54780   77.48040 -204.68150 -187.57660   77.48040
 9450.00000    9.84600    9.21040    9.21040   18.84750   19.52480    0.02170    0.02170    2.68620    0.01390   51.21700   49.78360   49.78360   13.53670   13.53670   51.21700    2.68620   86.76070 -136.64090 -117.93630   86.76070
 9500.00000    9.77010    9.11630    9.11630   17.49660   16.48150    0.02060    0.02060    2.66890    0.02400   60.67410   49.20180   49.20180   11.34380   11.34380   60.67410    2.66890  115.21460 -134.28720 -113.99880  115.21460
 9550.00000   12.70250   10.76790   10.76790    0.92000    1.64420    0.18680    0.18680    2.29400    0.24330  608.21550   50.56940   50.56940   19.83210   19.83210  608.21550    2.29400  221.82980 -109.97900  -88.09880  221.82980
 9600.00000   10.00890    9.12140    9.12140    2.55550    2.13810    0.03810    0.03810    2.59050    0.06990  467.70030   49.70550   49.70550   21.23960   21.23960  467.70030    2.59050  184.16580  -81.06480  -57.59280  184.16580
 9650.00000    7.51040    7.98980    7.98980  112.78780  113.58090    0.15050    0.15050    2.35330    0.20860    8.80430   66.56690   66.56690  127.32300  127.32300    8.80430    2.35330   45.48130 -102.50590  -77.89320   45.48130
 9700.00000    9.15910    8.98770    8.98770   53.24300   53.07710    0.02320    0.02320    2.69930    0.00620   18.84150   59.04650   59.04650   73.67730   73.67730   18.84150    2.69930   27.52880  -51.08330  -26.36220   27.52880
