~Version ---------------------------------------------------
VERS.      2.0 : CWLS log ASCII Standard -VERSION 2.0
WRAP.       NO : One line per depth step
CREA. 11/15/17 : LAS Creation Date
~Well ------------------------------------------------------
STRT.FT                            1100.0 : START DEPTH
STOP.FT                           11050.0 : STOP DEPTH
STEP.FT                          50.00000 : STEP LENGTH
NULL.                             -999.25 : NULL VALUE
COMP.        CANADIAN HOMESTEAD OILS LTD. : COMPANY
WELL. HOMESTEAD ET AL ROSEVEAR 9-34-53-15 : WELL
FLD .                                     : FIELD
LOC .                                     : LOCATION
CTRY.                              CANADA : COUNTRY
SRVC.              Schlumberger of Canada : SERVICE COMPANY
DATE.                         06-May-1975 : LOGDATE
PROV.                             Alberta : PROVINCE
UWI .                    100093405315W500 : UNIQUE WELL ID
SLAT.WGS84                       53.62182 : SURFACE LATITUDE
SLON.WGS84                      -116.1151 : SURFACE LONGITUDE
~Curve Information -----------------------------------------
DEPT    .FT    : Depth Curve
CALDED  .IN    : CALIPER FROM CND LOG[DSH TO GRSED/ILDED]
CALSED  .IN    : CALIPER FROM SONIC LOG
CALWS   .IN    : CALIPER [CALSED]
CONDWS  .MMHO  : CONDUCTIVITY [1000/DRESWS]
DCORED  .G/C3  : DENSITY CORRECTION FROM CND LOG[DSH TO GRSED/ILDED]
DCORWS  .G/C3  : DENSITY CORRECTION DCORED]
DENWS   .G/C3  : BULK FORMATION DENSITY[RHOBED]
DPHILSED.V/V   : DENSITY POROSITY LIMESTONE[M=2.71, F=1.00]FROM CND LOG[DSH TO GRSED/ILDED]
DPHISSED.V/V   : DENSITY POROSITY SANDSTONE[M=2.65, F=1.00]FROM CND LOG[DSH TO GRSED/ILDED]
DPOLSWS .V/V   : DENSITY POROSITY LIMESTONE[M=2.71, F=1.00][CALCULATED FROM DENWS]
DRESWS  .OHMM  : DEEP RESISTIVITY [ILDED]
DTED    .US/F  : ACOUSTIC TRANSIT TIME SLOWNESS, DELTA T
DTWS    .US/F  : ACOUSTIC TRANSIT TIME SLOWNESS[DTED]
GRDED   .GAPI  : GAMMA RAY FROM DENSITY LOG[DSH TO GRSED/ILDED]
GRSED   .GAPI  : GAMMA RAY FROM SONIC LOG
GRWS    .GAPI  : GAMMA RAY [GRSED]
ILDED   .OHMM  : INDUCTION LOG DEEP RESISTIVITY
ILMED   .OHMM  : INDUCTION LOG MEDIUM RESISTIVITY
LL8ED   .OHMM  : 8 INCH LATEROLOG RESISTIVITY
MRESWS  .OHMM  : MEDIUM RESISTIVITY [ILMED]
NPHILSED.V/V   : NEUTRON POROSITY LIMESTONE FROM CND LOG[DSH TO GRSED/ILDED]
NPHISSED.V/V   : NEUTRON POROSITY SANDSTONE FROM CND LOG[DSH TO GRSED/ILDED]
NPOLSWS .V/V   : NEUTRON POROSITY LIMESTONE[ NPHSSED CONVERTED TO LIMESTONE AND SPLICED TO NPHILSED AT 7521']
RHOBED  .G/C3  : BULK FORMATION DENSITY FROM CND LOG[DSH TO GRSED/ILDED]
SPHIED  .V/V   : SONIC POROSITY [DTM=55.6, DF=189<7520' and 47.6 DF=189>7520']FROM SONIC LOG
SPOWS   .V/V   : SONIC POROSITY [SPHIED]
SPRED   .MV    : SPONTANEOUS POTENTIAL FROM RESISTIVITY LOG
SPWS    .MV    : SPONTANEOUS POTENTIAL [BASELINE 0 MV] [SPRED]
SRESWS  .OHMM  : SHALLOW RESISTIVITY [LL8ED]
~Params ----------------------------------------------------
PD  .                     GL : PERMANENT DATUM
EPD .FT               2932.7 : ELEVATION PERMANENT DATUM
LMF .                     KB : LOG MEASURED FROM
DAPD.FT                 18.3 : FEET ABOVE PERMANENT DATUM
EKB .FT                 2951 : KELLY BUSHING
EGL .FT               2932.7 : GROUND LEVEL
DATE.               05/06/75 : RUN DATE
RUN .                      1 : RUN NUMBER
DD  .FT                11081 : DEPTH DRILLER
DL  .FT                11087 : DEPTH LOGGER
BLI .FT                11081 : BOTTOM LOG INTERVAL
TLI .FT                 1136 : TOP LOG INTERVAL
CBD .FT                 1136 : CASING BOTTOM DRILLER
CBL .FT                 1134 : CASING BOTTOM LOGGER
BS  .IN                 8.75 : BIT SIZE
BSD .FT                11081 : BIT SIZE AT DEPTH
DFT .               CHEM GEL : DRILLING FLUID TYPE
DFD .                    9.2 : DRILLING FLUID DENSITY
DFV .                     90 : DRILLING FLUID VISCOSITY
DFPH.                     11 : DRILLING FLUID PH
DFL .                    8.4 : DRILLING FLUID LOSS
MSS .              CIRULATED : MUD SAMPLE SOURCE
RMS .OHMM               1.22 : RESISTIVITY MUD SAMPLE
MST .DEGF                 72 : MUD SAMPLE TEMPERATURE
RMF .OHMM               0.98 : RESISTIVITY MUD FILTRATE SAMPLE
MFST.DEGF                 70 : MUD FILTRATE SAMPLE TEMPERATURE
LUN .                   7690 : LOGGING UNIT NUMBER
LUL .                    EDM : LOGGING UNIT LOCATION
ENGI.                  BORLE : RECORDING ENGINEER
WITN.                   KING : WITNESSED BY
CLNT.                A2DTECH : CLIENT CODE
ORIG.            2" 5" PRINT : ORIGIN OF DATA
UWI .       100093405315W500 : UNIQUE WELL ID
DICO. A2D Technologies, Inc. : DIGITIZING COMPANY
~Other -----------------------------------------------------
~ASCII -----------------------------------------------------
 1100.00000    -999.25    -999.25    -999.25    -999.25    -999.25    -999.25    -999.25    -999.25    -999.25    -999.25    -999.25    -999.25    -999.25    -999.25   31.38870   31.38870    -999.25    -999.25    -999.25    -999.25    -999.25    -999.25    -999.25    -999.25    -999.25    -999.25    -999.25    -999.25    -999.25
 1150.00000    -999.25   10.08200   10.08200   43.40500    -999.25    -999.25    -999.25    -999.25    -999.25    -999.25   23.03880  131.37100  131.37100    -999.25   33.80430   33.80430   23.03880   22.18740   24.17770   22.18740    -999.25    -999.25    -999.25    -999.25    0.44840    0.44840 -117.93080   -8.13030   24.17770
 1200.00000    -999.25   11.19130   11.19130  123.78840    -999.25    -999.25    -999.25    -999.25    -999.25    -999.25    8.07830   91.98040   91.98040    -999.25   63.23970   63.23970    8.07830    7.76150    7.58770    7.76150    -999.25    -999.25    -999.25    -999.25    0.28830    0.28830 -120.44950  -10.64900    7.58770
 1250.00000    -999.25   12.45980   12.45980  134.72010    -999.25    -999.25    -999.25    -999.25    -999.25    -999.25    7.42280  124.78640  124.78640    -999.25   67.46820   67.46820    7.42280    5.91460   12.13760    5.91460    -999.25    -999.25    -999.25    -999.25    0.44980    0.44980 -115.44870   -5.82550   12.13760
 1300.00000    -999.25   10.88230   10.88230  205.46540    -999.25    -999.25    -999.25    -999.25    -999.25    -999.25    4.86700  105.27360  105.27360    -999.25   89.12980   89.12980    4.86700    3.50200    4.04360    3.50200    -999.25    -999.25    -999.25    -999.25    0.37820    0.37820 -114.56130   -5.44460    4.04360
 1350.00000    -999.25   10.54090   10.54090  142.75520    -999.25    -999.25    -999.25    -999.25    -999.25    -999.25    7.00500   97.11380   97.11380    -999.25   69.79460   69.79460    7.00500    6.35780    6.17250    6.35780    -999.25    -999.25    -999.25    -999.25    0.33060    0.33060 -112.01900   -3.40880    6.17250
 1400.00000    -999.25   11.02480   11.02480  157.26480    -999.25    -999.25    -999.25    -999.25    -999.25    -999.25    6.35870  101.26290  101.26290    -999.25   81.23070   81.23070    6.35870    6.32780    5.60530    6.32780    -999.25    -999.25    -999.25    -999.25    0.36920    0.36920 -114.69980   -6.04960    5.60530
 1450.00000    -999.25   10.70870   10.70870  206.12180    -999.25    -999.25    -999.25    -999.25    -999.25    -999.25    4.85150   97.37290   97.37290    -999.25   66.63130   66.63130    4.85150    4.50540    3.67560    4.50540    -999.25    -999.25    -999.25    -999.25    0.32440    0.32440 -113.68140   -4.68370    3.67560
 1500.00000    -999.25   10.80040   10.80040  134.65470    -999.25    -999.25    -999.25    -999.25    -999.25    -999.25    7.42640   93.88190   93.88190    -999.25   82.04160   82.04160    7.42640    6.83100    6.34010    6.83100    -999.25    -999.25    -999.25    -999.25    0.29000    0.29000 -113.57130   -4.22600    6.34010
 1550.00000    -999.25   10.69700   10.69700  162.60160    -999.25    -999.25    -999.25    -999.25    -999.25    -999.25    6.15000   96.52440   96.52440    -999.25   63.05420   63.05420    6.15000    5.53970    5.53270    5.53970    -999.25    -999.25    -999.25    -999.25    0.31150    0.31150 -115.43450   -5.74170    5.53270
 1600.00000    -999.25   10.93230   10.93230  151.04600    -999.25    -999.25    -999.25    -999.25    -999.25    -999.25    6.62050  107.67200  107.67200    -999.25   73.95920   73.95920    6.62050    6.00040    5.35530    6.00040    -999.25    -999.25    -999.25    -999.25    0.43230    0.43230 -113.08780   -3.50760    5.35530
 1650.00000    -999.25   10.53800   10.53800  103.77750    -999.25    -999.25    -999.25    -999.25    -999.25    -999.25    9.63600   82.10540   82.10540    -999.25   56.27730   56.27730    9.63600    8.85930    8.26570    8.85930    -999.25    -999.25    -999.25    -999.25    0.21090    0.21090 -113.14250   -3.88150    8.26570
 1700.00000    -999.25   10.73300   10.73300  130.99640    -999.25    -999.25    -999.25    -999.25    -999.25    -999.25    7.63380  102.73260  102.73260    -999.25   80.05700   80.05700    7.63380    7.26120    8.71410    7.26120    -999.25    -999.25    -999.25    -999.25    0.38240    0.38240 -114.57040   -5.06200    8.71410
 1750.00000    -999.25   11.45590   11.45590  155.53550    -999.25    -999.25    -999.25    -999.25    -999.25    -999.25    6.42940  106.99760  106.99760    -999.25   67.58360   67.58360    6.42940    5.63050   10.34750    5.63050    -999.25    -999.25    -999.25    -999.25    0.44960    0.44960 -114.01620   -3.77760   10.34750
 1800.00000    -999.25   11.19480   11.19480  149.92280    -999.25    -999.25    -999.25    -999.25    -999.25    -999.25    6.67010  104.08230  104.08230    -999.25   88.04380   88.04380    6.67010    6.24470    6.03990    6.24470    -999.25    -999.25    -999.25    -999.25    0.38300    0.38300 -115.13350   -4.16470    6.03990
 1850.00000    -999.25   10.51610   10.51610  111.36600    -999.25    -999.25    -999.25    -999.25    -999.25    -999.25    8.97940   89.18430   89.18430    -999.25   85.81540   85.81540    8.97940    8.10070    6.84840    8.10070    -999.25    -999.25    -999.25    -999.25    0.26080    0.26080 -114.12460   -2.95140    6.84840
 1900.00000    -999.25   10.55950   10.55950  111.62460    -999.25    -999.25    -999.25    -999.25    -999.25    -999.25    8.95860   86.09740   86.09740    -999.25   69.87060   69.87060    8.95860    8.48710    8.88660    8.48710    -999.25    -999.25    -999.25    -999.25    0.24370    0.24370 -116.12130   -4.94810    8.88660
 1950.00000    -999.25   10.65750   10.65750  125.85420    -999.25    -999.25    -999.25    -999.25    -999.25    -999.25    7.94570   79.90560   79.90560    -999.25   62.50020   62.50020    7.94570    7.31070    7.02190    7.31070    -999.25    -999.25    -999.25    -999.25    0.19280    0.19280 -114.81260   -3.63940    7.02190
 2000.00000    -999.25   10.64150   10.64150  108.35180    -999.25    -999.25    -999.25    -999.25    -999.25    -999.25    9.22920   84.97250   84.97250    -999.25   70.21300   70.21300    9.22920    8.62790    8.25270    8.62790    -999.25    -999.25    -999.25    -999.25    0.23280    0.23280 -115.55340   -4.38020    8.25270
 2050.00000    -999.25   11.07480   11.07480  182.34200    -999.25    -999.25    -999.25    -999.25    -999.25    -999.25    5.48420   94.33980   94.33980    -999.25   97.61220   97.61220    5.48420    5.10090    4.79240    5.10090    -999.25    -999.25    -999.25    -999.25    0.30780    0.30780 -114.63700   -3.46380    4.79240
 2100.00000    -999.25   11.02640   11.02640  161.71550    -999.25    -999.25    -999.25    -999.25    -999.25    -999.25    6.18370   94.86450   94.86450    -999.25   72.02560   72.02560    6.18370    6.06100    5.74620    6.06100    -999.25    -999.25    -999.25    -999.25    0.31170    0.31170 -114.98660   -3.81340    5.74620
 2150.00000    -999.25   11.07900   11.07900  162.20070    -999.25    -999.25    -999.25    -999.25    -999.25    -999.25    6.16520   99.08870   99.08870    -999.25   74.69700   74.69700    6.16520    5.47270    5.08230    5.47270    -999.25    -999.25    -999.25    -999.25    0.34330    0.34330 -114.13680   -2.96360    5.08230
 2200.00000    -999.25   10.69350   10.69350  119.40580    -999.25    -999.25    -999.25    -999.25    -999.25    -999.25    8.37480   87.60800   87.60800    -999.25   77.22830   77.22830    8.37480    7.63960    8.59670    7.63960    -999.25    -999.25    -999.25    -999.25    0.26080    0.26080 -114.52730   -3.35410    8.59670
 2250.00000    -999.25   10.70560   10.70560   86.32670    -999.25    -999.25    -999.25    -999.25    -999.25    -999.25   11.58390   78.93540   78.93540    -999.25   48.23290   48.23290   11.58390   10.96570   10.55190   10.96570    -999.25    -999.25    -999.25    -999.25    0.18320    0.18320 -115.32960   -4.37100   10.55190
 2300.00000    -999.25   11.83800   11.83800  104.79760    -999.25    -999.25    -999.25    -999.25    -999.25    -999.25    9.54220   83.79520   83.79520    -999.25   70.48070   70.48070    9.54220    8.66560    7.87790    8.66560    -999.25    -999.25    -999.25    -999.25    0.22440    0.22440 -113.77220   -3.04930    7.87790
