~Version ---------------------------------------------------
VERS.      2.0 : CWLS log ASCII Standard -VERSION 2.0
WRAP.       NO : One line per depth step
CREA. 08/01/17 : LAS Creation Date
~Well ------------------------------------------------------
STRT.FT                       300.0 : START DEPTH
STOP.FT                     11500.0 : STOP DEPTH
STEP.FT                    50.00000 : STEP LENGTH
NULL.                       -999.25 : NULL VALUE
COMP.          MOBIL OIL CANADA LTD : COMPANY
WELL. MOBIL ET AL NE PINE 6-9-59-18 : WELL
FLD .                    CLARK LAKE : FIELD
LOC .                               : LOCATION
CTRY.                        CANADA : COUNTRY
SRVC.                  Schlumberger : SERVICE COMPANY
DATE.                   18-Jul-1968 : LOGDATE
PROV.                       Alberta : PROVINCE
UWI .              100060905918W500 : UNIQUE WELL ID
SLAT.WGS84                 54.08428 : SURFACE LATITUDE
SLON.WGS84                -116.6419 : SURFACE LONGITUDE
~Curve Information -----------------------------------------
DEPT  .FT    : Depth Curve
CALSED.IN    : CALIPER FROM SONIC LOG
CALWS .IN    : CALIPER [CALSED]
CILDED.MMHO  : CONDUCTIVITY FROM RESISTIVITY LOG
CONDWS.MMHO  : CONDUCTIVITY [1000/DRESWS]
DRESWS.OHMM  : DEEP RESISTIVITY [ILDED]
DTED  .US/F  : DELTA TIME FROM SONIC LOG
DTWS  .US/F  : DELTA TIME [DTED]
GRSED .GAPI  : GAMMA RAY FROM SONIC LOG
GRWS  .GAPI  : GAMMA RAY [GRSED]
ILDED .OHMM  : INDUCTION LOG DEEP RESISTIVITY
SNED  .OHMM  : 16 INCH SHORT NORMAL RESISTIVITY FROM IEL
SPRED .MV    : SPONTANEOUS POTENTIAL FROM RESISTIVITY LOG
SPWS  .MV    : SPONTANEOUS POTENTIAL [BASELINE 0 MV] [SPRED]
SRESWS.OHMM  : SHALLOW RESISTIVITY [SNED]
~Params ----------------------------------------------------
PD  .                     GL : PERMANENT DATUM
EPD .FT               3509.9 : ELEVATION PERMANENT DATUM
LMF .                     KB : LOG MEASURED FROM
DAPD.FT                16.06 : FEET ABOVE PERMANENT DATUM
EKB .FT              3525.96 : KELLY BUSHING
EGL .FT               3509.9 : GROUND LEVEL
DATE.               07/18/68 : RUN DATE
RUN .                      1 : RUN NUMBER
DD  .FT                11521 : DEPTH DRILLER
DL  .FT                11510 : DEPTH LOGGER
BLI .FT                11510 : BOTTOM LOG INTERVAL
TLI .FT                 1200 : TOP LOG INTERVAL
CBL .FT                 1215 : CASING BOTTOM LOGGER
BS  .IN                 8.75 : BIT SIZE
BSD .FT                11521 : BIT SIZE AT DEPTH
DFT .                    GEL : DRILLING FLUID TYPE
DFD .                   10.2 : DRILLING FLUID DENSITY
DFV .                     95 : DRILLING FLUID VISCOSITY
DFPH.                   10.5 : DRILLING FLUID PH
DFL .                      6 : DRILLING FLUID LOSS
RMS .OHMM               1.18 : RESISTIVITY MUD SAMPLE
MST .DEGF                 58 : MUD SAMPLE TEMPERATURE
RMF .OHMM              0.693 : RESISTIVITY MUD FILTRATE SAMPLE
MFST.DEGF                 60 : MUD FILTRATE SAMPLE TEMPERATURE
RMC .OHMM                1.4 : RESISTIVITY MUD CAKE
MCST.DEGF                 59 : MUD CAKE SAMPLE TEMPERATURE
RMB .OHMM               0.39 : RESISTIVITY MUD AT BHT
TCS .HRS                   3 : TIME CIRCULATED STOPPED
LUN .                   7501 : LOGGING UNIT NUMBER
LUL .                    EDM : LOGGING UNIT LOCATION
ENGI.               STUEHMER : RECORDING ENGINEER
WITN.                   HELM : WITNESSED BY
CLNT.                A2DTECH : CLIENT CODE
ORIG.            2" 5" PRINT : ORIGIN OF DATA
UWI .       100060905918W500 : UNIQUE WELL ID
DICO. A2D Technologies, Inc. : DIGITIZING COMPANY
~Other -----------------------------------------------------
~ASCII -----------------------------------------------------
  300.00000    -999.25    -999.25    -999.25    -999.25    -999.25    -999.25    -999.25   30.81610   30.81610    -999.25    -999.25    -999.25    -999.25    -999.25
  350.00000    -999.25    -999.25    -999.25    -999.25    -999.25    -999.25    -999.25   34.66990   34.66990    -999.25    -999.25    -999.25    -999.25    -999.25
  400.00000    -999.25    -999.25    -999.25    -999.25    -999.25    -999.25    -999.25   37.13330   37.13330    -999.25    -999.25    -999.25    -999.25    -999.25
  450.00000    -999.25    -999.25    -999.25    -999.25    -999.25    -999.25    -999.25   54.77540   54.77540    -999.25    -999.25    -999.25    -999.25    -999.25
  500.00000    -999.25    -999.25    -999.25    -999.25    -999.25    -999.25    -999.25   33.79800   33.79800    -999.25    -999.25    -999.25    -999.25    -999.25
  550.00000    -999.25    -999.25    -999.25    -999.25    -999.25    -999.25    -999.25   49.51080   49.51080    -999.25    -999.25    -999.25    -999.25    -999.25
  600.00000    -999.25    -999.25    -999.25    -999.25    -999.25    -999.25    -999.25   53.97010   53.97010    -999.25    -999.25    -999.25    -999.25    -999.25
  650.00000    -999.25    -999.25    -999.25    -999.25    -999.25    -999.25    -999.25   40.22590   40.22590    -999.25    -999.25    -999.25    -999.25    -999.25
  700.00000    -999.25    -999.25    -999.25    -999.25    -999.25    -999.25    -999.25   42.54290   42.54290    -999.25    -999.25    -999.25    -999.25    -999.25
  750.00000    -999.25    -999.25    -999.25    -999.25    -999.25    -999.25    -999.25   39.42040   39.42040    -999.25    -999.25    -999.25    -999.25    -999.25
  800.00000    -999.25    -999.25    -999.25    -999.25    -999.25    -999.25    -999.25   42.95730   42.95730    -999.25    -999.25    -999.25    -999.25    -999.25
  850.00000    -999.25    -999.25    -999.25    -999.25    -999.25    -999.25    -999.25   45.26780   45.26780    -999.25    -999.25    -999.25    -999.25    -999.25
  900.00000    -999.25    -999.25    -999.25    -999.25    -999.25    -999.25    -999.25   43.14150   43.14150    -999.25    -999.25    -999.25    -999.25    -999.25
  950.00000    -999.25    -999.25    -999.25    -999.25    -999.25    -999.25    -999.25   45.20360   45.20360    -999.25    -999.25    -999.25    -999.25    -999.25
 1000.00000    -999.25    -999.25    -999.25    -999.25    -999.25    -999.25    -999.25   42.92570   42.92570    -999.25    -999.25    -999.25    -999.25    -999.25
 1050.00000    -999.25    -999.25    -999.25    -999.25    -999.25    -999.25    -999.25   31.77560   31.77560    -999.25    -999.25    -999.25    -999.25    -999.25
 1100.00000    -999.25    -999.25    -999.25    -999.25    -999.25    -999.25    -999.25   24.81990   24.81990    -999.25    -999.25    -999.25    -999.25    -999.25
 1150.00000    -999.25    -999.25    -999.25    -999.25    -999.25    -999.25    -999.25   50.54790   50.54790    -999.25    -999.25    -999.25    -999.25    -999.25
 1200.00000    -999.25    -999.25    -999.25    -999.25    -999.25    -999.25    -999.25   51.40980   51.40980    -999.25    -999.25    -999.25    -999.25    -999.25
 1250.00000   10.71880   10.71880  346.11220  338.86820    2.95100  149.31140  149.31140   77.48690   77.48690    2.95100    6.03330  -89.69100   -4.49980    6.03330
 1300.00000   10.91050   10.91050  105.18300  105.68890    9.46460   99.73900   99.73900   65.84560   65.84560    9.46460    8.64060  -90.24520   -4.26140    8.64060
 1350.00000   10.95990   10.95990   82.47750   82.18480   12.16770  106.42900  106.42900   67.78670   67.78670   12.16770   11.19650  -93.70490   -6.92050   11.19650
 1400.00000   11.39420   11.39420   54.55730   55.04520   18.16690   94.01660   94.01660   71.35370   71.35370   18.16690   13.85370  -96.58580   -9.00480   13.85370
 1450.00000   12.46750   12.46750  100.64640  100.89800    9.91100  123.74910  123.74910   81.13680   81.13680    9.91100    8.67450  -91.14750   -2.76990    8.67450
 1500.00000   12.80480   12.80480   90.00030   86.63260   11.54300   94.46240   94.46240   73.50960   73.50960   11.54300   12.52440  -93.14790   -3.97370   12.52440
 1550.00000   12.91530   12.91530   72.19610   73.28350   13.67700  137.95280  137.95280   86.82970   86.82970   13.67700   12.59810  -94.03740   -5.22070   12.59810
 1600.00000   11.04360   11.04360  119.61950  115.64570    8.64710  139.74230  139.74230   46.04710   46.04710    8.64710   22.29670  -91.56650   -3.30120   22.29670
 1650.00000    9.95900    9.95900  290.75870  284.18780    3.51880   91.00410   91.00410   69.83360   69.83360    3.51880    3.78100  -92.12660   -4.40990    3.78100
 1700.00000    9.57530    9.57530   55.91630   52.88400   18.90930   88.25920   88.25920   70.99070   70.99070   18.90930   13.42220  -92.58190   -5.41380   13.42220
 1750.00000   10.91500   10.91500  196.60510  198.74390    5.03160   98.26580   98.26580   69.19570   69.19570    5.03160    6.95250  -89.66200   -3.04250    6.95250
 1800.00000   10.47730   10.47730  153.32120  153.44960    6.51680   88.04370   88.04370   52.28520   52.28520    6.51680    6.20770  -90.37240   -4.29880    6.20770
 1850.00000   10.82950   10.82950  151.55160  156.35990    6.39550   99.91960   99.91960   61.98960   61.98960    6.39550    5.98470  -89.31330   -3.60850    5.98470
 1900.00000   11.09330   11.09330  331.00400  306.21300    3.26570  122.25720  122.25720   70.41270   70.41270    3.26570    2.85700  -89.38650   -3.70890    2.85700
 1950.00000   10.38460   10.38460   80.15240   83.55410   11.96830   75.17990   75.17990   49.82620   49.82620   11.96830   10.18620  -93.46050   -7.81010   10.18620
 2000.00000   10.37260   10.37260  137.88550  149.99250    6.66700   91.72050   91.72050   56.62350   56.62350    6.66700    7.23710  -93.33150   -7.70820    7.23710
 2050.00000   10.83570   10.83570  152.45780  145.37700    6.90810  119.99790  119.99790   49.59560   49.59560    6.90810    7.86040  -89.72030   -4.12410    7.86040
 2100.00000   10.33250   10.33250  230.63300  234.76930    4.25950  100.89300  100.89300   65.15880   65.15880    4.25950    6.40380  -88.81790   -3.24900    6.40380
 2150.00000   10.71300   10.71300  133.84940  129.78250    7.70520   97.45700   97.45700   85.40890   85.40890    7.70520    7.34780  -90.78720   -5.24540    7.34780
 2200.00000   11.16280   11.16280  171.97520  188.36650    5.30880   92.82930   92.82930   70.69410   70.69410    5.30880    5.72770  -90.00630   -4.49170    5.72770
 2250.00000   10.88000   10.88000   53.43600   55.14690   18.13340   73.44440   73.44440   36.72060   36.72060   18.13340   12.90600  -92.06510   -6.57770   12.90600
 2300.00000   11.10430   11.10430  199.89210  202.77940    4.94600   92.99730   92.99730   67.55150   67.55150    4.94600    5.15470  -90.89970   -5.43940    5.15470
 2350.00000   11.34430   11.34430  149.48370  153.38130    6.51970   99.80880   99.80880   64.91160   64.91160    6.51970    6.18070  -90.65420   -5.22110    6.18070
 2400.00000   11.50100   11.50100  104.54280  106.44410    9.39460   94.75680   94.75680   56.31690   56.31690    9.39460    7.11110  -91.02660   -5.62070    7.11110
 2450.00000   11.13200   11.13200  204.60280  218.01220    4.58690  100.53630  100.53630   66.97460   66.97460    4.58690    4.61880  -90.19080   -4.81210    4.61880
 2500.00000   11.35690   11.35690  167.75810  176.34820    5.67060   94.01590   94.01590   68.77950   68.77950    5.67060    6.10470  -90.33340   -4.98180    6.10470
 2550.00000   10.39320   10.39320   60.22400   60.21370   16.62150   92.09600   92.09600   50.19310   50.19310   16.62150   13.94950  -96.77150  -11.44690   13.94950
 2600.00000   11.34830   11.34830  317.62670  283.23800    3.53060  100.79710  100.79710   67.78990   67.78990    3.53060    2.98200  -88.25940   -2.96220    2.98200
 2650.00000   11.60180   11.60180  110.12030  107.85040    9.27210   93.10100   93.10100   63.44870   63.44870    9.27210    7.39470  -90.58450   -5.31440    7.39470
 2700.00000   11.22210   11.22210  196.73380  221.92630    4.50600   94.82310   94.82310   73.84740   73.84740    4.50600    6.08410  -89.18330   -3.94040    6.08410
