~Version ---------------------------------------------------
VERS.      2.0 : CWLS log ASCII Standard -VERSION 2.0
WRAP.       NO : One line per depth step
CREA. 07/10/13 : LAS Creation Date
~Well ------------------------------------------------------
STRT.FT                         55.3 : START DEPTH
STOP.FT                      11119.8 : STOP DEPTH
STEP.FT                      0.50000 : STEP LENGTH
NULL.                        -999.25 : NULL VALUE
COMP.         PACIFIC PETROLEUMS LTD : COMPANY
WELL. PACIFIC ET AL TONY 10-18-63-21 : WELL
FLD .                     TONY TOWER : FIELD
LOC .                                : LOCATION
CTRY.                         CANADA : COUNTRY
SRVC.                   Schlumberger : SERVICE COMPANY
DATE.                    24-Sep-1975 : LOGDATE
PROV.                        Alberta : PROVINCE
UWI .               100101806321W500 : UNIQUE WELL ID
SLAT.WGS84                  54.45338 : SURFACE LATITUDE
SLON.WGS84                 -117.1585 : SURFACE LONGITUDE
~Curve Information -----------------------------------------
DEPT   .FT    : DEPTH FEET
CALD   .IN    : CALIPER FROM DENSITY LOG
DCOR   .G/C3  : DENSITY CORRECTION FROM DENSITY LOG
DPHI_LS.DEC   : DENSITY POROSITY LIMESTONE [M=2.71,F=1.0] FROM DENSITY LOG
DPHI_SS.DEC   : DENSITY POROSITY SANDSTONE [M=2.65,F=1.0] FROM DENSITY LOG
GRD    .GAPI  : GAMMA RAY FROM DENSITY LOG
ILD    .OHMM  : DEEP INDUCTION FROM RESISTIVITY LOG
ILM    .OHMM  : MEDIUM INDUCTION FROM RESISTIVITY LOG
LL8    .OHMM  : LATEROLOG FROM RESISTIVITY LOG
NPHI_LS.DEC   : NEUTRON POROSITY LIMESTONE FROM DENSITY LOG
NPHI_SS.DEC   : NEUTRON POROSITY SANDSTONE FROM DENSITY LOG
RHOB   .G/C3  : BULK DENSITY FROM DENSITY LOG
SPR    .MV    : SPONTANEOUS POTENTIAL FROM RESISTIVITY LOG
~Params ----------------------------------------------------
PD  .                     GL : PERMANENT DATUM
EPD .FT                 2714 : ELEVATION PERMANENT DATUM
LMF .                     KB : LOG MEASURED FROM
DAPD.FT                 13.7 : FEET ABOVE PERMANENT DATUM
EKB .FT               2727.7 : KELLY BUSHING
EGL .FT                 2714 : GROUND LEVEL
DATE.               09/24/75 : RUN DATE
RUN .                      1 : RUN NUMBER
DD  .FT                11125 : DEPTH DRILLER
DL  .FT                11121 : DEPTH LOGGER
BLI .FT                11115 : BOTTOM LOG INTERVAL
TLI .FT                 1125 : TOP LOG INTERVAL
CBD .FT                 1125 : CASING BOTTOM DRILLER
CBL .FT                 1125 : CASING BOTTOM LOGGER
BS  .IN                 8.75 : BIT SIZE
BSD .FT                11125 : BIT SIZE AT DEPTH
DFT .               GEL CHEM : DRILLING FLUID TYPE
DFD .                    9.3 : DRILLING FLUID DENSITY
DFV .                    147 : DRILLING FLUID VISCOSITY
DFPH.                    9.5 : DRILLING FLUID PH
DFL .                    9.2 : DRILLING FLUID LOSS
MSS .               FLOWLINE : MUD SAMPLE SOURCE
RMS .OHMM               1.62 : RESISTIVITY MUD SAMPLE
MST .DEGF                 72 : MUD SAMPLE TEMPERATURE
RMF .OHMM               1.26 : RESISTIVITY MUD FILTRATE SAMPLE
MFST.DEGF                 68 : MUD FILTRATE SAMPLE TEMPERATURE
RMB .OHMM               0.41 : RESISTIVITY MUD AT BHT
TCS .HRS                 3.5 : TIME CIRCULATED STOPPED
LUN .                   7691 : LOGGING UNIT NUMBER
LUL .                    EDM : LOGGING UNIT LOCATION
ENGI.              CROCKFORD : RECORDING ENGINEER
WITN.                   ROSS : WITNESSED BY
CLNT.                A2DTECH : CLIENT CODE
ORIG.            2" 5" PRINT : ORIGIN OF DATA
UWI .       100101806321W500 : UNIQUE WELL ID
DICO. A2D Technologies, Inc. : DIGITIZING COMPANY
~Other -----------------------------------------------------
~ASCII -----------------------------------------------------
# ...
 7755.30000   11.05930    0.08150    0.01700    -999.25   16.14050   49.10730   46.02190  102.25020    0.01480    -999.25    2.67430 -117.66650
 7755.80000   10.87900    0.09480    0.03530    -999.25   13.83620   47.49220   41.92380  116.81080    0.01640    -999.25    2.66780 -120.17000
 7756.30000   10.61210    0.06100    0.03860    -999.25   12.46740   44.99330   38.14580  116.49790    0.01600    -999.25    2.64130 -122.81290
 7756.80000   10.42520    0.04880    0.01790    -999.25   12.74450   44.05970   34.82020  100.87720    0.01470    -999.25    2.64300 -124.41760
 7757.30000   10.41400    0.05770    0.00630    -999.25   13.29490   44.84220   34.30780   86.94890    0.01330    -999.25    2.68990 -125.58430
 7757.80000   10.46140    0.07040    0.01820    -999.25   13.90560   47.73520   34.58970   81.05710    0.01180    -999.25    2.67560 -126.48550
 7758.30000   10.64020    0.11510    0.01280    -999.25   14.49610   54.00740   40.82630   87.43350    0.01060    -999.25    2.66600 -127.20340
 7758.80000   11.02720    0.16170    0.00470    -999.25   14.48350   61.46970   51.89860  115.71370    0.00960    -999.25    2.67860 -127.37860
 7759.30000   11.70950    0.22770    0.03550    -999.25   14.16740   71.97190   69.83570  160.41500    0.00850    -999.25    2.68140 -127.40220
 7759.80000   12.18110    0.23480    0.09120    -999.25   13.55290   86.73050   99.98550  194.66820    0.00870    -999.25    2.62720 -127.22300
 7760.30000   12.28060    0.21120    0.12350    -999.25   12.82930  104.51560  145.79720  224.32840    0.01120    -999.25    2.55720 -126.60260
 7760.80000   12.09370    0.18940    0.14440    -999.25   12.36870  125.94760  195.34950  263.62270    0.01080    -999.25    2.49830 -125.98210
 7761.30000   11.44380    0.16600    0.11970    -999.25   12.45660  150.71690  189.26520  288.74950    0.00870    -999.25    2.46520 -125.36170
 7761.80000   10.61580    0.09380    0.07720    -999.25   12.99260  179.81200  166.67410  294.47590    0.00690    -999.25    2.51470 -124.74120
 7762.30000   10.55610    0.01820    0.02620    -999.25   14.13270  215.48790  146.77960  349.23730    0.00630    -999.25    2.57580 -124.38520
 7762.80000   10.55810    0.02680    0.01340    -999.25   14.66050  262.92100  137.84590  453.76300    0.00640    -999.25    2.65770 -124.37920
 7763.30000   10.58080    0.03670    0.00900    -999.25   14.76140  320.79530  137.13460  574.10110    0.00630    -999.25    2.67760 -124.50400
 7763.80000   10.61800    0.04630    0.00000    -999.25   14.41660  391.40860  142.06410  477.81240    0.00500    -999.25    2.68710 -124.64920
 7764.30000   10.64200    0.05600   -0.02000    -999.25   13.43050  409.08720  148.13610  436.57300    0.00240    -999.25    2.71270 -124.79440
 7764.80000   10.64500    0.05920   -0.04000    -999.25   12.35540  347.03270  154.97430  662.89170   -0.00030    -999.25    2.73710 -124.93960
 7765.30000   10.63680    0.04960   -0.07240    -999.25   11.15950  271.58640  158.44700 1100.89500   -0.00300    -999.25    2.78580 -125.01670
 7765.80000   10.69480    0.02590   -0.08000    -999.25   10.77580  222.67180  154.06330 1348.85220   -0.00540    -999.25    2.81870 -125.41080
 7766.30000   10.81750    0.01510   -0.08990    -999.25   11.16200  206.00030  128.20910 1367.56260   -0.00530    -999.25    2.83540 -126.04780
 7766.80000   10.91740    0.02870   -0.07310    -999.25   11.88780  199.16710  107.30740 1290.40380   -0.00380    -999.25    2.82840 -126.64700
 7767.30000   11.04770    0.05070   -0.04330    -999.25   12.69530  207.05370  102.25760 1209.46140   -0.00200    -999.25    2.79520 -127.37160
 7767.80000   11.27000    0.07600   -0.01880    -999.25   13.67160  231.55840  123.92420 1165.57820    0.00050    -999.25    2.75170 -128.64340
 7768.30000   11.97970    0.14880    0.01750    -999.25   14.43640  258.97260  157.74430 1177.20740    0.00500    -999.25    2.71550 -129.91510
 7768.80000   12.72390    0.23970    0.09660    -999.25   14.80430  258.65720  201.60120 1269.80590    0.00690    -999.25    2.66240 -131.32840
 7769.30000   12.98130    0.25040    0.20400    -999.25   14.40410  244.54150  244.07080 1379.05980    0.00790    -999.25    2.54090 -133.09450
 7769.80000   12.72850    0.25070    0.22920    -999.25   13.28420  239.96420  251.42490 1188.48280    0.00680    -999.25    2.32940 -134.78760
 7770.30000   11.61430    0.14990    0.13780    -999.25   11.99810  257.49090  243.35160 1205.57410    0.00140    -999.25    2.31920 -136.02440
 7770.80000   10.95460    0.06160    0.04120    -999.25   11.71530  315.04150  207.44980 1223.52170   -0.00290    -999.25    2.45810 -136.99220
 7771.30000   10.81800    0.02370   -0.04240    -999.25   11.97550  393.50910  169.70570 1174.14880   -0.00520    -999.25    2.63950 -137.95540
 7771.80000   10.87010    0.02920   -0.07670    -999.25   12.67400  458.66740  167.71230 1116.42880   -0.00490    -999.25    2.79200 -138.26730
 7772.30000   10.97110    0.05190   -0.07620    -999.25   13.82700  454.78700  201.06840 1082.62540   -0.00390    -999.25    2.81560 -138.83580
 7772.80000   11.16600    0.09060   -0.08470    -999.25   14.84060  397.97290  237.78790 1049.90360   -0.00260    -999.25    2.82660 -139.56330
 7773.30000   11.38620    0.14980   -0.07140    -999.25   15.81660  348.25610  277.27710 1004.88460   -0.00130    -999.25    2.83930 -140.38650
 7773.80000   11.31090    0.22200   -0.03530    -999.25   16.67800  304.75020  301.15130  974.40770    0.00000    -999.25    2.78880 -141.06910
 7774.30000   11.22000    0.18840   -0.04790    -999.25   17.87360  267.71230  286.64280  944.85500    0.00120    -999.25    2.75460 -141.54560
 7774.80000   11.34810    0.14890   -0.07820    -999.25   18.31150  249.31300  261.71710  900.50950    0.00160    -999.25    2.78050 -141.81760
 7775.30000   11.32330    0.20800   -0.05610    -999.25   18.58880  232.17830  242.06850  825.94010    0.00220    -999.25    2.82740 -141.83560
 7775.80000   11.29020    0.24980   -0.04260    -999.25   18.38250  216.22120  228.31530  706.29270    0.00280    -999.25    2.76300 -141.87720
 7776.30000   10.64330    0.15050   -0.05250    -999.25   17.47270  209.56390  202.64680  618.03800    0.00330    -999.25    2.76140 -142.24290
 7776.80000   10.44920    0.07370   -0.06740    -999.25   16.10140  206.82020  170.05700  517.31930    0.00350    -999.25    2.78410 -142.93840
 7777.30000   10.43400    0.02860   -0.11000    -999.25   14.80760  205.22850  147.85730  403.76970    0.00370    -999.25    2.83010 -143.67000
 7777.80000   10.42520    0.01560   -0.13220    -999.25   13.69080  204.98070  147.51560  414.62140    0.00330    -999.25    2.89050 -144.42110
 7778.30000   10.42370    0.01670   -0.12800    -999.25   13.12290  201.27250  163.91220  503.26670    0.00250    -999.25    2.90820 -144.95270
 7778.80000   10.41630    0.02250   -0.11710    -999.25   12.85940  191.44270  176.34820  652.14680    0.00160    -999.25    2.89110 -144.58230
 7779.30000   10.41610    0.01630   -0.10840    -999.25   12.56470  181.08090  176.56940  760.57010    0.00080    -999.25    2.87390 -143.78350
 7779.80000   10.42110    0.01150   -0.11260    -999.25   12.27630  170.59420  160.33960  813.72940    0.00060    -999.25    2.86340 -142.77730
 7780.30000   10.39110    0.01680   -0.12210    -999.25   11.98830  167.12180  143.34120  720.02210   -0.00020    -999.25    2.88680 -141.94520
 7780.80000   10.39630    0.02220   -0.12690    -999.25   11.47880  168.46670  128.82270  454.27520   -0.00030    -999.25    2.89500 -141.61740
 7781.30000   10.39570    0.02720   -0.13980    -999.25   10.69260  170.19100  126.62030  324.57240   -0.00080    -999.25    2.90910 -141.32860
 7781.80000   10.39190    0.02940   -0.14440    -999.25   10.11550  169.81160  134.61490  384.24190   -0.00170    -999.25    2.92350 -141.27730
 7782.30000   10.38050    0.03170   -0.15060    -999.25    9.82670  168.84030  143.94320  683.67490   -0.00260    -999.25    2.93520 -140.91110
 7782.80000   10.37900    0.02710   -0.14050    -999.25    9.77550  160.58510  153.91780  928.66030   -0.00350    -999.25    2.91860 -140.47580
