~Version ---------------------------------------------------
VERS.      2.0 : CWLS log ASCII Standard -VERSION 2.0
WRAP.       NO : One line per depth step
CREA. 09/25/14 : LAS Creation Date
~Well ------------------------------------------------------
STRT.FT                    750.0 : START DEPTH
STOP.FT                   6850.0 : STOP DEPTH
STEP.FT                 50.00000 : STEP LENGTH
NULL.                    -999.25 : NULL VALUE
COMP.       SHELL CANADA LIMITED : COMPANY
WELL. SHELL WESTLOCK 10-33-61-27 : WELL
FLD .                            : FIELD
LOC .                            : LOCATION
CTRY.                     CANADA : COUNTRY
SRVC.               Schlumberger : SERVICE COMPANY
DATE.                01-Feb-1966 : LOGDATE
PROV.                    Alberta : PROVINCE
UWI .           100103306127W400 : UNIQUE WELL ID
SLAT.WGS84              54.32129 : SURFACE LATITUDE
SLON.WGS84             -113.9838 : SURFACE LONGITUDE
~Curve Information -----------------------------------------
DEPT .FT    : DEPTH FEET
CALD .IN    : CALIPER FROM DENSITY LOG
CILD .MMHO  : CONDUCTIVITY FROM IEL LOG
DRHO .G/C3  : DENSITY CORRECTION FROM DENSITY LOG
DT   .US/F  : DELTA TIME FROM SONIC LOG
GRD  .GAPI  : GAMMA RAY FROM DENSITY LOG
GRS  .GAPI  : GAMMA RAY FROM SONIC LOG
ILD  .OHMM  : DEEP INDUCTION LOG RESISTIVITY FROM DIL LOG (ILD SPL. TO ILD_2 @ 6068'-6572')
ILD_1.OHMM  : DEEP INDUCTION LOG RESISTIVITY FROM IEL LOG
ILM  .OHMM  : MEDIUM INDUCTION LOG RESISTIVITY FROM DIL LOG (ILM SPL. TO ILM_2 @ 6068'-6576')
LL8  .OHMM  : 8 INCH LATEROLOG RESISTIVITY FROM DIL LOG (LL8 SPL. TO LL8_2 @ 6068'-6506.5')
RHOB .G/C3  : BULK DENSITY FROM DENSITY LOG
SN   .OHMM  : 16 INCH SHORT NORMAL RESISTIVITY FROM IEL LOG
SPR  .MV    : SPONTANEOUS POTENTIAL FROM DIL LOG (SPR SPL. TO SPR_2 @ 6068'-6577')
SPR_1.MV    : SPONTANEOUS POTENTIAL FROM IEL LOG
~Params ----------------------------------------------------
PD  .                     GL : PERMANENT DATUM
EPD .FT               2008.9 : ELEVATION PERMANENT DATUM
LMF .                     KB : LOG MEASURED FROM
DAPD.FT                 13.8 : FEET ABOVE PERMANENT DATUM
EKB .FT               2022.7 : KELLY BUSHING
EGL .FT               2008.9 : GROUND LEVEL
DATE.               02/01/66 : RUN DATE
RUN .                      2 : RUN NUMBER
DD  .FT                 6850 : DEPTH DRILLER
DL  .FT                 6850 : DEPTH LOGGER
BLI .FT                 6846 : BOTTOM LOG INTERVAL
TLI .FT                 2900 : TOP LOG INTERVAL
CBD .FT                  724 : CASING BOTTOM DRILLER
CBL .FT                  724 : CASING BOTTOM LOGGER
BS  .IN                7.875 : BIT SIZE
BSD .FT                 6850 : BIT SIZE AT DEPTH
DFT .                    GEL : DRILLING FLUID TYPE
DFD .                    9.9 : DRILLING FLUID DENSITY
DFV .                     80 : DRILLING FLUID VISCOSITY
DFPH.                     11 : DRILLING FLUID PH
DFL .                    6.2 : DRILLING FLUID LOSS
RMS .OHMM               0.15 : RESISTIVITY MUD SAMPLE
MST .DEGF                 62 : MUD SAMPLE TEMPERATURE
RMF .OHMM               0.07 : RESISTIVITY MUD FILTRATE SAMPLE
MFST.DEGF                122 : MUD FILTRATE SAMPLE TEMPERATURE
RMC .OHMM               0.18 : RESISTIVITY MUD CAKE
MCST.DEGF                 68 : MUD CAKE SAMPLE TEMPERATURE
RMB .OHMM               0.09 : RESISTIVITY MUD AT BHT
TCS .HRS                   2 : TIME CIRCULATED STOPPED
LUN .                   2547 : LOGGING UNIT NUMBER
LUL .                     SL : LOGGING UNIT LOCATION
ENGI.                  CRAIN : RECORDING ENGINEER
WITN.                PHERSON : WITNESSED BY
CLNT.                A2DTECH : CLIENT CODE
ORIG.            2" 5" PRINT : ORIGIN OF DATA
UWI .       100103306127W400 : UNIQUE WELL ID
DICO. A2D Technologies, Inc. : DIGITIZING COMPANY
~Other -----------------------------------------------------
~ASCII -----------------------------------------------------
# ...
 3200.00000    7.32160  477.03560    0.04390   68.32780    9.29270    9.97320    2.24280    2.24650    3.72130   17.36040    2.45300    9.66210  -13.96250  -73.98960
 3250.00000    7.24390  534.10130    0.06040   68.43990   13.01870   14.77760    2.40400    1.98140    4.59310   18.82020    2.54490    8.48780  -23.54710  -76.45530
 3300.00000    7.18140  507.43360    0.01990   71.25810   11.11140   12.73580    2.08850    2.07410    3.11020   10.86150    2.42240    7.40230  -21.62630  -73.79510
 3350.00000    7.54970  209.98820    0.07560   54.59860   11.32170   10.40970    4.40460    4.89100    6.77570   25.25010    2.69320   12.64350  -24.09380  -73.57520
 3400.00000    7.55230  130.65130    0.05470   58.03430   11.31170   11.98300    7.46430    7.76230    9.26150   32.12940    2.67880   18.18350  -27.05550  -72.88260
 3450.00000    7.25950  773.11650    0.07650   71.81310   13.15870   12.78880    1.37450    1.47590    2.24890   10.38020    2.45480    7.69680  -29.26000  -72.80110
 3500.00000    7.23430  696.01860    0.04400   69.99720   12.49140   15.56000    1.31470    1.84050    1.73840   13.16590    2.55640    7.77090  -35.34920  -74.70100
 3550.00000    7.21970  639.88710    0.03810   68.02690    9.84160   12.28560    1.60500    1.72720    1.97020    4.30490    2.46120    2.65170  -32.33230  -70.87270
 3600.00000    7.64020  237.96440    0.00380   67.99130   59.01480   54.43440    3.46170    4.55510    4.20470   11.28310    2.66780    8.76710  -25.22500  -62.31580
 3650.00000    7.27180  498.15710    0.08080   73.66000   32.23330   31.25890    1.64920    2.43680    2.37320   11.75550    2.54100   10.52000  -41.49930  -75.02990
 3700.00000    8.80770   93.34910    0.08320   61.15280   22.48040   22.50750   14.86590   10.53490   10.88390   30.86010    2.61740   17.86120  -46.22640  -73.47950
 3750.00000    8.22540   90.71840   -0.00660   59.71880   49.56060   42.52060    8.24100   11.54830    8.56340   17.91580    2.64200   11.17850  -33.11940  -56.90900
 3800.00000    8.14680   98.56200   -0.00520   64.12300   59.10630   55.39910   10.22780   10.24900    7.41770   13.05510    2.61890   11.89260  -33.13920  -55.18160
 3850.00000    8.23700  105.60010   -0.00610   65.91440   52.54400   50.80950   10.27570    9.47410    7.52150   12.67050    2.61000   10.54450  -32.27140  -53.87800
 3900.00000    8.15940   40.20250   -0.01030   62.18170   44.73690   40.09980   19.20600   25.98690   11.85560   23.28380    2.68040   19.29560  -28.15720  -49.47850
 3950.00000    8.19800  143.71310    0.01890   77.82740   73.40710   71.65100    5.97050    7.31030    5.83210    9.92080    2.62030   11.40700  -25.56140  -47.15860
 4000.00000    8.21760   53.60440   -0.00730   60.57960   25.50540   32.07750   11.90080   20.63750   16.89940   38.55260    2.67780   11.53040  -17.43900  -40.18740
 4050.00000    8.25820  157.64570    0.14890   60.38450   50.61550   40.09750    7.74830    6.33620    7.82000   65.57920    2.57850    7.82860  -10.93520  -33.63770
 4100.00000    8.72450  150.73060    0.22680   77.49390   63.79370   58.01630    6.56590    6.74790    6.80900   10.10900    2.39650    7.63020  -16.39230  -39.63620
 4150.00000   12.40170  249.73060    0.17200  107.73900   79.58210   74.07480    3.43190    4.11270    2.84570    5.05830    2.11420    5.03330  -17.88310  -40.31590
 4200.00000    8.10520   71.85750   -0.00870   64.30970   47.95540   41.18800   16.75030   14.30070   10.36320   19.61820    2.63890   14.21810  -21.90940  -44.87070
 4250.00000   11.96290  188.49790    0.12910   84.42970   65.48050   60.78570    5.07500    5.46580    4.32650    5.39620    2.00400    5.75140  -15.99030  -39.89890
 4300.00000   10.88280  192.39680    0.14040   84.93710   64.76000   56.71200    4.47620    5.33070    5.59580    4.93750    2.02130    5.49620  -14.96330  -38.91690
 4350.00000   11.97180  275.68730    0.13840   88.62850   58.64020   56.52700    3.15320    4.03600    3.52020    7.20460    1.97330    6.12570  -17.14170  -36.87350
 4400.00000    8.04840   29.92880   -0.02350   57.72490   35.44770   28.25710   44.12260   33.81030   16.31730   51.03060    2.63030   24.71170  -27.17380  -43.02720
 4450.00000    8.13260   76.40690    0.00240   68.52010   61.95300   59.33930   14.51400   13.14990   10.03590   14.89480    2.61890   14.88460  -24.65810  -40.65500
 4500.00000    8.13200   76.17890    0.03320   64.42730   39.91780   37.75830   13.63290   13.18240    9.87340   22.41050    2.67710   12.85680  -22.34510  -36.35680
 4550.00000   12.14190  202.83640    0.14720   80.85410   55.75580   57.66560    5.07330    4.90700    4.80920    8.10560    1.96240    6.07440  -16.71160  -32.63890
 4600.00000    8.20700   69.71340    0.01550   63.72650   42.06800   36.25170   16.64520   14.49280    9.98990   22.77710    2.70710   13.82550  -20.24820  -35.37660
 4650.00000    8.17210   72.18810    0.03940   67.58310   50.56200   46.19110   15.10200   13.94630    9.78280   28.47700    2.68370   16.39270  -22.50260  -36.84290
 4700.00000    8.20110  100.84550   -0.01480   67.13460   51.51570   49.46840   10.02830   10.03880    7.79600   14.29370    2.62790   11.55280  -19.01770  -34.87730
 4750.00000    8.24150   85.39620   -0.01330   64.78670   47.34180   44.52570   12.57180   12.05270    8.52620   17.64430    2.67180   12.23870  -20.50800  -34.14430
 4800.00000   13.19250  248.15010    0.15900   91.83780   82.92460   75.26690    3.48110    4.62890    2.50420    7.68170    2.10360    5.33350  -14.64370  -29.92030
 4850.00000   13.25850  289.27320    0.15860   95.78070   87.86970   83.75860    3.19240    3.56550    2.64240    6.93740    2.20310    3.97730   -6.08860  -23.84950
 4900.00000    9.20250  137.02550    0.05900   98.61140  116.94890  109.38330    5.65380    7.76250    5.35910   10.02520    2.40410    9.58860  -13.10580  -28.76400
 4950.00000   13.48750  229.28280    0.17000   87.89390   76.37850   68.20020    3.56880    4.65690    3.87000    5.27000    2.17300    4.16810  -10.13160  -25.67060
 5000.00000   13.45650  172.04300    0.24890   78.75780   73.65700   61.75790    5.92590    5.84890    4.03110   13.37350    2.22760    4.91270  -10.96230  -25.79390
 5050.00000   13.30310  216.96690    0.15410   89.79580   82.42550   75.20140    3.82770    4.86780    3.19900   11.90530    1.89460    4.37940  -13.58820  -29.66910
 5100.00000    8.32320   33.78480    0.00040   56.77590   28.81180   21.78070   48.92280   29.26120   15.45110   53.45120    2.70100   22.36820  -23.29060  -36.64710
 5150.00000    9.42030  115.27570   -0.00640   73.49080   66.78500   58.32370    7.41470    9.09120   14.14920    9.54850    2.64050   10.41810  -15.58760  -29.01520
 5200.00000    8.57830   79.83970   -0.00900   62.38650   44.00860   42.52650   14.19710   12.77930    8.95610   22.89480    2.69830   14.30770  -14.19810  -31.03590
 5250.00000    8.11970   41.83330   -0.00380   53.99680    9.05370   11.81030   23.30980   25.29090   13.23470   78.35130    2.65210   26.57070  -33.88590  -49.39380
 5300.00000    8.04530  138.79030    0.00690   58.36420    9.07080    9.90800    6.89860    7.34320    9.20040   44.31330    2.55170   19.31840  -42.58180  -58.09630
 5350.00000    8.38050   19.35280   -0.00760   53.67470   19.16330   22.49310   74.77200   62.13740   34.55000   79.38630    2.71060   31.75560  -27.00810  -40.27190
 5400.00000    9.07670   79.72960    0.07180   63.73600   47.90990   45.54280   12.28140   12.73350   10.46610   18.76350    2.69420   12.98810  -11.86310  -26.62610
 5450.00000    9.07520   97.32910   -0.01720   66.46240   54.10890   52.94130   10.22270   10.07580    9.05870   14.54010    2.65060   10.77890  -11.00080  -25.42660
 5500.00000    8.44470   15.45820   -0.01960   51.32530   15.32950   15.02860   87.14630   81.55000   28.29260   94.70520    2.68920   28.16330  -19.28330  -34.60730
 5550.00000    8.57540   78.00310   -0.00250   61.66350   56.00360   51.44820   14.46030   12.94070   10.78970   27.33790    2.69350   13.01160  -12.42430  -25.25180
 5600.00000    8.31830   82.32110   -0.00400   65.91850   59.66700   54.68310   12.01510   12.42790   11.61180   22.39910    2.66710   13.63150  -21.51660  -25.78410
