~Version ---------------------------------------------------
VERS.      2.0 : CWLS log ASCII Standard -VERSION 2.0
WRAP.       NO : One line per depth step
CREA. 11/16/17 : LAS Creation Date
~Well ------------------------------------------------------
STRT.FT                       700.0 : START DEPTH
STOP.FT                      7200.0 : STOP DEPTH
STEP.FT                    50.00000 : STEP LENGTH
NULL.                       -999.25 : NULL VALUE
COMP.           GULF CANADA LIMITED : COMPANY
WELL. B.A. RICHARDS STETW 6-6-37-20 : WELL
FLD .                               : FIELD
LOC .                               : LOCATION
CTRY.                        CANADA : COUNTRY
SRVC.                  Schlumberger : SERVICE COMPANY
DATE.                   06-Nov-1960 : LOGDATE
PROV.                       Alberta : PROVINCE
UWI .              100060603720W400 : UNIQUE WELL ID
SLAT.WGS84                 52.14843 : SURFACE LATITUDE
SLON.WGS84                -112.8522 : SURFACE LONGITUDE
~Curve Information -----------------------------------------
DEPT  .FT    : Depth Curve
CALWS .IN    : CALIPER [MCALED]
CILDED.MMHO  : CONDUCTIVITY FROM RESISTIVITY LOG
CONDWS.MMHO  : CONDUCTIVITY [1000/DRESWS]
DRESWS.OHMM  : DEEP RESISTIVITY [CALC FROM 1000/CILDED, IF ILDED<1, ILDED]
DTED  .US/F  : SONIC INTERVAL TRANSIT TIME FROM SONIC LOG
DTWS  .US/F  : COMPRESSIONAL SONIC [DTED]
GRSED .GAPI  : GAMMA RAY FROM SONIC LOG
GRWS  .GAPI  : GAMMA RAY [GRSED]
ILDED .OHMM  : DEEP INDUCTION RESISTIVITY FROM RESISTIVITY LOG
MCALED.IN    : MLT [MICROLOG] CALIPER
SNED  .OHMM  : SHORT NORMAL FROM RESISTIVITY LOG
SPRED .MV    : SPONTANEOUS POTENTIAL FROM RESISTIVITY
SPWS  .MV    : SPONTANEOUS POTENTIAL [BASELINE 0 MV, SPRED]
SRESWS.OHMM  : SHALLOW RESISTIVITY [SNED]
~Params ----------------------------------------------------
EKB .FT                 2773 : KELLY BUSHING
EGL .FT                 2762 : GROUND LEVEL
DATE.               11/06/60 : RUN DATE
RUN .                      3 : RUN NUMBER
DD  .FT                 7241 : DEPTH DRILLER
DL  .FT                 7236 : DEPTH LOGGER
BLI .FT                 7230 : BOTTOM LOG INTERVAL
TLI .FT                 4616 : TOP LOG INTERVAL
CBD .FT                  743 : CASING BOTTOM DRILLER
CBL .FT                  743 : CASING BOTTOM LOGGER
BS  .IN                 8.75 : BIT SIZE
BSD .FT                 7241 : BIT SIZE AT DEPTH
DFT .               OIL EMUL : DRILLING FLUID TYPE
DFD .                     10 : DRILLING FLUID DENSITY
DFV .                     72 : DRILLING FLUID VISCOSITY
DFPH.                    7.6 : DRILLING FLUID PH
DFL .                    4.6 : DRILLING FLUID LOSS
RMS .OHMM               1.06 : RESISTIVITY MUD SAMPLE
MST .DEGF                 68 : MUD SAMPLE TEMPERATURE
RMF .OHMM               0.65 : RESISTIVITY MUD FILTRATE SAMPLE
MFST.DEGF                 60 : MUD FILTRATE SAMPLE TEMPERATURE
RMC .OHMM               1.59 : RESISTIVITY MUD CAKE
MCST.DEGF                 60 : MUD CAKE SAMPLE TEMPERATURE
RMB .OHMM               0.53 : RESISTIVITY MUD AT BHT
TCS .HRS                   4 : TIME CIRCULATED STOPPED
LUN .                   3815 : LOGGING UNIT NUMBER
LUL .                      C : LOGGING UNIT LOCATION
ENGI.               SHABBITS : RECORDING ENGINEER
WITN.               HANNEGAN : WITNESSED BY
CLNT.                A2DTECH : CLIENT CODE
ORIG.            2" 5" PRINT : ORIGIN OF DATA
UWI .       100060603720W400 : UNIQUE WELL ID
DICO. A2D Technologies, Inc. : DIGITIZING COMPANY
~Other -----------------------------------------------------
~ASCII -----------------------------------------------------
# ...
 5600.00000    8.76630   74.36600   70.65290   14.15370   90.65570   90.65570    0.75230   12.41290   14.15370    8.76630   24.16200  -73.22550  -21.85570   24.16200
 5650.00000    8.53280  151.75620  161.71550    6.18370   54.88490   54.88490    0.80690   13.31380    6.18370    8.53280   14.06450  -86.11760  -36.10840   14.06450
 5700.00000    8.51890  183.24830  184.89760    5.40840   56.86450   56.86450    0.49450    8.15930    5.40840    8.51890   13.68920 -104.47540  -55.83570   13.68920
 5750.00000    8.44010   46.01160   47.23640   21.17010   53.42780   53.42780    0.58410    9.63760   21.17010    8.44010   32.99200  -93.39630  -46.11720   32.99200
 5800.00000    8.62270   55.54920   63.62580   15.71690   52.04090   52.04090    0.89520   14.77080   15.71690    8.62270   36.75440  -88.51310  -42.59470   36.75440
 5850.00000    8.56760   70.88780   76.83380   13.01510   53.42230   53.42230    0.46960    7.74840   13.01510    8.56760   37.81880  -88.16250  -43.61360   37.81880
 5900.00000    8.60750   94.54140   99.72380   10.02770   53.51170   53.51170    0.66010   10.89170   10.02770    8.60750   20.97190  -83.26190  -40.07360   20.97190
 5950.00000    8.56690   50.75720   52.51630   19.04170   52.75070   52.75070    0.57000    9.40500   19.04170    8.56690   45.54150  -78.87110  -37.05240   45.54150
 6000.00000    8.51140   56.51500   63.69180   15.70060   51.09960   51.09960    0.47220    7.79130   15.70060    8.51140   38.41410  -65.04650  -24.58840   38.41410
 6050.00000    8.48140   54.37220   58.07640   17.21870   56.09450   56.09450    0.57490    9.48580   17.21870    8.48140   47.08630  -51.90610  -12.80860   47.08630
 6100.00000    8.64710   53.48470   61.15830   16.35100   54.84290   54.84290    0.50740    8.37210   16.35100    8.64710   32.18780  -41.61250   -3.87160   32.18780
 6150.00000    8.51240   55.52600   62.34610   16.03950   50.23490   50.23490    0.58190    9.60140   16.03950    8.51240   48.86080  -57.68170  -21.64630   48.86080
 6200.00000    8.50550   52.53700   57.01220   17.54010   50.34120   50.34120    0.72560   11.97240   17.54010    8.50550   47.51460  -82.18690  -47.86820   47.51460
 6250.00000    8.37990   34.52490   34.84150   28.70140   52.16040   52.16040    0.71930   11.86850   28.70140    8.37990   65.36350  -94.12950  -61.51630   65.36350
 6300.00000    8.46750  106.43430  102.90710    9.71750   53.91460   53.91460    0.77680   12.81720    9.71750    8.46750   37.34470  -99.06660  -68.15890   37.34470
 6350.00000    8.53080   41.80990   44.68140   22.38070   55.03700   55.03700    0.80960   13.35840   22.38070    8.53080   49.44390  -78.89100  -49.70000   49.44390
 6400.00000    8.73980   19.10120   19.41480   51.50720   50.75930   50.75930    0.77480   12.78420   51.50720    8.73980  100.11620  -67.34580  -39.86030  100.11620
 6450.00000    8.70080   22.39770   21.85950   45.74670   52.82110   52.82110    1.58320   26.12280   45.74670    8.70080   69.34470  -36.58810  -10.81940   69.34470
 6500.00000    8.72760   14.48750   15.59450   64.12510   51.64990   51.64990    0.39720    6.55380   64.12510    8.72760   96.31620  -91.38020  -66.92240   96.31620
 6550.00000    8.77920   41.62450   43.71640   22.87470   52.90370   52.90370    0.92420   15.24930   22.87470    8.77920   44.00240 -100.72720  -77.32990   44.00240
 6600.00000    8.64270   41.89740   42.53400   23.51060   59.12290   59.12290    3.02810   49.96360   23.51060    8.64270   43.18570  -49.43130  -27.10160   43.18570
 6650.00000    8.72760   44.87190   48.82980   20.47930   60.01720   60.01720    3.85140   63.54810   20.47930    8.72760   30.58860  -22.63550   -1.36630   30.58860
 6700.00000    8.43410  107.80400  114.55930    8.72910   56.78140   56.78140    0.53220    8.78130    8.72910    8.43410   38.05770  -79.16790  -58.26180   38.05770
 6750.00000    8.60780   16.54450   17.25000   57.97100   49.94630   49.94630    1.55710   25.69210   57.97100    8.60780  120.56840  -66.36430  -45.29980  120.56840
 6800.00000    8.59790   18.69970   20.28300   49.30240   51.70860   51.70860    0.97150   16.02980   49.30240    8.59790   84.23340  -65.60540  -44.38250   84.23340
 6850.00000    8.48430  232.79250  271.39990    3.68460   55.54370   55.54370    1.52270   25.12450    3.68460    8.48430   17.42460 -101.40930  -80.02700   17.42460
 6900.00000    8.67670    9.04720   12.20870   81.90860   52.45570   52.45570    1.50020   24.75330   81.90860    8.67670  132.10350  -58.99150  -37.45080  132.10350
 6950.00000    8.69070    8.31670   10.93450   91.45340   53.09980   53.09980    1.41520   23.35080   91.45340    8.69070   73.69550  -35.07430  -13.37410   73.69550
 7000.00000    8.69970    9.94530   12.52730   79.82590   53.04610   53.04610    1.20370   19.86100   79.82590    8.69970   71.78580  -81.73790  -55.25770   71.78580
 7050.00000    8.63000   15.74150   20.35900   49.11840   51.21610   51.21610    1.41750   23.38870   49.11840    8.63000   68.19290  -75.35950  -42.63250   68.19290
 7100.00000    8.63970   51.16170   55.82480   17.91320   63.94440   63.94440    4.75060   78.38490   17.91320    8.63970   25.87450  -47.35130   -8.33630   25.87450
 7150.00000    8.64570   22.43120   24.30090   41.15080   56.47430   56.47430    2.62890   43.37680   41.15080    8.64570   59.83500  -49.61110   -6.80170   59.83500
 7200.00000    8.63070   13.73340   16.34480   61.18140   49.77900   49.77900    1.16580   19.23570   61.18140    8.63070   67.10880  -77.54190  -34.73250   67.10880
