~Version ---------------------------------------------------
VERS.      2.0 : CWLS log ASCII Standard -VERSION 2.0
WRAP.       NO : One line per depth step
CREA. 12/14/17 : LAS Creation Date
~Well ------------------------------------------------------
STRT.FT                         1000.0 : START DEPTH
STOP.FT                         9400.0 : STOP DEPTH
STEP.FT                       50.00000 : STEP LENGTH
NULL.                          -999.25 : NULL VALUE
COMP.          QUINTANA EXPLORATION CO : COMPANY
WELL. QUINTANA ET AL STURLS 3-21-69-21 : WELL
FLD .                                  : FIELD
LOC .                                  : LOCATION
CTRY.                           CANADA : COUNTRY
SRVC.                    Dresser Atlas : SERVICE COMPANY
DATE.                      14-Jul-1971 : LOGDATE
PROV.                          Alberta : PROVINCE
UWI .                 100032106921W500 : UNIQUE WELL ID
SLAT.WGS84                    54.98342 : SURFACE LATITUDE
SLON.WGS84                   -117.1428 : SURFACE LONGITUDE
~Curve Information -----------------------------------------
DEPT  .FT    : Depth Curve
ASNED .OHMM  : AMPLIFIED SHORT NORMAL FROM RESISTIVITY LOG
CONDWS.MMHO  : CONDUCTIVITY [1000/DRESWS]
DRESWS.OHMM  : DEEP RESISTIVITY [LNED]
GRNED .GAPI  : GAMMA RAY FROM GRN LOG
GRWS  .GAPI  : GAMMA RAY [GRNED]
LATED .OHMM  : LATERAL FROM RESISTIVITY LOG
LNED  .OHMM  : LONG NORMAL FROM RESISTIVITY LOG
NEUTED.NAPI  : NEUTRON FROM GRN LOG
NEUTWS.NAPI  : NEUTRON [NEUTED]
SPRED .MV    : SPONTANEOUS POTENTIAL FROM RESISTIVITY LOG
SPWS  .MV    : SPONTANEOUS POTENTIAL [BASELINE 0 MV,SPRED]
SRESWS.OHMM  : SHALLOW RESISTIVITY [ASNED]
~Params ----------------------------------------------------
PD  .                     GL : PERMANENT DATUM
EPD .FT                 2131 : ELEVATION PERMANENT DATUM
LMF .                     KB : LOG MEASURED FROM
DAPD.FT                   15 : FEET ABOVE PERMANENT DATUM
DMF .                     KB : DRILLING MEASURED FROM
EKB .FT                 2146 : KELLY BUSHING
EGL .FT                 2131 : GROUND LEVEL
DATE.               07/14/71 : RUN DATE
RUN .                      1 : RUN NUMBER
DD  .FT                 9420 : DEPTH DRILLER
DL  .FT                 9421 : DEPTH LOGGER
BLI .FT                 9421 : BOTTOM LOG INTERVAL
TLI .FT                 2355 : TOP LOG INTERVAL
CS  .IN                8.625 : CASING SIZE
CBD .FT                  988 : CASING BOTTOM DRILLER
BS  .IN                7.875 : BIT SIZE
BSD .FT                 9420 : BIT SIZE AT DEPTH
DFT .                MUD GEL : DRILLING FLUID TYPE
DFD .                    9.2 : DRILLING FLUID DENSITY
DFV .                    300 : DRILLING FLUID VISCOSITY
DFPH.                    9.5 : DRILLING FLUID PH
DFL .                    8.2 : DRILLING FLUID LOSS
MSS .                   CIRC : MUD SAMPLE SOURCE
RMS .OHMM                2.5 : RESISTIVITY MUD SAMPLE
MST .DEGF                 65 : MUD SAMPLE TEMPERATURE
RMF .OHMM                1.9 : RESISTIVITY MUD FILTRATE SAMPLE
MFST.DEGF                 70 : MUD FILTRATE SAMPLE TEMPERATURE
RMC .OHMM                2.7 : RESISTIVITY MUD CAKE
MCST.DEGF                 70 : MUD CAKE SAMPLE TEMPERATURE
MFSS.                   MEAS : MUD FILTRATE SAMPLE SOURCE
MCSS.                   MEAS : MUD CAKE SAMPLE SOURCE
RMB .OHMM               0.97 : RESISTIVITY MUD AT BHT
TCS .HRS                  21 : TIME CIRCULATED STOPPED
LUN .                   6091 : LOGGING UNIT NUMBER
LUL .                    V.V : LOGGING UNIT LOCATION
ENGI.                 MILLER : RECORDING ENGINEER
WITN.                  KENNY : WITNESSED BY
CLNT.                A2DTECH : CLIENT CODE
ORIG.            2" 5" PRINT : ORIGIN OF DATA
UWI .       100032106921W500 : UNIQUE WELL ID
DICO. A2D Technologies, Inc. : DIGITIZING COMPANY
~Other -----------------------------------------------------
EL-GRN LOG RUN
ALL DATA FROM TOP TO 2998' FROM 2"SCALE SECTION
~ASCII -----------------------------------------------------
# ...
 3800.00000    5.82990  149.84870    6.67340   73.18490   73.18490    2.50760    6.67340  424.37930  424.37930  -63.14240   -2.67690    5.82990
 3850.00000   10.23610  113.69320    8.79560   75.30270   75.30270    5.25320    8.79560  427.15370  427.15370  -86.91970  -26.33580   10.23610
 3900.00000   15.50680  104.11030    9.60520   61.90440   61.90440   11.61970    9.60520  626.12320  626.12320  -85.86130  -25.15980   15.50680
 3950.00000   11.91340   84.64180   11.81450   61.23230   61.23230    3.60990   11.81450  604.17650  604.17650  -88.08310  -27.26320   11.91340
 4000.00000    7.62660  157.97290    6.33020   60.20880   60.20880   14.08230    6.33020  494.92450  494.92450  -89.57580  -28.63830    7.62660
 4050.00000    6.30910  168.54880    5.93300   58.34210   58.34210    3.60040    5.93300  481.08620  481.08620 -100.27800  -39.22290    6.30910
 4100.00000    7.00460  142.08990    7.03780   68.47220   68.47220    5.80940    7.03780  507.13140  507.13140  -86.71460  -25.54120    7.00460
 4150.00000   12.92410  145.42920    6.87620   48.92090   48.92090    4.61220    6.87620  693.34780  693.34780 -127.99170  -66.70070   12.92410
 4200.00000   14.31240  120.60400    8.29160   57.71820   57.71820    4.81640    8.29160  565.63190  565.63190 -123.74740  -62.33800   14.31240
 4250.00000    8.30250  116.52430    8.58190   86.62690   86.62690    6.43460    8.58190  521.49190  521.49190  -80.49480  -18.96780    8.30250
 4300.00000   10.05140  100.17030    9.98300  106.38420  106.38420   12.57200    9.98300  499.80250  499.80250  -77.16690  -15.52230   10.05140
 4350.00000   14.51850   92.22800   10.84270   91.46190   91.46190    7.76320   10.84270  494.95690  494.95690  -79.57320  -17.81020   14.51850
 4400.00000   30.30120   35.50680   28.16360   47.03490   47.03490   10.25930   28.16360  526.43500  526.43500 -138.13570  -76.25510   30.30120
 4450.00000   31.04270   37.51160   26.65840   40.80730   40.80730    9.08160   26.65840  655.35560  655.35560 -139.20610  -77.20710   31.04270
 4500.00000   27.05050   50.00730   19.99710   81.08670   81.08670    9.99260   19.99710  559.20350  559.20350  -78.74690  -16.63030   27.05050
 4550.00000    3.51040  164.79620    6.06810   90.63410   90.63410    5.19350    6.06810  330.52620  330.52620  -76.30310  -14.06890    3.51040
 4600.00000    4.42990  208.78130    4.78970  100.30130  100.30130    4.05210    4.78970  394.95370  394.95370  -75.77130  -13.41880    4.42990
 4650.00000    3.89740  289.65360    3.45240   92.91390   92.91390    3.88850    3.45240  333.87160  333.87160  -73.10920  -10.63910    3.89740
 4700.00000   48.66740   19.86930   50.32900  152.49220  152.49220   16.58070   50.32900  397.40540  397.40540  -70.16730   -7.57880   48.66740
 4750.00000  174.80930    2.35770  424.14240  214.11870  214.11870   73.11410  424.14240  567.37460  567.37460  -67.29950   -4.59340  174.80930
 4800.00000  318.34740    2.00000  500.00000  240.00000  240.00000  500.00000  500.00000  660.72330  660.72330  -69.05640   -6.23270  318.34740
 4850.00000   18.86690   72.88420   13.72040   58.77370   58.77370    4.82570   13.72040  592.49190  592.49190 -139.28900  -77.73940   18.86690
 4900.00000   11.43410  148.94250    6.71400   80.26850   80.26850    2.50340    6.71400  578.09380  578.09380 -111.96300  -51.87530   11.43410
 4950.00000   15.90520  129.28080    7.73510   76.73730   76.73730    1.91440    7.73510  713.19780  713.19780 -119.84590  -61.22970   15.90520
 5000.00000   15.86390  102.45480    9.76040   47.28760   47.28760    2.16100    9.76040  743.62920  743.62920 -133.39560  -76.24130   15.86390
 5050.00000    9.38850  148.63480    6.72790   64.96210   64.96210    3.54970    6.72790  756.28510  756.28510  -94.70820  -39.01580    9.38850
 5100.00000   19.87440   90.14780   11.09290   15.31040   15.31040    1.24730   11.09290  922.93960  922.93960 -167.12570 -112.90490   19.87440
 5150.00000   28.07750   76.21890   13.12010   41.79360   41.79360    4.12150   13.12010 1181.88240 1181.88240 -132.82280  -80.06390   28.07750
 5200.00000   38.83940   33.60620   29.75640   11.92790   11.92790   12.87480   29.75640 1083.16910 1083.16910 -122.51360  -71.22620   38.83940
 5250.00000   17.02860   78.34600   12.76390   42.73620   42.73620   11.16440   12.76390  778.11000  778.11000 -130.67660  -80.85110   17.02860
 5300.00000    6.07270  174.26460    5.73840   40.25310   40.25310    1.40500    5.73840  565.48610  565.48610 -150.37740 -102.01380    6.07270
 5350.00000   56.10430   13.56020   73.74530   20.05450   20.05450   65.96800   73.74530 1559.46130 1559.46130 -179.00720 -132.11510   56.10430
 5400.00000   36.45640   14.49130   69.00700   35.24510   35.24510    5.03060   69.00700 1319.15370 1319.15370 -117.61030  -72.18010   36.45640
 5450.00000   16.40500  186.33420    5.36670   22.88460   22.88460    6.82800    5.36670  596.15580  596.15580 -180.02060 -136.06200   16.40500
 5500.00000   22.47860   44.69350   22.37460   34.54280   34.54280    3.44980   22.37460  993.29330  993.29330 -122.68110  -80.18440   22.47860
 5550.00000   32.39340   46.91690   21.31430   29.21590   29.21590    9.86950   21.31430  799.92300  799.92300 -158.07250 -117.03770   32.39340
 5600.00000   42.26670   24.04990   41.58030   46.92200   46.92200    4.33900   41.58030 1388.58860 1388.58860  -69.38960  -29.82630   42.26670
 5650.00000   43.19330   21.45530   46.60850   38.96520   38.96520   46.82050   46.60850 1182.83290 1182.83290  -42.02610   -3.92470   43.19330
 5700.00000   30.70260   19.83880   50.40640   26.02230   26.02230   29.19840   50.40640 1015.29270 1015.29270  -44.53030   -7.09800   30.70260
 5750.00000    7.52400  182.23570    5.48740   56.47030   56.47030    6.53290    5.48740  828.43270  828.43270  -78.43840  -41.57770    7.52400
 5800.00000    7.69310  291.18860    3.43420   31.56270   31.56270    2.01480    3.43420  586.11450  586.11450 -136.17610  -99.88690    7.69310
 5850.00000   17.91550  114.49770    8.73380   21.12580   21.12580    1.17040    8.73380 1097.13920 1097.13920 -116.92600  -81.21220   17.91550
 5900.00000   45.09690   26.03940   38.40330   36.95230   36.95230   19.98650   38.40330 1446.78470 1446.78470  -46.38430  -11.24210   45.09690
 5950.00000   47.48490   20.49210   48.79930   17.32200   17.32200   28.93630   48.79930 1045.92210 1045.92210 -155.45710 -120.89020   47.48490
 6000.00000   50.24100   12.56360   79.59510   16.28670   16.28670   27.89940   79.59510 1119.30080 1119.30080 -137.35470 -103.35940   50.24100
 6050.00000   70.64050    8.51520  117.43700   16.95060   16.95060   65.66700  117.43700 1249.52280 1249.52280 -132.81880  -99.39510   70.64050
 6100.00000    4.67580  127.89690    7.81880  105.77030  105.77030   31.85620    7.81880  482.01780  482.01780  -36.48940   -3.64100    4.67580
 6150.00000    3.18030  277.62350    3.60200   57.18510   57.18510    2.31980    3.60200  651.58870  651.58870  -85.17980  -51.97730    3.18030
 6200.00000   10.37230  150.97070    6.62380   52.07750   52.07750    5.80690    6.62380  834.05750  834.05750  -96.28530  -62.56020   10.37230
 6250.00000   21.53480   51.99780   19.23160   55.99190   55.99190    8.40250   19.23160 1026.18130 1026.18130  -41.19220   -6.94790   21.53480
 6300.00000   53.04680    9.43790  105.95540   18.88320   18.88320  123.19690  105.95540 1543.86830 1543.86830  -76.67120  -41.90780   53.04680
 6350.00000   37.22160   14.68050   68.11780   59.13070   59.13070  166.75960   68.11780  939.48610  939.48610  -44.46850   -9.18250   37.22160
 6400.00000  103.20340    5.62700  177.71350   32.59620   32.59620  304.61250  177.71350 1020.75620 1020.75620  -74.51910  -38.71390  103.20340
 6450.00000   30.56700   23.86940   41.89470   38.48970   38.48970   37.96560   41.89470  710.74180  710.74180  -56.26090  -19.93320   30.56700
 6500.00000   28.54450   27.14260   36.84250   39.87420   39.87420   30.81140   36.84250  653.58530  653.58530  -54.50760  -17.66070   28.54450
 6550.00000   31.57130   22.24030   44.96340   32.67140   32.67140   28.09810   44.96340  727.03190  727.03190  -56.97740  -19.61130   31.57130
