~Version ---------------------------------------------------
VERS.      2.0 : CWLS log ASCII Standard -VERSION 2.0
WRAP.       NO : One line per depth step
CREA. 11/03/17 : LAS Creation Date
~Well ------------------------------------------------------
STRT.FT                                        700.0 : START DEPTH
STOP.FT                                       5750.0 : STOP DEPTH
STEP.FT                                     50.00000 : STEP LENGTH
NULL.                                        -999.25 : NULL VALUE
COMP. GREAT PLAINS DEVELOPMENT COMPANY OF CANADA LTD : COMPANY
WELL.            GRT PLNS B.A. THUNDER LK 12-18-60-5 : WELL
FLD .                                                : FIELD
LOC .                                                : LOCATION
CTRY.                                         CANADA : COUNTRY
SRVC.                                   Schlumberger : SERVICE COMPANY
DATE.                                    30-Mar-1962 : LOGDATE
PROV.                                        Alberta : PROVINCE
UWI .                               100121806005W500 : UNIQUE WELL ID
SLAT.WGS84                                  54.19013 : SURFACE LATITUDE
SLON.WGS84                                 -114.7475 : SURFACE LONGITUDE
~Curve Information -----------------------------------------
DEPT  .FT    : Depth Curve
CALSED.IN    : CALIPER FROM SONIC LOG [ADJ. TO RESISTIVITY LOG]
CALWS .IN    : CALIPER [CALSED]
CILDED.MMHO  : DEEP INDUCTION CONDUCTIVITY FROM RESISTIVITY LOG
CONDWS.MMHO  : CONDUCTIVITY [1000/DRESWS]
DRESWS.OHMM  : DEEP RESISTIVITY [1000/CILDED, IF ILDED<1, ELSE ILDED]
DT1ED .US/F  : DELTA TIME (SPACING  3' - 1') FROM SONIC LOG [ADJ. TO RESISTIVITY LOG]
DTED  .US/F  : DELTA TIME (SPACING  3' - 3') FROM SONIC LOG [ADJ. TO RESISTIVITY LOG]
DTWS  .US/F  : COMPRESSIONAL SONIC [DTED]
GRSED .GAPI  : GAMMA RAY FROM SONIC LOG [ADJ. TO RESISTIVITY LOG]
GRWS  .GAPI  : GAMMA RAY [GRSED]
ILDED .OHMM  : DEEP INDUCTION LOG RESISTIVITY FROM RESISTIVITY LOG
SNED  .OHMM  : 16 INCH SHORT NORMAL RESISTIVITY FROM RESISTIVITY LOG
SPRED .MV    : SPONTANEOUS POTENTIAL FROM RESISTIVITY LOG
SPWS  .MV    : SPONTANEOUS POTENTIAL [BASELINE 0 MV, SPRED]
SRESWS.OHMM  : SHALLOW RESISTIVITY [SNED]
~Params ----------------------------------------------------
PD  .                     GL : PERMANENT DATUM
EPD .FT                 2230 : ELEVATION PERMANENT DATUM
LMF .                     KB : LOG MEASURED FROM
DAPD.FT                   12 : FEET ABOVE PERMANENT DATUM
EKB .FT                 2242 : KELLY BUSHING
EGL .FT                 2230 : GROUND LEVEL
DATE.               03/30/62 : RUN DATE
RUN .                      2 : RUN NUMBER
DD  .FT                 7155 : DEPTH DRILLER
DL  .FT                 7158 : DEPTH LOGGER
BLI .FT                 7157 : BOTTOM LOG INTERVAL
TLI .FT                 3200 : TOP LOG INTERVAL
CBD .FT                  735 : CASING BOTTOM DRILLER
BS  .IN                 8.75 : BIT SIZE
BSD .FT                 7155 : BIT SIZE AT DEPTH
DFT .                    GYP : DRILLING FLUID TYPE
DFD .                   10.5 : DRILLING FLUID DENSITY
DFV .                     90 : DRILLING FLUID VISCOSITY
DFPH.                      7 : DRILLING FLUID PH
DFL .                    6.8 : DRILLING FLUID LOSS
RMS .OHMM                1.8 : RESISTIVITY MUD SAMPLE
MST .DEGF                 60 : MUD SAMPLE TEMPERATURE
RMF .OHMM                1.2 : RESISTIVITY MUD FILTRATE SAMPLE
MFST.DEGF                 70 : MUD FILTRATE SAMPLE TEMPERATURE
RMC .OHMM                2.0 : RESISTIVITY MUD CAKE
MCST.DEGF                 70 : MUD CAKE SAMPLE TEMPERATURE
RMB .OHMM                1.8 : RESISTIVITY MUD AT BHT
TCS .HRS                 2.5 : TIME CIRCULATED STOPPED
LUN .                   1534 : LOGGING UNIT NUMBER
LUL .                    EDM : LOGGING UNIT LOCATION
ENGI.                SKILTON : RECORDING ENGINEER
WITN.                BUCKLEY : WITNESSED BY
CLNT.                A2DTECH : CLIENT CODE
ORIG.            2" 5" PRINT : ORIGIN OF DATA
UWI .       100121806005W500 : UNIQUE WELL ID
DICO. A2D Technologies, Inc. : DIGITIZING COMPANY
~Other -----------------------------------------------------
~ASCII -----------------------------------------------------
# ...
 3000.00000    9.62410    9.62410  174.38800  175.26640    5.70560    -999.25  110.41000  110.41000  105.74190  105.74190    5.70560    7.69580   -8.03710   -3.55840    7.69580
 3050.00000   14.25400   14.25400  369.79730  399.64830    2.50220    -999.25  121.48610  121.48610   61.63440   61.63440    2.50220    3.03660   -7.05680   -3.58940    3.03660
 3100.00000   15.13020   15.13020  354.02360  393.37560    2.54210    -999.25  119.59320  119.59320   72.23170   72.23170    2.54210    3.43970   -6.87060   -3.41620    3.43970
 3150.00000   15.37430   15.37430  328.48390  375.19230    2.66530    -999.25  110.94640  110.94640   64.99850   64.99850    2.66530    3.72750   -8.05150   -4.12550    3.72750
 3200.00000   12.66680   12.66680  301.16620  356.32840    2.80640    -999.25  101.28530  101.28530   62.58140   62.58140    2.80640    3.78810   -8.65610   -4.25540    3.78810
 3250.00000    9.10310    9.10310  115.00640  111.82680    8.94240    -999.25   83.41030   83.41030   63.06840   63.06840    8.94240    9.63810  -10.38190   -5.50960    9.63810
 3300.00000    8.77450    8.77450  112.63890  108.95500    9.17810    -999.25   81.14560   81.14560   48.99000   48.99000    9.17810   11.59780  -23.19780  -18.30360   11.59780
 3350.00000    8.84900    8.84900  133.13650  127.13590    7.86560    -999.25   97.81730   97.81730   59.84560   59.84560    7.86560    9.47240   -9.03410   -4.39730    9.47240
 3400.00000    8.43240    8.43240  137.57100  132.07250    7.57160    -999.25   82.53670   82.53670   46.79690   46.79690    7.57160   13.81980  -45.59720  -41.21610   13.81980
 3450.00000    9.23970    9.23970  165.53710  170.77090    5.85580    -999.25   84.45980   84.45980   72.80680   72.80680    5.85580    7.04080   -6.07250   -1.94870    7.04080
 3500.00000    8.56330    8.56330   14.43280    9.37600  106.65540    -999.25  129.84210  129.84210    9.00280    9.00280  106.65540   87.43590  -64.22430  -60.56370   87.43590
 3550.00000    8.68290    8.68290  109.87660  109.27290    9.15140    -999.25   86.09840   86.09840   62.11890   62.11890    9.15140   13.44920  -26.26500  -23.09550   13.44920
 3600.00000    8.75760    8.75760  132.33530  129.62940    7.71430    -999.25   86.19980   86.19980   59.55630   59.55630    7.71430    9.34610  -10.91960   -8.24440    9.34610
 3650.00000    8.57790    8.57790   77.52260   83.36810   11.99500    -999.25   72.20100   72.20100   45.41150   45.41150   11.99500   17.54740  -23.14750  -20.96340   17.54740
 3700.00000    8.72620    8.72620  133.25210  129.47830    7.72330    -999.25   90.54460   90.54460   53.84850   53.84850    7.72330    8.89340  -19.99930  -18.30950    8.89340
 3750.00000    8.80030    8.80030  129.25490  129.16230    7.74220    -999.25   77.39740   77.39740   57.98720   57.98720    7.74220   10.04030  -21.07320  -19.87450   10.04030
 3800.00000    8.71790    8.71790  165.03040  176.41040    5.66860    -999.25   82.12640   82.12640   64.63400   64.63400    5.66860    7.42930   -6.33800   -5.63040    7.42930
 3850.00000    8.71770    8.71770  149.39460  148.18990    6.74810    -999.25   85.04080   85.04080   72.01550   72.01550    6.74810    8.66250   -3.96810   -3.75580    8.66250
 3900.00000    8.93880    8.93880  113.76480  115.81450    8.63450    -999.25   90.21330   90.21330   54.49410   54.49410    8.63450   11.93630   -4.61430   -4.90360   11.93630
 3950.00000    8.36690    8.36690  105.28330  104.08640    9.60740    -999.25   96.65310   96.65310   48.62730   48.62730    9.60740   28.58930  -57.81210  -58.60640   28.58930
 4000.00000    8.50470    8.50470   59.86660   60.99160   16.39570    -999.25   65.69160   65.69160   41.76650   41.76650   16.39570   19.92860  -15.12110  -16.41700   19.92860
 4050.00000   11.37740   11.37740  176.88580  192.19310    5.20310    -999.25   91.60980   91.60980   71.26820   71.26820    5.20310    7.11630   -4.28660   -6.32070    7.11630
 4100.00000    8.75270    8.75270  103.51170   98.54740   10.14740    -999.25   71.08570   71.08570   81.29640   81.29640   10.14740   13.34770  -12.11580  -15.51660   13.34770
 4150.00000    8.61760    8.61760  232.10640  292.91150    3.41400    -999.25   73.77650   73.77650   23.02550   23.02550    3.41400   26.00780 -169.55000 -174.30850   26.00780
 4200.00000    8.53980    8.53980   71.02800   71.43470   13.99880   63.67650   63.17020   63.17020   29.22240   29.22240   13.99880   19.14610  -41.79480  -47.92000   19.14610
 4250.00000    8.38330    8.38330   32.49480   32.31860   30.94190   61.24560   60.50190   60.50190   21.86150   21.86150   30.94190   41.07550  -27.64290  -35.12590   41.07550
 4300.00000    8.43160    8.43160   16.94450   11.86880   84.25440   59.97810   59.42130   59.42130   26.58300   26.58300   84.25440   76.49030   -8.33430  -17.17500   76.49030
 4350.00000    8.57320    8.57320   16.42060   11.78710   84.83820   69.91780   69.31190   69.31190   59.29610   59.29610   84.83820   79.88670    9.65050   -0.55690   79.88670
 4400.00000    8.44270    8.44270    6.33990    3.12910  319.58430   54.00610   55.28830   55.28830   15.05680   15.05680  319.58430  133.70860  -34.38490  -42.52720  133.70860
 4450.00000    8.37900    8.37900   17.03220   13.99290   71.46490   53.16350   51.13220   51.13220   20.45630   20.45630   71.46490   76.11040  -69.24180  -75.08850   76.11040
 4500.00000    8.12230    8.12230  470.27690  424.23210    2.35720   66.52980   59.69540   59.69540   16.58680   16.58680    2.35720   10.81570 -138.82250 -142.38870   10.81570
 4550.00000    8.15510    8.15510   90.93420   91.27170   10.95630   53.79390   53.62000   53.62000   15.50880   15.50880   10.95630   66.30350 -162.12740 -163.41310   66.30350
 4600.00000    8.44900    8.44900   12.03450   10.45390   95.65830   52.69140   51.47890   51.47890    9.69250    9.69250   95.65830   78.60100  -94.82760  -93.81780   78.60100
 4650.00000    8.32530    8.32530    0.32140    3.30000  303.02750   50.56750   48.53020   48.53020   16.50540   16.50540  303.02750   88.37660 -115.99340 -112.70300   88.37660
 4700.00000    8.28330    8.28330   11.80820   11.60030   86.20430   51.14320   49.10790   49.10790   18.54060   18.54060   86.20430   89.30380 -126.49100 -120.90510   89.30380
 4750.00000    8.13530    8.13530   41.94730   43.61630   22.92720   52.86720   51.72830   51.72830   12.63080   12.63080   22.92720   69.05550 -130.44200 -122.57560   69.05550
 4800.00000    8.29530    8.29530   16.87970   16.24900   61.54240   51.28370   49.84980   49.84980   12.51480   12.51480   61.54240   70.81270 -132.22670 -122.07970   70.81270
 4850.00000    8.15840    8.15840   61.81890   63.85940   15.65940   53.11130   53.19340   53.19340   10.60600   10.60600   15.65940   49.99670 -133.96690 -121.52440   49.99670
 4900.00000    8.34540    8.34540   57.51010   45.86570   21.80280   52.32330   53.37430   53.37430   13.65140   13.65140   21.80280   55.24580 -126.69520 -111.97220   55.24580
 4950.00000    8.01780    8.01780  200.84250  206.89800    4.83330   58.20910   55.76520   55.76520   11.00890   11.00890    4.83330   30.64270 -135.06330 -118.04470   30.64270
 5000.00000    8.25590    8.25590  102.39500  103.61510    9.65110   47.65730   46.95500   46.95500   12.56100   12.56100    9.65110   44.02940 -130.07850 -110.77940   44.02940
 5050.00000    8.65070    8.65070  300.16850  300.30930    3.32990   61.23360   65.37350   65.37350   49.09660   49.09660    3.32990    5.80870  -88.72070  -67.14110    5.80870
 5100.00000    8.34650    8.34650    6.80490    7.28650  137.24070   48.78160   48.90760   48.90760   17.63880   17.63880  137.24070   86.56470 -107.17350  -83.29830   86.56470
 5150.00000    8.14660    8.14660   53.81980   59.32680   16.85580   54.31770   50.84070   50.84070   14.33150   14.33150   16.85580   48.39550 -116.22880  -90.07310   48.39550
 5200.00000    8.15750    8.15750  115.22980  115.02450    8.69380   57.68610   56.33580   56.33580   24.34890   24.34890    8.69380   29.66280 -113.86200  -85.41080   29.66280
 5250.00000    8.56510    8.56510   87.66690   91.76920   10.89690   68.12700   66.71120   66.71120   41.77110   41.77110   10.89690   12.49400  -50.78360  -20.05180   12.49400
