~Version ---------------------------------------------------
VERS.      2.0 : CWLS log ASCII Standard -VERSION 2.0
WRAP.       NO : One line per depth step
CREA. 12/18/14 : LAS Creation Date
~Well ------------------------------------------------------
STRT.M                       300.0 : START DEPTH
STOP.M                      4700.0 : STOP DEPTH
STEP.M                    50.00000 : STEP LENGTH
NULL.                      -999.25 : NULL VALUE
COMP.       DOME PETROLEUM LIMITED : COMPANY
WELL. DOME ET AL HANLAN 10-7-47-17 : WELL
FLD .                              : FIELD
LOC .                              : LOCATION
CTRY.                       CANADA : COUNTRY
SRVC.                 Schlumberger : SERVICE COMPANY
DATE.                  28-Dec-1979 : LOGDATE
PROV.                      Alberta : PROVINCE
UWI .             100100704717W500 : UNIQUE WELL ID
SLAT.WGS84                53.04215 : SURFACE LATITUDE
SLON.WGS84                -116.471 : SURFACE LONGITUDE
~Curve Information -----------------------------------------
DEPT    .M      : DEPTH METER
CALDED  .MM     : CALIPER FROM DENSITY LOG
CALSED  .MM     : CALIPER FROM SONIC LOG
CALWS   .MM     : CALIPER [CALSED]
CONDWS  .MMHO   : CONDUCTIVITY [1000/DRESWS]
DCORWS  .KG/M3  : DENSITY CORRECTION [DRHOED]
DENWS   .KG/M3  : FORMATION BULK DENSITY [CALC. FROM DPOLSWS, M=2710, F=1000]
DPHILSED.V/V    : DENSITY POROSITY LIMESTONE [M=2710, F=1000] FROM DENSITY LOG
DPHISSED.V/V    : DENSITY POROSITY SANDSTONE [M=2650, F=1000] FROM DENSITY LOG
DPOLSWS .V/V    : DENSITY POROSITY LIMESTONE [DPHISSED MATRIX CONVERTED TO LIMESTONE(M=2710, F=1000) & SPL. TO DPHILSED @3594M]
DRESWS  .OHMM   : DEEP RESISTIVITY [ILDED]
DRHOED  .KG/M3  : DENSITY CORRECTION FROM DENSITY LOG
DTED    .US/M   : DELTA TIME FROM SONIC LOG
DTWS    .US/M   : COMPRESSIONAL SONIC [DTED]
GRDED   .GAPI   : GAMMA RAY FROM DENSITY LOG
GRSED   .GAPI   : GAMMA RAY FROM SONIC LOG
GRWS    .GAPI   : GAMMA RAY [GRSED]
ILDED   .OHMM   : DEEP INDUCTION RESISTIVITY FROM RESISTIVITY LOG
ILMED   .OHMM   : MEDIUM INDUCTION RESISTIVITY FROM RESISTIVITY LOG
MRESWS  .OHMM   : MEDIUM RESISTIVITY [ILMED]
NPHILSED.V/V    : NEUTRON POROSITY  LIMESTONE FROM DENSITY LOG
NPHISSED.V/V    : NEUTRON POROSITY SANDSTONE FROM DENSITY LOG
NPOLSWS .V/V    : NEUTRON POROSITY LIMESTONE [NPHISSED MATRIX CONVERTED TO LIMESTONE(SLB-CNL) & SPL. TO NPHILSED @3599 M]
RHOBED  .KG/M3  : BULK DENSITY FROM DENSITY LOG
SFLED   .OHMM   : SHALLOW FOCUSED RESISTIVITY FROM RESISTIVITY LOG
SPRED   .MV     : SPONTANEOUS POTENTIAL FROM RESISTIVITY LOG
SPWS    .MV     : SPONTANEOUS POTENTIAL [BASELINE 0MV, SPRED]
SRESWS  .OHMM   : SHALLOW RESISTIVITY [SFLED]
~Params ----------------------------------------------------
PD  .                         GL : PERMANENT DATUM
EPD .M                   1240.25 : ELEVATION PERMANENT DATUM
LMF .                         KB : LOG MEASURED FROM
DAPD.M                      6.45 : FEET ABOVE PERMANENT DATUM
DMF .                         KB : DRILLING MEASURED FROM
EKB .M                    1246.7 : KELLY BUSHING
EGL .M                   1240.25 : GROUND LEVEL
DATE.                   12/28/79 : RUN DATE
RUN .                          3 : RUN NUMBER
DD  .M                      4708 : DEPTH DRILLER
DL  .M                      4701 : DEPTH LOGGER
BLI .M                      4700 : BOTTOM LOG INTERVAL
TLI .M                      3750 : TOP LOG INTERVAL
CS  .MM                      244 : CASING SIZE
CBD .M                      3180 : CASING BOTTOM DRILLER
CBL .M                      3173 : CASING BOTTOM LOGGER
BS  .MM                      216 : BIT SIZE
BSD .M                      4708 : BIT SIZE AT DEPTH
DFT .                    GEL MUD : DRILLING FLUID TYPE
DFD .                       1080 : DRILLING FLUID DENSITY
DFV .                         95 : DRILLING FLUID VISCOSITY
DFPH.                         11 : DRILLING FLUID PH
MSS .                   FLOWLINE : MUD SAMPLE SOURCE
RMS .OHMM                   0.65 : RESISTIVITY MUD SAMPLE
MST .DEGC                   14.5 : MUD SAMPLE TEMPERATURE
RMF .OHMM                    0.7 : RESISTIVITY MUD FILTRATE SAMPLE
MFST.DEGC                     17 : MUD FILTRATE SAMPLE TEMPERATURE
RMC .OHMM                   0.96 : RESISTIVITY MUD CAKE
MCST.DEGC                     15 : MUD CAKE SAMPLE TEMPERATURE
MFSS.                      PRESS : MUD FILTRATE SAMPLE SOURCE
RMB .OHMM                   0.29 : RESISTIVITY MUD AT BHT
TCS .HRS                     145 : TIME CIRCULATED STOPPED
TLAB.HRS                    1600 : TIME LOGGER AT BOTTOM
LUN .                       8105 : LOGGING UNIT NUMBER
LUL .                      EDSON : LOGGING UNIT LOCATION
ENGI.                     GILLIS : RECORDING ENGINEER
WITN.           ALTAMIRANO TOBIN : WITNESSED BY
CLNT.                    A2DTECH : CLIENT CODE
ORIG. 6.5"/100M 16.5"/100M PRINT : ORIGIN OF DATA
UWI .           100100704717W500 : UNIQUE WELL ID
DICO.     A2D Technologies, Inc. : DIGITIZING COMPANY
~Other -----------------------------------------------------
~ASCII -----------------------------------------------------
  300.00000    -999.25    -999.25    -999.25    -999.25    -999.25    -999.25    -999.25    -999.25    -999.25    -999.25    -999.25    -999.25    -999.25    -999.25   51.27400   51.27400    -999.25    -999.25    -999.25    -999.25    -999.25    -999.25    -999.25    -999.25    -999.25    -999.25    -999.25
  350.00000  370.51250  379.30720  255.38400   93.70670   -4.94140 2227.27000    -999.25    0.25620    0.28230   10.67160   -4.94140  365.70700  365.70700   88.54800   74.38000   74.38000   10.67160    6.44760    6.44760    -999.25    0.51550    0.47650 2036.12700    5.32040 -287.50500  -15.32010    5.32040
  400.00000  428.35000  396.65360  277.06700   28.06530   23.88280 2461.07500    -999.25    0.11450    0.14560   35.63120   23.88280  248.09900  248.09900   54.47300   52.29400   52.29400   35.63120   22.58090   22.58090    -999.25    0.15520    0.11250 2461.23390   19.72590 -280.06500   -8.39380   19.72590
  450.00000  529.47930  364.68480  237.10600  169.57780  113.24210 2292.94000    -999.25    0.21640    0.24390    5.89700  113.24210  286.70000  286.70000   92.70500   81.83500   81.83500    5.89700    5.43430    5.43430    -999.25    0.31160    0.26770 2266.74100    6.23550 -277.75000   -6.59250    6.23550
  500.00000  515.59580  378.63920  254.54900   73.81930   40.05830 2287.16500    -999.25    0.21990    0.24730   13.54660   40.05830  324.81400  324.81400   70.95700   71.16100   71.16100   13.54660   10.38010   10.38010    -999.25    0.33530    0.29150 2285.73900    9.45360 -277.22500   -6.58130    9.45360
  550.00000  379.72930  373.72800  248.41000   49.08750  162.20860 2456.95000    -999.25    0.11700    0.14800   20.37180  162.20860  233.99500  233.99500   59.80000   55.88500   55.88500   20.37180   19.63250   19.63250    -999.25    0.16880    0.12590 2455.02000   21.75330 -287.88010  -17.75010   21.75330
  600.00000  362.63750  366.95200  239.94000   41.13110  159.62500 2445.23500    -999.25    0.12410    0.15480   24.31250  159.62500  234.70700  234.70700   58.66900   53.36600   53.36600   24.31250   21.27350   21.27350    -999.25    0.17480    0.13180 2420.69800   19.77240 -285.25500  -15.63870   19.77240
  650.00000  344.64170  362.67760  234.59700   18.59390   86.02450 2406.46000    -999.25    0.14760    0.17750   53.78110   86.02450  233.95200  233.95200   46.21800   40.10900   40.10900   53.78110   43.82350   43.82350    -999.25    0.18700    0.14380 2423.39790   46.40940 -295.97500  -26.87250   46.40940
  700.00000  316.40000  367.07120  240.08900   40.30600   -4.86670 2188.00000    -999.25    0.28000    0.30530   24.81020   -4.86670  414.73900  414.73900   86.95000   73.36500   73.36500   24.81020   14.30700   14.30700    -999.25    0.49070    0.45050 2139.83500   29.66450 -292.94000  -24.35120   29.66450
  750.00000  366.10000  369.99440  243.74300   97.40230   28.32500 2421.97000    -999.25    0.13820    0.16840   10.26670   28.32500  245.80600  245.80600   91.88300   76.45600   76.45600   10.26670    8.72640    8.72640    -999.25    0.24690    0.20300 2422.08590   13.68190 -269.54000   -1.46490   13.68190
  800.00000  402.60830  362.86640  234.83300   59.17930   95.50000 2253.67000    -999.25    0.24020    0.26690   16.89780   95.50000  262.38400  262.38400   80.78700   72.72800   72.72800   16.89780   13.65380   13.65380    -999.25    0.28720    0.24320 2230.54960   16.30090 -269.94000   -2.72930   16.30090
  850.00000  389.00000  382.41440  259.26800   53.52660   37.87500 2363.39500    -999.25    0.17370    0.20270   18.68230   37.87500  232.18100  232.18100   78.34200   74.44200   74.44200   18.68230   14.08680   14.08680    -999.25    0.27290    0.22890 2343.52560   14.95070 -280.19000  -13.88000   14.95070
  900.00000  512.28700  367.66000  240.82500  125.71030   18.57500 2303.66500    -999.25    0.20990    0.23760    7.95480   18.57500  326.50100  326.50100   86.91980   80.92200   80.92200    7.95480    6.44400    6.44400    -999.25    0.38910    0.34600 2288.12920    7.85250 -280.81500  -15.40580    7.85250
  950.00000  465.98350  361.21760  232.77200   45.81100   86.45000 2443.75000    -999.25    0.12500    0.15570   21.82880   86.45000  249.53200  249.53200   93.50590  102.64500  102.64500   21.82880   17.47980   17.47980    -999.25    0.23240    0.18860 2459.42850   17.05690 -302.73500  -38.22650   17.05690
 1000.00000  403.43730  356.55840  226.94800   68.38640   58.80020 2328.91000    -999.25    0.19460    0.22290   14.62280   58.80020  253.76100  253.76100   74.56840   66.59900   66.59900   14.62280   12.61920   12.61920    -999.25    0.24020    0.19640 2280.44190   11.66800 -283.56500  -19.95730   11.66800
 1050.00000  386.35420  366.42480  239.28100   68.32330  161.48270 2123.98000    -999.25    0.31880    0.34270   14.63630  161.48270  248.78400  248.78400   73.46700   70.35400   70.35400   14.63630   12.14030   12.14030    -999.25    0.29470    0.25070 2080.60400   11.07600 -274.62500  -11.91800   11.07600
 1100.00000  420.60770  353.44640  223.05800   70.69190  113.06520 1855.19500    -999.25    0.48170    0.49990   14.14590  113.06520  245.40900  245.40900   72.93200   73.47100   73.47100   14.14590   10.96830   10.96830    -999.25    0.37140    0.32800 1834.97090   11.57890 -277.05000  -15.24370   11.57890
 1150.00000  297.86670  341.84640  208.55800   26.55650   38.50830 2531.86000    -999.25    0.07160    0.10420   37.65560   38.50830  217.74200  217.74200   69.89000   60.88500   60.88500   37.65560   34.25130   34.25130    -999.25    0.18480    0.14160 2529.61890   35.23090 -287.19000  -26.28450   35.23090
 1200.00000  342.69590  356.15840  226.44800  100.87150   30.36670 2031.74500    -999.25    0.37470    0.39660    9.91360   30.36670  244.69500  244.69500   76.90750   73.15000   73.15000    9.91360    9.16000    9.16000    -999.25    0.34960    0.30600 2029.69800   15.09070 -261.14000   -1.13520   15.09070
 1250.00000  369.11670  365.87600  238.59500  177.56940  -13.15450 1681.45000    -999.25    0.58700    0.60150    5.63160  -13.15450  374.86800  374.86800   77.51600   74.82400   74.82400    5.63160    4.33010    4.33010    -999.25    0.54330    0.50580 1670.56010    9.99300 -279.69000  -20.58600    9.99300
 1300.00000  368.45410  358.00960  228.76200  116.02950   71.87500 1969.70500    -999.25    0.41230    0.43290    8.61850   71.87500  251.76200  251.76200   83.94300   81.99200   81.99200    8.61850    8.02100    8.02100    -999.25    0.31990    0.27600 1967.92900    7.32200 -266.75500   -8.55170    7.32200
 1350.00000  341.29960  369.72400  243.40500   28.11710   47.07490 2051.71000    -999.25    0.36260    0.38500   35.56560   47.07490  242.03500  242.03500   52.46420   47.98600   47.98600   35.56560   31.86510   31.86510    -999.25    0.28530    0.24130 2053.79300   27.64750 -316.38000  -59.07750   27.64750
 1400.00000  390.28330  363.26800  235.33500  205.38520   31.44110 1780.61500    -999.25    0.52690    0.54350    4.86890   31.44110  291.56200  291.56200  112.91580  105.20400  105.20400    4.86890    5.29990    5.29990    -999.25    0.33280    0.28900 1788.62400    9.68410 -260.44000   -4.03820    9.68410
 1450.00000  330.88790  345.64960  213.31200  175.78090   43.96670 1891.00000    -999.25    0.46000    0.47890    5.68890   43.96670  341.43600  341.43600   77.99100   82.44400   82.44400    5.68890    4.97660    4.97660    -999.25    0.44760    0.40580 1929.62190    4.39440 -261.55000   -6.04900    4.39440
 1500.00000  360.84580  344.01600  211.27000   88.42360   88.98330 2089.99000    -999.25    0.33940    0.36260   11.30920   88.98330  239.81900  239.81900   69.89840   73.26800   73.26800   11.30920   11.36120   11.36120    -999.25    0.29770    0.25370 2087.54000   10.64210 -263.25000   -8.64970   10.64210
 1550.00000  390.38730  365.83760  238.54700  100.22350   26.71680 2417.68000    -999.25    0.14080    0.17090    9.97770   26.71680  237.66700  237.66700   70.31170   73.30500   73.30500    9.97770    9.40250    9.40250    -999.25    0.21350    0.16990 2415.62890    9.41390 -260.37000   -6.67050    9.41390
