~Version ---------------------------------------------------
VERS. 2.0 : CWLS log ASCII Standard -VERSION 2.0
WRAP.  NO : ONE LINE PER DEPTH STEP
~Well ------------------------------------------------------
STRT.M                       300.0 : START DEPTH
STOP.M                      3700.0 : STOP DEPTH
STEP.M                    50.00000 : STEP LENGTH
NULL.                      -999.25 : NULL VALUE
COMP. DEKALB PETROLEUM CORPORATION : COMPANY
WELL.    DEKALB OCHIESE 7-25-44-10 : WELL
FLD .                              : FIELD
LOC .                              : LOCATION
CTRY.                       CANADA : COUNTRY
SRVC.                 Schlumberger : SERVICE COMPANY
DATE.                  20-Feb-1981 : LOGDATE
PROV.                      Alberta : PROVINCE
UWI .             100072504410W500 : UNIQUE WELL ID
SLAT.WGS84                   52.82 : SURFACE LATITUDE
SLON.WGS84               -115.3154 : SURFACE LONGITUDE
~Curve Information -----------------------------------------
DEPT    .M      : DEPTH METERS
CALDED  .MM     : CALIPER FROM DENSITY LOG
CALSED  .MM     : CALIPER FROM SONIC LOG
CALWS   .MM     : CALIPER [MERGED CALSED/CALXSED AT 3074]
CALXED  .MM     : CALIPER X FROM DENSITY LOG
CALXSED .IN     : CALIPER X FROM SONIC LOG
CALYED  .MM     : CALIPER Y FROM DENSITY LOG
CDLLSED .V/V    : COMPENSATED DENSITY POROSITY [M=2710 F=1000] FROM SENSITY LOG
CNSLSED .V/V    : COMPENSATED NEUTRON POROSITY LIMESTONE FROM DENSITY LOG
CONDWS  .MMHO   : CONDUCTIVITY [1000/DRESWS]
DCORED  .KG/M3  : DENSITY CORRECTION FROM DENSITY LOG
DCORWS  .KG/M2  : DENSITY CORRECTION [DCORED]
DENWS   .KG/M3  : BULK DENSITY [M=2650/2710 AT 2595 F=1000] [CALCULATED FROM DPHISSED/DPHILSED/CDLLSED AT 2595/3076]
DPHILSED.V/V    : DENSITY POROSITY [M=2710 F=1000] FROM DENSITY LOG
DPHISSED.V/V    : DENSITY POROSITY [M=2650 F=1000] FROM DENSITY LOG
DPOLSWS .V/V    : DENSITY POROSITY [M=2710 F=1000] [CALCULATED FROM DENWS]
DRESWS  .OHMM   : DEEP RESISTIVITY [ILDED]
DTED    .US/M   : DELTA TIME FROM SONIC LOG
DTWS    .US/M   : DELTA TIME [DTED]
GRDED   .GAPI   : GAMMA RAY FROM DENSITY LOG
GRSED   .GAPI   : GAMMA RAY FROM SONIC LOG
GRWS    .GAPI   : GAMMA RAY [GRSED] CSG @ 317m
ILDED   .OHMM   : INDUCTION LOG DEEP RESISTIVITY
ILMED   .OHMM   : INDUCTION LOG MEDIUM RESISTIVITY
MRESWS  .OHMM   : MEDIUM RESISTIVITY [ILMED]
NPHILSED.V/V    : NEUTRON POROSITY LIMESTONE FROM DENSITY LOG
NPHISSED.V/V    : NEUTRON POROSITY SANDSTONE FROM DENSITY LOG
NPOLSWS .V/V    : NEUTRON POROSITY LIMESTONE [NPHISSED CONVERTED TOM LIME FROM POWER LOG FRPM START TO 2595,THEN NPHILSED/CNSLSED FROM 3068 TO END]
RHOBED  .KG/M3  : BULK DENSITY FROM DENSITY LOG
RLLED   .OHMM   : LATEROLOG RESISTIVITY
SFLED   .OHMM   : SPHERICALLY FOCUSED LOG RESISTIVITY
SPHIED  .V/V    : SONIC POROSITY FROM SONIC LOG
SPOWS   .V/V    : SONIC POROSITY [SPHIED]
SPRED   .MV     : SPONTANEOUS POTENTIAL FROM RESISTIVITY LOG SHIFTED
SPWS    .MV     : SPONTANEOUS POTENTIAL [BASELINE 0 MV] [SPRED] REVERSED IN SOME AREAS
SRESWS  .OHMM   : SHALLOW RESISTIVITY [MERGED SFLED/RLLED 3076]
~Params ----------------------------------------------------
PD  .                         GL : PERMANENT DATUM
EPD .M                    981.74 : ELEVATION PERMANENT DATUM
LMF .                         KB : LOG MEASURED FROM
DAPD.M                       8.8 : FEET ABOVE PERMANENT DATUM
EKB .M                    989.82 : KELLY BUSHING
EGL .M                    981.74 : GROUND LEVEL
DATE.                   02/20/81 : RUN DATE
RUN .                          1 : RUN NUMBER
DD  .M                    3718.2 : DEPTH DRILLER
DL  .M                      3716 : DEPTH LOGGER
BLI .M                    3715.3 : BOTTOM LOG INTERVAL
TLI .M                      3074 : TOP LOG INTERVAL
CS  .MM                      244 : CASING SIZE
CBD .M                      3074 : CASING BOTTOM DRILLER
CBL .M                      3074 : CASING BOTTOM LOGGER
BS  .MM                      216 : BIT SIZE
BSD .M                    3718.2 : BIT SIZE AT DEPTH
DFT .                   GEL CHEM : DRILLING FLUID TYPE
DFD .                       1150 : DRILLING FLUID DENSITY
DFV .                         60 : DRILLING FLUID VISCOSITY
DFPH.                         11 : DRILLING FLUID PH
DFL .                        6.8 : DRILLING FLUID LOSS
RMS .OHMM                    1.5 : RESISTIVITY MUD SAMPLE
MST .DEGC                   15.6 : MUD SAMPLE TEMPERATURE
RMF .OHMM                    2.0 : RESISTIVITY MUD FILTRATE SAMPLE
MFST.DEGC                   16.7 : MUD FILTRATE SAMPLE TEMPERATURE
RMC .OHMM                    1.1 : RESISTIVITY MUD CAKE
MCST.DEGC                   16.1 : MUD CAKE SAMPLE TEMPERATURE
TCS .HRS                       6 : TIME CIRCULATED STOPPED
LUN .                        314 : LOGGING UNIT NUMBER
LUL .                   EDMONTON : LOGGING UNIT LOCATION
ENGI.          JESIOLOWSKI BRULE : RECORDING ENGINEER
WITN.              JAYNE DITTMER : WITNESSED BY
CLNT.                    A2DTECH : CLIENT CODE
ORIG. 6.5"/100M 16.5"/100M PRINT : ORIGIN OF DATA
UWI .           100072504410W500 : UNIQUE WELL ID
DICO.     A2D Technologies, Inc. : DIGITIZING COMPANY
~Other -----------------------------------------------------
~ASCII -----------------------------------------------------
  300.00000    -999.25    -999.25    -999.25    -999.25    -999.25    -999.25    -999.25    -999.25    -999.25    -999.25    -999.25    -999.25    -999.25    -999.25    -999.25    -999.25    -999.25    -999.25    -999.25   63.11040   63.11040    -999.25    -999.25    -999.25    -999.25    -999.25    -999.25    -999.25    -999.25    -999.25    -999.25    -999.25    -999.25    -999.25    -999.25
  350.00000  319.10500  317.87770  317.87770    -999.25    -999.25    -999.25    -999.25    -999.25   19.72930    4.72950    4.72950 2436.32500    -999.25    0.12950    0.16000   50.68600  254.13400  254.13400   71.66310   69.28900   69.28900   50.68600   17.90740   17.90740    -999.25    0.24810    0.20420 2450.33960    -999.25   16.51510    -999.25    -999.25  -18.46090    6.84360   16.51510
  400.00000  385.81160  339.78160  339.78160    -999.25    -999.25    -999.25    -999.25    -999.25    3.42800   29.75950   29.75950 2439.46000    -999.25    0.12760    0.15820  291.71430  285.38890  285.38890   78.59830   67.40040   67.40040  291.71430    8.16410    8.16410    -999.25    0.24700    0.20310 2440.07670    -999.25    7.68060    -999.25    -999.25  -17.85140   10.39860    7.68060
  450.00000  316.00060  321.33650  321.33650    -999.25    -999.25    -999.25    -999.25    -999.25   40.98390   10.66280   10.66280 2453.98000    -999.25    0.11880    0.14970   24.39980  304.90920  304.90920  102.04130   92.34340   92.34340   24.39980    7.81070    7.81070    -999.25    0.40060    0.35770 2451.85670    -999.25    7.61940    -999.25    -999.25  -17.36370   13.83180    7.61940
  500.00000  343.79000  327.29260  327.29260    -999.25    -999.25    -999.25    -999.25    -999.25   29.80680  -23.91550  -23.91550 2456.29000    -999.25    0.11740    0.14840   33.54940  270.94360  270.94360   91.91020   90.86190   90.86190   33.54940   16.93650   16.93650    -999.25    0.33980    0.29610 2399.97390    -999.25   19.78770    -999.25    -999.25  -30.07600    4.06510   19.78770
  550.00000  357.86130  326.44340  326.44340    -999.25    -999.25    -999.25    -999.25    -999.25  136.82140   24.52470   24.52470 2391.61010    -999.25    0.15660    0.18620    7.30880  288.60200  288.60200  100.88450   89.89980   89.89980    7.30880    4.42710    4.42710    -999.25    0.29180    0.24780 2357.89450    -999.25    5.01090    -999.25    -999.25  -24.74330    7.84460    5.01090
  600.00000  399.06220  335.26640  335.26640    -999.25    -999.25    -999.25    -999.25    -999.25  161.51170  118.76320  118.76320 2056.65990    -999.25    0.35960    0.38210    6.19150  374.89650  374.89650  104.85690   99.84540   99.84540    6.19150    3.51880    3.51880    -999.25    0.49960    0.45790 2062.01220    -999.25    4.39560    -999.25    -999.25  -17.36890   13.07560    4.39560
  650.00000  359.80860  333.31310  333.31310    -999.25    -999.25    -999.25    -999.25    -999.25   90.21200   57.84160   57.84160 2503.14990    -999.25    0.08900    0.12100   11.08500  261.00220  261.00220   80.40290   77.99160   77.99160   11.08500    7.42240    7.42240    -999.25    0.24080    0.19700 2514.84450    -999.25    7.66880    -999.25    -999.25  -19.15670    9.14430    7.66880
  700.00000  373.75960  329.53340  329.53340    -999.25    -999.25    -999.25    -999.25    -999.25   98.06130   79.70840   79.70840 2194.43510    -999.25    0.27610    0.30150   10.19770  279.26470  279.26470   89.86950   89.89360   89.89360   10.19770    5.26850    5.26850    -999.25    0.28650    0.24250 2136.90720    -999.25    5.82240    -999.25    -999.25  -21.48030    5.68230    5.82240
  750.00000  360.01880  336.10690  336.10690    -999.25    -999.25    -999.25    -999.25    -999.25  183.84720   30.13140   30.13140 2348.05000    -999.25    0.18300    0.21170    5.43930  311.93340  311.93340   89.91470   88.20590   88.20590    5.43930    4.30950    4.30950    -999.25    0.37960    0.33640 2379.24370    -999.25    4.72810    -999.25    -999.25  -11.56360   15.67890    4.72810
  800.00000  327.98880  323.35720  323.35720    -999.25    -999.25    -999.25    -999.25    -999.25   86.72880   19.37400   19.37400 2521.30000    -999.25    0.07800    0.11040   11.53020  272.25910  272.25910   95.04110   83.51030   83.51030   11.53020    6.70190    6.70190    -999.25    0.27990    0.23590 2522.57910    -999.25    8.20440    -999.25    -999.25  -14.36380   12.95860    8.20440
  850.00000  317.98300  319.45590  319.45590    -999.25    -999.25    -999.25    -999.25    -999.25  106.18300    9.13840    9.13840 2526.25000    -999.25    0.07500    0.10750    9.41770  262.28730  262.28730  109.18520   99.25180   99.25180    9.41770    6.20510    6.20510    -999.25    0.28760    0.24360 2527.51100    -999.25    6.66440    -999.25    -999.25  -17.12010   10.28220    6.66440
  900.00000  343.18540  322.51750  322.51750    -999.25    -999.25    -999.25    -999.25    -999.25   78.72470   17.49430   17.49430 2518.49510    -999.25    0.07970    0.11200   12.70250  252.88530  252.88530   94.22520   81.13610   81.13610   12.70250    8.00810    8.00810    -999.25    0.24440    0.20050 2524.36790    -999.25    8.33720    -999.25    -999.25  -14.43390   13.04830    8.33720
  950.00000  328.13560  322.25040  322.25040    -999.25    -999.25    -999.25    -999.25    -999.25   55.52040   18.42180   18.42180 2554.13500    -999.25    0.05810    0.09110   18.01140  230.48840  230.48840   73.51240   70.59860   70.59860   18.01140   10.73690   10.73690    -999.25    0.20410    0.16060 2558.57670    -999.25   13.62340    -999.25    -999.25  -20.90640    6.65580   13.62340
 1000.00000  314.15870  318.25650  318.25650    -999.25    -999.25    -999.25    -999.25    -999.25  111.16180    9.92430    9.92430 2477.40990    -999.25    0.10460    0.13600    8.99590  296.16560  296.16560  111.70430  107.74840  107.74840    8.99590    5.94940    5.94940    -999.25    0.29760    0.25360 2488.05470    -999.25    6.95990    -999.25    -999.25  -12.91830   14.72380    6.95990
 1050.00000  368.23330  324.53330  324.53330    -999.25    -999.25    -999.25    -999.25    -999.25  138.34900  141.70270  141.70270 2278.91500    -999.25    0.22490    0.25210    7.22810  289.05210  289.05210  111.99420   99.49270   99.49270    7.22810    4.37520    4.37520    -999.25    0.27690    0.23290 2245.32470    -999.25    4.82750    -999.25    -999.25  -17.74940    9.97260    4.82750
 1100.00000  379.04190  332.99930  332.99930    -999.25    -999.25    -999.25    -999.25    -999.25  108.92770  161.76870  161.76870 2423.12500    -999.25    0.13750    0.16780    9.18040  281.59390  281.59390  101.68760   99.04150   99.04150    9.18040    4.94790    4.94790    -999.25    0.29050    0.24650 2439.57230    -999.25    5.74650    -999.25    -999.25  -13.70460   14.09730    5.74650
 1150.00000  350.37490  325.33610  325.33610    -999.25    -999.25    -999.25    -999.25    -999.25  120.97900  174.57010  174.57010 2400.52000    -999.25    0.15120    0.18100    8.26590  279.50870  279.50870   83.58610   83.56610   83.56610    8.26590    5.49870    5.49870    -999.25    0.26870    0.22470 2415.83450    -999.25    6.90670    -999.25    -999.25  -16.51340   11.36840    6.90670
 1200.00000  372.75790  329.65660  329.65660    -999.25    -999.25    -999.25    -999.25    -999.25  130.78560  114.22300  114.22300 2120.02000    -999.25    0.32120    0.34500    7.64610  288.35040  288.35040  104.74200  109.12860  109.12860    7.64610    4.83330    4.83330    -999.25    0.33300    0.28920 2150.78390    -999.25    5.80600    -999.25    -999.25  -19.76720    8.19450    5.80600
 1250.00000  333.81410  325.77100  325.77100    -999.25    -999.25    -999.25    -999.25    -999.25   61.86930   89.74560   89.74560 2400.35500    -999.25    0.15130    0.18110   16.16310  255.86580  255.86580  105.69280   89.20990   89.20990   16.16310    9.79720    9.79720    -999.25    0.22480    0.18110 2265.08720    -999.25   11.33630    -999.25    -999.25  -23.90090    4.14080   11.33630
 1300.00000  365.04410  329.97840  329.97840    -999.25    -999.25    -999.25    -999.25    -999.25  115.50140  196.18630  196.18630 2382.36990    -999.25    0.16220    0.19160    8.65790  258.60780  258.60780   93.74540   92.62370   92.62370    8.65790    6.24240    6.24240    -999.25    0.26480    0.22080 2388.21800    -999.25    7.17960    -999.25    -999.25  -14.61740   14.23130    7.17960
