~Version ---------------------------------------------------
VERS. 2.0 : CWLS log ASCII Standard -VERSION 2.0
WRAP.  NO : ONE LINE PER DEPTH STEP
~Well ------------------------------------------------------
STRT.M                               380.5 : START DEPTH
STOP.M                              2549.3 : STOP DEPTH
STEP.M                             0.20000 : STEP LENGTH
NULL.                              -999.25 : NULL VALUE
COMP.                DEVON ARL CORPORATION : COMPANY
WELL. DEVON ARL ETAL 7D GVILLEE 7-25-76-23 : WELL
FLD .                                      : FIELD
LOC .                                      : LOCATION
CTRY.                               CANADA : COUNTRY
SRVC.                         Schlumberger : SERVICE COMPANY
DATE.                          06-Mar-2003 : LOGDATE
PROV.                              Alberta : PROVINCE
UWI .                     100072507623W500 : UNIQUE WELL ID
SLAT.WGS84                        55.61368 : SURFACE LATITUDE
SLON.WGS84                       -117.4224 : SURFACE LONGITUDE
~Curve Information -----------------------------------------
DEPT    .M    0   1   0  0 : 1 MEASURED DEPTH
GRS     .GAPI 60 310 01 00 : GAMMA RAY FROM SONIC LOG
HDS     .MM   60 280 00 00 : HOLE DIAMETER FROM SONIC
DT      .US/M 60 500 00 00 : DELTA-T (INTERVAL TRANSIT TIME)
HCALS   .MM   60 280 50 00 : HRCC CALIPER CALIBRATED FROM SONIC LOG
TENS    .N    60 635 00 00 : TENSION FROM SONIC LOG
GRR     .GAPI 06 310 01 00 : GAMMA RAY FROM RESISTIVITY LOG
RXOZ    .OHMM 06 270 04 00 : INVADED FORMATION RESISTIVITY FILTERED AT 18 INCHES
TENR    .N    06 635 00 00 : TENSION FROM RESISTIVITY LOG
SPR     .MV   06 010 01 00 : SPONTANEOUS POTENTIAL FROM RESISTIVITY LOG
AHF30   .OHMM 06 120 30 00 : ARRAY INDUCTION FOUR FOOT RESISTIVITY A30
AHF20   .OHMM 06 120 20 00 : ARRAY INDUCTION FOUR FOOT RESISTIVITY A20
AHF60   .OHMM 06 120 60 00 : ARRAY INDUCTION FOUR FOOT RESISTIVITY A60
GRD     .GAPI 45 310 01 00 : GAMMA RAY FROM DENSITY LOG
NPOR_SAN.DEC  42 890 03 00 : ENHANCED THERMAL NEUTRON POROSITY (SANDSTONE)
HDD     .MM   45 280 60 00 : HOLE DIAMETER
HCALD   .MM   45 280 60 00 : HRCC CALIPER CALIBRATED FROM DENSITY LOG
DPHI_SAN.DEC  45 890 12 00 : DENSITY POROSITY (MATRIX SANDSTONE)
HDRA    .K/M3 45 356 01 00 : HRDD SPINE AND RIBS DENSITY CORRECTION
PEFZ    .B/E  45 358 01 00 : HRDD STANDARD RESOLUTION FORMATION PHOTOELECTRIC FACTOR
TEND    .N    45 635 00 00 : TENSION FROM DENSITY LOG
NPOR_LS .DEC  42 890 01 00 : NEUTRON POROSITY LIMESTONE
DPHI_LS .DEC  45 890 10 00 : DENSITY POROSITY LIMESTONE
RHOZ    .K/M3 45 350 01 00 : HRDD STANDARD RESOLUTION FORMATION DENSITY
~Params ----------------------------------------------------
PD  .                                  GL : PERMANENT DATUM
EPD .M                              551.9 : ELEVATION PERMANENT DATUM
LMF .                                  KB : LOG MEASURED FROM
DAPD.M                                4.7 : FEET ABOVE PERMANENT DATUM
DMF .                                  KB : DRILLING MEASURED FROM
EKB .M                              556.6 : KELLY BUSHING
EDF .M                              556.3 : DRILLING FLOOR
EGL .M                              551.9 : GROUND LEVEL
DATE.                            03/06/03 : RUN DATE
RUN .                                   1 : RUN NUMBER
DD  .M                               2545 : DEPTH DRILLER
DL  .M                               2544 : DEPTH LOGGER
BLI .M                             2538.3 : BOTTOM LOG INTERVAL
TLI .M                                421 : TOP LOG INTERVAL
CS  .MM                             219.1 : CASING SIZE
CBD .M                                421 : CASING BOTTOM DRILLER
CBL .M                              420.5 : CASING BOTTOM LOGGER
BS  .MM                               200 : BIT SIZE
BSD .M                               2545 : BIT SIZE AT DEPTH
DFT .                            GEL CHEM : DRILLING FLUID TYPE
DFD .                                1050 : DRILLING FLUID DENSITY
DFV .                                  83 : DRILLING FLUID VISCOSITY
DFPH.                                10.5 : DRILLING FLUID PH
DFL .                                   7 : DRILLING FLUID LOSS
MSS .                            FLOWLINE : MUD SAMPLE SOURCE
RMS .OHMM                            1.27 : RESISTIVITY MUD SAMPLE
MST .DEGC                              17 : MUD SAMPLE TEMPERATURE
RMF .OHMM                            0.98 : RESISTIVITY MUD FILTRATE SAMPLE
MFST.DEGC                              18 : MUD FILTRATE SAMPLE TEMPERATURE
RMC .OHMM                            1.55 : RESISTIVITY MUD CAKE
MCST.DEGC                              18 : MUD CAKE SAMPLE TEMPERATURE
MFSS.                            MEASURED : MUD FILTRATE SAMPLE SOURCE
MCSS.                             MEAURED : MUD CAKE SAMPLE SOURCE
RMB .OHMM                           0.566 : RESISTIVITY MUD AT BHT
TCS .HRS                              640 : TIME CIRCULATED STOPPED
TLAB.HRS                             1645 : TIME LOGGER AT BOTTOM
LUN .                                2133 : LOGGING UNIT NUMBER
LUL .                      GRANDE PRAIRIE : LOGGING UNIT LOCATION
ENGI.                            STIRLING : RECORDING ENGINEER
WITN.                              MCLEAY : WITNESSED BY
CLNT.                             A2DTECH : CLIENT CODE
ORIG. 6.5"/100M 16.5"/100M 33"/100M PRINT : ORIGIN OF DATA
UWI .                    100072507623W500 : UNIQUE WELL ID
DICO.              A2D Technologies, Inc. : DIGITIZING COMPANY
~Other -----------------------------------------------------
~ASCII -----------------------------------------------------
# ...
 1406.50000   32.21170  214.77070  199.17290  218.89850 15039.81150   32.55740   44.57790 15095.72850   12.93380   26.60810   27.75850   25.52060   32.53400    -999.25  214.19540  217.90170    -999.25   -0.80290    3.97940 15197.50490    0.09500    0.02190 2674.51860
 1406.70000   37.69510  215.81960  202.41430  219.75280 15027.51370   38.08640   28.37080 15183.02440   13.96900   22.68110   23.24610   21.75770   38.40400    -999.25  215.51430  219.58770    -999.25   -0.54230    3.93700 15266.38670    0.11630    0.02640 2674.29520
 1406.90000   40.65870  216.44540  202.18580  220.54600 15015.21680   40.50910   21.11850 15063.22270   13.71280   19.52070   21.27650   19.87080   40.64310    -999.25  216.29770  220.82770    -999.25   -2.98980    3.97120 15209.35840    0.09740    0.03120 2662.94560
 1407.10000   38.00170  216.51800  198.29880  220.55080 15004.63380   37.67250   24.53410 14969.27830   13.07340   20.46540   21.05480   21.05390   37.65350    -999.25  216.52650  220.82470    -999.25   -4.14040    4.08640 15062.82230    0.07270    0.03350 2649.65330
 1407.30000   35.28980  217.15900  198.45000  220.68740 15005.94820   34.87650   42.94330 14969.14260   12.00370   21.49530   21.72200   22.34820   34.91240    -999.25  216.84970  221.03120    -999.25   -4.74200    4.15030 14996.84770    0.07150    0.02880 2653.73900
 1407.50000   35.80060  218.50240  199.09770  221.53400 15007.26370   36.69420   39.35560 14969.00680   12.13730   22.57690   22.45580   23.74200   35.92340    -999.25  218.07860  221.55990    -999.25   -2.57990    4.08730 15042.93160    0.08730    0.02600 2665.33250
 1407.70000   39.19840  219.73730  198.11920  224.19540 15008.57810   39.92770   30.21800 14993.95510   12.53950   24.09500   23.21450   25.65700   39.80990    -999.25  219.34160  222.24410    -999.25   -2.79270    4.04480 15057.10550    0.08460    0.02850 2668.60570
 1407.90000   41.15180  219.95640  194.43080  224.24580 15009.89360   40.58960   28.47030 15027.11720   11.82110   26.45550   24.21480   28.13530   40.61460    -999.25  219.54480  223.17260    -999.25   -7.12140    4.14990 15071.62210    0.06790    0.02960 2655.75070
 1408.10000   36.14560  220.42250  187.69030  224.14980 15011.20800   34.34250   37.70960 15060.27930   10.69770   29.04720   26.55100   30.85290   34.90060    -999.25  219.74790  223.59070    -999.25   -8.31000    4.27140 15055.91110    0.03820    0.02970 2658.18260
 1408.30000   28.64250  221.14880  183.63320  224.28240 15012.52340   27.65530   63.09150 15093.44040    9.72240   31.89290   29.55820   33.45020   28.90870    -999.25  220.14340  223.89100    -999.25   -6.45770    4.33180 15015.50980    0.03990    0.02980 2662.88180
 1408.50000   27.33170  225.04990  186.96520  225.90500 15013.83790   29.06100   84.90410 15126.60250    9.41710   30.46340   29.37870   32.87740   28.56930    -999.25  222.17000  224.34850    -999.25   -1.53430    4.28630 15089.46000    0.05700    0.02950 2659.81810
 1408.70000   34.31370  228.13600  192.00850  227.52750 15015.15330   36.87670   39.42860 15159.76460   10.45220   26.01280   25.03070   28.03090   35.47750    -999.25  225.07750  227.08090    -999.25   -2.08040    4.21140 15200.98050    0.08500    0.02750 2656.63040
 1408.90000   39.90820  230.51910  193.83000  229.15010 15016.46880   40.14680   26.84510 15143.59570   11.93830   22.21240   21.02220   23.75620   39.88890    -999.25  228.02540  229.81340    -999.25   -2.57660    4.13360 15198.23830    0.08730    0.02160 2665.84550
 1409.10000   38.15540  232.70860  193.45380  231.08060 15017.78320   36.11130   23.28210 15124.59960   13.74570   18.96720   18.50830   20.40370   37.37070    -999.25  231.00460  232.32880    -999.25   -2.28750    4.15450 15169.32230    0.08490    0.01570 2677.79570
 1409.30000   31.96640  234.57560  192.16010  233.05370 15019.09860   30.65590   26.42810 15105.60450   15.51380   20.35320   19.87880   21.58230   31.09650    -999.25  233.98370  234.05430    -999.25   -1.79070    4.21070 15132.67770    0.07730    0.01600 2687.37080
 1409.50000   28.37870  237.18250  189.02550  235.02680 15020.41310   28.46510   35.75110 15086.60940   16.88600   22.92440   21.72000   25.16830   28.46920    -999.25  236.48780  235.49840    -999.25   -1.19380    4.23690 15096.03420    0.07140    0.02120 2682.79860
 1409.70000   29.38530  239.05960  182.71730  235.91710 15021.72850   28.83160   44.85390 15067.61430   18.47930   25.82030   23.73180   27.84880   29.06950    -999.25  238.35650  235.42980    -999.25   -4.41600    4.29800 15088.81150    0.05540    0.02530 2672.43820
 1409.90000   28.27910  241.47710  178.58710  236.46680 15023.04300   28.26680   91.49910 15048.61910   20.39480   24.16460   23.30130   21.69730   28.32380    -999.25  240.54400  235.99970    -999.25   -7.99980    4.35060 15083.85450    0.04280    0.03160 2669.03030
 1410.10000   28.67710  245.59830  188.13990  238.97780 15024.35840   28.33460  186.28740 15029.62300   22.38980   17.11050   17.33170   15.62760   29.27270    -999.25  243.55090  238.11080    -999.25    4.21870    4.27720 15078.89840    0.07790    0.04790 2645.03910
 1410.30000   33.58830  250.85690  209.03250  241.77520 15025.67380   35.98350   18.19970 15010.62790   24.38490   12.11570   12.89140   11.32350   33.20460    -999.25  248.35310  239.51110    -999.25   45.56910    4.16330 15087.71190    0.15460    0.06800 2620.88280
 1410.50000   39.46780  256.28650  220.61210  247.29920 15026.98830   41.13190    6.58880 14991.63280   26.13620    9.44320    9.58870    9.24270   40.10910    -999.25  253.16150  245.89860    -999.25   99.33490    4.04340 15099.81640    0.16810    0.08660 2596.72630
 1410.70000   42.64260  260.56730  224.03480  253.05180 15028.30370   42.47720    6.07730 14972.63770   26.93610    7.95220    7.81770    8.15700   42.84910    -999.25  257.93370  253.91550    -999.25  117.54690    3.96250 15111.92090    0.14910    0.09280 2553.08960
 1410.90000   42.30970  264.24920  219.69440  253.17590 15029.61820   41.91790    5.59800 14977.78810   27.22770    7.63300    7.54590    8.28590   41.99760    -999.25  262.34890  252.46670    -999.25  133.88450    3.90880 15080.15620    0.13020    0.07180 2546.76730
 1411.10000   43.52700  267.30830  219.17060  255.00570 15030.93360   44.69110    6.90770 14994.96780   27.54090    7.77760    7.59070    8.30510   43.76640    -999.25  265.41870  259.85360    -999.25  153.12520    3.94330 15058.65230    0.13640    0.05880 2597.89670
 1411.30000   47.50130  270.14840  221.62700  256.52910 15032.24800   48.62810    8.54160 15012.14650   28.13470    7.79330    7.67560    8.13700   47.83880    -999.25  268.48860  254.27340    -999.25  159.12770    4.01170 15094.97950    0.17320    0.05500 2614.78080
 1411.50000   49.35530  272.71620  225.62370  277.44660 15033.56350   48.65960    5.79470 15029.32520   28.71090    7.79530    7.67560    7.96120   48.62780    -999.25  271.55840  268.80230    -999.25  146.17450    4.04560 15191.44340    0.18210    0.05380 2618.66820
 1411.70000   46.03210  275.28410  228.64640  260.60230 15034.87790   45.42670    6.47040 15046.50490   28.49430    7.68730    7.61960    7.75200   44.82570    -999.25  273.65590  271.42270    -999.25  106.75360    4.08700 15210.04300    0.16330    0.05380 2621.03030
 1411.90000   45.92190  278.18880  227.75280  263.84840 15036.19340   46.47980    9.10050 15063.68360   27.98690    7.41700    7.30400    7.52440   46.08720    -999.25  275.57250  259.32410    -999.25   97.52230    4.13710 15228.57810    0.15660    0.05810 2627.97270
 1412.10000   48.05790  279.36000  215.49390  282.07830 15037.50880   47.04720    6.50230 15080.86330   26.83760    7.13490    6.95050    7.49750   46.77040    -999.25  278.80100  277.82280    -999.25   84.43930    4.02370 15239.87990    0.16830    0.08040 2620.14890
 1412.30000   45.38910  276.84290  211.08290  273.78150 15038.82320   44.31030    6.07080 15098.04200   25.20100    6.85310    6.59680    7.85230   44.49990    -999.25  277.32870  279.26690    -999.25   54.22000    3.81620 15249.99900    0.26910    0.16740 2610.95730
