~Version ---------------------------------------------------
VERS.      2.0 : CWLS log ASCII Standard -VERSION 2.0
WRAP.       NO : One line per depth step
CREA. 08/01/17 : LAS Creation Date
~Well ------------------------------------------------------
STRT.FT                                1400.0 : START DEPTH
STOP.FT                               13550.0 : STOP DEPTH
STEP.FT                              50.00000 : STEP LENGTH
NULL.                                 -999.25 : NULL VALUE
COMP.               EXXONMOBIL RESOURCES LTD. : COMPANY
WELL. CDN-SUP ET AL BREWSTER CK 6-12-42-11 #6 : WELL
FLD .                                         : FIELD
LOC .                                         : LOCATION
CTRY.                                  CANADA : COUNTRY
SRVC.                            Schlumberger : SERVICE COMPANY
DATE.                             03-May-1962 : LOGDATE
PROV.                                 Alberta : PROVINCE
UWI .                        100061204211W500 : UNIQUE WELL ID
SLAT.WGS84                           52.60151 : SURFACE LATITUDE
SLON.WGS84                          -115.4546 : SURFACE LONGITUDE
~Curve Information -----------------------------------------
DEPT  .FT    : Depth Curve
CALMED.IN    : CALIPER FROM MICROLOG
CALWS .IN    : CALIPER [CALMED]
CILDED.MMHO  : CONDUCTIVITY FROM RESISTIVITY LOG
CONDWS.MMHO  : CONDUCTIVITY [1000/DRESWS]
DRESWS.OHMM  : DEEP RESISTIVITY [ILDED] IF DRESWS<1;1000/CONDWS
GRNED .GAPI  : GAMMA RAY FROM NEUTRON LOG
GRWS  .GAPI  : GAMMA RAY [GRNED]
ILDED .OHMM  : INDUCTION LOG DEEP RESISTIVITY
NEUTED.CPS   : NEUTRON FROM NEUTRON LOG
NEUTWS.CPS   : NEUTRON [NEUTED]
SNED  .OHMM  : 16 INCH SHORT NORMAL RESISTIVITY FROM IEL
SPRED .MV    : SPONTANEOUS POTENTIAL FROM RESISTIVITY LOG
SPWS  .MV    : SPONTANEOUS POTENTIAL [BASELINE 0 MV] [SPRED]
SRESWS.OHMM  : SHALLOW RESISTIVITY [SNED]
~Params ----------------------------------------------------
PD  .                     GL : PERMANENT DATUM
EPD .FT                 3360 : ELEVATION PERMANENT DATUM
LMF .                     KB : LOG MEASURED FROM
DAPD.FT                   16 : FEET ABOVE PERMANENT DATUM
EKB .FT                 3376 : KELLY BUSHING
EGL .FT                 3360 : GROUND LEVEL
DATE.               05/03/62 : RUN DATE
RUN .                      2 : RUN NUMBER
DD  .FT                13600 : DEPTH DRILLER
DL  .FT                13574 : DEPTH LOGGER
BLI .FT                13573 : BOTTOM LOG INTERVAL
TLI .FT                10193 : TOP LOG INTERVAL
CBD .FT                 1380 : CASING BOTTOM DRILLER
CBL .FT                 1380 : CASING BOTTOM LOGGER
BS  .IN                    9 : BIT SIZE
BSD .FT                13600 : BIT SIZE AT DEPTH
DFT .                 UNICAL : DRILLING FLUID TYPE
DFD .                    9.8 : DRILLING FLUID DENSITY
DFV .                    190 : DRILLING FLUID VISCOSITY
DFPH.                    8.5 : DRILLING FLUID PH
DFL .                    4.6 : DRILLING FLUID LOSS
RMS .OHMM                2.5 : RESISTIVITY MUD SAMPLE
MST .DEGF                 54 : MUD SAMPLE TEMPERATURE
RMF .OHMM               0.72 : RESISTIVITY MUD FILTRATE SAMPLE
MFST.DEGF                 71 : MUD FILTRATE SAMPLE TEMPERATURE
RMC .OHMM               1.08 : RESISTIVITY MUD CAKE
MCST.DEGF                 71 : MUD CAKE SAMPLE TEMPERATURE
RMB .OHMM               0.24 : RESISTIVITY MUD AT BHT
TCS .HRS                   5 : TIME CIRCULATED STOPPED
LUN .                   2771 : LOGGING UNIT NUMBER
ENGI.                 GORITZ : RECORDING ENGINEER
WITN.              MACINTOSH : WITNESSED BY
CLNT.                A2DTECH : CLIENT CODE
ORIG.            2" 5" PRINT : ORIGIN OF DATA
UWI .       100061204211W500 : UNIQUE WELL ID
DICO. A2D Technologies, Inc. : DIGITIZING COMPANY
~Other -----------------------------------------------------
~ASCII -----------------------------------------------------
# ...
 11200.00000    9.76580    9.76580    6.97840    4.42440  226.41880   53.13130   53.13130  226.41880  311.70770  311.70770  132.57390 -188.61310 -157.16870  132.57390
 11250.00000   11.63480   11.63480    1.66660    1.38010  724.60110   55.35820   55.35820  724.60110  296.47530  296.47530  111.72570 -202.15560 -174.26210  111.72570
 11300.00000    9.35260    9.35260    3.09170    1.58040  632.74040   49.41430   49.41430  632.74040  321.65950  321.65950   96.86230 -233.33600 -209.01110   96.86230
 11350.00000    9.98140    9.98140    3.26030    1.38440  722.33240   56.10010   56.10010  722.33240  347.30090  347.30090   91.92090 -230.14170 -209.38550   91.92090
 11400.00000   12.13990   12.13990    4.26510    2.51070  398.29660   44.58240   44.58240  398.29660  308.98770  308.98770  122.14170 -149.79080 -132.60320  122.14170
 11450.00000   10.45240   10.45240    1.35870    1.38940  719.74280   42.58230   42.58230  719.74280  376.39070  376.39070  117.81180  -41.13130  -27.53020  117.81180
 11500.00000   13.38790   13.38790    3.67980    2.91420  343.14200   53.01130   53.01130  343.14200  314.91790  314.91790   86.82990  -20.75200   -8.48270   86.82990
 11550.00000   11.15170   11.15170    1.97400    1.49310  669.72660   57.71320   57.71320  669.72660  308.03990  308.03990   71.15090  -27.32590  -15.45520   71.15090
 11600.00000    9.18860    9.18860   16.44380   13.39860   74.63450   44.90030   44.90030   74.63450  301.10200  301.10200   64.38280 -107.92790  -96.45580   64.38280
 11650.00000    9.86080    9.86080    3.11340    2.00000  500.01240   49.38270   49.38270  500.01240  309.40240  309.40240   91.94430 -156.01610 -144.94260   91.94430
 11700.00000    8.94060    8.94060   18.16580   18.13660   55.96120   46.19810   46.19810   55.96120  298.05640  298.05640   46.42480 -206.89960 -196.22660   46.42480
 11750.00000    8.65710    8.65710   55.96020   60.12430   16.63220   46.13080   46.13080   16.63220  284.65250  284.65250   39.35220 -256.08770 -245.81140   39.35220
 11800.00000   11.24370   11.24370    2.80550    1.50420  664.82180   44.43600   44.43600  664.82180  331.25570  331.25570   96.59240 -256.85800 -246.98020   96.59240
 11850.00000   10.94260   10.94260    4.30000    3.21480  311.06540   48.25440   48.25440  311.06540  343.43040  343.43040   52.60210 -202.23560 -192.75640   52.60210
 11900.00000   11.34480   11.34480   65.55170   73.36060   13.63130  100.97230  100.97230   13.63130  218.25380  218.25380   19.54980  -87.47020  -78.38960   19.54980
 11950.00000   10.81750   10.81750   39.00880   40.10930   24.93190   83.53120   83.53120   24.93190  254.32230  254.32230   23.05370  -34.90800  -26.22800   23.05370
 12000.00000   14.42500   14.42500   86.61930   93.17490   10.73250  103.76980  103.76980   10.73250  197.45920  197.45920   12.85280  -12.16950   -3.88610   12.85280
 12050.00000   14.09960   14.09960   92.53950  102.16590    9.78800  101.45140  101.45140    9.78800  200.03980  200.03980   11.97680   -4.86210    3.02270   11.97680
 12100.00000    9.96520    9.96520   56.78890   61.60250   16.23310   77.55160   77.55160   16.23310  243.12260  243.12260   17.85140  -68.31230  -60.82610   17.85140
 12150.00000   11.87760   11.87760   81.44370   89.48470   11.17510  100.22040  100.22040   11.17510  225.68840  225.68840   12.72260 -147.90030 -140.81270   12.72260
 12200.00000   10.01320   10.01320   60.80900   66.27040   15.08970   99.82750   99.82750   15.08970  232.29220  232.29220   17.50410 -193.92960 -187.24260   17.50410
 12250.00000   10.06080   10.06080   75.10030   80.91200   12.35910   97.14890   97.14890   12.35910  238.82820  238.82820   15.99540 -169.24710 -162.95660   15.99540
 12300.00000   10.10010   10.10010   69.15420   75.60180   13.22720   93.53340   93.53340   13.22720  217.29730  217.29730   16.11080  -94.99950  -89.10760   16.11080
 12350.00000    9.44230    9.44230   53.19660   57.26460   17.46280   90.10900   90.10900   17.46280  243.47980  243.47980   24.37990   -6.47940   -0.98610   24.37990
 12400.00000    9.33790    9.33790   43.54950   45.65480   21.90350   94.81890   94.81890   21.90350  221.15810  221.15810   26.58300  -58.37120  -49.38810   26.58300
 12450.00000    9.19180    9.19180   53.23390   56.47100   17.70970   91.41260   91.41260   17.70970  243.66090  243.66090   21.32460  -69.49360  -56.61680   21.32460
 12500.00000    9.24070    9.24070   36.77170   38.24340   26.14830   81.72780   81.72780   26.14830  262.19550  262.19550   24.01250  -63.53190  -46.80000   24.01250
 12550.00000    9.61240    9.61240   44.91850   47.08830   21.23670   85.82070   85.82070   21.23670  248.36760  248.36760   26.60750 -150.40490 -129.79870   26.60750
 12600.00000   10.14690   10.14690   43.97030   46.26970   21.61240   88.43600   88.43600   21.61240  231.73340  231.73340   22.19590 -172.45890 -147.97830   22.19590
 12650.00000    9.26840    9.26840    1.97480    1.39460  717.07150   54.76790   54.76790  717.07150  347.73600  347.73600   74.95540  -94.13610  -65.78110   74.95540
 12700.00000    9.23480    9.23480    9.30010    6.95680  143.92720  129.85340  129.85340  143.92720  220.70570  220.70570   51.37340 -180.23050 -147.98170   51.37340
 12750.00000   13.34150   13.34150   98.61780  106.31960    9.40560   78.02250   78.02250    9.40560  208.80570  208.80570   10.16180 -243.68760 -207.58380   10.16180
 12800.00000    9.41540    9.41540   15.95230   14.16960   70.57370   43.73420   43.73420   70.57370  321.17850  321.17850   40.21150 -118.10480  -78.12660   40.21150
 12850.00000   10.98240   10.98240   60.74280   63.22230   15.81720   58.70290   58.70290   15.81720  248.19050  248.19050   13.35760  -85.05460  -41.20210   13.35760
 12900.00000    9.29540    9.29540   33.62570   32.37460   30.88840   53.65210   53.65210   30.88840  264.27880  264.27880   26.04810  -66.29380  -18.56690   26.04810
 12950.00000    9.40260    9.40260   26.13370   25.90050   38.61300   47.60770   47.60770   38.61300  290.72130  290.72130   34.27130  -66.31760  -14.69690   34.27130
 13000.00000    9.12320    9.12320   19.86490   18.78440   53.23560   48.03260   48.03260   53.23560  293.75330  293.75330   35.38120 -152.27160  -96.79590   35.38120
 13050.00000    9.83170    9.83170   12.63080    8.57150  116.66620   33.78500   33.78500  116.66620  352.88830  352.88830   45.49960 -263.92470 -204.57460   45.49960
 13100.00000    9.64050    9.64050    4.38180    3.00600  332.66430   30.41360   30.41360  332.66430  348.89930  348.89930   72.14850 -267.15690 -203.93240   72.14850
 13150.00000    9.71460    9.71460    1.66140    1.38250  723.30620   21.26010   21.26010  723.30620  370.06370  370.06370  129.38700 -271.56180 -204.46300  129.38700
 13200.00000    9.03260    9.03260    2.78070    1.39280  717.99210   26.70810   26.70810  717.99210  342.41190  342.41190  107.09130 -225.71160 -154.71900  107.09130
 13250.00000    9.60050    9.60050    1.74580    1.38700  720.98000   26.42590   26.42590  720.98000  349.61970  349.61970   97.09490 -233.31930 -158.47170   97.09490
 13300.00000    9.59970    9.59970   10.47260   10.07470   99.25850   69.74830   69.74830   99.25850  265.31930  265.31930   58.67120 -232.14290 -153.42090   58.67120
 13350.00000    9.62510    9.62510    3.68070    2.12410  470.78260   38.97460   38.97460  470.78260  324.97200  324.97200   74.72410 -265.15370 -182.55730   74.72410
 13400.00000    9.06090    9.06090    9.54010    7.56290  132.22460   99.93810   99.93810  132.22460  229.85280  229.85280   49.24040 -185.73600  -99.26520   49.24040
 13450.00000    8.94300    8.94300    7.93540    5.54430  180.58400   41.75750   41.75750  180.58400  381.81720  381.81720   35.49070 -199.64380 -109.27920   35.49070
 13500.00000    9.07860    9.07860    2.77660    1.94960  512.93160   62.22590   62.22590  512.93160  326.21140  326.21140   25.68500 -197.35850 -103.13900   25.68500
 13550.00000    9.26280    9.26280    3.44260    1.39200  718.38090  124.75670  124.75670  718.38090  294.03770  294.03770   12.91420 -209.45850 -111.36460   12.91420
