~Version ---------------------------------------------------
VERS.      2.0 : CWLS log ASCII Standard -VERSION 2.0
WRAP.       NO : One line per depth step
CREA. 08/01/17 : LAS Creation Date
~Well ------------------------------------------------------
STRT.FT                1050.0 : START DEPTH
STOP.FT               10150.0 : STOP DEPTH
STEP.FT              50.00000 : STEP LENGTH
NULL.                 -999.25 : NULL VALUE
COMP.  THE ADAPTABLE TOOL CO. : COMPANY
WELL. B.A. TWO FOX 2-21-63-17 : WELL
FLD .                      WC : FIELD
LOC .                         : LOCATION
CTRY.                  CANADA : COUNTRY
SRVC.            Schlumberger : SERVICE COMPANY
DATE.             31-Mar-1960 : LOGDATE
PROV.                 Alberta : PROVINCE
UWI .        100022106317W500 : UNIQUE WELL ID
SLAT.WGS84           54.45975 : SURFACE LATITUDE
SLON.WGS84          -116.5047 : SURFACE LONGITUDE
~Curve Information -----------------------------------------
DEPT  .FT         : Depth Curve
CALWS .IN         : CALIPER [MCALED]
CILDED.MMHO       : CONDUCTIVITY FROM IEL LOG
CONDWS.MMHO       : CONDUCTIVITY [1000/DRESWS]
DRESWS.OHMM       : DEEP RESISTIVITY [1000/CILDED IF ILDED<4, ILDED]
DTED  .US/F       : DELTA-T FROM BCS LOG
DTWS  .US/F       : COMPRESSIONAL SONIC [DTED]
GRSED .UgRa-Eq/T  : GAMMA RAY FROM BCS LOG
GRWS  .GAPI       : GAMMA RAY [GRSED]
ILDED .OHMM       : DEEP INDUCTION FROM IEL LOG
MCALED.IN         : MICRO CALIPER FROM MICRO LOG
SNED  .OHMM       : SHORT NORMAL FROM IEL LOG
SPRED .MV         : SPONTANEOUS POTENTIAL FROM IEL LOG
SPWS  .MV         : SPONTANEOUS POTENTIAL [BASELINE 0 MV, SPRED]
SRESWS.OHMM       : SHALLOW RESISTIVITY [SNED]
~Params ----------------------------------------------------
LMF .                     KB : LOG MEASURED FROM
DMF .                     KB : DRILLING MEASURED FROM
EKB .FT                 3069 : KELLY BUSHING
DATE.               03/31/60 : RUN DATE
RUN .                      2 : RUN NUMBER
DD  .FT                10188 : DEPTH DRILLER
DL  .FT                10189 : DEPTH LOGGER
BLI .FT                10184 : BOTTOM LOG INTERVAL
TLI .FT                 6100 : TOP LOG INTERVAL
CBD .FT                 1060 : CASING BOTTOM DRILLER
BS  .IN                    9 : BIT SIZE
BSD .FT                10188 : BIT SIZE AT DEPTH
DFT .                    GEL : DRILLING FLUID TYPE
DFD .                    9.6 : DRILLING FLUID DENSITY
DFV .                    127 : DRILLING FLUID VISCOSITY
DFPH.                    9.5 : DRILLING FLUID PH
DFL .                    5.9 : DRILLING FLUID LOSS
RMS .OHMM                2.4 : RESISTIVITY MUD SAMPLE
MST .DEGF                 70 : MUD SAMPLE TEMPERATURE
RMF .OHMM                1.1 : RESISTIVITY MUD FILTRATE SAMPLE
MFST.DEGF                 74 : MUD FILTRATE SAMPLE TEMPERATURE
RMC .OHMM               2.19 : RESISTIVITY MUD CAKE
MCST.DEGF                 73 : MUD CAKE SAMPLE TEMPERATURE
RMB .OHMM               0.99 : RESISTIVITY MUD AT BHT
TCS .HRS                 4.5 : TIME CIRCULATED STOPPED
LUN .                  15250 : LOGGING UNIT NUMBER
LUL .                     DC : LOGGING UNIT LOCATION
ENGI.              HAUSEGGER : RECORDING ENGINEER
WITN.                    MAY : WITNESSED BY
CLNT.                A2DTECH : CLIENT CODE
ORIG.            2" 5" PRINT : ORIGIN OF DATA
UWI .       100022106317W500 : UNIQUE WELL ID
DICO. A2D Technologies, Inc. : DIGITIZING COMPANY
~Other -----------------------------------------------------
~ASCII -----------------------------------------------------
# ...
 5950.00000   10.50810  114.51180  148.62150    6.72850   81.83710   81.83710    5.35840   88.41440    6.72850   10.50810   11.84150  -54.17660  -10.69460   11.84150
 6000.00000   12.03420   88.19820  109.29560    9.14950   76.50720   76.50720    3.06600   50.58900    9.14950   12.03420   15.98210  -78.77930  -39.23830   15.98210
 6050.00000    9.60870   32.48340   45.42710   22.01330   65.15900   65.15900    3.34010   55.11170   22.01330    9.60870   40.92200  -49.36980  -13.76990   40.92200
 6100.00000    9.78430   73.58210   91.96330   10.87390   72.71790   72.71790    4.95510   81.75920   10.87390    9.78430   26.04740  -51.95830  -20.32540   26.04740
 6150.00000    8.96760  504.59380  504.59380    1.98180   84.53000   84.53000    1.86080   30.70320    1.59940    8.96760    6.20760 -125.46560  -97.77370    6.20760
 6200.00000    9.34700   55.56600   72.81570   13.73330   94.24840   94.24840    7.90800  130.48120   13.73330    9.34700   30.82540  -37.33970  -13.61480   30.82540
 6250.00000    9.24010  100.17340  121.99440    8.19710   76.54830   76.54830    6.19100  102.15150    8.19710    9.24010   17.98520  -44.52210  -24.73830   17.98520
 6300.00000    9.12780   20.13940   15.07040   66.35510   51.80960   51.80960    9.39550  155.02580   66.35510    9.12780  127.08590  -39.49430  -23.65150  127.08590
 6350.00000    9.11430    3.52270    5.01660  199.33950   61.84840   61.84840    3.35330   55.32940  199.33950    9.11430  272.94910  -29.44010  -17.56430  272.94910
 6400.00000    9.15030   81.49430  105.70600    9.46020   65.97770   65.97770    5.61730   92.68550    9.46020    9.15030   18.56580  -47.35040  -33.21690   18.56580
 6450.00000    8.64640 1195.37700 1195.37700    0.83660   73.78290   73.78290    1.20880   19.94520    0.74700    8.64640   13.24930 -178.48160 -159.69320   13.24930
 6500.00000    9.14170   69.90710   86.76860   11.52490   52.63870   52.63870    1.10860   18.29190   11.52490    9.14170   46.63030 -106.53690  -83.12390   46.63030
 6550.00000    9.27700  223.68220  223.68220    4.47060   62.14200   62.14200    2.99460   49.41090    3.73090    9.27700    9.50450  -89.41690  -61.37940    9.50450
 6600.00000   12.01880   11.29220    2.27430  439.69710   49.71530   49.71530    1.35140   22.29810  439.69710   12.01880  123.83350  -85.59860  -52.90620  123.83350
 6650.00000    9.62770   68.08070   56.84180   17.59270   54.46070   54.46070    2.67420   44.12430   17.59270    9.62770   32.18020 -118.08240  -80.76540   32.18020
 6700.00000   10.17350   30.55600   21.08150   47.43490   50.62060   50.62060    0.66840   11.02860   47.43490   10.17350   55.18960  -98.49350  -56.52160   55.18960
 6750.00000    9.94960   39.52270   31.66630   31.57930   56.45510   56.45510    4.34530   71.69750   31.57930    9.94960   57.63150 -118.34000  -71.74360   57.63150
 6800.00000    8.73160   56.69510   50.18750   19.92530   59.00310   59.00310    0.68060   11.22990   19.92530    8.73160   52.29690 -285.47820 -234.25720   52.29690
 6850.00000    9.21970   28.47970   19.22560   52.03460   54.08980   54.08980    0.68800   11.35200   52.03460    9.21970   85.67390 -305.15600 -249.28010   85.67390
 6900.00000   11.03740   11.36060    4.18030  239.21970   48.38300   48.38300    1.03500   17.07750  239.21970   11.03740  117.71240 -279.66120 -219.16080  117.71240
 6950.00000   11.30500  406.16690  406.16690    2.46200   65.25790   65.25790    3.06160   50.51560    2.24850   11.30500    5.20460 -189.09410 -123.93870    5.20460
 7000.00000    9.96220  130.14780  131.55820    7.60120   64.01320   64.01320    5.35860   88.41690    7.60120    9.96220   11.21600 -161.22180  -91.44190   11.21600
 7050.00000   10.67450   58.25070   47.18450   21.19340   54.99820   54.99820    2.73860   45.18690   21.19340   10.67450   23.99830 -122.27430  -47.86990   23.99830
 7100.00000   10.29980   10.41380    3.77430  264.95020   52.27840   52.27840    1.43040   23.60240  264.95020   10.29980   77.24940 -119.84630  -40.78690   77.24940
 7150.00000   10.13990   27.99450   18.56710   53.85870   49.79930   49.79930    1.26030   20.79500   53.85870   10.13990   57.96500  -93.19440   -9.51050   57.96500
 7200.00000    9.51850   26.22700   17.51010   57.10990   55.91430   55.91430    2.00290   33.04790   57.10990    9.51850   59.53220 -114.37820  -26.02400   59.53220
 7250.00000    9.56350   13.43030    6.54720  152.73710   53.64660   53.64660    2.03770   33.62210  152.73710    9.56350   90.25120 -146.02130  -52.98090   90.25120
 7300.00000    9.49430   13.69440    7.61460  131.32750   54.14130   54.14130    2.39500   39.51750  131.32750    9.49430   96.24070 -137.13310  -39.40660   96.24070
 7350.00000    9.53870   12.80040    6.21520  160.89610   52.84530   52.84530    1.53300   25.29450  160.89610    9.53870  113.54380 -155.66510  -53.22170  113.54380
 7400.00000    9.66640    8.94100    3.14510  317.95970   54.09690   54.09690    1.92590   31.77730  317.95970    9.66640  132.11580 -138.03710  -30.90750  132.11580
 7450.00000    9.62890   11.52790    5.10290  195.96800   60.35320   60.35320    4.21270   69.50950  195.96800    9.62890  106.47610 -114.57410   -2.72760  106.47610
 7500.00000   11.01390    9.81060    2.80770  356.16310   49.56210   49.56210    1.42610   23.53060  356.16310   11.01390  120.19220 -130.63610  -21.33470  120.19220
 7550.00000    9.80840    9.92830    2.97360  336.29390   49.98170   49.98170    0.81140   13.38810  336.29390    9.80840  144.19530 -163.15640  -57.89240  144.19530
 7600.00000    9.64540   15.98830    7.78440  128.46200   49.48580   49.48580    1.10200   18.18300  128.46200    9.64540   86.52710 -231.27990 -130.07980   86.52710
 7650.00000    9.73050    9.91830    2.00000  500.00000   48.29940   48.29940    0.84810   13.99360  500.00000    9.73050  141.60830 -187.99680  -90.83410  141.60830
 7700.00000    9.66490    7.92960    2.50780  398.76150   48.18120   48.18120    1.18700   19.58630  398.76150    9.66490  158.99540 -196.40790 -103.30910  158.99540
 7750.00000   10.37650    8.80080    2.18080  458.55390   47.57640   47.57640    0.67990   11.21830  458.55390   10.37650  130.84240 -211.28980 -122.22830  130.84240
 7800.00000   11.16660    8.30450    2.00000  500.00000   51.73490   51.73490    0.85540   14.11410  500.00000   11.16660  136.90200 -211.56890 -126.54480  136.90200
 7850.00000   10.21620   11.21370    3.83270  260.91480   47.67970   47.67970    0.64670   10.66970  260.91480   10.21620  134.71750 -250.36670 -169.40650  134.71750
 7900.00000    9.62200    7.46440    2.00000  500.00000   48.66830   48.66830    0.75630   12.47890  500.00000    9.62200  125.75100 -206.82020 -129.89730  125.75100
 7950.00000   10.17790    8.99090    3.57840  279.45370   49.91900   49.91900    1.25050   20.63330  279.45370   10.17790   98.42930 -193.06440 -120.20540   98.42930
 8000.00000   11.88460    7.20790    2.00000  500.00000   48.86040   48.86040    0.91730   15.13550  500.00000   11.88460  114.15090 -185.20000 -116.37840  114.15090
 8050.00000   11.20250    9.38760    2.47130  404.65230   50.35080   50.35080    0.73230   12.08290  404.65230   11.20250  115.89630 -170.67110 -105.88680  115.89630
 8100.00000   10.12890   10.15090    4.23850  235.93260   50.91140   50.91140    0.99890   16.48180  235.93260   10.12890  112.39310 -167.52030 -106.79990  112.39310
 8150.00000    9.37440   17.71990   10.10160   98.99410   52.83830   52.83830    0.66430   10.96100   98.99410    9.37440   89.19450 -171.60770 -114.92470   89.19450
 8200.00000    9.02480   31.84780   24.38320   41.01190   55.74990   55.74990    0.86920   14.34100   41.01190    9.02480   80.88000 -195.10810 -142.48900   80.88000
 8250.00000    9.42430   19.77750   12.29000   81.36710   49.43740   49.43740    0.57840    9.54360   81.36710    9.42430   96.31920 -233.68110 -185.09930   96.31920
 8300.00000    9.72270   17.91900    9.77350  102.31770   51.83470   51.83470    2.28740   37.74210  102.31770    9.72270   87.77670 -139.23870  -94.69430   87.77670
 8350.00000    9.43040    6.04710    2.01100  497.27640   50.34840   50.34840    1.83950   30.35180  497.27640    9.43040  126.09480 -162.22440 -121.74390  126.09480
