~Version ---------------------------------------------------
VERS. 2.0 : CWLS log ASCII Standard -VERSION 2.0
WRAP.  NO : ONE LINE PER DEPTH STEP
~Well ------------------------------------------------------
STRT.M                       450.0 : START DEPTH
STOP.M                      3600.0 : STOP DEPTH
STEP.M                    50.00000 : STEP LENGTH
NULL.                      -999.25 : NULL VALUE
COMP. HUSKY OIL OPERATIONS LIMITED : COMPANY
WELL.  HUSKY ANTE CREEK 7-27-66-26 : WELL
FLD .                              : FIELD
LOC .                              : LOCATION
CTRY.                       CANADA : COUNTRY
SRVC.                      Unknown : SERVICE COMPANY
DATE.                  24-Feb-1984 : LOGDATE
PROV.                      Alberta : PROVINCE
UWI .             100072706626W500 : UNIQUE WELL ID
SLAT.WGS84                54.74152 : SURFACE LATITUDE
SLON.WGS84               -117.8404 : SURFACE LONGITUDE
~Curve Information -----------------------------------------
DEPT   .M                  : 
GRD    .GAPI               : GAMMA RAY FROM DENSITY
CALD   .MM    70 280 01 00 : CALIPER
DRHO   .KG/M3 45 356 01 00 : BULK DENSITY CORRECTION
RHOB   .KG/M3 45 350 01 00 : BULK DENSITY
TEND   .KG                 : TENSION FROM DENSITY LOG
NPHI_SS.DEC   42 890 03 00 : 
DPHI_SS.DEC   45 890 12 00 : DENSITY POROSITY SANDSTONE
DPHI_LS.DEC   45 890 12 00 : DENSITY POROSITY LIMESTONE
NPHI_LS.DEC                : NEUTRON POROSITY LIMESTONE
MCAL   .MM                 : MLT [MICROLOG] CALIPER
GRR    .GAPI  99 310 01 00 : GAMMA RAY FROM RESISTIVITY LOG
SPR    .MV                 : SPONTANEOUS POTENTIAL FROM RESISTIVITY
LLD    .OHMM               : LATEROLOG DEEP RESISTIVITY
LLS    .OHMM               : LATEROLOG SHALLOW
MSFL   .OHMM  07 270 04 00 : MICROSPHERICALLY FOCUSED LOG RES.
CALR   .MM    07 280 01 00 : CALIPER FROM RESISTIVITY
PROX   .OHMM  15 270 04 00 : PROXIMITY LOG RESISTIVITY
GRS    .GAPI               : GAMMA RAY FROM SONIC LOG
DT     .US/M  60 520 00 00 : SONIC INTERVAL TRANSIT TIME
CALS   .MM                 : 
TENS   .KG    35 635 01 00 : TENSION FROM GRN LOG
~Params ----------------------------------------------------
PD  .                         GL : PERMANENT DATUM
EPD .M                    785.37 : ELEVATION PERMANENT DATUM
LMF .                         KB : LOG MEASURED FROM
DAPD.M                      7.45 : FEET ABOVE PERMANENT DATUM
DMF .                         KB : DRILLING MEASURED FROM
EKB .M                    792.82 : KELLY BUSHING
EGL .M                    785.37 : GROUND LEVEL
DATE.                   02/24/84 : RUN DATE
RUN .                          1 : RUN NUMBER
DD  .M                      3597 : DEPTH DRILLER
DL  .M                      3595 : DEPTH LOGGER
BLI .M                      3595 : BOTTOM LOG INTERVAL
TLI .M                       486 : TOP LOG INTERVAL
CS  .MM                    244.5 : CASING SIZE
CBD .M                       486 : CASING BOTTOM DRILLER
CBL .M                       486 : CASING BOTTOM LOGGER
BS  .MM                      222 : BIT SIZE
BSD .M                      3597 : BIT SIZE AT DEPTH
DFT .                   GEL CHEM : DRILLING FLUID TYPE
DFD .                       1125 : DRILLING FLUID DENSITY
DFV .                         69 : DRILLING FLUID VISCOSITY
DFPH.                       10.5 : DRILLING FLUID PH
DFL .                          9 : DRILLING FLUID LOSS
MSS .                   FLOWLINE : MUD SAMPLE SOURCE
RMS .OHMM                   1.36 : RESISTIVITY MUD SAMPLE
MST .DEGC                   15.6 : MUD SAMPLE TEMPERATURE
RMF .OHMM                   1.08 : RESISTIVITY MUD FILTRATE SAMPLE
MFST.DEGC                   17.8 : MUD FILTRATE SAMPLE TEMPERATURE
RMC .OHMM                   1.62 : RESISTIVITY MUD CAKE
MCST.DEGC                   21.1 : MUD CAKE SAMPLE TEMPERATURE
MFSS.                   MEASURED : MUD FILTRATE SAMPLE SOURCE
MCSS.                   MEASURED : MUD CAKE SAMPLE SOURCE
RMB .OHMM                  0.506 : RESISTIVITY MUD AT BHT
TCS .HRS                     100 : TIME CIRCULATED STOPPED
TLAB.HRS                     915 : TIME LOGGER AT BOTTOM
LUN .                       8211 : LOGGING UNIT NUMBER
LUL .                        EDM : LOGGING UNIT LOCATION
ENGI.             PIERACCI PENNY : RECORDING ENGINEER
WITN.                      STIEL : WITNESSED BY
CLNT.                    A2DTECH : CLIENT CODE
ORIG. 6.5"/100M 16.5"/100M PRINT : ORIGIN OF DATA
UWI .           100072706626W500 : UNIQUE WELL ID
DICO.     A2D Technologies, Inc. : DIGITIZING COMPANY
~Other -----------------------------------------------------
~ASCII -----------------------------------------------------
  450.00000    -999.25    -999.25    -999.25    -999.25    -999.25    -999.25    -999.25    -999.25    -999.25    -999.25    -999.25    -999.25    -999.25    -999.25    -999.25    -999.25    -999.25   49.24170    -999.25    -999.25    -999.25
  500.00000   87.46630  487.22330   35.94540 1651.53270  711.05200    0.42990    0.58940    -999.25    -999.25    -999.25   80.74350   24.48840    4.23040    2.38810    1.83620  286.84040    -999.25   93.14260  383.42070  251.64630  606.97060
  550.00000   76.72320  294.05350   -3.00130 2335.22310  747.63170    0.40910    0.18350    -999.25    -999.25    -999.25   74.28700  -76.61230    6.94690    5.04700    4.17890  217.84500    -999.25   80.80820  333.67810  247.99620  655.87380
  600.00000   72.15630  246.38850   18.57000 2353.51340  770.06290    0.45320    0.18430    -999.25    -999.25    -999.25   67.45190  -52.37340    6.27230    4.58850    2.33470  223.24260    -999.25   67.67310  336.47280  233.82330  671.84860
  650.00000   54.91520  286.80590   31.15930 2343.65600  839.55410    0.42660    0.19100    -999.25    -999.25    -999.25   58.35130  -75.32850    5.00810    3.82980    2.14070  215.01450    -999.25   61.47230  368.73190  266.52900  703.69310
  700.00000   63.85050  294.86750    1.34960 2422.51000  802.54000    0.31150    0.13800    -999.25    -999.25    -999.25   58.03010  -49.69080    7.66130    6.60300    6.00060  207.02300    -999.25   64.13710  298.67440  248.53000  741.88560
  750.00000   60.46740  230.47600   19.64900 2417.35910  859.10270    0.37610    0.14040    -999.25    -999.25    -999.25   59.16750  -55.10130    8.24440    6.52540    5.62350  223.77360    -999.25   59.56190  311.66490  234.54500  760.42020
  800.00000   58.04430  253.35030   63.67990 2137.28690  872.38260    0.49560    0.31330    -999.25    -999.25    -999.25   57.24960  -83.92380    7.11010    5.21520    2.56930  223.54780    -999.25   62.84810  329.12060  280.59680  760.91080
  850.00000   61.18450  269.22400   49.42650 2480.70190  896.50400    0.33390    0.10340    -999.25    -999.25    -999.25   66.65540  -99.45400    8.28090    6.95750    2.65060  217.51030    -999.25   73.16360  284.33080  254.76590  819.59030
  900.00000   86.66140  328.56500   38.57370 2140.21900  894.14680    0.50870    0.30880    -999.25    -999.25    -999.25   99.79300  -68.94540    9.92560    8.32480    1.86080  212.94290    -999.25   97.67010  307.81020  315.80540  825.16970
  950.00000   93.54510  298.71450  112.08360 2090.39310  928.90740    0.41780    0.34580    -999.25    -999.25    -999.25  100.82410  -82.80370   12.38550   10.52540    4.33740  213.31300    -999.25   99.38610  304.50160  250.46840  864.19080
 1000.00000   78.23390  393.61500  -23.61260 1507.24120  985.47910    0.45740    0.68720    -999.25    -999.25    -999.25   93.61730  -64.59300   10.76640    8.75600    3.08150  216.52330    -999.25   88.12510  292.04830  277.12960  891.60120
 1050.00000   89.00150  312.12770   42.15340 1958.50950  965.49220    0.41900    0.49240    -999.25    -999.25    -999.25   86.29260  -40.09780   10.88110    9.15140    3.78940  212.81120    -999.25   91.71490  286.32810  245.23880  947.45330
 1100.00000   89.71590  289.31680  108.97340 2075.97140 1082.04430    0.32920    0.35220    -999.25    -999.25    -999.25   94.35730  -38.88210   13.87570   12.41140    3.13650  239.91040    -999.25   88.05390  275.88490  252.68690  956.38670
 1150.00000   94.10680  279.25900   74.35870 1883.57690 1114.69210    0.42390    0.45790    -999.25    -999.25    -999.25   98.69080  -68.85490    9.41320    8.21500    2.87490  216.19590    -999.25   98.39210  295.77570  258.43050  945.83820
 1200.00000  113.50120  322.21700  134.60820 2075.03200 1129.29360    0.41160    0.35640    -999.25    -999.25    -999.25  115.75650 -119.77810   12.83390   11.92990    8.25680  206.18310    -999.25  128.41040  317.26320  249.08930  961.21800
 1250.00000   88.55080  332.35390  221.67670 2297.47070 1138.05730    0.35720    0.21220    -999.25    -999.25    -999.25  104.11520 -136.38550   14.09510   13.01280    5.35260  203.85350    -999.25   99.26340  289.19590  247.81210 1040.28200
 1300.00000  102.19600  316.94220   86.39520 1919.08250 1154.89370    0.43820    0.41840    -999.25    -999.25    -999.25  111.12290 -109.29450   12.72290   12.08580    7.13050  204.15860    -999.25  110.04140  332.37020  253.65690 1032.94530
 1350.00000   89.03550  288.65950   33.57070 1794.20830 1254.26590    0.45810    0.57620    -999.25    -999.25    -999.25   97.29640  -95.97980    7.40840    6.47650    1.69920  218.43560    -999.25   96.03910  287.65300  267.93950 1079.42910
 1400.00000  102.82060  293.53590   96.01610 1943.43160 1244.67240    0.30760    0.42410    -999.25    -999.25    -999.25   97.49280  -73.75860    9.04640    8.51190    2.46800  214.78800    -999.25  107.18290  275.38700  235.95030 1109.37000
 1450.00000   94.35450  317.95330   73.11700 2472.52440 1301.59780    0.28460    0.10820    -999.25    -999.25    -999.25  101.42990 -129.67960   10.63450    9.95520    5.02200  206.04730    -999.25  103.19640  262.60420  247.60860 1132.35110
 1500.00000   92.37940  360.11600   77.48710 2296.05150 1304.15030    0.40520    0.21290    -999.25    -999.25    -999.25   87.85690 -133.98390    6.07720    5.26990    3.03530  213.46680    -999.25   93.33560  298.40870  275.15460 1157.31920
 1550.00000  108.35860  315.67000   22.39900 2366.51270 1324.74190    0.39400    0.17110    -999.25    -999.25    -999.25   95.59190  -79.52060    5.17450    4.82610    2.70800  214.20280    -999.25  102.76880  306.36600  265.99600 1186.63750
 1600.00000   91.29720  295.61450   39.75470 2492.91020 1358.53750    0.21460    0.09620    -999.25    -999.25    -999.25   90.67750  -47.89900   12.48870   10.81130    7.78520  236.09500    -999.25   83.72530  254.53570  280.35710 1226.60630
 1650.00000   84.72880  292.16510   36.31090 2483.98020 1343.58700    0.35370    0.10080    -999.25    -999.25    -999.25   82.02430    8.70470    8.22250    6.25600    1.78430  256.84480    -999.25   81.35200  266.47280  301.09400 1237.09920
 1700.00000   73.95940  282.09650    9.86870 2260.77030 1391.59860    0.31920    0.27520    -999.25    -999.25    -999.25   72.08050  -43.09150   18.66960   13.35720    3.63400  247.79290    -999.25   80.40290  259.80810  280.14850 1263.55580
 1750.00000   82.48300  349.47150  248.33430 2345.21410 1445.91310    0.28760    0.17380    -999.25    -999.25    -999.25   85.38460   41.29050   12.54050    8.71270   10.72700  250.89880    -999.25   93.56730  266.01180  298.74440 1302.84840
 1800.00000   74.55770  305.16920   14.33790 2578.52540 1436.30570    0.22230    0.04690    -999.25    -999.25    -999.25   67.54650   32.73450   12.15220   10.90000   12.84680  259.06160    -999.25   78.30580  234.94440  303.84720 1333.33020
 1850.00000   86.25440  293.62720   48.01510 2600.52830 1489.22230    0.26640    0.03440    -999.25    -999.25    -999.25   85.15020   47.56920   13.08540   13.91170   17.41600  263.53510    -999.25   88.13130  245.70160  284.27180 1361.17050
 1900.00000   44.41920  285.91090   -1.58390 2508.64260 1495.17500    0.21550    0.08610    -999.25    -999.25    -999.25   51.64280   72.00040   15.01410   15.48320   29.38930  254.41730    -999.25   52.65760  230.77350  295.51920 1377.48120
 1950.00000   75.70380  284.73150   18.38280 2198.74190 1593.00880    0.20580    0.28850    -999.25    -999.25    -999.25   77.36550  -60.85220   42.10180   36.54330   28.57230  262.57670    -999.25   83.57760  240.54610  273.94490 1404.43120
 2000.00000   44.61070  284.15590   58.88370 2505.68210 1555.49450    0.16150    0.08760    -999.25    -999.25    -999.25   43.11120   46.62570   15.26780   16.03490   25.17110  253.95560    -999.25   39.13170  226.73740  277.46020 1408.63530
 2050.00000   81.38220  362.19180   76.09480 2326.07130 1578.43580    0.48170    0.19430    -999.25    -999.25    -999.25   81.25880  135.67080    4.80710    4.41680    2.27860  302.42800    -999.25   88.60270  282.69420  342.72660 1452.34310
