~Version ---------------------------------------------------
VERS. 2.0 : CWLS log ASCII Standard -VERSION 2.0
WRAP.  NO : ONE LINE PER DEPTH STEP
~Well ------------------------------------------------------
STRT.M                      550.0 : START DEPTH
STOP.M                     3350.0 : STOP DEPTH
STEP.M                   50.00000 : STEP LENGTH
NULL.                     -999.25 : NULL VALUE
COMP.   GULF CANADA RESOURCES INC : COMPANY
WELL. GULF AEC STURLS 16-34-68-26 : WELL
FLD .                             : FIELD
LOC .                             : LOCATION
CTRY.                      CANADA : COUNTRY
SRVC.      Schlumberger of Canada : SERVICE COMPANY
DATE.                 04-May-1982 : LOGDATE
PROV.                     Alberta : PROVINCE
UWI .            100163406826W500 : UNIQUE WELL ID
SLAT.WGS84               54.93441 : SURFACE LATITUDE
SLON.WGS84              -117.8699 : SURFACE LONGITUDE
~Curve Information -----------------------------------------
DEPT    .M      : DEPTH METERS
C1ED    .MM     : CALIPER 1 FROM FDC/CNL LOG
C2ED    .MM     : CALIPER 2 FROM FDC/CNL LOG
CALSED  .MM     : CALIPER FROM BCSL LOG
CALWS   .MM     : CALIPER [CALSED]
CONDWS  .MMHO   : CONDUCTIVITY [1000/DRESWS]
DCORED  .KG/M3  : DENSITY CORRECTION FROM FDC/CNL LOG
DCORWS  .KG/M3  : DENSITY CORRECTION [DCORED]
DENWS   .KG/M3  : BULK DENSITY [M=2650,2710 F=1000] [RHOBED]
DPHILSED.V/V    : DENSITY POROSITY LIMESTONE FROM FDC/CNL LOG
DPHISSED.V/V    : DENSITY POROSITY SANDSTONE FROM FDC/CNL LOG
DPOLSWS .V/V    : DENSITY POROSITY [M=2710 F=1000] [CALCULATED FROM DENWS]
DRESWS  .OHMM   : DEEP RESISTIVITY [RILDED]
DTED    .US/M   : DELTA TIME FROM BCSL LOG
DTWS    .US/M   : DELTA TIME [DTED]
GRDED   .GAPI   : GAMMA RAY FROM FDC/CNL LOG
GRRED   .GAPI   : GAMMA RAY FROM DISFL LOG
GRSED   .GAPI   : GAMMA RAY FROM BCSL LOG
GRWS    .GAPI   : GAMMA RAY [537 GRSED 586 GRRED] CSG < 611 M
ILMED   .OHMM   : INDUCTION LOG MEDIUM RESISTIVITY FROM DISFL LOG
MRESWS  .OHMM   : MEDIUM RESISTIVITY [ILMED]
NPHILSED.V/V    : NEUTRON POROSITY LIMESTONE FROM FDC/CNL LOG
NPHISSED.V/V    : NEUTRON POROSITY SANDSTONE FROM FDC/CNL LOG
NPOLSWS .V/V    : NEUTRON POROSITY [MERGED NPHISSED CONVERTED TO LS/NPHILSED at 1777.2]
RHOBED  .KG/M3  : BULK DENSITY FROM FDC/CNL LOG
RILDED  .OHMM   : INDUCTION LOG DEEP RESISTIVITY FROM DISFL LOG
SFLUED  .OHMM   : SPHERICALLY FOCUSED LOG RESISTIVITY FROM DISFL LOG
SPRED   .MV     : SPONTANEOUS POTENTIAL FROM FROM DISFL LOG
SRESWS  .OHMM   : SHALLOW RESISTIVITY [SFLUED]
TENRED  .LBF    : TENSION FROM DISFL LOG
TENSED  .LBF    : TENSION FROM BCSL LOG
~Params ----------------------------------------------------
PD  .                         GL : PERMANENT DATUM
EPD .M                     675.5 : ELEVATION PERMANENT DATUM
LMF .                         KB : LOG MEASURED FROM
DAPD.M                       6.4 : FEET ABOVE PERMANENT DATUM
DMF .                         KB : DRILLING MEASURED FROM
EKB .M                     681.9 : KELLY BUSHING
EDF .M                     681.5 : DRILLING FLOOR
EGL .M                     675.5 : GROUND LEVEL
DATE.                   05/07/82 : RUN DATE
RUN .                          1 : RUN NUMBER
DD  .M                      3359 : DEPTH DRILLER
DL  .M                    3359.2 : DEPTH LOGGER
BLI .M                      3357 : BOTTOM LOG INTERVAL
TLI .M                       611 : TOP LOG INTERVAL
CS  .MM                      244 : CASING SIZE
CBD .M                       611 : CASING BOTTOM DRILLER
CBL .M                       611 : CASING BOTTOM LOGGER
BS  .MM                      222 : BIT SIZE
BSD .M                      3359 : BIT SIZE AT DEPTH
DFT .                        GEL : DRILLING FLUID TYPE
DFD .                       1120 : DRILLING FLUID DENSITY
DFV .                         91 : DRILLING FLUID VISCOSITY
DFPH.                        9.5 : DRILLING FLUID PH
DFL .                        7.6 : DRILLING FLUID LOSS
MSS .                   FLOWLINE : MUD SAMPLE SOURCE
RMS .OHMM                    1.6 : RESISTIVITY MUD SAMPLE
MST .DEGC                   10.5 : MUD SAMPLE TEMPERATURE
RMF .OHMM                   0.58 : RESISTIVITY MUD FILTRATE SAMPLE
MFST.DEGC                   22.2 : MUD FILTRATE SAMPLE TEMPERATURE
RMC .OHMM                  0.255 : RESISTIVITY MUD CAKE
MCST.DEGC                   77.7 : MUD CAKE SAMPLE TEMPERATURE
MFSS.                      PRESS : MUD FILTRATE SAMPLE SOURCE
RMB .OHMM                  0.343 : RESISTIVITY MUD AT BHT
TCS .HRS                    2000 : TIME CIRCULATED STOPPED
TLAB.HRS                     300 : TIME LOGGER AT BOTTOM
LUN .                       8100 : LOGGING UNIT NUMBER
LUL .                         GP : LOGGING UNIT LOCATION
ENGI.         MACMILLAN ABISSERA : RECORDING ENGINEER
WITN.             GHORASHI ZADEH : WITNESSED BY
CLNT.                    A2DTECH : CLIENT CODE
ORIG. 6.5"/100M 16.5"/100M PRINT : ORIGIN OF DATA
UWI .           100163406826W500 : UNIQUE WELL ID
DICO.     A2D Technologies, Inc. : DIGITIZING COMPANY
~Other -----------------------------------------------------
1. NPOLSWS: CO. SCHLUMBERGER , TOOL=CNC(NPHI) SIGM IN=4.6, SIGMOUT=7.1
2. DID NOT CREATE SPWS DUE TO EXCESSIVE SP DRIFT
~ASCII -----------------------------------------------------
# ...
 1750.00000  223.08470  240.99950  234.58430  234.58430  262.34330   61.46160   61.46160 2419.31980    -999.25    0.13960    0.17000    3.81180  230.61010  230.61010   25.49740   23.29780   25.52460   23.29780    4.64290    4.64290    -999.25    0.25710    0.21320 2419.31980    3.81180    7.52310  -51.75540    7.52310 17914.12890 17443.35940
 1800.00000  229.35680  237.57330  234.42290  234.42290    2.01790    4.89840    4.89840 2186.99660    0.30700    -999.25    0.30580  495.55810  300.71770  300.71770  300.15360    -999.25    -999.25    -999.25  568.91960  568.91960    0.36850    -999.25    0.36850 2186.99660  495.55810 1878.47170  -58.08180 1878.47170 17818.12110 17338.99410
 1850.00000  272.09600  263.41990  268.54140  268.54140  203.86940   39.25560   39.25560 2568.55320    0.08330    -999.25    0.08270    4.90510  224.88280  224.88280   93.57670   90.09070   83.43730   90.09070    5.42210    5.42210    0.18620    -999.25    0.18620 2568.55320    4.90510   11.08320  -66.69950   11.08320 17772.59770 17291.40620
 1900.00000  268.31800  269.46540  270.38180  270.38180  111.28420    7.96070    7.96070 2600.81760    0.06660    -999.25    0.06380    8.98600  212.74870  212.74870   75.02270   89.17130   73.79050   89.17130    8.81400    8.81400    0.16780    -999.25    0.16780 2600.81760    8.98600   12.19960  -34.26020   12.19960 17704.93360 17264.26170
 1950.00000  280.28390  293.81900  288.79160  288.79160   52.87310   11.05630   11.05630 2629.06010    0.05200    -999.25    0.04730   18.91320  213.84010  213.84010   92.90940  110.04710   96.54390  110.04710   17.25560   17.25560    0.16270    -999.25    0.16270 2629.06010   18.91320   23.84200   35.95100   23.84200 17636.83590 17199.58590
 2000.00000  220.68720  211.68850  215.48030  215.48030  302.82840   77.47090   77.47090 2517.16750    0.11550    -999.25    0.11280    3.30220  208.76160  208.76160   16.04680   17.79200   17.34390   17.79200    5.46900    5.46900    0.12030    -999.25    0.12030 2517.16750    3.30220   31.55570    7.68360   31.55570 17640.16600 17120.50000
 2050.00000  290.02110  375.87690  286.96120  286.96120  166.44200   35.38680   35.38680 2099.68510    0.36600    -999.25    0.35690    6.00810  224.00310  224.00310   75.23370   79.26010   75.51610   79.26010    5.95690    5.95690    0.38430    -999.25    0.38430 2099.68510    6.00810    7.09320   41.76260    7.09320 17582.15040 17064.09960
 2100.00000  235.58040  238.59870  239.01610  239.01610   12.23650   15.01730   15.01730 2810.22020   -0.05350    -999.25   -0.05860   81.72270  165.24150  165.24150   30.03920   35.42380   30.66280   35.42380   67.59730   67.59730    0.08210    -999.25    0.08210 2810.22020   81.72270  160.71400   40.24110  160.71400 17541.64450 16951.66020
 2150.00000  230.81310  250.73760  242.87740  242.87740   48.91240   31.96760   31.96760 2711.18750   -0.00030    -999.25   -0.00070   20.44470  180.73810  180.73810   45.97350   49.68170   45.66160   49.68170   36.16330   36.16330    0.08580    -999.25    0.08580 2711.18750   20.44470  116.08130  -45.08150  116.08130 17481.50000 16978.67970
 2200.00000  215.68320  233.44420  225.65180  225.65180  199.56100   67.68350   67.68350 2657.66550    0.02870    -999.25    0.03060    5.01100  173.99030  173.99030   26.06560   31.10940   28.31000   31.10940    9.07380    9.07380    0.15590    -999.25    0.15590 2657.66550    5.01100   28.11290  -69.73790   28.11290 17398.49220 16887.98240
 2250.00000  227.29410  270.01330  242.78310  242.78310    7.50300    4.21340    4.21340 2677.35230    0.01820    -999.25    0.01910  133.28040  167.38590  167.38590   15.26260   10.19200    9.76890   10.19200  102.85400  102.85400    0.04920    -999.25    0.04920 2677.35230  133.28040  142.96200   -2.85660  142.96200 17354.88090 16875.03710
 2300.00000  252.53790  250.58290  251.79450  251.79450   38.26920   14.03820   14.03820 2715.57370   -0.00260    -999.25   -0.00330   26.13070  187.10900  187.10900   46.12060   48.91850   44.20200   48.91850   22.36880   22.36880    0.08440    -999.25    0.08440 2715.57370   26.13070   51.69760    6.31550   51.69760 17303.67770 16740.27730
 2350.00000  231.70870  286.92670  252.31480  252.31480    5.48240   18.46650   18.46650 2675.83570    0.02390    -999.25    0.02000  182.40140  164.43530  164.43530   19.50630   18.02150   14.24370   18.02150   98.51770   98.51770    0.03260    -999.25    0.03260 2675.83570  182.40140  289.26720 -125.28390  289.26720 17239.18950 16703.66990
 2400.00000  239.39030  262.77190  261.71590  261.71590   56.44300   22.86790   22.86790 2698.88450    0.00730    -999.25    0.00650   17.71700  176.15960  176.15960   40.53920   34.72010   33.52060   34.72010   16.81140   16.81140    0.08150    -999.25    0.08150 2698.88450   17.71700   29.09110 -133.50390   29.09110 17177.46880 16701.71880
 2450.00000  242.71960  272.78720  256.80240  256.80240   29.65600   12.87370   12.87370 2676.63350    0.02030    -999.25    0.01950   33.72000  181.70070  181.70070   32.89410   36.46710   34.65800   36.46710   29.87610   29.87610    0.07290    -999.25    0.07290 2676.63350   33.72000   54.86120  -20.78750   54.86120 17118.59570 16627.20310
 2500.00000  241.24380  242.96030  244.49370  244.49370   18.92510   12.26850   12.26850 2683.56620    0.01770    -999.25    0.01550   52.83980  182.29930  182.29930   35.56790   39.07970   29.30980   39.07970   47.93720   47.93720    0.06240    -999.25    0.06240 2683.56620   52.83980   73.65180  -61.06830   73.65180 17086.29300 16580.13280
 2550.00000  236.27800  237.70730  235.07990  235.07990   29.31590    4.76860    4.76860 2671.85910    0.02300    -999.25    0.02230   34.11120  190.27580  190.27580   42.93470   43.76750   40.89500   43.76750   32.81700   32.81700    0.08370    -999.25    0.08370 2671.85910   34.11120   50.28130  120.41240   50.28130 17016.75390 16514.74220
 2600.00000  217.52600  314.17760  229.08240  229.08240    0.92960    4.80770    4.80770 2688.63620    0.01220    -999.25    0.01250 1075.72400  161.96130  161.96130   17.71290   17.28210   16.24440   17.28210  187.48330  187.48330    0.02210    -999.25    0.02210 2688.63620 1075.72400 1874.29260 -137.95180 1874.29260 16979.22070 16422.16990
 2650.00000  213.62660  299.93440  229.78760  229.78760    0.61670    0.19840    0.19840 2698.57790    0.00520    -999.25    0.00670 1621.42300  160.30160  160.30160   13.28080   12.70830   10.52180   12.70830  186.79050  186.79050    0.02180    -999.25    0.02180 2698.57790 1621.42300 1617.45700 -240.43010 1617.45700 16926.87500 16377.53030
 2700.00000  211.39380  300.72640  235.63820  235.63820    1.45940    9.33330    9.33330 2692.92500    0.00960    -999.25    0.01000  685.23050  162.86910  162.86910   11.71800   14.30470   12.69860   14.30470  210.33390  210.33390    0.01850    -999.25    0.01850 2692.92500  685.23050  497.39020 -174.60450  497.39020 16865.10740 16334.79690
 2750.00000  214.55390  355.88530  236.72470  236.72470    1.90220   -2.23660   -2.23660 2690.77370    0.01200    -999.25    0.01120  525.70630  163.48010  163.48010   13.77480   15.59230   14.41450   15.59230  458.29660  458.29660    0.02760    -999.25    0.02760 2690.77370  525.70630 1696.60280 -312.88810 1696.60280 16795.18550 16292.87010
 2800.00000  210.09110  315.73870  231.75000  231.75000   16.72640   13.35240   13.35240 2714.80490   -0.00220    -999.25   -0.00280   59.78560  163.15810  163.15810   11.32070   10.95200   12.70720   10.95200   57.07680   57.07680    0.03780    -999.25    0.03780 2714.80490   59.78560  119.19720  149.05610  119.19720 16766.78710 16313.79790
 2850.00000  219.58280  245.94730  234.54430  234.54430    0.50940    4.61960    4.61960 2868.40770   -0.09220    -999.25   -0.09260 1963.19850  159.59700  159.59700   22.31470   15.34620   16.52780   15.34620 1940.55710 1940.55710    0.02510    -999.25    0.02510 2868.40770 1963.19850 1569.29370  -90.10650 1569.29370 16708.95700 16155.33890
 2900.00000  223.36340  317.90590  239.54360  239.54360    0.55840   -4.63970   -4.63970 2647.38230    0.03640    -999.25    0.03660 1790.78880  167.27650  167.27650   14.62880   13.61790   15.34280   13.61790  605.27750  605.27750    0.02380    -999.25    0.02380 2647.38230 1790.78880 1582.19070   52.09930 1582.19070 16690.58010 16127.79000
