~Version ---------------------------------------------------
VERS.      2.0 : CWLS log ASCII Standard -VERSION 2.0
WRAP.       NO : One line per depth step
CREA. 10/27/17 : LAS Creation Date
~Well ------------------------------------------------------
STRT.FT                          950.0 : START DEPTH
STOP.FT                         9950.0 : STOP DEPTH
STEP.FT                       50.00000 : STEP LENGTH
NULL.                          -999.25 : NULL VALUE
COMP. AMOCO CANADA PETROLEUM CO., LTD. : COMPANY
WELL.  AMOCO HBOG WINDFALL 16-29-61-16 : WELL
FLD .                                  : FIELD
LOC .                                  : LOCATION
CTRY.                           CANADA : COUNTRY
SRVC.                     Schlumberger : SERVICE COMPANY
DATE.                      22-Dec-1976 : LOGDATE
PROV.                          Alberta : PROVINCE
UWI .                 100162906116W500 : UNIQUE WELL ID
SLAT.WGS84                    54.30881 : SURFACE LATITUDE
SLON.WGS84                   -116.3532 : SURFACE LONGITUDE
~Curve Information -----------------------------------------
DEPT    .FT    : Depth Curve
CALDED  .IN    : CALIPER FROM DENSITY LOG [ADJ. TO RESISTIVITY LOG]
CALSED  .IN    : CALIPER FROM SONIC LOG [ADJ. TO RESISTIVITY LOG]
CALWS   .IN    : CALIPER [CALDED]
CONDWS  .MMHO  : CONDUCTIVITY [1000/DRESWS]
DCORWS  .G/C3  : DENSITY CORRECTION [DRHOED]
DENWS   .G/C3  : FORMATION BULK DENSITY [RHOBED]
DPHILSED.V/V   : DENSITY POROSITY LIMESTONE [M=2.71, F=1.00] FROM DENSITY LOG [ADJ. TO RESISTIVITY LOG]
DPHISSED.V/V   : DENSITY POROSITY SANDSTONE [M=2.65, F=1.00] FROM DENSITY LOG [ADJ. TO RESISTIVITY LOG]
DPOLSWS .V/V   : DENSITY POROSITY LIMESTONE [CALC. FROM DENWS M=2.71, F=1.00]
DRESWS  .OHMM  : DEEP RESISTIVITY [ILDED]
DRHOED  .G/C3  : DENSITY CORRECTION FROM DENSITY LOG [ADJ. TO RESISTIVITY LOG/DPHISSED/DPHILSED]
DTED    .US/F  : DELTA TIME FROM SONIC LOG [ADJ. TO RESISTIVITY LOG]
DTWS    .US/F  : COMPRESSIONAL SONIC [DTED]
GRDED   .GAPI  : GAMMA RAY FROM DENSITY LOG [ADJ. TO RESISTIVITY LOG]
GRSED   .GAPI  : GAMMA RAY FROM SONIC LOG [ADJ. TO RESISTIVITY LOG]
GRWS    .GAPI  : GAMMA RAY [GRSED]
ILDED   .OHMM  : DEEP INDUCTION FROM RESISTIVITY LOG
ILMED   .OHMM  : MEDIUM INDUCTION FROM RESISTIVITY LOG
LL8ED   .OHMM  : 8 INCH LATEROLOG FROM RESISTIVITY LOG
MRESWS  .OHMM  : MEDIUM RESISTIVITY [ILMED]
NPHILSED.V/V   : NEUTRON POROSITY LIMESTONE FROM DENSITY LOG [ADJ. TO RESISTIVITY LOG]
NPHISSED.V/V   : NEUTRON POROSITY SANDSTONE FROM DENSITY LOG [ADJ. TO RESISTIVITY LOG]
NPOLSWS .V/V   : NEUTRON POROSITY LIMESTONE [NPHISSED MATRIX CONVERSION FOR LIMESTONE, SPL. TO NPHILSED @ 6250']
RHOBED  .G/C3  : BULK DENSITY FROM DENSITY LOG [ADJ. TO RESISTIVITY LOG/DPHISSED/DPHILSED]
SPRED   .MV    : SPONTANEOUS POTENTIAL FROM RESISTIVITY LOG
SPWS    .MV    : SPONTANEOUS POTENTIAL [BASELINE 0 MV, SPRED]
SRESWS  .OHMM  : SHALLOW RESISTIVITY [LL8ED]
~Params ----------------------------------------------------
PD  .                     GL : PERMANENT DATUM
EPD .FT                 2851 : ELEVATION PERMANENT DATUM
LMF .                     KB : LOG MEASURED FROM
DAPD.FT                   14 : FEET ABOVE PERMANENT DATUM
DMF .                     KB : DRILLING MEASURED FROM
EKB .FT                 2875 : KELLY BUSHING
EGL .FT                 2861 : GROUND LEVEL
DATE.               12/22/76 : RUN DATE
RUN .                      1 : RUN NUMBER
DD  .FT                 9966 : DEPTH DRILLER
DL  .FT                 9964 : DEPTH LOGGER
BLI .FT                 9958 : BOTTOM LOG INTERVAL
TLI .FT                 1029 : TOP LOG INTERVAL
CBD .FT                 1030 : CASING BOTTOM DRILLER
CBL .FT                 1029 : CASING BOTTOM LOGGER
BS  .IN                 8.75 : BIT SIZE
BSD .FT                 9966 : BIT SIZE AT DEPTH
DFT .               GEL CHEM : DRILLING FLUID TYPE
DFD .                    9.3 : DRILLING FLUID DENSITY
DFV .                     70 : DRILLING FLUID VISCOSITY
DFPH.                      9 : DRILLING FLUID PH
DFL .                      9 : DRILLING FLUID LOSS
MSS .             CIRCULATED : MUD SAMPLE SOURCE
RMF .OHMM               2.16 : RESISTIVITY MUD FILTRATE SAMPLE
MFST.DEGF                 74 : MUD FILTRATE SAMPLE TEMPERATURE
RMC .OHMM               2.83 : RESISTIVITY MUD CAKE
MCST.DEGF                 68 : MUD CAKE SAMPLE TEMPERATURE
LUN .                   7772 : LOGGING UNIT NUMBER
LUL .                    EDM : LOGGING UNIT LOCATION
ENGI.                   BIGG : RECORDING ENGINEER
WITN.                  LENTZ : WITNESSED BY
CLNT.                A2DTECH : CLIENT CODE
ORIG.            2" 5" PRINT : ORIGIN OF DATA
UWI .       100162906116W500 : UNIQUE WELL ID
DICO. A2D Technologies, Inc. : DIGITIZING COMPANY
~Other -----------------------------------------------------
DIL-LL-CNFD-BHC LOG RUN
~ASCII -----------------------------------------------------
# ...
 2250.00000    9.56170   12.46480    9.56170   96.62210    0.02750    2.31820    -999.25    0.19630    0.22910   10.34960    0.02750   92.10910   92.10910   70.83320   51.67030   51.67030   10.34960    9.23740    9.49590    9.23740    -999.25    0.37320    0.32990    2.31820  -78.90500  -14.78930    9.49590
 2300.00000   14.52880   14.83240   14.52880  245.71230    0.21610    1.92140    -999.25    0.42230    0.46120    4.06980    0.21610   79.39950   79.39950   98.29880   67.05970   67.05970    4.06980    3.91470    4.40910    3.91470    -999.25    0.45740    0.41590    1.92140  -77.48610  -14.58940    4.40910
 2350.00000   15.00570   14.87880   15.00570  266.46060    0.15320    1.73850    -999.25    0.44970    0.56820    3.75290    0.15320  109.01950  109.01950   85.46070   60.90500   60.90500    3.75290    3.55360    3.92470    3.55360    -999.25    0.39930    0.35640    1.73850  -79.24570  -17.57400    3.92470
 2400.00000   15.00000   15.04160   15.00000  218.50280    0.11230    1.65660    -999.25    0.44900    0.61600    4.57660    0.11230  103.88250  103.88250   81.81030   52.04260   52.04260    4.57660    3.87010    3.96980    3.87010    -999.25    0.47230    0.43130    1.65660  -80.12420  -19.66550    3.96980
 2450.00000   15.00000   15.03460   15.00000  239.09440    0.14100    1.63220    -999.25    0.45000    0.63030    4.18340    0.14100  109.44020  109.44020   74.41870   56.17910   56.17910    4.18340    3.87250    4.19610    3.87250    -999.25    0.45530    0.41370    1.63220  -83.04960  -23.81600    4.19610
 2500.00000    9.86880   12.50860    9.86880   97.14870    0.01260    2.33290    -999.25    0.19050    0.22050   10.29350    0.01260   90.85050   90.85050   68.20810   43.98740   43.98740   10.29350   10.76880   11.58550   10.76880    -999.25    0.31040    0.26650    2.33290  -85.14120  -27.12050   11.58550
 2550.00000   14.94310   15.00640   14.94310  231.65310    0.12140    1.60900    -999.25    0.44950    0.64390    4.31680    0.12140  122.12920  122.12920   70.46540   48.35610   48.35610    4.31680    3.46900    3.82590    3.46900    -999.25    0.54320    0.50570    1.60900  -85.15040  -28.34870    3.82590
 2600.00000   11.36870   15.02550   11.36870  263.18700    0.17370    2.01540    -999.25    0.38760    0.40620    3.79960    0.17370  122.17410  122.17410   72.52680   50.86490   50.86490    3.79960    3.62070    4.16080    3.62070    -999.25    0.49450    0.45450    2.01540  -84.28230  -28.70570    4.16080
 2650.00000    9.90720   12.50880    9.90720   98.04020    0.10330    2.30070    -999.25    0.21260    0.23940   10.19990    0.10330   88.50960   88.50960   65.26310   45.26890   45.26890   10.19990    9.01090    9.75780    9.01090    -999.25    0.31570    0.27180    2.30070  -90.55950  -36.19580    9.75780
 2700.00000   11.82500   14.42940   11.82500  231.39830    0.20930    1.84390    -999.25    0.43800    0.50650    4.32390    0.20930   97.76000   97.76000   79.50250   62.38100   62.38100    4.32390    4.04800    4.93120    4.04800    -999.25    0.43370    0.39160    1.84390  -83.44540  -30.30690    4.93120
 2750.00000   15.02930   15.00000   15.02930  258.05120    0.08010    1.65370    -999.25    0.45000    0.61770    3.87520    0.08010   94.92020   94.92020   74.03370   54.33630   54.33630    3.87520    3.72230    4.41710    3.72230    -999.25    0.43640    0.39440    1.65370  -83.33960  -31.41400    4.41710
 2800.00000   14.92020   14.98420   14.92020  249.36410    0.19070    1.85280    -999.25    0.45000    0.50130    4.01020    0.19070  103.54760  103.54760   77.40190   50.53020   50.53020    4.01020    4.53930    4.29670    4.53930    -999.25    0.44070    0.39880    1.85280  -82.95900  -32.25240    4.29670
 2850.00000   14.59820   15.00000   14.59820  223.04310    0.12310    1.80110    -999.25    0.45000    0.53150    4.48370    0.12310  108.86230  108.86230   82.40780   55.72130   55.72130    4.48370    4.28920    5.25750    4.28920    -999.25    0.44660    0.40490    1.80110  -51.98980   -2.32370    5.25750
 2900.00000   15.00000   15.03320   15.00000  215.75440    0.07640    1.50380    -999.25    0.45000    0.70540    4.63490    0.07640   97.85470   97.85470   67.97630   45.03590   45.03590    4.63490    4.36100    6.04380    4.36100    -999.25    0.43910    0.39710    1.50380  -52.46530   -3.15790    6.04380
 2950.00000    9.91080   12.60240    9.91080  194.00610    0.02620    2.43710    -999.25    0.12870    0.15960    5.15490    0.02620   92.38860   92.38860   87.03950   59.84570   59.84570    5.15490    4.84720    6.05040    4.84720    -999.25    0.35220    0.30860    2.43710  -51.15830   -2.21320    6.05040
 3000.00000    9.54820   12.78920    9.54820  186.17470    0.17720    2.45190    -999.25    0.11870    0.15090    5.37130    0.17720   92.06790   92.06790   74.60650   49.89840   49.89840    5.37130    5.68670    5.97570    5.68670    -999.25    0.37580    0.33250    2.45190  -52.41930   -3.83290    5.97570
 3050.00000    9.55530   12.03410    9.55530   61.88460    0.06110    2.35600    -999.25    0.17630    0.20700   16.15910    0.06110   88.24320   88.24320   54.89920   37.87660   37.87660   16.15910   17.14910   18.32090   17.14910    -999.25    0.31540    0.27150    2.35600  -68.95140  -20.72550   18.32090
 3100.00000    9.80260   12.18550    9.80260   56.04520    0.03020    2.36320    -999.25    0.16900    0.20280   17.85380    0.03020   82.08850   82.08850   52.74700   37.66980   37.66980   17.85380   20.07170   22.27130   20.07170    -999.25    0.26110    0.21710    2.36320  -78.78560  -30.92210   22.27130
 3150.00000   10.42750   12.81500   10.42750   91.08460    0.01190    2.44790    -999.25    0.11210    0.15330   10.97880    0.01190   80.67950   80.67950   72.71710   48.90690   48.90690   10.97880   11.52790   13.68460   11.52790    -999.25    0.25450    0.21060    2.44790  -54.46190   -6.95710   13.68460
 3200.00000   11.07390   13.94760   11.07390  246.23690    0.03190    2.42320    -999.25    0.13550    0.16770    4.06120    0.03190   98.51610   98.51610   86.39440   59.78710   59.78710    4.06120    4.24320    5.36430    4.24320    -999.25    0.37010    0.32670    2.42320  -51.37420   -4.23170    5.36430
 3250.00000    9.76060   12.22690    9.76060  122.46200    0.00600    2.50870    -999.25    0.08330    0.11770    8.16580    0.00600   76.38160   76.38160   78.34650   53.61200   53.61200    8.16580    8.80570   12.14260    8.80570    -999.25    0.27750    0.23350    2.50870  -52.08380   -5.30000   12.14260
 3300.00000   10.56970   12.61820   10.56970  124.60130    0.13450    2.40000    -999.25    0.14750    0.18130    8.02560    0.13450   88.89390   88.89390  105.26520   70.68590   70.68590    8.02560    8.38000    8.99310    8.38000    -999.25    0.33230    0.28850    2.40000  -52.79770   -6.37440    8.99310
 3350.00000   12.62860   12.65200   12.62860  148.09110    0.07080    2.36930    -999.25    0.17040    0.19920    6.75260    0.07080   97.53710   97.53710  131.63810   86.62160   86.62160    6.75260    6.66450    6.33930    6.66450    -999.25    0.35440    0.31080    2.36930  -53.20920   -7.14820    6.33930
 3400.00000   14.02310   13.34080   14.02310  136.98440    0.05660    2.41360    -999.25    0.14260    0.17340    7.30010    0.05660   87.17890   87.17890  124.73780   76.18000   76.18000    7.30010    7.63050    7.95780    7.63050    -999.25    0.30470    0.26080    2.41360  -53.43390   -7.73160    7.95780
 3450.00000   12.46090   13.29990   12.46090  153.34260    0.08570    2.40040    -999.25    0.15040    0.18110    6.52210    0.08570   94.04270   94.04270  132.41240   97.35600   97.35600    6.52210    6.87270    7.47690    6.87270    -999.25    0.32010    0.27630    2.40040  -53.16390   -7.82400    7.47690
 3500.00000   12.12650   12.88580   12.12650  163.21200    0.04220    2.39750    -999.25    0.15120    0.18270    6.12700    0.04220   97.35390   97.35390  151.75710  109.07750  109.07750    6.12700    6.39740    7.60720    6.39740    -999.25    0.38550    0.34240    2.39750  -51.52990   -6.54870    7.60720
