~Version ---------------------------------------------------
VERS.      2.0 : CWLS log ASCII Standard -VERSION 2.0
WRAP.       NO : One line per depth step
CREA. 10/14/14 : LAS Creation Date
~Well ------------------------------------------------------
STRT.M             350.0 : START DEPTH
STOP.M            1800.0 : STOP DEPTH
STEP.M          50.00000 : STEP LENGTH
NULL.            -999.25 : NULL VALUE
COMP.         SUNCOR INC : COMPANY
WELL. SUNCOR STROME 8-23 : WELL
FLD .                    : FIELD
LOC .                    : LOCATION
CTRY.             CANADA : COUNTRY
SRVC.       Schlumberger : SERVICE COMPANY
DATE.        14-Jul-1984 : LOGDATE
PROV.            Alberta : PROVINCE
UWI .   100082304316W400 : UNIQUE WELL ID
SLAT.WGS84      52.71833 : SURFACE LATITUDE
SLON.WGS84     -112.2053 : SURFACE LONGITUDE
~Curve Information -----------------------------------------
DEPT    .M      : DEPTH METER
CALDED  .MM     : CALIPER FROM DENSITY LOG [ADJ. TO RESISTIVITY LOG]
CALSED  .MM     : CALIPER FROM SONIC LOG
CALWS   .MM     : CALIPER [CALSED]
CONDWS  .MMHO   : CONDUCTIVITY [1000/DRESWS]
DCORWS  .KG/M3  : DENSITY CORRECTION [DRHOED]
DENWS   .KG/M3  : FORMATION BULK DENSITY [RHOBED SPL. TO CALC FROM DPHILSED @1050M, M=2710,F=1000]
DPHILSED.V/V    : DENSITY POROSITY LIMESTONE FROM DENSITY LOG [ADJ. TO RESISTIVITY LOG]
DPHISSED.V/V    : DENSITY POROSITY SANDSTONE FROM DENSITY LOG [ADJ. TO RESISTIVITY LOG]
DPOLSWS .V/V    : DENSITY POROSITY LIMESTONE [CALC FROM DENWS, M=2710,F=1000]
DRESWS  .OHMM   : DEEP RESISTIVITY [ILDED]
DRHOED  .KG/M3  : DENSITY CORRECTION FROM DENSITY LOG [ADJ. TO RESISTIVITY LOG]
DTED    .US/M   : DELTA TIME FROM SONIC LOG
DTWS    .US/M   : COMPRESSIONAL SONIC [DTED]
GRSED   .GAPI   : GAMMA RAY FROM SONIC LOG
GRWS    .GAPI   : GAMMA RAY [GRSED]
ILDED   .OHMM   : DEEP INDUCTION FROM RESISTIVITY LOG
ILMED   .OHMM   : MEDIUM INDUCTION FROM RESISTIVITY LOG
LAED    .MM     : LARGE ARM CALIPER FROM DENSITY LOG [ADJ. TO RESISTIVITY LOG]
MRESWS  .OHMM   : MEDIUM RESISTIVITY [ILMED]
NPHILSED.V/V    : NEUTRON POROSITY LIMESTONE FROM DENSITY LOG [ADJ. TO RESISTIVITY LOG]
NPHISSED.V/V    : NEUTRON POROSITY SANDSTONE FROM DENSITY LOG [ADJ. TO RESISTIVITY LOG]
NPOLSWS .V/V    : NEUTRON POROSITY LIMESTONE [NPHISSED MATRIX CONVERSION FOR LIMESTONE & SPL. TO NPHILSED @1100M]
PEFED   .B/E    : PHOTOELECTRIC FACTOR FROM DENSITY LOG [ADJ. TO RESISTIVITY LOG]
PEFWS   .B/E    : PHOTOELECTRIC FACTOR [PEFED]
RHOBED  .KG/M3  : BULK DENSITY FROM DENSITY LOG [ADJ. TO RESISTIVITY LOG]
SFLUED  .OHMM   : SPHERICALLY FOCUSED RESISTIVITY FROM RESISTIVITY LOG
SGRDED  .GAPI   : GAMMA RAY FROM DENSITY LOG [ADJ. TO RESISTIVITY LOG]
SPRED   .MV     : SPONTANEOUS POTENTIAL FROM RESISTIVITY LOG
SPWS    .MV     : SPONTANEOUS POTENTIAL [BASELINE 0 MV, SPRED]
SRESWS  .OHMM   : SHALLOW RESISTIVITY [SFLUED]
~Params ----------------------------------------------------
PD  .                     GL : PERMANENT DATUM
EPD .M                 723.8 : ELEVATION PERMANENT DATUM
LMF .                     KB : LOG MEASURED FROM
DAPD.M                   4.5 : FEET ABOVE PERMANENT DATUM
DMF .                     KB : DRILLING MEASURED FROM
EKB .M                 728.3 : KELLY BUSHING
EGL .M                 723.8 : GROUND LEVEL
DATE.             07/14/1984 : RUN DATE
RUN .                      2 : RUN NUMBER
DD  .M                  1835 : DEPTH DRILLER
DL  .M                  1834 : DEPTH LOGGER
BLI .M                  1833 : BOTTOM LOG INTERVAL
TLI .M                  1625 : TOP LOG INTERVAL
CS  .MM                244.5 : CASING SIZE
CBD .M                   329 : CASING BOTTOM DRILLER
CBL .M                   329 : CASING BOTTOM LOGGER
BS  .MM                  222 : BIT SIZE
BSD .M                  1835 : BIT SIZE AT DEPTH
DFT .               GEL CHEM : DRILLING FLUID TYPE
DFD .                   1275 : DRILLING FLUID DENSITY
DFV .                     55 : DRILLING FLUID VISCOSITY
DFPH.                   10.5 : DRILLING FLUID PH
DFL .                   14.0 : DRILLING FLUID LOSS
MSS .               FLOWLINE : MUD SAMPLE SOURCE
RMS .OHMM              0.067 : RESISTIVITY MUD SAMPLE
MST .DEGC               16.6 : MUD SAMPLE TEMPERATURE
RMF .OHMM              0.054 : RESISTIVITY MUD FILTRATE SAMPLE
MFST.DEGC               17.7 : MUD FILTRATE SAMPLE TEMPERATURE
MFSS.                  PRESS : MUD FILTRATE SAMPLE SOURCE
RMB .OHMM              0.033 : RESISTIVITY MUD AT BHT
TCS .HRS                2130 : TIME CIRCULATED STOPPED
TLAB.HRS                 230 : TIME LOGGER AT BOTTOM
LUN .                   8098 : LOGGING UNIT NUMBER
LUL .             WAINWRIGHT : LOGGING UNIT LOCATION
ENGI.                 MCLEAN : RECORDING ENGINEER
WITN.                 MILLER : WITNESSED BY
CLNT.                A2DTECH : CLIENT CODE
ORIG.  6.6" 16.6"/100M PRINT : ORIGIN OF DATA
UWI .       100082304316W400 : UNIQUE WELL ID
DICO. A2D Technologies, Inc. : DIGITIZING COMPANY
~Other -----------------------------------------------------
DIL-BCS LOG RUN IN COMBO & CNL-LDT LOG RUN
RHOB & DRHO HAVE BEEN VERIFIED FROM SMALL SECTION @1700M-BOTTOM.
NEUTRON CONVERSION [CNL (NPHI)] USING SCHLUMBERGER CHART
~ASCII -----------------------------------------------------
  350.00000  222.95440  235.76820  235.76820  167.08720   42.66220 2322.29590    -999.25    0.19860    0.22670    5.98490   42.66220  331.41920  331.41920   52.65790   52.65790    5.98490    5.56310  232.87230    5.56310    -999.25    0.37680    0.33350    2.39770    2.39770 2322.29590    5.80740   45.60590  -55.61660   -4.42420    5.80740
  400.00000  236.63620  238.64040  238.64040  255.60410  150.79840 2121.86230    -999.25    0.32010    0.34390    3.91230  150.79840  376.06510  376.06510   66.74200   66.74200    3.91230    3.62550  260.67220    3.62550    -999.25    0.47110    0.43010    2.62420    2.62420 2121.86230    3.67920   59.11870  -57.03500   -6.22600    3.67920
  450.00000  220.09380  248.49960  248.49960  229.29990   86.61900 2216.62080    -999.25    0.26270    0.28850    4.36110   86.61900  363.39110  363.39110   84.02520   84.02520    4.36110    3.96440  294.05870    3.96440    -999.25    0.48750    0.44710    2.62290    2.62290 2216.62080    4.02840   71.45410  -58.10700   -7.68130    4.02840
  500.00000  222.34070  255.02610  255.02610  150.38500   19.35900 2261.53690    -999.25    0.23540    0.26230    6.64960   19.35900  324.38280  324.38280   92.73080   92.73080    6.64960    6.01640  311.00470    6.01640    -999.25    0.42690    0.38460    2.59190    2.59190 2261.53690    5.79220   78.04950  -66.78990  -16.74750    5.79220
  550.00000  226.30480  233.89270  233.89270  184.12480   44.93190 2252.36330    -999.25    0.24100    0.26760    5.43110   44.93190  363.92930  363.92930  102.83790  102.83790    5.43110    4.84990  253.33700    4.84990    -999.25    0.47660    0.43580    2.79380    2.79380 2252.36330    5.17510   93.81050  -69.85370  -20.19470    5.17510
  600.00000  230.36780  244.16510  244.16510  186.93340   61.05240 2246.26730    -999.25    0.24470    0.27120    5.34950   61.05240  366.50500  366.50500  120.11880  120.11880    5.34950    5.05150  281.93390    5.05150    -999.25    0.49240    0.45230    2.71330    2.71330 2246.26730    5.51210  109.45640  -65.37220  -16.09650    5.51210
  650.00000  235.81500  227.42230  227.42230  160.31040   23.39060 2289.74610    -999.25    0.21830    0.24580    6.23790   23.39060  305.65190  305.65190   98.41580   98.41580    6.23790    5.88010  241.25530    5.88010    -999.25    0.36550    0.32210    2.59150    2.59150 2289.74610    5.67490   89.64810  -71.55190  -22.65960    5.67490
  700.00000  217.57000  228.53700  228.53700  166.42810   35.62850 2276.77050    -999.25    0.22620    0.25340    6.00860   35.62850  319.63740  319.63740  104.54920  104.54920    6.00860    5.65370  246.57080    5.65370    -999.25    0.42130    0.37890    2.72290    2.72290 2276.77050    4.83410   98.17840  -68.31760  -19.80860    4.83410
  750.00000  234.77610  226.76830  226.76830  238.02720   99.47500 2290.45310    -999.25    0.21790    0.24530    4.20120   99.47500  364.47280  364.47280  116.92150  116.92150    4.20120    3.94930  233.45230    3.94930    -999.25    0.46250    0.42120    2.61070    2.61070 2290.45310    4.52520   99.91130  -55.07690   -6.95120    4.52520
  800.00000  221.69120  231.49020  231.49020  286.11480   87.53340 2244.33300    -999.25    0.24590    0.27230    3.49510   87.53340  395.26560  395.26560  190.91660  190.91660    3.49510    3.00150  235.01900    3.00150    -999.25    0.53120    0.49300    2.83280    2.83280 2244.33300    3.96400  169.60130  -49.90820   -2.16590    3.96400
  850.00000  225.00100  247.24470  247.24470  484.40220   57.90590 2254.75070    -999.25    0.23950    0.26620    2.06440   57.90590  366.86090  366.86090  111.77210  111.77210    2.06440    1.97840  309.50660    1.97840    -999.25    0.50210    0.46240    2.56950    2.56950 2254.75070    2.44090   97.66660  -54.11600   -6.75700    2.44090
  900.00000  220.55150  239.35340  239.35340  700.47630   47.50200 2186.84550    -999.25    0.28070    0.30590    1.42760   47.50200  390.61670  390.61670   99.32550   99.32550    1.42760    1.38570  293.29500    1.38570    -999.25    0.54340    0.50590    2.54800    2.54800 2186.84550    1.63430   87.09870  -50.10490   -3.12920    1.63430
  950.00000  251.04750  234.95040  234.95040  217.73210   28.59480 2039.99740    -999.25    0.36970    0.39180    4.59280   28.59480  358.96500  358.96500   61.05510   61.05510    4.59280    5.21070  226.35270    5.21070    -999.25    0.53660    0.49870    1.31020    1.31020 2039.99740    6.99930   55.03160  -59.65750  -11.76060    6.99930
 1000.00000  229.38950  226.33280  226.33280  241.60430   69.59550 2579.96560    -999.25    0.04240    0.07600    4.13900   69.59550  227.61930  227.61930   63.44240   63.44240    4.13900    4.79030  213.36850    4.79030    -999.25    0.23790    0.19410    4.31750    4.31750 2579.96560    8.48200   51.63370  -61.41160  -12.52470    8.48200
 1050.00000  221.97910  221.79520  221.79520  149.35630   22.05710 2396.38090    0.18170    0.15370    0.18340    6.69540   22.05710  271.31650  271.31650   65.09210   65.09210    6.69540    7.09320  228.49340    7.09320    0.23170    0.26290    0.21890    2.89040    2.89040 2396.38090   18.92530   61.44090  -80.55290  -30.67610   18.92530
 1100.00000  217.27600  217.66080  217.66080  638.44730   88.43920 2531.04800    0.09520    0.06910    0.10180    1.56630   88.43920  219.34850  219.34850   31.88660   31.88660    1.56630    2.03150  222.41380    2.03150    0.27090    0.34600    0.27540    3.24810    3.24810 2535.91140    7.93010   33.91210 -126.86180  -75.99500    7.93010
 1150.00000  222.54600  221.32310  221.32310   11.26530    7.89310 2938.96900   -0.13390    -999.25   -0.13390   88.76780    7.89310  161.87480  161.87480    9.52150    9.52150   88.76780  158.18280  218.30290  158.18280    0.00020    -999.25    0.00020    5.44150    5.44150 2938.96900 1842.39400    9.97000 -105.07130  -53.21460 1842.39400
 1200.00000  243.88640  242.74490  242.74490   81.12410    4.37280 2756.17000   -0.02700    -999.25   -0.02700   12.32680    4.37280  181.33720  181.33720   41.42990   41.42990   12.32680   13.79100  260.72400   13.79100    0.14810    -999.25    0.14810    3.76500    3.76500 2756.17000   20.77460   42.78650  -61.81020   -9.31190   20.77460
 1250.00000  260.57680  265.70640  265.70640  188.42330    5.40990 2633.56300    0.04470    -999.25    0.04470    5.30720    5.40990  264.29310  264.29310  107.79980  107.79980    5.30720    5.40660  275.02910    5.40660    0.24210    -999.25    0.24210    3.66510    3.66510 2633.56300    6.08860   96.54330  -60.17570  -10.39340    6.08860
 1300.00000  271.31710  281.91630  281.91630  171.73570    3.85880 2647.24300    0.03670    -999.25    0.03670    5.82290    3.85880  266.64740  266.64740   94.44610   94.44610    5.82290    6.07930  251.75680    6.07930    0.24540    -999.25    0.24540    3.80550    3.80550 2647.24300    6.69190   88.93380  -51.70820   -4.64200    6.69190
 1350.00000  232.83730  235.84490  235.84490   39.65970    1.99170 2480.86000    0.13400    -999.25    0.13400   25.21450    1.99170  257.15990  257.15990  143.97360  143.97360   25.21450   26.22430  235.20440   26.22430    0.25540    -999.25    0.25540    4.66000    4.66000 2480.86000   35.08540  127.92760  -50.11160   -5.08000   35.08540
 1400.00000  248.87170  255.79930  255.79930   62.59660    1.04310 2671.86700    0.02230    -999.25    0.02230   15.97530    1.04310  209.15610  209.15610   37.01910   37.01910   15.97530   16.61540  255.99290   16.61540    0.14070    -999.25    0.14070    4.61930    4.61930 2671.86700   17.10520   39.87160  -49.29420   -5.27830   17.10520
 1450.00000  249.38050  251.71590  251.71590  155.60810    4.30760 2530.45000    0.10500    -999.25    0.10500    6.42640    4.30760  195.32390  195.32390   11.82710   11.82710    6.42640    7.83830  249.47650    7.83830    0.13960    -999.25    0.13960    5.01420    5.01420 2530.45000   22.90560   12.10790 -111.82400  -68.13670   22.90560
 1500.00000  243.68800  250.26360  250.26360   27.68150   -1.65030 2682.46900    0.01610    -999.25    0.01610   36.12520   -1.65030  179.35850  179.35850   25.76040   25.76040   36.12520   36.78050  251.87260   36.78050    0.07150    -999.25    0.07150    5.11370    5.11370 2682.46900   38.95950   25.99340  -79.30210  -35.94340   38.95950
