~Version ---------------------------------------------------
VERS.      2.0 : CWLS log ASCII Standard -VERSION 2.0
WRAP.       NO : One line per depth step
CREA. 08/27/13 : LAS Creation Date
~Well ------------------------------------------------------
STRT.M                  300.0 : START DEPTH
STOP.M                 2650.0 : STOP DEPTH
STEP.M               50.00000 : STEP LENGTH
NULL.                 -999.25 : NULL VALUE
COMP.    MOBIL OIL CANADA LTD : COMPANY
WELL. MOBIL CARSON 2-13-61-13 : WELL
FLD .                         : FIELD
LOC .                         : LOCATION
CTRY.                  CANADA : COUNTRY
SRVC.                 Unknown : SERVICE COMPANY
DATE.             20-May-1980 : LOGDATE
PROV.                 Alberta : PROVINCE
UWI .        100021306113W500 : UNIQUE WELL ID
SLAT.WGS84           54.27195 : SURFACE LATITUDE
SLON.WGS84          -115.8074 : SURFACE LONGITUDE
~Curve Information -----------------------------------------
DEPT    .M      : DEPTH METER
ACED    .US/M   : ACOUSTIC FROM SONIC LOG [ADJ. TO RESISTIVITY LOG]
CALDED  .MM     : CALIPER FROM DENSITY LOG [ADJ. TO RESISTIVITY LOG]
CALSED  .MM     : CALIPER FROM SONIC LOG [ADJ. TO RESISTIVITY LOG]
CALWS   .MM     : CALIPER [CALSED]
CILDED  .MMHO   : DEEP INDUCTION CONDUCTIVITY FROM RESISTIVITY LOG
CONDWS  .MMHO   : CONDUCTIVITY [1000/DRESWS]
CORRED  .KG/M3  : DENSITY CORRECTION FROM DENSITY LOG [ADJ. TO RESISTIVITY LOG/DPHILSED]
DCORWS  .KG/M3  : DENSITY CORRECTION [CORRED]
DENWS   .KG/M3  : FORMATION BULK DENSITY [CALC. FROM DPOLSWS M=2710,F=1000]
DPHILSED.V/V    : DENSITY POROSITY LIMESTONE [M=2710,F=1000] FROM DENSITY LOG [ADJ. TO RESISTIVITY LOG]
DPOLSWS .V/V    : DENSITY POROSITY LIMESTONE [DPHILSED]
DRESWS  .OHMM   : DEEP RESISTIVITY [1000/CILDED IF ILDED < 1, ILDED]
DTWS    .US/M   : COMPRESSIONAL SONIC [ACED]
GRDED   .GAPI   : GAMMA RAY FROM DENSITY LOG [ADJ. TO RESISTIVITY LOG]
GRSED   .GAPI   : GAMMA RAY FROM SONIC LOG [ADJ. TO RESISTIVITY LOG]
GRWS    .GAPI   : GAMMA RAY [GRSED]
ILDED   .OHMM   : DEEP INDUCTION FROM RESISTIVITY LOG
NPHILSED.V/V    : NEUTRON POROSITY LIMESTONE FROM DENSITY LOG [ADJ. TO RESISTIVITY LOG]
NPOLSWS .V/V    : NEUTRON POROSITY LIMESTONE [NPHILSED]
RHOBED  .KG/M3  : BULK DENSITY FROM DENSITY LOG [ADJ. TO RESISTIVITY LOG/DPHILSED]
SNED    .OHMM   : SHORT NORMAL FROM RESISTIVITY LOG
SPRED   .MV     : SPONTANEOUS POTENTIAL FROM RESISTIVITY LOG
SPWS    .MV     : SPONTANEOUS POTENTIAL [BASELINE 0 MV, SPRED]
SRESWS  .OHMM   : SHALLOW RESISTIVITY [SNED]
TENDED  .N      : TENSION FROM DENSITY LOG [ADJ. TO RESISTIVITY LOG]
TENSED  .N      : TENSION FROM SONIC LOG [ADJ. TO RESISTIVITY LOG]
~Params ----------------------------------------------------
PD  .                         GL : PERMANENT DATUM
EPD .M                     806.3 : ELEVATION PERMANENT DATUM
LMF .                         KB : LOG MEASURED FROM
DAPD.M                       5.7 : FEET ABOVE PERMANENT DATUM
DMF .                         KB : DRILLING MEASURED FROM
EKB .M                       812 : KELLY BUSHING
EGL .M                     806.3 : GROUND LEVEL
DATE.                   05/20/80 : RUN DATE
RUN .                          1 : RUN NUMBER
DD  .M                      2670 : DEPTH DRILLER
DL  .M                      2670 : DEPTH LOGGER
BLI .M                      2669 : BOTTOM LOG INTERVAL
TLI .M                       308 : TOP LOG INTERVAL
CS  .MM                      244 : CASING SIZE
CBD .M                       307 : CASING BOTTOM DRILLER
CBL .M                       308 : CASING BOTTOM LOGGER
BS  .MM                      222 : BIT SIZE
BSD .M                      2670 : BIT SIZE AT DEPTH
DFT .                   GEL CHEM : DRILLING FLUID TYPE
DFD .                       1165 : DRILLING FLUID DENSITY
DFV .                         76 : DRILLING FLUID VISCOSITY
DFPH.                          9 : DRILLING FLUID PH
MSS .                   FLOWLINE : MUD SAMPLE SOURCE
RMS .OHMM                    2.2 : RESISTIVITY MUD SAMPLE
MST .DEGC                     20 : MUD SAMPLE TEMPERATURE
RMF .OHMM                    2.7 : RESISTIVITY MUD FILTRATE SAMPLE
MFST.DEGC                     20 : MUD FILTRATE SAMPLE TEMPERATURE
MFSS.                       MEAS : MUD FILTRATE SAMPLE SOURCE
MCSS.                       MEAS : MUD CAKE SAMPLE SOURCE
RMB .OHMM                    0.8 : RESISTIVITY MUD AT BHT
TCS .HRS                       7 : TIME CIRCULATED STOPPED
LUN .                    HL 6163 : LOGGING UNIT NUMBER
LUL .                        EDM : LOGGING UNIT LOCATION
ENGI.                       STEC : RECORDING ENGINEER
WITN.           FRASER NICHOLSON : WITNESSED BY
CLNT.                    A2DTECH : CLIENT CODE
ORIG. 6.5"/100M 16.5"/100M PRINT : ORIGIN OF DATA
UWI .           100021306113W500 : UNIQUE WELL ID
DICO.     A2D Technologies, Inc. : DIGITIZING COMPANY
~Other -----------------------------------------------------
IEL-CND-BHC SONIC LOG RUN
~ASCII -----------------------------------------------------
# ...
 1650.00000  247.30650    -999.25  288.77160  288.77160  111.72060  115.87350    -999.25    -999.25    -999.25    -999.25    -999.25    8.63010  247.30650    -999.25  109.89450  109.89450    8.63010    -999.25    -999.25    -999.25    9.73860  -82.72760   -3.42680    9.73860    -999.25 39948.96590
 1700.00000  159.40150    -999.25  208.04770  208.04770   38.20970   35.45530    -999.25    -999.25    -999.25    -999.25    -999.25   28.20450  159.40150    -999.25   24.08040   24.08040   28.20450    -999.25    -999.25    -999.25   85.77680 -241.76570 -157.59710   85.77680    -999.25 39955.65960
 1750.00000  193.46400    -999.25  253.42140  253.42140   60.15810   56.48790    -999.25    -999.25    -999.25    -999.25    -999.25   17.70290  193.46400    -999.25   83.94340   83.94340   17.70290    -999.25    -999.25    -999.25   24.52230  -98.41290   -9.57720   24.52230    -999.25 39949.07450
 1800.00000  185.28250    -999.25  265.72830  265.72830   62.54930   62.25680    -999.25    -999.25    -999.25    -999.25    -999.25   16.06250  185.28250    -999.25   51.76620   51.76620   16.06250    -999.25    -999.25    -999.25   19.95270  -81.65000   -1.84200   19.95270    -999.25 39959.84320
 1850.00000  169.64120    -999.25  239.60990  239.60990   23.58060   21.27300    -999.25    -999.25    -999.25    -999.25    -999.25   47.00800  169.64120    -999.25   42.35890   42.35890   47.00800    -999.25    -999.25    -999.25   62.41100  -99.10680  -15.49200   62.41100    -999.25 39974.23900
 1900.00000  197.05140    -999.25  257.97990  257.97990   79.43590   78.21850    -999.25    -999.25    -999.25    -999.25    -999.25   12.78470  197.05140    -999.25   94.94220   94.94220   12.78470    -999.25    -999.25    -999.25   14.18220 -109.42150  -22.68900   14.18220    -999.25 39988.51330
 1950.00000  159.15610    -999.25  266.75680  266.75680    5.44120    4.45630    -999.25    -999.25    -999.25    -999.25    -999.25  224.39910  159.15610    -999.25   23.31340   23.31340  224.39910    -999.25    -999.25    -999.25   98.07840 -178.71840  -94.17310   98.07840    -999.25 40007.92220
 2000.00000  162.30080    -999.25  254.56790  254.56790   14.89160   13.27850    -999.25    -999.25    -999.25    -999.25    -999.25   75.30950  162.30080    -999.25   21.18810   21.18810   75.30950    -999.25    -999.25    -999.25   91.45820 -239.69090 -157.33270   91.45820    -999.25 40042.36520
 2050.00000  160.64280    -999.25  249.91400  249.91400    8.77060    8.38830    -999.25    -999.25    -999.25    -999.25    -999.25  119.21430  160.64280    -999.25   23.64940   23.64940  119.21430    -999.25    -999.25    -999.25  146.76030 -164.03280  -83.86170  146.76030    -999.25 40073.65490
 2100.00000  164.87010    -999.25  227.30070  227.30070   44.95850   44.48740    -999.25    -999.25    -999.25    -999.25    -999.25   22.47830  164.87010    -999.25   19.27060   19.27060   22.47830    -999.25    -999.25    -999.25   85.52240 -235.13080 -157.14680   85.52240    -999.25 40102.48160
 2150.00000  160.97150    -999.25  235.38720  235.38720   51.48900   44.21880    -999.25    -999.25    -999.25    -999.25    -999.25   22.61480  160.97150    -999.25   48.74670   48.74670   22.61480    -999.25    -999.25    -999.25   46.72540 -147.36570  -76.11230   46.72540    -999.25 40433.70240
 2200.00000  167.95800    -999.25  248.61600  248.61600   14.10830   13.82600    -999.25    -999.25    -999.25    -999.25    -999.25   72.32770  167.95800    -999.25   39.82710   39.82710   72.32770    -999.25    -999.25    -999.25   96.60890  -63.51810   -5.42670   96.60890    -999.25 39974.68200
 2250.00000  194.02220    -999.25  268.83570  268.83570   73.25810   72.78180    -999.25    -999.25    -999.25    -999.25    -999.25   13.73970  194.02220    -999.25   71.14670   71.14670   13.73970    -999.25    -999.25    -999.25   21.06970  -61.53130   -5.66960   21.06970    -999.25 39957.91440
 2300.00000  269.93420    -999.25  395.39710  395.39710  223.61970  247.81920    -999.25    -999.25    -999.25    -999.25    -999.25    4.03520  269.93420    -999.25  103.17620  103.17620    4.03520    -999.25    -999.25    -999.25    5.07630  -74.83110  -10.75610    5.07630    -999.25 40093.20260
 2350.00000  260.84610    -999.25  391.83980  391.83980  209.36700  214.43580    -999.25    -999.25    -999.25    -999.25    -999.25    4.66340  260.84610    -999.25  105.98720  105.98720    4.66340    -999.25    -999.25    -999.25    6.05710  -75.12880   -7.82030    6.05710    -999.25 39973.62640
 2400.00000  218.24970  250.18370  253.77380  253.77380  109.89090  108.25320    0.00680    0.00680 2729.32300   -0.01130   -0.01130    9.23760  218.24970  104.95350  101.89850  101.89850    9.23760    0.18160    0.18160 2720.91820   15.43640  -68.00740   -3.74830   15.43640 40421.13310 39953.70060
 2450.00000  232.55560  264.52780  251.14880  251.14880  119.02590  119.61720   73.42720   73.42720 2671.86700    0.02230    0.02230    8.36000  232.55560  109.62830  114.71460  114.71460    8.36000    0.21210    0.21210 2662.50730   14.23350  -69.89130  -16.43110   14.23350 39838.34670 39864.14990
 2500.00000  229.57270  284.42380  273.61060  273.61060  154.65920  152.76970  173.08110  173.08110 2527.20100    0.10690    0.10690    6.54580  229.57270  107.38500  113.02290  113.02290    6.54580    0.23510    0.23510 2530.23560   10.30400  -79.77440  -37.46960   10.30400 40714.41190 40577.81150
 2550.00000  250.43780  255.59360  254.97890  254.97890   51.44730   47.75250   28.70440   28.70440 2629.97200    0.04680    0.04680   20.94130  250.43780  111.47320  117.40570  117.40570   20.94130    0.21530    0.21530 2620.70260   35.48260  -54.87470  -23.72540   35.48260 40641.18570 40561.96020
 2600.00000  164.09790  233.66420  235.24370  235.24370   31.01370   30.06470    2.20920    2.20920 2691.36100    0.01090    0.01090   33.26160  164.09790   24.43830   18.82290   18.82290   33.26160    0.05920    0.05920 2683.76440   66.76930 -138.52750  -77.55270   66.76930 40739.71120 40450.67240
 2650.00000  169.03670  221.58340  227.35380  227.35380   58.42150   55.17210   53.12200   53.12200 2717.52400   -0.00440   -0.00440   18.12510  169.03670   14.54040   16.19190   16.19190   18.12510    0.06650    0.06650 2706.78390   64.68970 -193.61340 -103.60230   64.68970 40106.82130 39758.29600
