~Version ---------------------------------------------------
VERS.      2.0 : CWLS log ASCII Standard -VERSION 2.0
WRAP.       NO : One line per depth step
CREA. 09/26/17 : LAS Creation Date
~Well ------------------------------------------------------
STRT.FT                             300.0 : START DEPTH
STOP.FT                           13500.0 : STOP DEPTH
STEP.FT                          50.00000 : STEP LENGTH
NULL.                             -999.25 : NULL VALUE
COMP.          TEXACO EXPLORATION COMPANY : COMPANY
WELL. TEXACO H.B. DISMAL CREEK 6-28-47-14 : WELL
FLD .                                     : FIELD
LOC .                                     : LOCATION
CTRY.                              CANADA : COUNTRY
SRVC.              Schlumberger of Canada : SERVICE COMPANY
DATE.                         09-May-1961 : LOGDATE
PROV.                             Alberta : PROVINCE
UWI .                    100062804714W500 : UNIQUE WELL ID
SLAT.WGS84                       53.08145 : SURFACE LATITUDE
SLON.WGS84                      -115.9911 : SURFACE LONGITUDE
~Curve Information -----------------------------------------
DEPT  .FT         : Depth Curve
CALWS .IN         : CALIPER [MCALED]
CILDED.MMHO       : CONDUCTIVITY FROM IEL LOG
CLLDED.MMHO       : CONDUCTIVITY FROM DLL LOG
CONDWS.MMHO       : CONDUCTIVITY [1000/DRESWS]
DRESWS.OHMM       : DEEP RESISTIVITY [1000/CILDED IF ILDED<1, ILDED &  SPL. TO 1000/CLLED IF LLED<1, LLED @ 11615']
DTED  .US/F       : DELTA-T FROM SONIC LOG [ADJ. TO RESISTIVITY LOG]
DTWS  .US/F       : COMPRESSIONAL SONIC [DTED]
GRED  .GAPI       : GAMMA RAY (CASING & COLLARS) FROM SBL LOG [ADJ. TO RESISTIVITY LOG]
GRNED .UgRa-Eq/T  : GAMMA RAY (CASING & COLLARS) FROM GRN LOG [ADJ. TO RESISTIVITY LOG]
GRSED .UgRa-Eq/T  : GAMMA RAY FROM SONIC LOG [ADJ. TO RESISTIVITY LOG]
GRWS  .GAPI       : GAMMA RAY [GRED SPL. TO GRSED*16.5 @ 1002' & GRNED*16.5 @ 11622']
ILDED .OHMM       : DEEP INDUCTION RESISTIVITY FROM IEL LOG
LLED  .OHMM       : FOCUSED LATEROLOG RESISTIVITY FROM DLL LOG
MCALED.IN         : MICROCALIPER FROM MICROLOG [ADJ. TO RESISTIVITY LOG]
NEUTED.SCPS       : NEUTRON (CASING & COLLARS) FROM GRN LOG [ADJ. TO RESISTIVITY LOG]
NEUTWS.SCPS       : NEUTRON [NEUTED]
SNED  .OHMM       : SHORT NORMAL RESISTIVITY FROM IEL LOG
SPRED .MV         : SPONTANEOUS POTENTIAL FROM IEL LOG
SPWS  .MV         : SPONTANEOUS POTENTIAL [BASELINE 0 MV, SPRED]
SRESWS.OHMM       : SHALLOW RESISTIVITY [SNED]
~Params ----------------------------------------------------
LMF .                     KB : LOG MEASURED FROM
DMF .                     KB : DRILLING MEASURED FROM
EKB .FT                 3712 : KELLY BUSHING
EGL .FT                 3696 : GROUND LEVEL
DATE.               05/09/61 : RUN DATE
RUN .                      1 : RUN NUMBER
DD  .FT                13533 : DEPTH DRILLER
DL  .FT                11643 : DEPTH LOGGER
BLI .FT                11638 : BOTTOM LOG INTERVAL
TLI .FT                10032 : TOP LOG INTERVAL
CBD .FT                10039 : CASING BOTTOM DRILLER
CBL .FT                10032 : CASING BOTTOM LOGGER
BS  .IN                8.375 : BIT SIZE
BSD .FT                13533 : BIT SIZE AT DEPTH
DFT .              LIME BASE : DRILLING FLUID TYPE
DFD .                   10.1 : DRILLING FLUID DENSITY
DFV .                     85 : DRILLING FLUID VISCOSITY
DFPH.                   13.5 : DRILLING FLUID PH
DFL .                    4.2 : DRILLING FLUID LOSS
RMS .OHMM               0.35 : RESISTIVITY MUD SAMPLE
MST .DEGF                 75 : MUD SAMPLE TEMPERATURE
RMF .OHMM               0.24 : RESISTIVITY MUD FILTRATE SAMPLE
MFST.DEGF                 66 : MUD FILTRATE SAMPLE TEMPERATURE
RMC .OHMM               0.84 : RESISTIVITY MUD CAKE
MCST.DEGF                 56 : MUD CAKE SAMPLE TEMPERATURE
RMB .OHMM               0.13 : RESISTIVITY MUD AT BHT
TCS .HRS                   3 : TIME CIRCULATED STOPPED
LUN .                   2765 : LOGGING UNIT NUMBER
LUL .                    SKW : LOGGING UNIT LOCATION
ENGI.                PRATHER : RECORDING ENGINEER
WITN.                 RAKACH : WITNESSED BY
CLNT.                A2DTECH : CLIENT CODE
ORIG.        2" 5" 10" PRINT : ORIGIN OF DATA
UWI .       100062804714W500 : UNIQUE WELL ID
DICO. A2D Technologies, Inc. : DIGITIZING COMPANY
~Other -----------------------------------------------------
GRN-IEL-LL-ML-BCS LOG RAN
UNABLE TO RECORD SP DUE TO SEVERE DRIFTING CONDITION
LL GIVEN OVER A COMPRESSED SCALE COULD BE VERIFIED FROM 1000/CLLED
TOOL MOMENTARILY STUCK IN HOLE ON FIRST RUN @ 1800' & 2717'.
CNL-LDT IS TVD LOG, NO DATA AVAILABLE
~ASCII -----------------------------------------------------
# ...
 5550.00000   16.04160  111.57110    -999.25  116.26420    8.60110   80.71630   80.71630   60.49860    -999.25    4.30940   71.10430    8.60110    -999.25   16.04160    -999.25    -999.25    8.91060  -44.06910   -7.93120    8.91060
 5600.00000   14.01130   32.86390    -999.25   28.09280   35.59630   65.93280   65.93280   29.56450    -999.25    2.89470   47.76250   35.59630    -999.25   14.01130    -999.25    -999.25   25.58310  -57.06990  -21.11630   25.58310
 5650.00000   15.11670   61.76990    -999.25   64.20220   15.57580   78.18060   78.18060   34.52590    -999.25    2.69360   44.44440   15.57580    -999.25   15.11670    -999.25    -999.25   13.60020  -46.82170  -11.05130   13.60020
 5700.00000   15.60630   80.94180    -999.25   82.14970   12.17290   75.19960   75.19960   46.14970    -999.25    3.98680   65.78300   12.17290    -999.25   15.60630    -999.25    -999.25   14.51440  -48.63640  -13.05030   14.51440
 5750.00000   11.98260   51.26050    -999.25   50.40750   19.83830   71.46410   71.46410   25.67050    -999.25    2.51330   41.46950   19.83830    -999.25   11.98260    -999.25    -999.25   16.16330  -48.94760  -13.54470   16.16330
 5800.00000   12.75930   95.53280    -999.25   91.77010   10.89680   73.17040   73.17040   42.68350    -999.25    3.64270   60.10460   10.89680    -999.25   12.75930    -999.25    -999.25   12.08530  -39.17300   -3.95320   12.08530
 5850.00000   12.63120   94.87540    -999.25   97.22140   10.28580   76.77540   76.77540    -999.25    -999.25    3.17940   52.46010   10.28580    -999.25   12.63120    -999.25    -999.25   11.17150  -42.29170   -7.25630   11.17150
 5900.00000   12.68270   75.50850    -999.25   73.38960   13.62590   71.75910   71.75910    -999.25    -999.25    3.41650   56.37230   13.62590    -999.25   12.68270    -999.25    -999.25   13.73180  -43.16880   -8.31660   13.73180
 5950.00000   13.86100   78.84280    -999.25   80.85900   12.36720   72.43400   72.43400    -999.25    -999.25    3.03620   50.09650   12.36720    -999.25   13.86100    -999.25    -999.25   13.71160  -45.07600  -10.40810   13.71160
 6000.00000   13.22710   85.65740    -999.25   73.63340   13.58080   70.48460   70.48460    -999.25    -999.25    2.83820   46.82950   13.58080    -999.25   13.22710    -999.25    -999.25    9.99750  -41.60430   -7.11960    9.99750
 6050.00000   15.74550  100.75490    -999.25   99.91210   10.00880   75.50140   75.50140    -999.25    -999.25    3.91770   64.64200   10.00880    -999.25   15.74550    -999.25    -999.25   11.50310  -43.83590   -9.53430   11.50310
 6100.00000   14.54080   78.29250    -999.25   77.21110   12.95150   71.94510   71.94510    -999.25    -999.25    3.58450   59.14430   12.95150    -999.25   14.54080    -999.25    -999.25   14.37940  -43.86530   -9.74810   14.37940
 6150.00000   15.19290   71.06960    -999.25   74.47620   13.42710   85.35060   85.35060    -999.25    -999.25    4.38850   72.41020   13.42710    -999.25   15.19290    -999.25    -999.25   12.81110  -40.35210   -6.41800   12.81110
 6200.00000   14.47260   50.74910    -999.25   46.55280   21.48100   82.24240   82.24240    -999.25    -999.25    3.12940   51.63510   21.48100    -999.25   14.47260    -999.25    -999.25   15.38990  -40.39070   -6.64100   15.38990
 6250.00000   15.63550   62.89580    -999.25   64.68430   15.45970   77.05260   77.05260    -999.25    -999.25    3.66100   60.40650   15.45970    -999.25   15.63550    -999.25    -999.25   14.24780  -34.71700   -1.15050   14.24780
 6300.00000   14.59170   53.79300    -999.25   47.44060   21.07900   73.29680   73.29680    -999.25    -999.25    3.62920   59.88100   21.07900    -999.25   14.59170    -999.25    -999.25   22.03200  -42.52960   -9.03650   22.03200
 6350.00000   12.69300   45.82780    -999.25   44.01310   22.72050   71.92880   71.92880    -999.25    -999.25    2.60050   42.90820   22.72050    -999.25   12.69300    -999.25    -999.25   21.12030  -66.72370  -33.08560   21.12030
 6400.00000   13.32670   40.66270    -999.25   36.82240   27.15740   68.24040   68.24040    -999.25    -999.25    2.55340   42.13110   27.15740    -999.25   13.32670    -999.25    -999.25   23.38450  -50.32930  -16.54730   23.38450
 6450.00000   15.06190  105.48760    -999.25  104.56750    9.56320   74.90880   74.90880    -999.25    -999.25    3.78900   62.51850    9.56320    -999.25   15.06190    -999.25    -999.25   12.03000  -41.98820   -8.06130   12.03000
 6500.00000   15.39670  122.58150    -999.25  119.01790    8.40210   81.85800   81.85800    -999.25    -999.25    3.82310   63.08110    8.40210    -999.25   15.39670    -999.25    -999.25    9.78130  -40.03310   -5.96220    9.78130
 6550.00000   14.67320  104.69340    -999.25  103.15020    9.69460   77.62930   77.62930    -999.25    -999.25    4.27620   70.55730    9.69460    -999.25   14.67320    -999.25    -999.25   11.94880  -40.60820   -6.39330   11.94880
 6600.00000   14.01050   98.87270    -999.25   98.26750   10.17630   73.96510   73.96510    -999.25    -999.25    4.82200   79.56300   10.17630    -999.25   14.01050    -999.25    -999.25   11.94060  -42.19120   -7.83140   11.94060
 6650.00000   14.89680   79.50560    -999.25   83.84550   11.92670   76.71410   76.71410    -999.25    -999.25    4.91410   81.08270   11.92670    -999.25   14.89680    -999.25    -999.25   12.79150  -42.55620   -8.05250   12.79150
 6700.00000   15.38420   86.62860    -999.25   87.62940   11.41170   73.84370   73.84370    -999.25    -999.25    4.57780   75.53370   11.41170    -999.25   15.38420    -999.25    -999.25   12.69280  -43.02500   -8.37640   12.69280
 6750.00000   15.45690   74.22150    -999.25   77.83490   12.84770   75.93140   75.93140    -999.25    -999.25    4.99530   82.42240   12.84770    -999.25   15.45690    -999.25    -999.25   12.80910  -44.26820   -9.47560   12.80910
 6800.00000   15.52140   84.58220    -999.25   86.08370   11.61660   78.20510   78.20510    -999.25    -999.25    5.04810   83.29370   11.61660    -999.25   15.52140    -999.25    -999.25   12.06900  -46.14420  -11.20760   12.06900
 6850.00000   15.47120  105.94840    -999.25  106.41350    9.39730   81.08460   81.08460    -999.25    -999.25    4.95300   81.72450    9.39730    -999.25   15.47120    -999.25    -999.25   11.06870  -47.11950  -12.03800   11.06870
 6900.00000   15.51310   69.89720    -999.25   72.80670   13.73500   69.13370   69.13370    -999.25    -999.25    4.94350   81.56780   13.73500    -999.25   15.51310    -999.25    -999.25   13.83990  -46.34100  -11.11550   13.83990
 6950.00000   15.42160  125.12820    -999.25  123.60020    8.09060   94.37500   94.37500    -999.25    -999.25    4.74710   78.32800    8.09060    -999.25   15.42160    -999.25    -999.25    9.16710  -54.13590  -18.76550    9.16710
 7000.00000   13.16810   99.82750    -999.25   99.37990   10.06240   83.89600   83.89600    -999.25    -999.25    5.32250   87.82210   10.06240    -999.25   13.16810    -999.25    -999.25   12.26450  -53.55710  -18.04280   12.26450
 7050.00000   14.76450  154.99530    -999.25  149.94300    6.66920   84.71090   84.71090    -999.25    -999.25    4.68930   77.37350    6.66920    -999.25   14.76450    -999.25    -999.25    8.58890  -50.77180  -15.11350    8.58890
 7100.00000   14.74890  136.96350    -999.25  132.65410    7.53840   80.75340   80.75340    -999.25    -999.25    5.16910   85.29020    7.53840    -999.25   14.74890    -999.25    -999.25    9.41370  -47.92470  -12.12150    9.41370
 7150.00000   15.04500  163.93840    -999.25  158.49370    6.30940   78.62370   78.62370    -999.25    -999.25    4.98940   82.32510    6.30940    -999.25   15.04500    -999.25    -999.25    7.83220  -44.71840   -8.77120    7.83220
 7200.00000   15.34020  134.47850    -999.25  127.60800    7.83650   77.99800   77.99800    -999.25    -999.25    4.65510   76.81000    7.83650    -999.25   15.34020    -999.25    -999.25    8.46700  -42.27550   -6.18340    8.46700
 7250.00000   15.63180  128.10030    -999.25  124.93280    8.00430   74.75530   74.75530    -999.25    -999.25    4.90450   80.92510    8.00430    -999.25   15.63180    -999.25    -999.25    8.71600  -40.84410   -4.60810    8.71600
