~Version ---------------------------------------------------
VERS.      2.0 : CWLS log ASCII Standard -VERSION 2.0
WRAP.       NO : One line per depth step
CREA. 10/26/17 : LAS Creation Date
~Well ------------------------------------------------------
STRT.FT                     1150.0 : START DEPTH
STOP.FT                    11150.0 : STOP DEPTH
STEP.FT                   50.00000 : STEP LENGTH
NULL.                      -999.25 : NULL VALUE
COMP.            TRIAD OIL CO. LTD : COMPANY
WELL. TRIAD PAN AM ANTE 2-27-66-25 : WELL
FLD .                              : FIELD
LOC .                              : LOCATION
CTRY.                       CANADA : COUNTRY
SRVC.                   Lane Wells : SERVICE COMPANY
DATE.                  15-Aug-1967 : LOGDATE
PROV.                      Alberta : PROVINCE
UWI .             100022706625W500 : UNIQUE WELL ID
SLAT.WGS84                54.73614 : SURFACE LATITUDE
SLON.WGS84                 -117.69 : SURFACE LONGITUDE
~Curve Information -----------------------------------------
DEPT  .FT    : Depth Curve
CALSED.IN    : CALIPER FROM SONIC LOG
CALWS .IN    : CALIPER [CALSED]
CONDWS.MMHO  : CONDUCTIVITY [1000/DRESWS]
DRESWS.OHMM  : DEEP RESISTIVITY [ILDED]
DTED  .US/F  : DELTA TIME FROM SONIC LOG
DTWS  .US/F  : DELTA TIME [DTED]
GRSED .GAPI  : GAMMA RAY FROM SONIC LOG
GRWS  .GAPI  : GAMMA RAY [GRSED]
ILDED .OHMM  : INDUCTION LOG DEEP RESISTIVITY
SNED  .OHMM  : 16 INCH SHORT NORMAL RESISTIVITY FROM IEL
SPRED .MV    : SPONTANEOUS POTENTIAL FROM RESISTIVITY LOG
SPWS  .MV    : SPONTANEOUS POTENTIAL [BASELINE 0 MV] [SPRED]
SRESWS.OHMM  : SHALLOW RESISTIVITY [SNED]
~Params ----------------------------------------------------
PD  .                     GL : PERMANENT DATUM
EPD .FT               2399.7 : ELEVATION PERMANENT DATUM
LMF .                     KB : LOG MEASURED FROM
DAPD.FT                   15 : FEET ABOVE PERMANENT DATUM
DMF .                     KB : DRILLING MEASURED FROM
EKB .FT               2414.7 : KELLY BUSHING
EGL .FT               2399.7 : GROUND LEVEL
DATE.               08/15/67 : RUN DATE
RUN .                      1 : RUN NUMBER
DD  .FT                11172 : DEPTH DRILLER
DL  .FT                11160 : DEPTH LOGGER
BLI .FT                11156 : BOTTOM LOG INTERVAL
TLI .FT                 1144 : TOP LOG INTERVAL
CS  .IN                9.625 : CASING SIZE
CBD .FT                 1145 : CASING BOTTOM DRILLER
CBL .FT                 1144 : CASING BOTTOM LOGGER
BS  .IN                7.625 : BIT SIZE
BSD .FT                11172 : BIT SIZE AT DEPTH
DFT .                MUD GEL : DRILLING FLUID TYPE
DFD .                    9.9 : DRILLING FLUID DENSITY
DFV .                     89 : DRILLING FLUID VISCOSITY
DFPH.                      9 : DRILLING FLUID PH
DFL .                    7.2 : DRILLING FLUID LOSS
MSS .                   CIRC : MUD SAMPLE SOURCE
RMS .OHMM                3.0 : RESISTIVITY MUD SAMPLE
MST .DEGF                 86 : MUD SAMPLE TEMPERATURE
RMF .OHMM                2.4 : RESISTIVITY MUD FILTRATE SAMPLE
MFST.DEGF                 86 : MUD FILTRATE SAMPLE TEMPERATURE
RMC .OHMM                3.2 : RESISTIVITY MUD CAKE
MCST.DEGF                 86 : MUD CAKE SAMPLE TEMPERATURE
MFSS.                   MEAS : MUD FILTRATE SAMPLE SOURCE
MCSS.                   MEAS : MUD CAKE SAMPLE SOURCE
RMB .OHMM                1.2 : RESISTIVITY MUD AT BHT
TCS .HRS                   6 : TIME CIRCULATED STOPPED
LUN .                   1256 : LOGGING UNIT NUMBER
LUL .                    EDM : LOGGING UNIT LOCATION
ENGI.      KOWALCHUK DOMSTAD : RECORDING ENGINEER
WITN.            DANIELEWICZ : WITNESSED BY
CLNT.                A2DTECH : CLIENT CODE
ORIG.            2" 5" PRINT : ORIGIN OF DATA
UWI .       100022706625W500 : UNIQUE WELL ID
DICO. A2D Technologies, Inc. : DIGITIZING COMPANY
~Other -----------------------------------------------------
~ASCII -----------------------------------------------------
 1150.00000    -999.25    -999.25  223.56360    4.47300  105.84000  105.84000   58.06800   58.06800    4.47300    5.33000  -77.78700  -14.58600    5.33000
 1200.00000    -999.25    -999.25  207.77310    4.81320  167.80050  167.80050   58.44350   58.53700    4.81340    5.40090  -81.50400  -18.30300    5.39940
 1250.00000    -999.25    -999.25  133.34280    7.49960   99.48530   99.48530   80.59600   79.76860    7.34700    9.15500  -80.20500  -17.00400    9.25570
 1300.00000    -999.25    -999.25  196.52160    5.08850  114.71010  114.71010   67.73850   67.73850    5.08850    5.48860  -79.49950  -16.29850    5.48860
 1350.00000    -999.25    -999.25  223.75610    4.46980  125.69020  125.69020   66.96940   66.96760    4.46980    5.08700  -81.46740  -18.26640    5.08700
 1400.00000    -999.25    -999.25  143.53170    6.96710  118.01880  118.01880   57.86530   57.86530    6.96710    7.82150  -83.57200  -20.37100    7.82150
 1450.00000    -999.25    -999.25  112.04930    8.92460  103.84080  103.84080   51.87820   51.71950    8.92560   11.40360  -91.69020  -28.48920   11.40610
 1500.00000    -999.25    -999.25  195.59910    5.11890  104.77670  104.77670   62.57100   62.52010    5.11700    5.63600  -79.08940  -15.88840    5.63670
 1550.00000    -999.25    -999.25  149.68270    6.68080  107.25350  107.25350   63.21030   63.21030    6.68080    7.48690  -83.54250  -20.34150    7.48690
 1600.00000    -999.25    -999.25  190.96680    5.23800   98.91600   98.91600   72.03760   71.97070    5.23830    6.00930  -78.86070  -15.65970    6.00930
 1650.00000    -999.25    -999.25  178.92930    5.58880  136.00150  136.00150   59.87040   59.87040    5.58880    6.29530  -77.84420  -14.64320    6.29530
 1700.00000    -999.25    -999.25  144.56520    6.99130  108.68170  108.68170   44.31360   43.75660    7.03000    8.34320  -89.76020  -26.55920    8.30140
 1750.00000    -999.25    -999.25  107.30040    9.33030   97.90610   97.90610   52.79300   52.81420    9.33700   12.99900  -81.62190  -18.42090   12.99930
 1800.00000    -999.25    -999.25  128.56280    7.77830  100.74690  100.74690   51.86780   51.86780    7.77830    9.31870  -90.84630  -27.64530    9.31870
 1850.00000    -999.25    -999.25  121.27050    8.24780   96.68250   96.68250   53.96100   52.99790    8.24730   11.50140  -81.18470  -17.98370   11.56450
 1900.00000    -999.25    -999.25  180.08280    5.55300  103.00000  103.00000   54.50900   54.50900    5.55300    6.17800  -79.89800  -16.69700    6.17800
 1950.00000    -999.25    -999.25  179.17230    5.58150  111.85000  111.85000   55.29920   55.19830    5.57900    6.72590  -80.45990  -17.25890    6.72880
 2000.00000   11.18210   11.18210  184.29100    5.42640  130.23630  130.23630   59.27810   59.28200    5.42600    4.78300  -81.07100  -17.87000    4.78330
 2050.00000   11.49240   11.49240  185.03780    5.40430  110.53570  110.53570   60.01320   60.01320    5.40430    4.84710  -79.08970  -15.88870    4.84710
 2100.00000   12.21000   12.21000  179.52330    5.57180  102.06570  102.06570   58.36330   58.44180    5.57180    4.82230  -79.61210  -16.41110    4.82250
 2150.00000   14.48390   14.48390  135.98410    7.35380  124.30390  124.30390   47.53570   47.53570    7.35380    8.13910  -79.44070  -16.23970    8.13910
 2200.00000    9.15210    9.15210  162.41990    6.17300  107.91620  107.91620   59.39070   58.93230    6.18990    7.64070  -86.91770  -23.71670    7.59530
 2250.00000    -999.25    -999.25  106.72390    9.37960   85.94960   85.94960   48.60690   48.68530    9.37900   13.79300  -83.39400  -20.19300   13.79400
 2300.00000   15.30320   15.30320  191.12420    5.23220  165.82380  165.82380   65.36060   65.36060    5.23220    4.30910  -81.03830  -17.83730    4.30910
 2350.00000    9.24840    9.24840  113.95410    8.77680   98.30000   98.30000   31.01000   30.26780    8.77680   12.25360  -97.52410  -34.32310   12.25360
 2400.00000   11.24930   11.24930  125.50040    7.96810   95.93040   95.93040   35.91340   35.91340    7.96810    9.68510  -84.13160  -20.93060    9.68510
 2450.00000   12.31290   12.31290  171.01320    5.84830  100.65210  100.65210   37.65220   37.60370    5.85230    5.39200  -80.79980  -17.59880    5.38840
 2500.00000   11.98500   11.98500  169.62220    5.89700   99.93820   99.93820   38.26300   38.39850    5.89500    5.36900  -81.02870  -17.82770    5.36970
 2550.00000   10.34870   10.34870  170.32000    5.87130  103.75000  103.75000   48.72420   48.72420    5.87130    5.39360  -81.11650  -17.91550    5.39360
 2600.00000   11.46860   11.46860  125.17550    7.98900   96.70220   96.70220   53.92820   55.34560    7.98930    8.80030  -82.58220  -19.38120    8.80000
 2650.00000   13.24800   13.24800  129.29920    7.73400  107.55000  107.55000   46.27000   46.27000    7.73400    8.60000  -84.38000  -21.17900    8.60000
 2700.00000   13.41120   13.41120  138.14640    7.23870   99.59040   99.59040   83.90070   83.74700    7.23630    8.03980  -81.89270  -18.69170    8.04500
 2750.00000   13.88700   13.88700  113.31960    8.82500  102.87300  102.87300   93.78800   93.21290    8.84400   11.10800  -83.70260  -20.50160   11.10770
 2800.00000   14.46280   14.46280  122.47850    8.16470   92.83160   92.83160   89.02840   89.02840    8.16470   10.44360  -81.88840  -18.68740   10.44360
 2850.00000   14.89240   14.89240  133.79710    7.47460   95.05820   95.05820   95.40180   94.64000    7.47460    8.48530  -82.00160  -18.80060    8.48500
 2900.00000   14.95100   14.95100  134.53520    7.43300  126.12100  126.12100   81.37700   81.37700    7.43300    7.12100  -83.00700  -19.80600    7.12100
 2950.00000   14.47630   14.47630  141.08220    7.08860  102.62750  102.62750   77.25790   76.79040    7.09260    7.26110  -85.03640  -21.83540    7.26320
 3000.00000   13.20800   13.20800   94.91600   10.53600   86.87630   86.87630   51.02000   50.97080   10.51600   12.92300  -90.65590  -27.45490   13.09370
 3050.00000   14.42840   14.42840  119.61720    8.36000  109.44860  109.44860   68.63310   68.63310    8.36000    8.64620  -85.55580  -22.35480    8.64620
 3100.00000   13.49080   13.49080  130.71500    7.65040  110.75470  110.75470   83.24500   82.06930    7.63600    8.24040  -83.87340  -20.67240    8.26240
 3150.00000   13.22000   13.22000  127.01640    7.87300  123.60000  123.60000   76.72700   76.72700    7.87300    7.20100  -84.18700  -20.98600    7.20100
 3200.00000   12.73190   12.73190  110.58760    9.04340  117.85090  117.85090   48.33950   48.18200    9.09020    7.94360  -85.08270  -21.88170    7.93820
 3250.00000   12.55100   12.55100   83.78330   11.93640   89.59690   89.59690   59.83370   59.89730   11.93700   13.10800  -86.72500  -23.52400   13.10990
 3300.00000   12.72150   12.72150   80.50100   12.42220   91.22300   91.22300   60.91570   60.91570   12.42220   14.58750  -86.24840  -23.04740   14.58750
 3350.00000   13.75400   13.75400  105.69540    9.46120  105.09380  105.09380   68.58380   67.96220    9.46120   10.07920  -84.69960  -21.49860   10.07920
 3400.00000   14.79400   14.79400  111.81930    8.94300  100.81900  100.81900   72.66400   72.66400    8.94300    9.45100  -84.54300  -21.34200    9.45100
 3450.00000   13.76880   13.76880  119.85480    8.34410  106.88640  106.88640   76.77140   76.95250    8.33930    8.83870  -84.01040  -20.80940    8.84150
 3500.00000   13.64200   13.64200  125.62990    7.96000  107.15870  107.15870   79.52800   79.51080    7.96000    8.58400  -83.82900  -20.62800    8.58690
 3550.00000   11.89310   11.89310  134.94730    7.41030   96.69220   96.69220   81.55060   81.55060    7.41030    8.65240  -81.27660  -18.07560    8.65240
 3600.00000   12.12940   12.12940  122.94680    8.13360   94.34710   94.34710   88.23400   86.59260    8.13390    9.03230  -82.51030  -19.30930    9.03740
 3650.00000   11.60450   11.60450  119.46720    8.37050   93.89950   93.89950   99.28100   99.28100    8.37050   11.20140  -82.05290  -18.85190   11.20140
 3700.00000   11.27410   11.27410  111.55820    8.96540   93.27640   93.27640   80.60810   79.70820    8.95880   12.72890  -83.16800  -19.96700   12.70830
