~Version ---------------------------------------------------
VERS.      2.0 : CWLS log ASCII Standard -VERSION 2.0
WRAP.       NO : One line per depth step
CREA. 08/01/17 : LAS Creation Date
~Well ------------------------------------------------------
STRT.FT                          300.0 : START DEPTH
STOP.FT                         9600.0 : STOP DEPTH
STEP.FT                       50.00000 : STEP LENGTH
NULL.                          -999.25 : NULL VALUE
COMP.             IMPERIAL OIL LIMITED : COMPANY
WELL. IMP GOOSE RIVER EAST 10-15-67-18 : WELL
FLD .                                  : FIELD
LOC .                                  : LOCATION
CTRY.                           CANADA : COUNTRY
SRVC.           Schlumberger of Canada : SERVICE COMPANY
DATE.                      29-Jan-1963 : LOGDATE
PROV.                          Alberta : PROVINCE
UWI .                 100101506718W500 : UNIQUE WELL ID
SLAT.WGS84                    54.80149 : SURFACE LATITUDE
SLON.WGS84                   -116.6536 : SURFACE LONGITUDE
~Curve Information -----------------------------------------
DEPT  .FT    : Depth Curve
CALSED.IN    : CALIPER FROM SONIC LOG  [ADJ. TO RESISTIVITY LOG]
CALWS .IN    : CALIPER [CALSED]
CILDED.MMHO  : DEEP  INDUCTION CONDUCTIVITY FROM RESISTIVITY LOG
CONDWS.MMHO  : CONDUCTIVITY [1000/DRESWS]
DRESWS.OHMM  : DEEP RESISTIVITY [ILDED] IF ILDED<2;1000/CILDED;ELSE ILDED
DT1ED .US/F  : DELTA-T [(3' SPACING & 1' PICKUP SPAN) FROM SONIC LOG [ADJ. TO RESISTIVITY LOG]
DTED  .US/F  : DELTA-T [(3' SPACING & 3' PICKUP SPAN) FROM SONIC LOG [ADJ. TO RESISTIVITY LOG]
DTWS  .US/F  : COMPRESSIONAL SONIC [DTED]
GRSED .GAPI  : GAMMA RAY FROM SONIC LOG [ADJ. TO RESISTIVITY LOG]
GRWS  .GAPI  : GAMMA RAY [GRSED]
ILDED .OHMM  : DEEP INDUCTION RESISTIVITY FROM RESISTIVITY LOG
SNED  .OHMM  : 16 INCH SHORT NORMAL RESISTIVITY FROM RESISTIVITY LOG
SPRED .MV    : SPONTANEOUS POTENTIAL FROM RESISTIVITY LOG
SPWS  .MV    : SPONTANEOUS POTENTIAL [BASELINE 0 MV,SPRED]
SRESWS.OHMM  : SHALLOW RESISTIVITY [SNED]
~Params ----------------------------------------------------
PD  .                     GL : PERMANENT DATUM
EPD .FT                 2657 : ELEVATION PERMANENT DATUM
LMF .                     KB : LOG MEASURED FROM
DAPD.FT                   12 : FEET ABOVE PERMANENT DATUM
EKB .FT                 2669 : KELLY BUSHING
EGL .FT                 2657 : GROUND LEVEL
DATE.               01/29/63 : RUN DATE
RUN .                      1 : RUN NUMBER
DD  .FT                 9637 : DEPTH DRILLER
DL  .FT                 9633 : DEPTH LOGGER
BLI .FT                 9632 : BOTTOM LOG INTERVAL
TLI .FT                  957 : TOP LOG INTERVAL
CBD .FT                  957 : CASING BOTTOM DRILLER
CBL .FT                  957 : CASING BOTTOM LOGGER
BS  .IN                7.875 : BIT SIZE
BSD .FT                 9637 : BIT SIZE AT DEPTH
DFT .                    GEL : DRILLING FLUID TYPE
DFD .                   10.1 : DRILLING FLUID DENSITY
DFV .                    283 : DRILLING FLUID VISCOSITY
DFPH.                      9 : DRILLING FLUID PH
DFL .                    8.2 : DRILLING FLUID LOSS
RMS .OHMM               2.21 : RESISTIVITY MUD SAMPLE
MST .DEGF                 60 : MUD SAMPLE TEMPERATURE
RMF .OHMM               1.61 : RESISTIVITY MUD FILTRATE SAMPLE
MFST.DEGF                 64 : MUD FILTRATE SAMPLE TEMPERATURE
RMC .OHMM               2.47 : RESISTIVITY MUD CAKE
MCST.DEGF                 64 : MUD CAKE SAMPLE TEMPERATURE
RMB .OHMM               0.74 : RESISTIVITY MUD AT BHT
TCS .HRS                   3 : TIME CIRCULATED STOPPED
LUN .                   1534 : LOGGING UNIT NUMBER
LUL .                     VV : LOGGING UNIT LOCATION
ENGI.                  KEOWN : RECORDING ENGINEER
WITN.               INGLESON : WITNESSED BY
CLNT.                A2DTECH : CLIENT CODE
ORIG.            2" 5" PRINT : ORIGIN OF DATA
UWI .       100101506718W500 : UNIQUE WELL ID
DICO. A2D Technologies, Inc. : DIGITIZING COMPANY
~Other -----------------------------------------------------
IEL-BCS LOG RUN
ALL IEL DATA FROM TOP TO 3786' FROM SMALL SECTION
~ASCII -----------------------------------------------------
# ...
 4900.00000   11.94070   11.94070  349.24930  327.24650    3.05580    -999.25   99.78450   99.78450   72.97670   72.97670    3.05580    3.31270  -63.27640   -3.45720    3.31270
 4950.00000   11.11590   11.11590   69.66830   72.20690   13.84910    -999.25   70.65200   70.65200   63.77890   63.77890   13.84910   17.05280  -67.43200   -8.79010   17.05280
 5000.00000   10.63870   10.63870  127.32110  127.61940    7.83580    -999.25   77.49530   77.49530   67.90780   67.90780    7.83580   12.22960  -62.28920   -4.81400   12.22960
 5050.00000    8.29230    8.29230  144.36850  149.16250    6.70410    -999.25   72.96730   72.96730   44.20880   44.20880    6.70410   23.35340 -136.97120  -79.10630   23.35340
 5100.00000   11.21970   11.21970  367.13980  324.36990    3.08290    -999.25   91.35050   91.35050   87.82410   87.82410    3.08290    3.77600  -66.38550   -7.69410    3.77600
 5150.00000   12.30420   12.30420  378.98340  340.44870    2.93730    -999.25  102.44920  102.44920   62.43070   62.43070    2.93730    3.48030  -66.95670  -12.54380    3.48030
 5200.00000    9.26070    9.26070   51.19380   54.89950   18.21510    -999.25  105.34770  105.34770  121.07060  121.07060   18.21510   29.15560  -54.56800   -4.72050   29.15560
 5250.00000   10.32380   10.32380  120.04660  117.89120    8.48240    -999.25   83.13950   83.13950   80.38690   80.38690    8.48240   14.70050  -59.82900   -8.99780   14.70050
 5300.00000    8.56600    8.56600    6.48860    7.70030  129.86540    -999.25   64.50150   64.50150   50.24510   50.24510  129.86540  150.93440  -74.82540   -6.56130  150.93440
 5350.00000    7.44850    7.44850  118.50780  121.55390    8.22680    -999.25   69.89850   69.89850   51.45630   51.45630    8.22680   30.50250 -169.16730  -90.42760   30.50250
 5400.00000    7.43100    7.43100  264.43140  258.90640    3.86240    -999.25   72.11300   72.11300   49.69460   49.69460    3.86240   18.33460 -184.01690 -101.98950   18.33460
 5450.00000    8.41900    8.41900  330.63350  313.09680    3.19390    -999.25   70.69250   70.69250  103.29590  103.29590    3.19390   10.71930 -106.21290  -21.58570   10.71930
 5500.00000    8.05780    8.05780  181.43820  182.84880    5.46900    -999.25   54.10650   54.10650   26.68940   26.68940    5.46900   20.02940 -128.00790  -48.58180   20.02940
 5550.00000    9.16200    9.16200   55.67450   59.88310   16.69920    -999.25   50.99720   50.99720   36.81390   36.81390   16.69920   33.06320  -93.71800  -19.49290   33.06320
 5600.00000    8.61310    8.61310   67.97660   70.27460   14.22990    -999.25   51.24770   51.24770   26.26800   26.26800   14.22990   45.15030 -178.35460 -109.36430   45.15030
 5650.00000    9.49260    9.49260  135.19780  134.27140    7.44760    -999.25   63.27530   63.27530   75.38940   75.38940    7.44760   11.75090  -97.29930  -33.51010   11.75090
 5700.00000    9.79630    9.79630   19.73090   21.38160   46.76920    -999.25   54.77330   54.77330   42.59870   42.59870   46.76920   55.73590  -68.42120   -9.56660   55.73590
 5750.00000    9.44710    9.44710   34.48970   39.89870   25.06350    -999.25   55.42630   55.42630   53.65750   53.65750   25.06350   44.94640  -78.20330  -20.47730   44.94640
 5800.00000    9.78000    9.78000  258.23720  235.98260    4.23760    -999.25   62.93540   62.93540   42.75040   42.75040    4.23760   11.13440 -142.70800  -78.51510   11.13440
 5850.00000    9.58100    9.58100   53.44430   53.99280   18.52100    -999.25   54.46000   54.46000   41.21660   41.21660   18.52100   25.28170 -120.93810  -50.23520   25.28170
 5900.00000    9.86640    9.86640   80.65030   80.69920   12.39170    -999.25   52.80570   52.80570   19.82590   19.82590   12.39170   25.31160 -129.45270  -52.28290   25.31160
 5950.00000    9.50000    9.50000   26.38770   26.19970   38.16840    -999.25   51.16070   51.16070   23.50630   23.50630   38.16840   65.87880 -187.57770 -108.55840   65.87880
 6000.00000    7.93120    7.93120   76.58970   75.65560   13.21780    -999.25   52.16670   52.16670   22.50710   22.50710   13.21780   43.73510 -209.55560 -131.15330   43.73510
 6050.00000    9.37430    9.37430    7.76270    7.30410  136.90910    -999.25   53.14520   53.14520   22.71440   22.71440  136.90910   99.82190 -184.18840 -106.40320   99.82190
 6100.00000    9.84640    9.84640   52.76150   55.95250   17.87230    -999.25   55.40190   55.40190   41.58470   41.58470   17.87230   28.91580  -86.95940   -9.79480   28.91580
 6150.00000    9.79010    9.79010  238.95850  221.56740    4.51330    -999.25   62.48800   62.48800   51.75470   51.75470    4.51330    9.28640 -124.31720  -54.22690    9.28640
 6200.00000   10.81600   10.81600  167.42380  163.34800    6.12190    -999.25   51.17250   51.17250   63.70680   63.70680    6.12190    7.76580  -80.34070  -18.71550    7.76580
 6250.00000    9.64580    9.64580   18.38580   18.50980   54.02550    -999.25   56.71750   56.71750   38.21290   38.21290   54.02550   48.58800  -68.31660   -8.36640   48.58800
 6300.00000    9.79070    9.79070   14.79090   17.07180   58.57620    -999.25   52.53070   52.53070   33.99840   33.99840   58.57620   83.56020  -85.63220  -27.01960   83.56020
 6350.00000    8.47300    8.47300    9.94660   10.78170   92.75000    -999.25   52.01480   52.01480   40.38570   40.38570   92.75000   96.62620  -74.60360  -17.30180   96.62620
 6400.00000    8.49010    8.49010   14.32440   16.29160   61.38130    -999.25   54.49850   54.49850   33.35000   33.35000   61.38130   72.67400  -75.13780  -19.13890   72.67400
 6450.00000    8.09110    8.09110   19.77450   20.96370   47.70160    -999.25   53.44700   53.44700   39.04630   39.04630   47.70160   62.93710  -74.11820  -19.43010   62.93710
 6500.00000    8.83360    8.83360   18.65790   20.83790   47.98950    -999.25   54.52400   54.52400   40.53800   40.53800   47.98950   57.20740  -74.59150  -21.20630   57.20740
 6550.00000    8.21560    8.21560   12.00680   12.98090   77.03610    -999.25   53.64350   53.64350   33.85870   33.85870   77.03610   90.99910  -84.22110  -32.30990   90.99910
 6600.00000    8.42480    8.42480   17.49950   20.18550   49.54050    -999.25   54.37200   54.37200   40.42240   40.42240   49.54050   66.81060  -76.57640  -26.34810   66.81060
 6650.00000    8.03630    8.03630   12.10250   11.95900   83.61930    -999.25   53.27450   53.27450   39.01100   39.01100   83.61930   97.55230  -72.84010  -24.28690   97.55230
 6700.00000    9.27530    9.27530   24.91550   26.48710   37.75420    -999.25   64.15350   64.15350   74.66690   74.66690   37.75420   49.91450  -61.85280  -14.70180   49.91450
 6750.00000    9.62850    9.62850   57.16970   61.87470   16.16170    -999.25   59.09500   59.09500   70.71150   70.71150   16.16170   23.81760  -69.64610  -22.79400   23.81760
 6800.00000    8.94730    8.94730   15.36070   17.28100   57.86700    -999.25   52.04050   52.04050   35.21960   35.21960   57.86700  100.27360  -70.83470  -23.00330  100.27360
 6850.00000    8.52370    8.52370    5.29100    5.15710  193.90840    -999.25   48.49400   48.49400   25.19180   25.19180  193.90840  134.71560 -137.50790  -88.16340  134.71560
 6900.00000    8.45300    8.45300    4.57090    4.06630  245.92580    -999.25   49.39500   49.39500   21.75460   21.75460  245.92580  202.36260 -118.84620  -68.00170  202.36260
 6950.00000    8.38940    8.38940    3.53860    3.57760  279.51510    -999.25   48.57480   48.57480   26.83830   26.83830  279.51510  201.72230 -139.66080  -87.30330  201.72230
 7000.00000    8.23900    8.23900    4.58660    4.37560  228.53850    -999.25   47.64250   47.64250   22.36510   22.36510  228.53850  184.22590 -117.01870  -63.16120  184.22590
 7050.00000    7.81340    7.81340    1.59580    3.03850  329.10510    -999.25   49.26570   49.26570   21.13750   21.13750  329.10510  221.83160 -157.27290 -101.91530  221.83160
 7100.00000    8.10300    8.10300    6.15900    6.05320  165.20220    -999.25   46.98350   46.98350   20.57520   20.57520  165.20220  131.34430 -162.02970 -105.15910  131.34430
 7150.00000    7.76140    7.76140    9.57900    9.45680  105.74450    -999.25   47.31850   47.31850   21.24130   21.24130  105.74450  129.26260 -165.71760 -107.34700  129.26260
