~Version ---------------------------------------------------
VERS.      2.0 : CWLS log ASCII Standard -VERSION 2.0
WRAP.       NO : One line per depth step
CREA. 08/31/17 : LAS Creation Date
~Well ------------------------------------------------------
STRT.FT                            1200.0 : START DEPTH
STOP.FT                           11900.0 : STOP DEPTH
STEP.FT                          50.00000 : STEP LENGTH
NULL.                             -999.25 : NULL VALUE
COMP.                THE PURE OIL COMPANY : COMPANY
WELL. PURE AMERADA ANTE CREEK 12-17-66-26 : WELL
FLD .                                     : FIELD
LOC .                                     : LOCATION
CTRY.                              CANADA : COUNTRY
SRVC.              Schlumberger of Canada : SERVICE COMPANY
DATE.                         16-Mar-1961 : LOGDATE
PROV.                             Alberta : PROVINCE
UWI .                    100121706626W500 : UNIQUE WELL ID
SLAT.WGS84                       54.71423 : SURFACE LATITUDE
SLON.WGS84                      -117.9041 : SURFACE LONGITUDE
~Curve Information -----------------------------------------
DEPT  .FT         : Depth Curve
CALWS .IN         : CALIPER [MCALED]
CILDED.MMHO       : DEEP CONDUCTIVITY INDUCTION FROM IEL LOG
CONDWS.MMHO       : CONDUCTIVITY [1000/DRESWS]
DRESWS.OHMM       : DEEP RESISTIVITY [ILDED]
DTED  .US/F       : ACOUSTIC TRANSIT TIME SLOWNESS, DELTA T FROM BCS LOG [ADJ. TO NEUTED]
DTWS  .US/F       : COMPRESSIONAL SONIC [DTED]
GRNED .UgRa-Eq/T  : GAMMA RAY NEUTRON FROM GRN LOG
GRSED .UgRa-Eq/T  : GAMMA RAY FROM BCS LOG [ADJ. TO GRNED]
GRWS  .GAPI       : GAMMA RAY [GRSED SPL. TO GRNED @ 8833', GRWS*16.50]
ILDED .OHMM       : DEEP INDUCTION RESISTIVITY FROM IEL LOG
MCALED.IN         : MLT MICROLOG CALIPER FROM ML LOG
NEUTED.NAPI       : NEUTRON FROM GRN LOG
NEUTWS.NAPI       : NEUTRON [NEUTED]
SNED  .OHMM       : SHORT NORMAL FROM IEL LOG
SPRED .MV         : SPONTANEOUS POTENTIAL FROM IEL LOG
SPWS  .MV         : SPONTANEOUS POTENTIAL [BASELINED 0 MV, SPRED]
SRESWS.OHMM       : SHALLOW RESISTIVITY [SNED]
~Params ----------------------------------------------------
LMF .                     KB : LOG MEASURED FROM
DMF .                     KB : DRILLING MEASURED FROM
EKB .FT                 2620 : KELLY BUSHING
EGL .FT                 2606 : GROUND LEVEL
DATE.               06/16/61 : RUN DATE
RUN .                      1 : RUN NUMBER
DD  .FT                11935 : DEPTH DRILLER
DL  .FT                11937 : DEPTH LOGGER
BLI .FT                11932 : BOTTOM LOG INTERVAL
TLI .FT                 1235 : TOP LOG INTERVAL
CBD .FT                 1236 : CASING BOTTOM DRILLER
CBL .FT                 1235 : CASING BOTTOM LOGGER
BS  .IN                    9 : BIT SIZE
BSD .FT                11935 : BIT SIZE AT DEPTH
DFT .                    GEL : DRILLING FLUID TYPE
DFD .                   10.1 : DRILLING FLUID DENSITY
DFV .                    600 : DRILLING FLUID VISCOSITY
DFPH.                    9.5 : DRILLING FLUID PH
DFL .                    7.8 : DRILLING FLUID LOSS
MSS .             CIRCULATED : MUD SAMPLE SOURCE
RMS .OHMM               3.65 : RESISTIVITY MUD SAMPLE
MST .DEGF                 56 : MUD SAMPLE TEMPERATURE
RMF .OHMM                2.8 : RESISTIVITY MUD FILTRATE SAMPLE
MFST.DEGF                 70 : MUD FILTRATE SAMPLE TEMPERATURE
RMC .OHMM                3.5 : RESISTIVITY MUD CAKE
MCST.DEGF                 70 : MUD CAKE SAMPLE TEMPERATURE
TCS .HRS                 600 : TIME CIRCULATED STOPPED
LUN .                  1573C : LOGGING UNIT NUMBER
LUL .                     WC : LOGGING UNIT LOCATION
ENGI.              HAUSEGGER : RECORDING ENGINEER
WITN.              ZASEYBIDA : WITNESSED BY
CLNT.                A2DTECH : CLIENT CODE
ORIG.            2" 5" PRINT : ORIGIN OF DATA
UWI .       100121706626W500 : UNIQUE WELL ID
DICO. A2D Technologies, Inc. : DIGITIZING COMPANY
~Other -----------------------------------------------------
~ASCII -----------------------------------------------------
# ...
 9400.00000    -999.25   14.26940   13.23660   75.54790    -999.25    -999.25    2.05840    -999.25   33.96360   75.54790    -999.25  361.49420  361.49420  102.66250 -107.79390  -49.94410  102.66250
 9450.00000    -999.25    7.12220    7.40430  135.05720    -999.25    -999.25    1.52490    -999.25   25.16090  135.05720    -999.25  350.94940  350.94940  146.20070 -139.22790  -81.87110  146.20070
 9500.00000    -999.25    2.09360    3.11360  321.17550    -999.25    -999.25    0.96620    -999.25   15.94230  321.17550    -999.25  396.74790  396.74790  200.99120 -156.29240  -99.42860  200.99120
 9550.00000    -999.25    3.30810    4.58700  218.00560    -999.25    -999.25    1.10870    -999.25   18.29360  218.00560    -999.25  412.33380  412.33380  210.43640 -175.14790 -118.77710  210.43640
 9600.00000    -999.25    3.74170    4.72140  211.80110    -999.25    -999.25    1.00020    -999.25   16.50330  211.80110    -999.25  392.63560  392.63560  239.56730 -159.52110 -103.64330  239.56730
 9650.00000    -999.25    5.11210    4.54900  219.82940    -999.25    -999.25    1.02220    -999.25   16.86630  219.82940    -999.25  348.24770  348.24770  235.52430 -160.11260 -104.72780  235.52430
 9700.00000    -999.25    6.43590    6.88400  145.26370    -999.25    -999.25    0.99690    -999.25   16.44890  145.26370    -999.25  352.93390  352.93390  234.58490 -159.83600 -104.94410  234.58490
 9750.00000    -999.25    5.52890    5.04770  198.11070    -999.25    -999.25    1.19250    -999.25   19.67630  198.11070    -999.25  347.99840  347.99840  268.55490 -157.77790 -103.37910  268.55490
 9800.00000    -999.25   19.29190   16.25430   61.52210    -999.25    -999.25    0.80670    -999.25   13.31050   61.52210    -999.25  349.99150  349.99150  146.75510 -203.20050 -149.29470  146.75510
 9850.00000    -999.25    2.76020    3.18730  313.74960    -999.25    -999.25    0.90900    -999.25   14.99850  313.74960    -999.25  414.85900  414.85900  176.30520 -186.74020 -133.32730  176.30520
 9900.00000    -999.25    5.04650    3.84370  260.16410    -999.25    -999.25    1.10950    -999.25   18.30670  260.16410    -999.25  365.11120  365.11120  238.03030 -171.67840 -118.75850  238.03030
 9950.00000    -999.25    7.01060    6.71820  148.85030    -999.25    -999.25    0.94190    -999.25   15.54140  148.85030    -999.25  360.13000  360.13000  145.82860 -148.74480  -96.31790  145.82860
 10000.00000    -999.25    7.29420    6.98440  143.17700    -999.25    -999.25    0.96080    -999.25   15.85320  143.17700    -999.25  383.71880  383.71880  219.46050 -143.47410  -91.54030  219.46050
 10050.00000    -999.25    7.01570    6.84570  146.07750    -999.25    -999.25    0.97560    -999.25   16.09740  146.07750    -999.25  405.57340  405.57340  187.89550 -152.33100 -100.89010  187.89550
 10100.00000    -999.25    7.81920    7.23990  138.12400    -999.25    -999.25    0.95740    -999.25   15.79710  138.12400    -999.25  350.16790  350.16790  205.31160 -145.13870  -94.19080  205.31160
 10150.00000    -999.25   10.26850    8.80390  113.58540    -999.25    -999.25    1.18260    -999.25   19.51290  113.58540    -999.25  282.33510  282.33510  182.65800 -140.73210  -90.27720  182.65800
 10200.00000    -999.25   27.88980   25.54570   39.14550    -999.25    -999.25    1.08730    -999.25   17.94040   39.14550    -999.25  370.31750  370.31750   87.37630 -153.47350 -103.51160   87.37630
 10250.00000    -999.25   28.67570   27.52000   36.33720    -999.25    -999.25    0.98030    -999.25   16.17490   36.33720    -999.25  373.84250  373.84250   94.11840 -199.71950 -150.25060   94.11840
 10300.00000    -999.25   21.47100   18.86860   52.99810    -999.25    -999.25    1.02010    -999.25   16.83170   52.99810    -999.25  421.70220  421.70220   88.73140 -199.51950 -150.54360   88.73140
 10350.00000    -999.25    6.50620    6.52730  153.20350    -999.25    -999.25    1.44040    -999.25   23.76660  153.20350    -999.25  352.23890  352.23890  162.74500 -119.09350  -70.61050  162.74500
 10400.00000    -999.25  290.63020  140.15220    7.13510    -999.25    -999.25    7.07300    -999.25  116.70450    7.13510    -999.25  193.40710  193.40710    9.50570  -88.89590  -40.90590    9.50570
 10450.00000    -999.25   54.62940   43.27990   23.10540    -999.25    -999.25    1.69450    -999.25   27.95920   23.10540    -999.25  278.54970  278.54970   47.42780  -91.87830  -44.92600   47.42780
 10500.00000    -999.25   12.34220   10.81000   92.50720    -999.25    -999.25    2.80940    -999.25   46.35510   92.50720    -999.25  310.12600  310.12600  139.78070  -52.46990   -7.05800  139.78070
 10550.00000    -999.25    6.49630    6.38670  156.57570    -999.25    -999.25    1.18770    -999.25   19.59700  156.57570    -999.25  383.63950  383.63950  280.00420  -58.32150  -16.06800  280.00420
 10600.00000    -999.25    7.36920    5.46380  183.02150    -999.25    -999.25    0.85230    -999.25   14.06290  183.02150    -999.25  419.01610  419.01610  223.40140  -87.70320  -48.89360  223.40140
 10650.00000    -999.25    9.31800    7.68920  130.05170    -999.25    -999.25    1.43660    -999.25   23.70390  130.05170    -999.25  434.51480  434.51480  227.90930 -115.06550  -79.69980  227.90930
 10700.00000    -999.25   14.77280   13.63220   73.35580    -999.25    -999.25    1.34880    -999.25   22.25520   73.35580    -999.25  357.27700  357.27700   82.26980 -103.40300  -71.48130   82.26980
 10750.00000    -999.25   14.06170   11.27760   88.67100    -999.25    -999.25    2.17330    -999.25   35.85940   88.67100    -999.25  294.57280  294.57280  112.46960  -71.47350  -41.85620  112.46960
 10800.00000    -999.25   15.11130   12.28610   81.39290    -999.25    -999.25    1.59630    -999.25   26.33900   81.39290    -999.25  323.08940  323.08940   90.29990  -86.38020  -57.72960   90.29990
 10850.00000    -999.25   62.21310   54.36380   18.39460    -999.25    -999.25    1.58040    -999.25   26.07660   18.39460    -999.25  345.93380  345.93380   27.14300  -64.19580  -36.51180   27.14300
 10900.00000    -999.25  105.23870  100.80750    9.91990    -999.25    -999.25    5.13430    -999.25   84.71590    9.91990    -999.25  216.97790  216.97790   16.02720  -83.03390  -56.31660   16.02720
 10950.00000    -999.25  597.45870  183.02950    5.46360    -999.25    -999.25    6.22510    -999.25  102.71420    5.46360    -999.25  204.91340  204.91340    2.37590  -73.79330  -48.04270    2.37590
 11000.00000    -999.25  317.47200  160.15890    6.24380    -999.25    -999.25    3.85480    -999.25   63.60420    6.24380    -999.25  248.05910  248.05910    5.08050  -20.68320    4.10080    5.08050
 11050.00000    -999.25  475.23220  184.41680    5.42250    -999.25    -999.25    5.33340    -999.25   88.00110    5.42250    -999.25  206.44670  206.44670    2.85250  -49.97180  -26.17410    2.85250
 11100.00000    -999.25  267.00240  158.30050    6.31710    -999.25    -999.25    4.60430    -999.25   75.97100    6.31710    -999.25  219.64110  219.64110    4.96000  -55.26590  -32.45490    4.96000
 11150.00000    -999.25  184.84300  149.25820    6.69980    -999.25    -999.25    4.45570    -999.25   73.51910    6.69980    -999.25  241.51130  241.51130    7.76240  -67.70540  -45.88110    7.76240
 11200.00000    -999.25  298.23910  161.77830    6.18130    -999.25    -999.25    5.52690    -999.25   91.19390    6.18130    -999.25  218.41770  218.41770    4.39540 -102.48160  -81.64390    4.39540
 11250.00000    -999.25  303.55290  162.83990    6.14100    -999.25    -999.25    5.50770    -999.25   90.87700    6.14100    -999.25  221.10190  221.10190    4.78800 -131.84150 -111.99050    4.78800
 11300.00000    -999.25  245.94270  141.35270    7.07450    -999.25    -999.25    5.29810    -999.25   87.41870    7.07450    -999.25  234.57320  234.57320    6.27780 -204.70790 -185.84360    6.27780
 11350.00000    -999.25  230.48830  145.13370    6.89020    -999.25    -999.25    4.48850    -999.25   74.06020    6.89020    -999.25  242.05290  242.05290    7.18900 -129.89670 -112.01900    7.18900
 11400.00000    -999.25  238.82820  150.14110    6.66040    -999.25    -999.25    4.96550    -999.25   81.93070    6.66040    -999.25  223.60240  223.60240    6.37600 -111.25050  -94.35950    6.37600
