~Version ---------------------------------------------------
VERS.      2.0 : CWLS log ASCII Standard -VERSION 2.0
WRAP.       NO : One line per depth step
CREA. 11/17/17 : LAS Creation Date
~Well ------------------------------------------------------
STRT.FT                              950.0 : START DEPTH
STOP.FT                             9900.0 : STOP DEPTH
STEP.FT                           50.00000 : STEP LENGTH
NULL.                              -999.25 : NULL VALUE
COMP.        HUDSON'S BAY OIL & GAS CO LTD : COMPANY
WELL. HB QUINTANA UNION GIROUX 10-25-66-20 : WELL
FLD .                                      : FIELD
LOC .                                      : LOCATION
CTRY.                               CANADA : COUNTRY
SRVC.                         Schlumberger : SERVICE COMPANY
DATE.                          21-Feb-1973 : LOGDATE
PROV.                              Alberta : PROVINCE
UWI .                     100102506620W500 : UNIQUE WELL ID
SLAT.WGS84                        54.74426 : SURFACE LATITUDE
SLON.WGS84                       -116.8814 : SURFACE LONGITUDE
~Curve Information -----------------------------------------
DEPT  .FT    : Depth Curve
CALSED.IN    : CALIPER FROM SONIC LOG [ADJ. TO RESISTIVITY LOG]
CALWS .IN    : CALIPER [CALSED]
CILDED.MMHO  : DEEP INDUCTION CONDUCTIVITY FROM RESISTIVITY LOG
CONDWS.MMHO  : CONDUCTIVITY [1000/DRESWS]
DRESWS.OHMM  : DEEP RESISTIVITY [ILDED]
DTED  .US/F  : DELTA-T FROM SONIC LOG [ADJ. TO RESISTIVITY LOG]
DTWS  .US/F  : COMPRESSIONAL SONIC [DTED]
GRSED .GAPI  : GAMMA RAY FROM SONIC LOG [ADJ. TO RESISTIVITY LOG]
GRWS  .GAPI  : GAMMA RAY [GRSED]
ILDED .OHMM  : DEEP INDUCTION RESISTIVITY FROM RESISTIVITY LOG
ILMED .OHMM  : MEDIUM INDUCTION RESISTIVITY FROM RESISTIVITY LOG
LL8ED .OHMM  : LATEROLOG 8 FROM RESISTIVITY LOG
MRESWS.OHMM  : MEDIUM RESISTIVITY [ILMED]
SPRED .MV    : SPONTANEOUS POTENTIAL FROM RESISTIVITY LOG
SPWS  .MV    : SPONTANEOUS POTENTIAL [BASELINE 0 MV,SPRED]
SRESWS.OHMM  : SHALLOW RESISTIVITY [LL8ED]
~Params ----------------------------------------------------
PD  .                     GL : PERMANENT DATUM
EPD .FT                 2603 : ELEVATION PERMANENT DATUM
LMF .                     KB : LOG MEASURED FROM
DAPD.FT                   15 : FEET ABOVE PERMANENT DATUM
EKB .FT                 2618 : KELLY BUSHING
EGL .FT                 2603 : GROUND LEVEL
DATE.               02/21/73 : RUN DATE
RUN .                      1 : RUN NUMBER
DD  .FT                 9904 : DEPTH DRILLER
DL  .FT                 9905 : DEPTH LOGGER
BLI .FT                 9902 : BOTTOM LOG INTERVAL
TLI .FT                  994 : TOP LOG INTERVAL
CBD .FT                  993 : CASING BOTTOM DRILLER
CBL .FT                  994 : CASING BOTTOM LOGGER
BS  .IN                 8.75 : BIT SIZE
BSD .FT                 9904 : BIT SIZE AT DEPTH
DFT .                    GEL : DRILLING FLUID TYPE
DFD .                    9.4 : DRILLING FLUID DENSITY
DFV .                    310 : DRILLING FLUID VISCOSITY
DFPH.                   10.5 : DRILLING FLUID PH
DFL .                    7.2 : DRILLING FLUID LOSS
MSS .             CIRCULATED : MUD SAMPLE SOURCE
RMS .OHMM               1.85 : RESISTIVITY MUD SAMPLE
MST .DEGF                 58 : MUD SAMPLE TEMPERATURE
RMF .OHMM               1.56 : RESISTIVITY MUD FILTRATE SAMPLE
MFST.DEGF                 68 : MUD FILTRATE SAMPLE TEMPERATURE
RMC .OHMM                1.5 : RESISTIVITY MUD CAKE
MCST.DEGF                 58 : MUD CAKE SAMPLE TEMPERATURE
RMB .OHMM               0.56 : RESISTIVITY MUD AT BHT
TCS .HRS                   3 : TIME CIRCULATED STOPPED
LUN .                   7667 : LOGGING UNIT NUMBER
LUL .                  LLOYD : LOGGING UNIT LOCATION
ENGI.                  LEWIS : RECORDING ENGINEER
WITN.                 HARRIS : WITNESSED BY
CLNT.                A2DTECH : CLIENT CODE
ORIG.            2" 5" PRINT : ORIGIN OF DATA
UWI .       100102506620W500 : UNIQUE WELL ID
DICO. A2D Technologies, Inc. : DIGITIZING COMPANY
~Other -----------------------------------------------------
DILL-BCS LOG RUN
ALL DATA FROM TOP TO 4000' FROM  2" SECTION
~ASCII -----------------------------------------------------
# ...
 3100.00000    9.41380    9.41380  141.92500  164.24140    6.08860  102.78450  102.78450   96.31400   96.31400    6.08860    -999.25    6.41150    -999.25 -346.14340   -5.21430    6.41150
 3150.00000   10.33290   10.33290  128.61580  149.55280    6.68660  100.78980  100.78980   92.88840   92.88840    6.68660    -999.25    7.20600    -999.25 -346.23590   -6.16280    7.20600
 3200.00000   10.70350   10.70350  151.72530  175.72220    5.69080  101.17640  101.17640   95.66550   95.66550    5.69080    -999.25    6.52500    -999.25 -345.09380   -5.87680    6.52500
 3250.00000   10.03270   10.03270  145.76120  170.03620    5.88110  101.24410  101.24410   94.91980   94.91980    5.88110    -999.25    6.87690    -999.25 -343.95640   -5.59550    6.87690
 3300.00000   10.21000   10.21000  169.86710  203.15950    4.92260  104.84790  104.84790  107.38840  107.38840    4.92260    -999.25    6.25530    -999.25 -342.99970   -5.49050    6.25530
 3350.00000   10.04280   10.04280  176.41540  208.88600    4.78730  106.56240  106.56240  105.86990  105.86990    4.78730    -999.25    6.43210    -999.25 -341.74870   -5.09990    6.43210
 3400.00000    9.79100    9.79100  175.62260  206.71410    4.83760  108.57710  108.57710  112.18640  112.18640    4.83760    -999.25    6.59780    -999.25 -340.49540   -4.70260    6.59780
 3450.00000    9.11640    9.11640  141.03490  165.05460    6.05860  110.13090  110.13090  138.28750  138.28750    6.05860    -999.25    9.40060    -999.25 -340.69550   -5.75880    9.40060
 3500.00000    9.22760    9.22760  162.42520  195.40030    5.11770  107.97410  107.97410  128.39880  128.39880    5.11770    -999.25    7.78890    -999.25 -336.41660   -2.33600    7.78890
 3550.00000    9.25990    9.25990  163.89300  193.63270    5.16450  111.42880  111.42880  123.27700  123.27700    5.16450    -999.25    7.54650    -999.25 -336.82370   -3.63380    7.54650
 3600.00000    9.02580    9.02580  116.17170  129.79090    7.70470  112.20210  112.20210  167.89340  167.89340    7.70470    -999.25   13.67960    -999.25 -334.83320   -2.57160   13.67960
 3650.00000    9.48550    9.48550  127.30390  144.28140    6.93090   89.16520   89.16520   88.30340   88.30340    6.93090    -999.25    8.60100    -999.25 -336.33900   -5.00110    8.60100
 3700.00000    9.93700    9.93700  209.91260  251.55970    3.97520  109.18290  109.18290  110.06680  110.06680    3.97520    -999.25    5.38670    -999.25 -333.84180   -3.42760    5.38670
 3750.00000    9.78440    9.78440  185.52170  224.19510    4.46040   96.89350   96.89350  102.46540  102.46540    4.46040    -999.25    6.49770    -999.25 -334.81280   -5.32230    6.49770
 3800.00000    9.61230    9.61230  198.86090  234.33480    4.26740   99.61420   99.61420  109.24090  109.24090    4.26740    -999.25    5.81250    -999.25 -336.25110   -7.67970    5.81250
 3850.00000    9.20000    9.20000  162.80560  193.11730    5.17820   91.52320   91.52320  106.77680  106.77680    5.17820    -999.25    7.43180    -999.25 -331.91940   -4.27630    7.43180
 3900.00000    9.58490    9.58490  236.98020  291.24800    3.43350  104.25880  104.25880  108.46920  108.46920    3.43350    -999.25    4.85580    -999.25 -330.71050   -3.30600    4.85580
 3950.00000    9.60180    9.60180  258.23210  334.63840    2.98830  103.29260  103.29260   99.77350   99.77350    2.98830    -999.25    4.47340    -999.25 -336.20450   -4.96530    4.47340
 4000.00000    9.93330    9.93330  211.60760  225.27050    4.43910   97.14450   97.14450  100.77070  100.77070    4.64830    4.33820    5.99520    4.33820 -334.90290   -4.20760    5.99520
 4050.00000    9.58690    9.58690    -999.25  214.24360    4.66760  101.80860  101.80860  109.22110  109.22110    4.66760    4.57800    5.95640    4.57800 -334.40980   -4.25570    5.95640
 4100.00000    9.61080    9.61080    -999.25  353.59430    2.82810  122.25140  122.25140  156.58110  156.58110    2.82810    2.66650    4.19350    2.66650 -333.06490   -3.45740    4.19350
 4150.00000   10.00990   10.00990    -999.25  449.19590    2.22620  143.82410  143.82410   98.95050   98.95050    2.22620    1.99260    2.94750    1.99260 -332.20860   -3.14500    2.94750
 4200.00000   10.50920   10.50920    -999.25  368.56850    2.71320  119.50160  119.50160  104.20090  104.20090    2.71320    2.65940    3.63430    2.65940 -332.23660   -3.71690    3.63430
 4250.00000    9.91680    9.91680    -999.25  236.46810    4.22890   98.45880   98.45880   97.45550   97.45550    4.22890    4.30540    5.13750    4.30540 -331.74390   -3.76810    5.13750
 4300.00000   10.46730   10.46730    -999.25  340.20730    2.93940  107.47530  107.47530  104.35270  104.35270    2.93940    2.99920    3.96330    2.99920 -329.60940   -2.17470    3.96330
 4350.00000    9.32000    9.32000    -999.25  103.62050    9.65060   79.11100   79.11100   50.73980   50.73980    9.65060   11.18510   15.43870   11.18510 -340.95170  -14.06370   15.43870
 4400.00000   10.50420   10.50420    -999.25  348.04400    2.87320  115.97090  115.97090   88.60620   88.60620    2.87320    2.96610    3.60670    2.96610 -328.98130   -2.63720    3.60670
 4450.00000    9.54050    9.54050    -999.25  144.92960    6.89990   86.61160   86.61160   75.29370   75.29370    6.89990    7.28800    9.03640    7.28800 -337.52730  -11.94480    9.03640
 4500.00000    8.60330    8.60330    -999.25   94.34670   10.59920   88.28580   88.28580   31.86680   31.86680   10.59920   14.39690   19.46920   14.39690 -384.95420  -60.19480   19.46920
 4550.00000    9.75210    9.75210    -999.25  141.20150    7.08480  124.01550  124.01550   69.81540   69.81540    7.08480    7.51850   20.10640    7.51850 -327.81660   -3.87620   20.10640
 4600.00000    9.95290    9.95290    -999.25  171.09230    5.84480   89.20190   89.20190   75.16400   75.16400    5.84480    7.43070   10.80910    7.43070 -358.04330  -34.93010   10.80910
 4650.00000   10.01320   10.01320    -999.25  136.37170    7.33290   86.68840   86.68840   77.02140   77.02140    7.33290    7.94110   11.92310    7.94110 -340.91970  -18.62960   11.92310
 4700.00000    9.33080    9.33080    -999.25   90.25270   11.08000   81.42920   81.42920   70.54870   70.54870   11.08000   12.06560   13.06040   12.06560 -328.36370   -6.89670   13.06040
 4750.00000    9.59590    9.59590    -999.25  123.70570    8.08370   70.56790   70.56790   85.34720   85.34720    8.08370    8.71400   13.99050    8.71400 -324.94450   -4.22030   13.99050
 4800.00000    9.78280    9.78280    -999.25  164.95350    6.06340   69.58060   69.58060   66.35830   66.35830    6.06340    6.46700   10.37920    6.46700 -345.28600  -24.84880   10.37920
 4850.00000   10.09930   10.09930    -999.25  202.69170    4.93360   70.56840   70.56840   76.50420   76.50420    4.93360    5.02540    7.09500    5.02540 -326.81070   -6.66330    7.09500
 4900.00000    9.89170    9.89170    -999.25  210.34030    4.75420   69.22630   69.22630   81.16580   81.16580    4.75420    6.21480   12.55720    6.21480 -358.54770  -38.68870   12.55720
 4950.00000    9.96180    9.96180    -999.25  168.90180    5.92060   63.56060   63.56060   65.04520   65.04520    5.92060    7.95140   16.83350    7.95140 -366.43930  -46.86870   16.83350
 5000.00000   10.11010   10.11010    -999.25  181.86120    5.49870   72.37740   72.37740   82.09780   82.09780    5.49870    5.81210    7.44270    5.81210 -333.01450  -13.73220    7.44270
 5050.00000   10.09460   10.09460    -999.25  220.83140    4.52880   69.50630   69.50630   63.71410   63.71410    4.52880    6.60580   17.63620    6.60580 -386.17090  -67.17560   17.63620
 5100.00000   10.02350   10.02350    -999.25  208.92530    4.78640   70.83120   70.83120   76.69710   76.69710    4.78640    5.03920    5.69690    5.03920 -337.14650  -18.44100    5.69690
 5150.00000    9.66400    9.66400    -999.25  160.53680    6.22910   72.82670   72.82670  119.75730  119.75730    6.22910    6.51190    8.20290    6.51190 -321.99350   -3.57640    8.20290
 5200.00000    9.89970    9.89970    -999.25  186.08810    5.37380   73.89220   73.89220   92.94030   92.94030    5.37380    5.89710    7.99420    5.89710 -319.99470   -2.70470    7.99420
