~Version ---------------------------------------------------
VERS.      2.0 : CWLS log ASCII Standard -VERSION 2.0
WRAP.       NO : One line per depth step
CREA. 12/11/17 : LAS Creation Date
~Well ------------------------------------------------------
STRT.FT                         300.0 : START DEPTH
STOP.FT                        7450.0 : STOP DEPTH
STEP.FT                      50.00000 : STEP LENGTH
NULL.                         -999.25 : NULL VALUE
COMP.         BRALORNE RESOURCES LTD. : COMPANY
WELL. BRALORNE ET AL HEARTR 9-1-77-16 : WELL
FLD .                                 : FIELD
LOC .                                 : LOCATION
CTRY.                          CANADA : COUNTRY
SRVC.                         Unknown : SERVICE COMPANY
DATE.                     01-Apr-1977 : LOGDATE
PROV.                         Alberta : PROVINCE
UWI .                100090107716W500 : UNIQUE WELL ID
SLAT.WGS84                   55.64558 : SURFACE LATITUDE
SLON.WGS84                  -116.3326 : SURFACE LONGITUDE
~Curve Information -----------------------------------------
DEPT    .FT    : Depth Curve
CALDED  .IN    : CALIPER FROM DENSITY LOG [ADJ. TO RESISTIVITY LOG]
CALWS   .IN    : CALIPER [CALDED]
CONDWS  .MMHO  : CONDUCTIVITY [1000/DRESWS]
DCORWS  .G/C3  : DENSITY CORRECTION [DRHOED]
DENWS   .G/C3  : FORMATION BULK DENSITY [CALC. FROM DPOLSWS M=2.71, F=1.00]
DPHILSED.V/V   : DENSITY POROSITY LIMESTONE  [M=2.71, F=1.00]  FROM DENSITY LOG [ADJ. TO RESISTIVITY LOG]
DPHISSED.V/V   : DENSITY POROSITY SANDSTONE [M=2.65, F=1.00] FROM DENSITY LOG [ADJ. TO RESISTIVITY LOG]
DPOLSWS .V/V   : DENSITY POROSITY SANDSTONE [DPHISSED CONVERTED TO LIMESTONE MATRIX, M=2.71, F=1.00, SPL. TO DPHILSED @ 2694']
DRESWS  .OHMM  : DEEP RESISTIVITY [ILDED]
DRHOED  .G/C3  : BULK DENSITY CORRECTION FROM DENSITY LOG [ADJ. TO RESISTIVITY LOG/DPHISSED/DPHILSED] [DRHOED*1000]
GRDED   .GAPI  : GAMMA RAY FROM DENSITY LOG [ADJ. TO RESISTIVITY LOG]
GRWS    .GAPI  : GAMMA RAY [GRDED]
ILDED   .OHMM  : DEEP INDUCTION FROM RESISTIVITY LOG
ILMED   .OHMM  : MEDIUM INDUCTION FROM RESISTIVITY LOG
LL8ED   .OHMM  : LATEROLOG 8 FROM RESISTIVITY LOG
MRESWS  .OHMM  : MEDIUM RESISTIVITY [ILMED]
NPHILSED.V/V   : NEUTRON POROSITY LIMESTONE FROM DENSITY LOG [ADJ. TO RESISTIVITY LOG]
NPHISSED.V/V   : NEUTRON POROSITY SANDSTONE FROM DENSITY LOG [ADJ. TO RESISTIVITY LOG]
NPOLSWS .V/V   : NEUTRON POROSITY LIMESTONE [NPHISSED MATRIX CONVERSION FOR LIMESTONE FROM SCHLUMBERGER (CNL), SPL. TP NPHILSED @ 2694']
RHOBED  .G/C3  : BULK DENSITY FROM DENSITY LOG [ADJ. TO RESISTIVITY LOG/DPHISSED/DPHILSED]
SPRED   .MV    : SPONTANEOUS POTENTIAL FROM RESISTIVITY LOG
SPWS    .MV    : SPONTANEOUS POTENTIAL [BASELINE 0 MV, SPRED]
SRESWS  .OHMM  : SHALLOW RESISTIVITY [LL8ED]
~Params ----------------------------------------------------
PD  .                     GL : PERMANENT DATUM
EPD .FT               2310.5 : ELEVATION PERMANENT DATUM
LMF .                     KB : LOG MEASURED FROM
DAPD.FT                 14.4 : FEET ABOVE PERMANENT DATUM
EKB .FT               2324.9 : KELLY BUSHING
EGL .FT               2310.5 : GROUND LEVEL
DATE.               04/01/77 : RUN DATE
RUN .                      1 : RUN NUMBER
DD  .FT                 7520 : DEPTH DRILLER
DL  .FT                 7486 : DEPTH LOGGER
BLI .FT                 7480 : BOTTOM LOG INTERVAL
TLI .FT                  796 : TOP LOG INTERVAL
CBD .FT                  796 : CASING BOTTOM DRILLER
CBL .FT                  796 : CASING BOTTOM LOGGER
BS  .IN                7.875 : BIT SIZE
BSD .FT                 7520 : BIT SIZE AT DEPTH
DFT .              GEL BENEX : DRILLING FLUID TYPE
DFD .                    9.2 : DRILLING FLUID DENSITY
DFV .                     80 : DRILLING FLUID VISCOSITY
DFPH.                   10.5 : DRILLING FLUID PH
DFL .                     12 : DRILLING FLUID LOSS
MSS .             CIRCULATED : MUD SAMPLE SOURCE
RMS .OHMM               0.49 : RESISTIVITY MUD SAMPLE
MST .DEGF                 64 : MUD SAMPLE TEMPERATURE
RMF .OHMM               0.35 : RESISTIVITY MUD FILTRATE SAMPLE
MFST.DEGF                 66 : MUD FILTRATE SAMPLE TEMPERATURE
RMB .OHMM               0.17 : RESISTIVITY MUD AT BHT
TCS .HRS                 2.5 : TIME CIRCULATED STOPPED
LUN .                   7809 : LOGGING UNIT NUMBER
LUL .                    EDM : LOGGING UNIT LOCATION
ENGI.      CROCKFORD BUSHMAN : RECORDING ENGINEER
WITN.      KIRKPATRICK MOORE : WITNESSED BY
CLNT.                A2DTECH : CLIENT CODE
ORIG.            2" 5" PRINT : ORIGIN OF DATA
UWI .       100090107716W500 : UNIQUE WELL ID
DICO. A2D Technologies, Inc. : DIGITIZING COMPANY
~Other -----------------------------------------------------
DIL-CNFD LOG RUN
RHOBED & DRHOED VERIFY FROM 2" SCALE
~ASCII -----------------------------------------------------
  300.00000    -999.25    -999.25    -999.25    -999.25    -999.25    -999.25    -999.25    -999.25    -999.25    -999.25   65.23010   65.23010    -999.25    -999.25    -999.25    -999.25    -999.25    0.42690    0.38460    -999.25    -999.25    -999.25    -999.25
  350.00000    -999.25    -999.25    -999.25    -999.25    -999.25    -999.25    -999.25    -999.25    -999.25    -999.25   62.05690   62.05690    -999.25    -999.25    -999.25    -999.25    -999.25    0.39770    0.35480    -999.25    -999.25    -999.25    -999.25
  400.00000    -999.25    -999.25    -999.25    -999.25    -999.25    -999.25    -999.25    -999.25    -999.25    -999.25   70.29720   70.29720    -999.25    -999.25    -999.25    -999.25    -999.25    0.42960    0.38740    -999.25    -999.25    -999.25    -999.25
  450.00000    -999.25    -999.25    -999.25    -999.25    -999.25    -999.25    -999.25    -999.25    -999.25    -999.25  120.96560  120.96560    -999.25    -999.25    -999.25    -999.25    -999.25    0.49560    0.45560    -999.25    -999.25    -999.25    -999.25
  500.00000    -999.25    -999.25    -999.25    -999.25    -999.25    -999.25    -999.25    -999.25    -999.25    -999.25   68.25540   68.25540    -999.25    -999.25    -999.25    -999.25    -999.25    0.39160    0.34860    -999.25    -999.25    -999.25    -999.25
  550.00000    -999.25    -999.25    -999.25    -999.25    -999.25    -999.25    -999.25    -999.25    -999.25    -999.25   67.14850   67.14850    -999.25    -999.25    -999.25    -999.25    -999.25    0.36850    0.32510    -999.25    -999.25    -999.25    -999.25
  600.00000    -999.25    -999.25    -999.25    -999.25    -999.25    -999.25    -999.25    -999.25    -999.25    -999.25   69.44020   69.44020    -999.25    -999.25    -999.25    -999.25    -999.25    0.38460    0.34140    -999.25    -999.25    -999.25    -999.25
  650.00000    -999.25    -999.25    -999.25    -999.25    -999.25    -999.25    -999.25    -999.25    -999.25    -999.25   63.75740   63.75740    -999.25    -999.25    -999.25    -999.25    -999.25    0.32630    0.28240    -999.25    -999.25    -999.25    -999.25
  700.00000    -999.25    -999.25    -999.25    -999.25    -999.25    -999.25    -999.25    -999.25    -999.25    -999.25   79.04610   79.04610    -999.25    -999.25    -999.25    -999.25    -999.25    0.31430    0.27040    -999.25    -999.25    -999.25    -999.25
  750.00000    -999.25    -999.25    -999.25    -999.25    -999.25    -999.25    -999.25    -999.25    -999.25    -999.25   77.07650   77.07650    -999.25    -999.25    -999.25    -999.25    -999.25    0.33120    0.28740    -999.25    -999.25    -999.25    -999.25
  800.00000    9.04040    9.04040    -999.25    0.10130    2.42280    -999.25    0.13770    0.16800    -999.25    0.10130  117.31760  117.31760    -999.25    -999.25    -999.25    -999.25    -999.25    0.38430    0.34110    2.19010    -999.25    -999.25    -999.25
  850.00000    9.54830    9.54830  148.96900    0.09100    2.33900    -999.25    0.18850    0.21700    6.71280    0.09100  130.45900  130.45900    6.71280    6.25470    6.98840    6.25470    -999.25    0.43290    0.39080    2.11150  -76.71140  -10.76170    6.98840
  900.00000   11.58050   11.58050  145.53290    0.18930    2.42230    -999.25    0.13800    0.16820    6.87130    0.18930   97.62490   97.62490    6.87130    6.42350    7.34390    6.42350    -999.25    0.36680    0.32340    2.18280  -76.23760  -10.28790    7.34390
  950.00000    9.93640    9.93640  147.08200    0.11930    2.50610    -999.25    0.08720    0.11920    6.79910    0.11930  112.20020  112.20020    6.79910    6.25300    6.44630    6.25300    -999.25    0.30940    0.26540    2.26290  -79.40020  -13.45050    6.44630
 1000.00000   10.64340   10.64340  160.16140    0.07890    2.52810    -999.25    0.07390    0.10640    6.24370    0.07890   92.90920   92.90920    6.24370    6.63400    5.98650    6.63400    -999.25    0.30370    0.25970    2.29670  -77.22970  -11.28000    5.98650
 1050.00000   10.41660   10.41660  249.28330    0.09990    2.39560    -999.25    0.15420    0.18390    4.01150    0.09990  133.07760  133.07760    4.01150    3.34110    3.24940    3.34110    -999.25    0.38340    0.34020    2.14770  -78.34320  -12.39350    3.24940
 1100.00000   11.61700   11.61700  269.27380    0.08640    2.38640    -999.25    0.15980    0.18920    3.71370    0.08640  116.26430  116.26430    3.71370    3.44710    3.86680    3.44710    -999.25    0.38410    0.34100    2.15280  -75.81130   -9.86160    3.86680
 1150.00000   12.30230   12.30230  212.91090    0.08210    2.40860    -999.25    0.14630    0.17630    4.69680    0.08210  107.00740  107.00740    4.69680    4.55690    4.24120    4.55690    -999.25    0.36340    0.31990    2.16400  -78.60440  -12.65470    4.24120
 1200.00000   11.17780   11.17780  240.25670    0.06050    2.28280    -999.25    0.22260    0.24980    4.16250    0.06050  115.74430  115.74430    4.16250    3.69870    4.53230    3.69870    -999.25    0.38920    0.34610    2.04790  -70.12960   -4.17990    4.53230
 1250.00000   10.73860   10.73860  203.36360    0.10930    2.56190    -999.25    0.05340    0.08660    4.91730    0.10930  117.73270  117.73270    4.91730    4.69620    5.14490    4.69620    -999.25    0.31350    0.26960    2.31830  -79.91560  -13.96590    5.14490
 1300.00000   10.75930   10.75930  183.58390    0.06000    2.37040    -999.25    0.16940    0.19860    5.44710    0.06000  119.17440  119.17440    5.44710    4.88550    5.28190    4.88550    -999.25    0.34390    0.30020    2.12350  -75.32830   -9.37860    5.28190
 1350.00000   11.33280   11.33280  320.47700    0.07690    2.36760    -999.25    0.17120    0.20020    3.12180    0.07690  143.33750  143.33750    3.12180    2.89880    3.49770    2.89880    -999.25    0.35010    0.30650    2.12330  -74.00990   -8.06020    3.49770
 1400.00000   11.87640   11.87640  414.33600    0.10670    2.37990    -999.25    0.16370    0.19300    2.41350    0.10670  101.86220  101.86220    2.41350    2.25400    2.63560    2.25400    -999.25    0.36090    0.31740    2.12650  -80.66440  -14.71470    2.63560
 1450.00000   11.51970   11.51970  390.79970    0.11760    2.40130    -999.25    0.15080    0.18050    2.55900    0.11760  107.72790  107.72790    2.55900    2.42060    3.10310    2.42060    -999.25    0.39600    0.35310    2.15880  -79.32380  -13.37410    3.10310
 1500.00000   11.26560   11.26560  297.34470    0.11040    2.36550    -999.25    0.17240    0.20140    3.36310    0.11040  107.59060  107.59060    3.36310    3.19150    3.45100    3.19150    -999.25    0.35300    0.30940    2.10820  -75.56800   -9.61830    3.45100
 1550.00000    9.23130    9.23130  258.73220    0.11670    2.45280    -999.25    0.11950    0.15040    3.86500    0.11670  102.30900  102.30900    3.86500    3.65220    4.90940    3.65220    -999.25    0.36600    0.32260    2.22130  -68.25380   -2.32390    4.90940
 1600.00000    8.46620    8.46620  237.30950    0.09040    2.57950    -999.25    0.04280    0.07630    4.21720    0.09040   68.54700   68.54700    4.21720    5.31440    5.16930    5.31440    -999.25    0.30730    0.26330    2.35580  -81.89960  -16.20240    5.16930
 1650.00000    8.94270    8.94270  226.56210    0.10180    2.60570    -999.25    0.02680    0.06100    4.41380    0.10180  109.68910  109.68910    4.41380    5.04300    4.58720    5.04300    -999.25    0.30380    0.25990    2.36340  -73.29480   -7.82880    4.58720
 1700.00000    8.98060    8.98060  395.67860    0.11450    2.38710    -999.25    0.15940    0.18880    2.52900    0.11450  115.72610  115.72610    2.52900    2.68530    3.06230    2.68530    -999.25    0.35270    0.30910    2.14890  -69.92950   -4.69620    3.06230
 1750.00000    8.14570    8.14570  493.19390    0.00080    2.37630    -999.25    0.16590    0.19520    2.02760    0.00080   61.17660   61.17660    2.02760    2.37190    4.58290    2.37190    -999.25    0.29500    0.25100    2.13570  -94.32300  -29.32090    4.58290
 1800.00000    8.15990    8.15990  138.37380    0.00700    2.90310    -999.25   -0.15340   -0.11290    7.22680    0.00700   50.55430   50.55430    7.22680    8.23520   40.03890    8.23520    -999.25    0.01220   -0.01110    2.65310  -87.45100  -22.68010   40.03890
