~Version ---------------------------------------------------
VERS.      2.0 : CWLS log ASCII Standard -VERSION 2.0
WRAP.       NO : One line per depth step
CREA. 12/11/17 : LAS Creation Date
~Well ------------------------------------------------------
STRT.FT                        300.0 : START DEPTH
STOP.FT                      10150.0 : STOP DEPTH
STEP.FT                     50.00000 : STEP LENGTH
NULL.                        -999.25 : NULL VALUE
COMP.           PETROFINA CANADA LTD : COMPANY
WELL. FINA AMOCO HB PASSCK 7-2-62-17 : WELL
FLD .                                : FIELD
LOC .                                : LOCATION
CTRY.                         CANADA : COUNTRY
SRVC.                   Schlumberger : SERVICE COMPANY
DATE.                    14-Mar-1978 : LOGDATE
PROV.                        Alberta : PROVINCE
UWI .               100070206217W500 : UNIQUE WELL ID
SLAT.WGS84                  54.33347 : SURFACE LATITUDE
SLON.WGS84                 -116.4328 : SURFACE LONGITUDE
~Curve Information -----------------------------------------
DEPT    .FT    : Depth Curve
CALDED  .IN    : CALIPER FROM DENSITY LOG [ADJ. TO RESISTIVITY LOG]
CALSED  .IN    : CALIPER FROM SONIC LOG
CALWS   .IN    : CALIPER [CALDED SPL. TO CALSED FROM 1027'-2457']
CILDED  .MMHO  : CONDUCTIVITY FROM RESISTIVITY LOG
CONDWS  .MMHO  : CONDUCTIVITY [1000/DRESWS]
DCORWS  .G/C3  : DENSITY CORRECTION [DRHOED]
DENWS   .G/C3  : FORMATION BULK DENSITY [CALC. FROM DPOLSWS, M=2.71, F=1.00]
DPHILSED.V/V   : DENSITY POROSITY LIMESTONE [M=2.71, F=1.00] FROM DENSITY LOG [ADJ. TO RESISTIVITY LOG]
DPHISSED.V/V   : DENSITY POROSITY SANDSTONE [M=2.65, F=1.00] FROM DENSITY LOG [ADJ. TO RESISTIVITY LOG]
DPOLSWS .V/V   : DENSITY POROSITY LIMESTONE [DPHISSED CONVERTED TO LIMESTONE MATRIX, M=2.71, F=1.00 SPL.TO DPHILSED @ 6300']
DRESWS  .OHMM  : DEEP RESISTIVITY [ILDED]
DRHOED  .G/C3  : DENSITY CORRECTION FROM DENSITY LOG [ADJ. TO RESISTIVITY LOG]
DTED    .US/F  : DELTA TIME FROM SONIC LOG
DTWS    .US/F  : COMPRESSIONAL SONIC [DTED]
GRDED   .GAPI  : GAMMA RAY FROM DENSITY LOG [ADJ. TO RESISTIVITY LOG]
GRSED   .GAPI  : GAMMA RAY FROM SONIC LOG
GRWS    .GAPI  : GAMM RAY [GRDED SPL. TO GRSED @ 35'] GRWS IN CSG. (+25 GAPI) FROM (994'-1027')
ILDED   .OHMM  : DEEP INDUCTION LOG RESISTIVITY FROM RESISTIVITY LOG
ILMED   .OHMM  : MEDIUM INDUCTION LOG RESISTIVITY FROM RESISTIVITY LOG
LL8ED   .OHMM  : 8 INCH LATEROLOG RESISTIVITY FROM RESISTIVITY LOG
MRESWS  .OHMM  : MEDIUM RESISTIVITY [ILMED]
NPHILSED.V/V   : NEUTRON POROSITY LIMESTONE FROM DENSITY LOG [ADJ. TO RESISTIVITY LOG]
NPHISSED.V/V   : NEUTRON POROSITY SANDSTONE FROM DENSITY LOG [ADJ. TO RESISTIVITY LOG]
NPOLSWS .V/V   : NEUTRON POROSITY LIMESTONE [NPHISSED MATRIX (SLB) CONVERSION FOR LIMESTONE, SPL.TO NPHILSED @ 6300']
RHOBED  .G/C3  : BULK DENSITY FROM DENSITY LOG [ADJ. TO RESISTIVITY LOG]
SPRED   .MV    : SPONTANEOUS POTENTIAL FROM RESISTIVITY LOG
SPWS    .MV    : SPONTANEOUS POTENTIAL [BASELINE 0 MV, SPRED]
SRESWS  .OHMM  : SHALLOW RESISTIVITY [LL8ED]
~Params ----------------------------------------------------
PD  .                     GL : PERMANENT DATUM
EPD .FT               2914.3 : ELEVATION PERMANENT DATUM
LMF .                     KB : LOG MEASURED FROM
DAPD.FT                 17.6 : FEET ABOVE PERMANENT DATUM
EKB .FT               2931.9 : KELLY BUSHING
EGL .FT               2914.3 : GROUND LEVEL
DATE.               03/14/78 : RUN DATE
RUN .                      2 : RUN NUMBER
DD  .FT                10155 : DEPTH DRILLER
DL  .FT                10163 : DEPTH LOGGER
BLI .FT                10157 : BOTTOM LOG INTERVAL
TLI .FT                 1027 : TOP LOG INTERVAL
CBD .FT                 1028 : CASING BOTTOM DRILLER
CBL .FT                 1027 : CASING BOTTOM LOGGER
BS  .IN                 8.75 : BIT SIZE
BSD .FT                10155 : BIT SIZE AT DEPTH
DFT .               GEL CHEM : DRILLING FLUID TYPE
DFD .                    9.3 : DRILLING FLUID DENSITY
DFV .                     90 : DRILLING FLUID VISCOSITY
DFPH.                     11 : DRILLING FLUID PH
DFL .                    9.0 : DRILLING FLUID LOSS
MSS .               FLOWLINE : MUD SAMPLE SOURCE
RMS .OHMM               1.87 : RESISTIVITY MUD SAMPLE
MST .DEGF                 74 : MUD SAMPLE TEMPERATURE
RMF .OHMM               1.52 : RESISTIVITY MUD FILTRATE SAMPLE
MFST.DEGF                 72 : MUD FILTRATE SAMPLE TEMPERATURE
RMB .OHMM               0.62 : RESISTIVITY MUD AT BHT
TCS .HRS                 3.5 : TIME CIRCULATED STOPPED
LUN .                   7730 : LOGGING UNIT NUMBER
LUL .                    EDM : LOGGING UNIT LOCATION
ENGI.               ACKERMAN : RECORDING ENGINEER
WITN.                 DAVIES : WITNESSED BY
CLNT.                A2DTECH : CLIENT CODE
ORIG.            2" 5" PRINT : ORIGIN OF DATA
UWI .       100070206217W500 : UNIQUE WELL ID
DICO. A2D Technologies, Inc. : DIGITIZING COMPANY
~Other -----------------------------------------------------
DIL-CNFD-BHC TOOLS RUN
DIL AND BHC TOOL CURVES FROM 1024' TO 2452' FROM 2" SCALE SECTION
~ASCII -----------------------------------------------------
# ...
 6550.00000    9.19370    9.38550    9.19370    -999.25   54.40020    0.08080    2.77040   -0.03530    -999.25   -0.03530   18.38230    0.08080   55.08430   55.08430   51.55070   58.45900   58.45900   18.38230   20.95520   26.59310   20.95520    0.12130    -999.25    0.12130    2.75820  -68.30060  -39.52020   26.59310
 6600.00000    9.39620    9.42680    9.39620    -999.25   64.67590    0.01220    2.79360   -0.04890    -999.25   -0.04890   15.46170    0.01220   56.01690   56.01690   65.98270   72.79250   72.79250   15.46170   14.64800   19.65230   14.64800    0.12560    -999.25    0.12560    2.78340  -66.60030  -38.30410   19.65230
 6650.00000   10.89520    9.74080   10.89520    -999.25  196.30550    0.16770    2.59700    0.06610    -999.25    0.06610    5.09410    0.16770   56.24240   56.24240   35.93340   40.42530   40.42530    5.09410    6.65460   17.49600    6.65460    0.13140    -999.25    0.13140    2.58350 -109.27730  -81.46220   17.49600
 6700.00000    9.50930    9.78870    9.50930    -999.25  192.21190    0.03260    2.67630    0.01970    -999.25    0.01970    5.20280    0.03260   60.58070   60.58070   40.94280   43.15070   43.15070    5.20280    4.83060   13.29950    4.83060    0.14400    -999.25    0.14400    2.66740 -103.71900  -76.38810   13.29950
 6750.00000    9.53530    9.78760    9.53530    -999.25    3.39590    0.02730    2.91430   -0.11950    -999.25   -0.11950  294.47070    0.02730   50.79200   50.79200    8.87520    8.86260    8.86260  294.47070  368.85800  529.87430  368.85800    0.00120    -999.25    0.00120    2.86530 -134.45790 -107.60810  529.87430
 6800.00000    9.35640    9.60160    9.35640    -999.25   63.98770    0.01840    2.68610    0.01400    -999.25    0.01400   15.62800    0.01840   51.57690   51.57690   14.95530   14.45220   14.45220   15.62800   25.12420  146.18330   25.12420    0.03790    -999.25    0.03790    2.70220 -190.25530 -163.88660  146.18330
 6850.00000    9.61590    9.90560    9.61590    -999.25   88.05060    0.16930    2.60400    0.06200    -999.25    0.06200   11.35710    0.16930   57.27690   57.27690   13.45350   13.37830   13.37830   11.35710   20.59950   75.04960   20.59950    0.09850    -999.25    0.09850    2.60080 -173.97000 -148.08550   75.04960
 6900.00000    9.69940    9.96180    9.69940    -999.25  224.52230    0.04790    2.72230   -0.00720    -999.25   -0.00720    4.45390    0.04790   63.24100   63.24100   82.56500   92.05080   92.05080    4.45390    5.51860    9.90090    5.51860    0.16800    -999.25    0.16800    2.70900  -72.36730  -46.96390    9.90090
 6950.00000    9.80650    9.97450    9.80650    -999.25  100.92320    0.01090    2.67360    0.02130    -999.25    0.02130    9.90940    0.01090   63.35770   63.35770  108.32630  119.27580  119.27580    9.90940   10.95170   12.59530   10.95170    0.16100    -999.25    0.16100    2.64720  -55.60720  -30.68800   12.59530
 7000.00000   10.04700    9.94860   10.04700    -999.25  331.04910    0.03190    2.65440    0.03250    -999.25    0.03250    3.02070    0.03190   61.05970   61.05970   43.42970   46.05410   46.05410    3.02070    3.23290    6.62770    3.23290    0.14520    -999.25    0.14520    2.64090 -112.75250  -88.31440    6.62770
 7050.00000    9.78370   10.17200    9.78370    -999.25   33.73600    0.03680    2.75100   -0.02400    -999.25   -0.02400   29.64190    0.03680   57.90610   57.90610   49.40400   49.23280   49.23280   29.64190   35.57890   49.55420   35.57890    0.09330    -999.25    0.09330    2.74470  -75.36780  -51.41080   49.55420
 7100.00000   10.12150    9.86680   10.12150    -999.25   33.52220    0.02740    2.71870   -0.00510    -999.25   -0.00510   29.83100    0.02740   56.66450   56.66450   48.13000   54.22030   54.22030   29.83100   28.66230   41.09620   28.66230    0.05280    -999.25    0.05280    2.70430  -66.25660  -42.78380   41.09620
 7150.00000    8.72430    9.41080    8.72430    -999.25   25.81350    0.08060    2.75210   -0.02460    -999.25   -0.02460   38.73940    0.08060   57.86650   57.86650   53.34990   49.57860   49.57860   38.73940   35.81460   67.95480   35.81460    0.06140    -999.25    0.06140    2.74190  -54.92110  -31.92940   67.95480
 7200.00000    9.72830    9.49790    9.72830    -999.25   38.64580    0.05600    2.74080   -0.01800    -999.25   -0.01800   25.89880    0.05600   56.48490   56.48490   41.15680   49.49790   49.49790   25.89880   28.18480   46.95050   28.18480    0.04050    -999.25    0.04050    2.72620  -32.83230  -10.32480   46.95050
 7250.00000    9.41580    9.27570    9.41580    -999.25   13.23590    0.01100    2.67990    0.01760    -999.25    0.01760   75.55220    0.01100   54.21920   54.21920   25.82190   26.07630   26.07630   75.55220   81.45420  160.81740   81.45420    0.02950    -999.25    0.02950    2.67320  -44.99970  -22.91700  160.81740
 7300.00000   10.91300    9.94610   10.91300    -999.25   22.20720    0.08040    2.61410    0.05610    -999.25    0.05610   45.03050    0.08040   55.73800   55.73800   37.56510   37.44830   37.44830   45.03050   42.47660   94.78700   42.47660    0.04050    -999.25    0.04050    2.61220  -43.62930  -21.81890   94.78700
 7350.00000    8.82280    9.15690    8.82280    -999.25   22.89610    0.01360    2.70440    0.00330    -999.25    0.00330   43.67560    0.01360   56.75670   56.75670   59.64670   59.67410   59.67410   43.67560   41.33580   72.86120   41.33580    0.05120    -999.25    0.05120    2.69430  -28.26530   -6.72900   72.86120
 7400.00000    8.80690    9.32150    8.80690    -999.25    0.63130    0.01930    2.70660    0.00200    -999.25    0.00200 1584.03660    0.01930   54.28280   54.28280   39.40090   44.66260   44.66260 1584.03660  891.90350  722.34250  891.90350    0.03240    -999.25    0.03240    2.70650  -68.31090  -47.04700  722.34250
 7450.00000   14.22670   11.52470   14.22670    -999.25    3.66670    0.20570    2.35160    0.20960    -999.25    0.20960  272.73620    0.20570   53.14980   53.14980   21.49130   20.95040   20.95040  272.73620  102.44390  510.91490  102.44390    0.03050    -999.25    0.03050    2.36470  -65.68310  -44.69330  510.91490
 7500.00000    9.13020    9.56550    9.13020    -999.25    3.90130    0.00450    2.69110    0.01100    -999.25    0.01100  256.32340    0.00450   50.19750   50.19750   11.15490   13.69070   13.69070  256.32340  187.61330  382.76440  187.61330    0.00480    -999.25    0.00480    2.68490  -88.48610  -67.76860  382.76440
 7550.00000    9.24800    9.73890    9.24800    -999.25    5.06660    0.01230    2.69170    0.01070    -999.25    0.01070  197.37270    0.01230   51.70340   51.70340   11.94410   12.09870   12.09870  197.37270  120.86100  176.62900  120.86100    0.00900    -999.25    0.00900    2.67950 -134.18780 -113.74260  176.62900
 7600.00000    9.18550    9.48010    9.18550    -999.25    1.12920    0.04470    2.74200   -0.01870    -999.25   -0.01870  885.56430    0.04470   49.36700   49.36700   18.86500   19.83460   19.83460  885.56430  337.48860  506.82860  337.48860    0.00370    -999.25    0.00370    2.73930 -107.93650  -87.76550  506.82860
 7650.00000    9.30960    9.37410    9.30960    -999.25    7.95110   -0.00620    2.66390    0.02700    -999.25    0.02700  125.76920   -0.00620   50.02550   50.02550   11.03710   11.97260   11.97260  125.76920  113.06280  157.96290  113.06280    0.00690    -999.25    0.00690    2.66480 -138.14330 -118.24460  157.96290
 7700.00000   11.69230    9.82710   11.69230    -999.25    2.63680    0.18650    2.63420    0.04430    -999.25    0.04430  379.26470    0.18650   48.24970   48.24970   11.50670   14.62940   14.62940  379.26470  355.92250  323.60260  355.92250    0.00120    -999.25    0.00120    2.62770 -128.45270 -108.82810  323.60260
 7750.00000    8.84330    9.16420    8.84330    -999.25    2.18180    0.03420    2.73360   -0.01380    -999.25   -0.01380  458.33010    0.03420   48.94360   48.94360   14.57400   19.11000   19.11000  458.33010  334.65360  504.32210  334.65360    0.00380    -999.25    0.00380    2.72650 -125.71110 -106.35880  504.32210
