~Version ---------------------------------------------------
VERS.      2.0 : CWLS log ASCII Standard -VERSION 2.0
WRAP.       NO : One line per depth step
CREA. 08/02/17 : LAS Creation Date
~Well ------------------------------------------------------
STRT.FT                        300.0 : START DEPTH
STOP.FT                      10200.0 : STOP DEPTH
STEP.FT                     50.00000 : STEP LENGTH
NULL.                        -999.25 : NULL VALUE
COMP.           IMPERIAL OIL LIMITED : COMPANY
WELL. IMPERIAL GOOSE RIVER 2-1-67-19 : WELL
FLD .                                : FIELD
LOC .                                : LOCATION
CTRY.                         CANADA : COUNTRY
SRVC.                   Schlumberger : SERVICE COMPANY
DATE.                    10-Mar-1960 : LOGDATE
PROV.                        Alberta : PROVINCE
UWI .               100020106719W500 : UNIQUE WELL ID
SLAT.WGS84                  54.76551 : SURFACE LATITUDE
SLON.WGS84                 -116.7556 : SURFACE LONGITUDE
~Curve Information -----------------------------------------
DEPT  .FT         : Depth Curve
CALWS .IN         : CALIPER [MCALED]
CILDED.MMHO       : DEEP INDUCTION CONDUCTIVITY FROM IEL LOG
CONDWS.MMHO       : CONDUCTIVITY [1000/DRESWS]
DRESWS.OHMM       : DEEP RESISTIVITY [CALCULATED FROM 1000/CONDWS, IF ILDED<1, ILDED]
DTED  .US/F       : DELTA-T (INTERVAL TRANSIT TIME) FROM SONIC LOG
DTWS  .US/F       : COMPRESSIONAL  SONIC [DTED]
GRSED .UgRa-Eq/T  : GAMMA RAY FROM SONIC LOG
GRWS  .GAPI       : GAMMA RAY [GRSED*16.50]
ILDED .OHMM       : DEEP INDUCTION FROM IEL LOG
MCALED.IN         : MICROLOG CALIPER FROM MLL LOG
SNED  .OHMM       : SHORT NORMAL INDUCTION FROM IEL LOG
SPRED .MV         : SPONTANEOUS POTENTIAL FROM IEL LOG
SPWS  .MV         : SPONTANEOUS POTENTIAL [BASELINE 0 MV, SPRED]
SRESWS.OHMM       : SHALLOW RESISTIVITY [SNED]
~Params ----------------------------------------------------
LMF .                     KB : LOG MEASURED FROM
DMF .                     KB : DRILLING MEASURED FROM
EKB .FT                 2467 : KELLY BUSHING
DATE.               03/10/60 : RUN DATE
RUN .                      1 : RUN NUMBER
DD  .FT                10228 : DEPTH DRILLER
DL  .FT                10340 : DEPTH LOGGER
BLI .FT                10335 : BOTTOM LOG INTERVAL
TLI .FT                  983 : TOP LOG INTERVAL
CBD .FT                  983 : CASING BOTTOM DRILLER
CBL .FT                  983 : CASING BOTTOM LOGGER
BS  .IN                    9 : BIT SIZE
BSD .FT                10228 : BIT SIZE AT DEPTH
DFT .                    GEL : DRILLING FLUID TYPE
DFD .                   10.1 : DRILLING FLUID DENSITY
DFV .                    150 : DRILLING FLUID VISCOSITY
DFPH.                    9.5 : DRILLING FLUID PH
DFL .                   10.2 : DRILLING FLUID LOSS
MSS .               FILTRATE : MUD SAMPLE SOURCE
RMS .OHMM                1.6 : RESISTIVITY MUD SAMPLE
MST .DEGF                 60 : MUD SAMPLE TEMPERATURE
RMF .OHMM               0.94 : RESISTIVITY MUD FILTRATE SAMPLE
MFST.DEGF                 72 : MUD FILTRATE SAMPLE TEMPERATURE
RMC .OHMM                1.4 : RESISTIVITY MUD CAKE
MCST.DEGF                 58 : MUD CAKE SAMPLE TEMPERATURE
RMB .OHMM               0.43 : RESISTIVITY MUD AT BHT
TCS .HRS                 500 : TIME CIRCULATED STOPPED
LUN .                   1511 : LOGGING UNIT NUMBER
LUL .                     DC : LOGGING UNIT LOCATION
ENGI.             RICHARDSON : RECORDING ENGINEER
WITN.                FLEWITT : WITNESSED BY
CLNT.                A2DTECH : CLIENT CODE
ORIG.            2" 5" PRINT : ORIGIN OF DATA
UWI .       100020106719W500 : UNIQUE WELL ID
DICO. A2D Technologies, Inc. : DIGITIZING COMPANY
~Other -----------------------------------------------------
~ASCII -----------------------------------------------------
# ...
 5200.00000   10.21120  351.31110  483.93340    2.06640  102.30970  102.30970    6.05480   99.90420    2.06640   10.21120    6.13800 -112.82320  -30.68200    6.13800
 5250.00000   11.38390   90.15540   96.59600   10.35240   98.01430   98.01430    9.34240  154.14960   10.35240   11.38390   24.93280 -122.57040  -42.61260   24.93280
 5300.00000    8.75140    8.39500    6.39400  156.39600   63.74350   63.74350    3.41410   56.33270  156.39600    8.75140  119.56890 -149.07150  -71.29720  119.56890
 5350.00000    7.39640   86.58600   92.36680   10.82640   74.17630   74.17630    3.52550   58.17070   10.82640    7.39640   26.01080 -204.48990 -128.89900   26.01080
 5400.00000    8.66820  181.00470  205.27980    4.87140   68.76510   68.76510    5.75440   94.94760    4.87140    8.66820   12.36720 -158.49750  -85.09000   12.36720
 5450.00000    8.31470  182.30600  210.34920    4.75400   69.09880   69.09880    5.99810   98.96860    4.75400    8.31470   16.00240 -151.24930  -80.02530   16.00240
 5500.00000    8.35990  166.53580  187.90630    5.32180   58.90540   58.90540    4.33310   71.49620    5.32180    8.35990   15.00450 -147.18360  -78.14300   15.00450
 5550.00000    8.76510  192.82280  221.92140    4.50610   60.61270   60.61270    2.79560   46.12740    4.50610    8.76510   17.25660 -188.40210 -121.54500   17.25660
 5600.00000    8.42130   26.94230   20.71320   48.27830   48.87390   48.87390    2.69850   44.52530   48.27830    8.42130   54.79420 -139.66750  -74.99380   54.79420
 5650.00000    7.80930  236.38980  281.06470    3.55790   59.76740   59.76740    2.97220   49.04130    3.55790    7.80930   20.72280 -208.94070 -146.45040   20.72280
 5700.00000    8.94500   40.59330   39.94220   25.03620   53.59840   53.59840    1.66210   27.42470   25.03620    8.94500   34.65840 -142.34770  -82.04090   34.65840
 5750.00000    9.03520   22.16040   18.29370   54.66370   55.30150   55.30150    3.54970   58.57010   54.66370    9.03520   52.57490  -64.62390   -6.50050   52.57490
 5800.00000    8.73710   17.02750   14.62530   68.37470   52.03140   52.03140    2.47970   40.91500   68.37470    8.73710   52.12810  -71.09610  -13.55490   52.12810
 5850.00000    8.72050  226.44660  268.77390    3.72060   65.33830   65.33830    3.51490   57.99580    3.72060    8.72050   14.58910 -136.82060  -79.72240   14.58910
 5900.00000    9.82580  191.36850  222.21730    4.50010   63.96630   63.96630    2.66810   44.02360    4.50010    9.82580   15.86870 -144.77780  -88.12260   15.86870
 5950.00000    9.48500  116.73910   85.67000   11.67270   59.75290   59.75290    3.07180   50.68470   11.67270    9.48500   22.33850 -117.99400  -61.78170   22.33850
 6000.00000    9.64100    9.37760    7.96500  125.55000   55.03540   55.03540    1.55890   25.72190  125.55000    9.64100   89.63490 -167.81440 -112.04510   89.63490
 6050.00000    9.61190   31.04950   29.95200   33.38670   54.93920   54.93920    1.32260   21.82290   33.38670    9.61190   54.31930 -200.01410 -144.68770   54.31930
 6100.00000    9.85690   18.37430   15.24460   65.59680   51.00320   51.00320    1.66110   27.40810   65.59680    9.85690   63.49280 -173.36440 -118.48100   63.49280
 6150.00000    9.51590   53.22990   50.71770   19.71700   53.18030   53.18030    1.26310   20.84110   19.71700    9.51590   28.19830 -115.32230  -60.88190   28.19830
 6200.00000    9.02580  303.83230  381.86890    2.61870   69.02130   69.02130    5.17770   85.43200    2.61870    9.02580    6.65070  -93.85920  -39.86170    6.65070
 6250.00000    9.36260  127.95000  136.61760    7.31970   63.76600   63.76600    4.74680   78.32220    7.31970    9.36260   17.62610  -96.55480  -43.00030   17.62610
 6300.00000   10.20370  125.96330  118.89620    8.41070   64.51090   64.51090    4.77690   78.81890    8.41070   10.20370   17.37630 -108.56490  -55.45340   17.37630
 6350.00000    9.69720   95.93430   96.51210   10.36140   64.46770   64.46770    4.94590   81.60730   10.36140    9.69720   20.08460  -95.92830  -43.25970   20.08460
 6400.00000    8.68830   17.24070   15.74880   63.49680   57.33430   57.33430    2.40230   39.63790   63.49680    8.68830   55.92580 -118.68230  -66.45670   55.92580
 6450.00000    8.72570   13.34210   12.25540   81.59670   54.11020   54.11020    2.06110   34.00820   81.59670    8.72570   75.71120 -132.39440  -80.61180   75.71120
 6500.00000    8.42790   20.47000   18.42920   54.26160   59.54860   59.54860    2.83140   46.71810   54.26160    8.42790   50.25930 -119.00400  -67.66430   50.25930
 6550.00000    -999.25   28.34910   29.03930   34.43610   61.66570   61.66570    4.00830   66.13690   34.43610    -999.25   43.01900 -111.87380  -60.97710   43.01900
 6600.00000    -999.25   28.33240   27.40510   36.48960   63.09930   63.09930    3.87190   63.88640   36.48960    -999.25   44.24560 -115.56330  -65.10950   44.24560
 6650.00000    -999.25   23.42310   23.45860   42.62820   60.08710   60.08710    3.67100   60.57150   42.62820    -999.25   52.77670 -127.18340  -77.17260   52.77670
 6700.00000    -999.25   21.87610   21.93140   45.59670   58.65900   58.65900    4.06000   66.99000   45.59670    -999.25   51.93400 -128.23630  -78.66850   51.93400
 6750.00000    -999.25   14.57410   14.27450   70.05520   58.85220   58.85220    3.49980   57.74670   70.05520    -999.25   64.43110 -122.73370  -73.60880   64.43110
 6800.00000    8.34400    9.49280    8.90480  112.29840   51.93490   51.93490    1.97960   32.66340  112.29840    8.34400   96.27970 -139.31830  -90.63640   96.27970
 6850.00000    8.37220    7.03220    7.56910  132.11570   54.17190   54.17190    1.40520   23.18580  132.11570    8.37220  118.03520 -123.93460  -75.69570  118.03520
 6900.00000    8.34810   11.06570   10.90660   91.68790   52.96110   52.96110    1.67240   27.59460   91.68790    8.34810   87.46620 -165.62230 -117.82630   87.46620
 6950.00000    8.65270    5.73860    6.13170  163.08600   52.44740   52.44740    1.73630   28.64890  163.08600    8.65270  114.06440 -136.76010  -89.40710  114.06440
 7000.00000    8.65750    8.30730    6.44470  155.16580   52.79880   52.79880    1.61510   26.64910  155.16580    8.65750  115.04370 -136.85560  -89.94560  115.04370
 7050.00000    9.03030    8.35540    9.87340  101.28270   49.72610   49.72610    1.32650   21.88730  101.28270    9.03030   97.57930 -145.49870  -99.03160   97.57930
 7100.00000    9.01380    6.52710    7.04230  141.99990   50.70290   50.70290    1.62320   26.78280  141.99990    9.01380  115.63100 -164.05220 -118.02810  115.63100
 7150.00000    8.60230   16.25900   16.61740   60.17780   53.43050   53.43050    1.34430   22.18090   60.17780    8.60230   87.52090 -219.51140 -173.93020   87.52090
 7200.00000    8.29110    6.75390    5.80060  172.39520   51.56740   51.56740    1.38510   22.85420  172.39520    8.29110  112.22530 -192.85740 -147.71920  112.22530
 7250.00000    8.99550   17.88560   15.77680   63.38420   51.51720   51.51720    1.21220   20.00130   63.38420    8.99550   77.66470 -188.27960 -143.58440   77.66470
 7300.00000    8.98200    7.31070    8.19240  122.06420   50.01460   50.01460    1.42960   23.58840  122.06420    8.98200   93.63700 -187.73970 -143.48740   93.63700
 7350.00000    9.46260    9.86530   10.15360   98.48700   49.72820   49.72820    1.49730   24.70550   98.48700    9.46260  112.83710 -193.85040 -150.04110  112.83710
 7400.00000    9.87060   10.07920   10.18660   98.16850   48.77170   48.77170    1.66940   27.54510   98.16850    9.87060  131.86460 -189.60840 -146.24210  131.86460
 7450.00000    9.09090    9.43160    9.54310  104.78750   51.11480   51.11480    1.41730   23.38540  104.78750    9.09090  112.45500 -210.56410 -167.64070  112.45500
 7500.00000    8.32270   28.57420   30.90820   32.35390   55.49760   55.49760    1.22260   20.17290   32.35390    8.32270   73.70410 -271.88840 -229.40800   73.70410
 7550.00000    9.71540    6.09310    8.39140  119.17020   51.29920   51.29920    1.60690   26.51390  119.17020    9.71540  109.18520 -224.41520 -182.37780  109.18520
 7600.00000    8.86640  111.85610  118.26620    8.45550   54.92670   54.92670    3.10810   51.28360    8.45550    8.86640   16.07850 -174.76260 -133.16810   16.07850
