~Version ---------------------------------------------------
VERS.      2.0 : CWLS log ASCII Standard -VERSION 2.0
WRAP.       NO : One line per depth step
CREA. 11/15/17 : LAS Creation Date
~Well ------------------------------------------------------
STRT.FT                      1300.0 : START DEPTH
STOP.FT                     10750.0 : STOP DEPTH
STEP.FT                    50.00000 : STEP LENGTH
NULL.                       -999.25 : NULL VALUE
COMP.        PHILLIPS PETROLEUM CO. : COMPANY
WELL. PHILLIPS ATIKAMEG 10-17-65-19 : WELL
FLD .                            WC : FIELD
LOC .                               : LOCATION
CTRY.                        CANADA : COUNTRY
SRVC.                         Welex : SERVICE COMPANY
DATE.                   13-Apr-1959 : LOGDATE
PROV.                       Alberta : PROVINCE
UWI .              100101706519W500 : UNIQUE WELL ID
SLAT.WGS84                 54.62711 : SURFACE LATITUDE
SLON.WGS84                -116.8324 : SURFACE LONGITUDE
~Curve Information -----------------------------------------
DEPT  .FT    : Depth Curve
CALWS .IN    : CALIPER [MCALED]
CONDWS.MMHO  : CONDUCTIVITY [1000/DRESWS]
DRESWS.OHMM  : DEEP RESISTIVITY [LAT9ED]
GRNED .CPS   : GAMMA RAY FROM NEUTRON LOG
GRWS  .CPS   : GAMMA RAY [GRNED*15]
LAT9ED.OHMM  : LATERAL 9" FROM RESISTIVITY LOG
LT16ED.OHMM  : LATERAL 16"FROM RESISTIVITY LOG
MCALED.IN    : MICROLOG CALIPER FROM ML LOG [ADJ. TO RESISTIVITY LOG]
NEUTED.CPS   : NEUTRON FROM NEUTRON LOG
NEUTWS.CPS   : NEUTRON [NEUTED]
SNED  .OHMM  : SHORT NORMAL 18" FROM RESISTIVITY LOG
SPRED .MV    : SPONTANEOUS POTENTIAL FROM RESISTIVITY LOG
SPWS  .MV    : SPONTANEOUS POTENTIAL [BASELINE 0 MV,SPRED]
SRESWS.OHMM  : SHALLOW RESISTIVITY [SNED]
~Params ----------------------------------------------------
PD  .                                      CSF : PERMANENT DATUM
LMF .                                       KB : LOG MEASURED FROM
DAPD.FT                                     14 : FEET ABOVE PERMANENT DATUM
DMF .                                       KB : DRILLING MEASURED FROM
EKB .FT                                   2439 : KELLY BUSHING
EDF .FT                                 2436.5 : DRILLING FLOOR
EGL .FT                                   2426 : GROUND LEVEL
DATE.                                        1 : RUN DATE
RUN .                                 04/13/59 : RUN NUMBER
DD  .FT                                  10752 : DEPTH DRILLER
DL  .FT                                  10755 : DEPTH LOGGER
BLI .FT                                  10754 : BOTTOM LOG INTERVAL
TLI .FT                                   1303 : TOP LOG INTERVAL
CS  .IN                                 13.375 : CASING SIZE
CBD .FT                                   1304 : CASING BOTTOM DRILLER
CBL .FT                                   1303 : CASING BOTTOM LOGGER
BS  .IN                                      9 : BIT SIZE
BSD .FT                                  10752 : BIT SIZE AT DEPTH
DFT . OIL EMULSION GEL CAUSTIC RAYFLO DRISCOSE : DRILLING FLUID TYPE
DFD .                                     10.3 : DRILLING FLUID DENSITY
DFV .                                      144 : DRILLING FLUID VISCOSITY
DFPH.                                      9.5 : DRILLING FLUID PH
DFL .                                      4.8 : DRILLING FLUID LOSS
MSS .                               CIRCULATED : MUD SAMPLE SOURCE
RMS .OHMM                                  2.8 : RESISTIVITY MUD SAMPLE
MST .DEGF                                   60 : MUD SAMPLE TEMPERATURE
RMF .OHMM                                 1.46 : RESISTIVITY MUD FILTRATE SAMPLE
MFST.DEGF                                   70 : MUD FILTRATE SAMPLE TEMPERATURE
RMC .OHMM                                  2.6 : RESISTIVITY MUD CAKE
MCST.DEGF                                   68 : MUD CAKE SAMPLE TEMPERATURE
RMB .OHMM                                  2.8 : RESISTIVITY MUD AT BHT
ENGI.                                   FOWLER : RECORDING ENGINEER
WITN.                           HUNTER HANKINS : WITNESSED BY
CLNT.                                  A2DTECH : CLIENT CODE
ORIG.                              2" 5" PRINT : ORIGIN OF DATA
UWI .                         100101706519W500 : UNIQUE WELL ID
DICO.                   A2D Technologies, Inc. : DIGITIZING COMPANY
~Other -----------------------------------------------------
~ASCII -----------------------------------------------------
# ...
 8650.00000   14.83470  186.59320    5.35950   71.48400   71.48400    5.35950    6.47010   14.83470  271.71410  271.71410    3.26300 -176.60120 -155.51600    3.26300
 8700.00000   14.91750  233.60670    4.28070   86.73750   86.73750    4.28070    5.37530   14.91750  281.26350  281.26350    2.61760 -146.02990 -126.79630    2.61760
 8750.00000   14.80040  215.19260    4.64700   79.37650   79.37650    4.64700    6.40650   14.80040  267.91920  267.91920    2.95750 -125.88460 -108.49330    2.95750
 8800.00000   14.46060  236.56620    4.22720   81.94580   81.94580    4.22720    5.67690   14.46060  274.39430  274.39430    3.78010 -123.74380 -108.18560    3.78010
 8850.00000   11.04270   43.73130   22.86690   70.63160   70.63160   22.86690   21.10310   11.04270  407.09530  407.09530   13.24470 -123.36400 -109.65740   13.24470
 8900.00000   10.48730   49.12220   20.35840   78.30730   78.30730   20.35840   14.23830   10.48730  397.95810  397.95810   13.08010 -114.95060 -103.07710   13.08010
 8950.00000   10.52070   83.18080   12.02200   83.74480   83.74480   12.02200   10.66150   10.52070  392.64990  392.64990   10.51010 -108.23610  -98.21410   10.51010
 9000.00000   10.31330   59.60970   16.77580   72.96630   72.96630   16.77580   13.20930   10.31330  409.59850  409.59850   17.42450 -101.21760  -93.03790   17.42450
 9050.00000   11.04190   96.72450   10.33880   85.74210   85.74210   10.33880   10.79090   11.04190  359.03330  359.03330    9.39990  -92.38480  -86.03820    9.39990
 9100.00000   12.16190  100.67350    9.93310   90.17750   90.17750    9.93310   11.25790   12.16190  305.28770  305.28770    6.47170  -76.56540  -72.07040    6.47170
 9150.00000   10.19030  110.05100    9.08740   60.50630   60.50630    9.08740    8.78970   10.19030  435.94870  435.94870   12.44430  -50.53100  -47.86910   12.44430
 9200.00000   11.34160  103.82600    9.63150   89.73300   89.73300    9.63150    9.15290   11.34160  320.10640  320.10640    8.91370  -35.20080  -34.39040    8.91370
 9250.00000    9.59420    3.34570  298.89460   83.59080   83.59080  298.89460  244.49660    9.59420  400.76080  400.76080  112.56950  -13.70850  -14.74040  112.56950
 9300.00000    9.55990    3.81940  262.40350  159.63110  159.63110  262.40350  354.29980    9.55990  344.95560  344.95560   45.67100   -2.23110   -5.09610   45.67100
 9350.00000    9.66360   15.36310   65.09120   55.96730   55.96730   65.09120   56.97550    9.66360  463.39180  463.39180   27.79120   -3.90620   -6.45190   27.79120
 9400.00000   11.43570   43.00960   23.25810  109.84580  109.84580   23.25810   29.14180   11.43570  296.05250  296.05250   17.80360  -13.02080  -14.97270   17.80360
 9450.00000    9.87380    6.42270  155.69870   64.14470   64.14470  155.69870  173.11090    9.87380  342.10690  342.10690   28.58140  -46.20900  -47.56110   28.58140
 9500.00000   10.01410   12.38430   80.74760   31.74810   31.74810   80.74760   32.57730   10.01410  466.75500  466.75500   42.53400  -42.55410  -43.30930   42.53400
 9550.00000    9.59600   35.60320   28.10750   22.47900   22.47900   28.10750   25.16250    9.59600  577.64320  577.64320   55.10250  -33.82840  -33.98980   55.10250
 9600.00000    9.48960    2.75720  362.68190   36.33660   36.33660  362.68190  304.87040    9.48960  512.74570  512.74570   68.27100  -30.33690  -29.89850   68.27100
 9650.00000    9.61980    6.66040  150.23340   42.59100   42.59100  150.23340   81.06760    9.61980  472.38950  472.38950   84.37710  -26.60850  -25.57630   84.37710
 9700.00000    9.61140    3.05280  327.57290   20.62000   20.62000  327.57290  303.39770    9.61140  648.94310  648.94310  178.55670  -38.21460  -36.58250  178.55670
 9750.00000   10.38830    5.97500  167.36280   22.97650   22.97650  167.36280  378.34860   10.38830  608.10990  608.10990  139.58770  -77.33680  -75.10790  139.58770
 9800.00000    9.56610    4.82440  207.34220  128.71130  128.71130  207.34220  440.05260    9.56610  315.08920  315.08920   34.61630   -6.52850   -3.70580   34.61630
 9850.00000    9.18340  569.28160    1.75660  121.02940  121.02940    1.75660    3.56180    9.18340  369.77190  369.77190   40.35610  -20.62220  -15.94090   40.35610
 9900.00000    8.58720   10.80750   92.53820  109.53350  109.53350   92.53820   29.52660    8.58720  469.91590  469.91590   46.67690  -84.41730  -77.87700   46.67690
 9950.00000    8.58190   43.49810   22.98950  137.38760  137.38760   22.98950    7.08430    8.58190  462.84720  462.84720   18.66350 -104.68090  -96.26290   18.66350
 10000.00000    9.29170   37.47330   26.68570   39.15110   39.15110   26.68570    5.60610    9.29170  518.61940  518.61940   28.28790  -79.82000  -69.53370   28.28790
 10050.00000    9.59460   27.96190   35.86090  141.25140  141.25140   35.86090   26.13180    9.59460  447.93280  447.93280   28.85810  -16.50680   -4.36150   28.85810
 10100.00000   13.43360   46.70740   21.40990  143.01680  143.01680   21.40990   21.85740   13.43360  287.07370  287.07370    8.01580  -17.78890   -1.44880    8.01580
 10150.00000   14.82120   56.83210   17.59770  140.11280  140.11280   17.59770   15.99380   14.82120  267.81600  267.81600    6.71460  -27.13700   -6.45880    6.71460
 10200.00000   12.17150   39.88740   25.07060   94.41000   94.41000   25.07060   25.06150   12.17150  270.17350  270.17350   14.50230  -25.68810   -0.62820   14.50230
 10250.00000   10.23200    8.10850  123.32790   85.79470   85.79470  123.32790  125.92120   10.23200  363.94560  363.94560   24.51290  -52.51070  -23.09090   24.51290
 10300.00000    9.02000  118.07280    8.50630   30.29630   30.29630    8.50630    2.89640    9.02000  636.07550  636.07550   25.37360 -111.34180  -77.58390   25.37360
 10350.00000    9.32130  459.01040    2.17860   46.12400   46.12400    2.17860    2.36360    9.32130  451.32990  451.32990    6.82590 -114.78830  -76.64860    6.82590
 10400.00000    9.94540  107.98840    9.26720   59.71750   59.71750    9.26720   11.88310    9.94540  469.98150  469.98150   18.03320  -66.50580  -24.02810   18.03320
 10450.00000    9.13210   21.89940   45.66330   33.61420   33.61420   45.66330   25.37000    9.13210  518.62100  518.62100   43.97680  -97.34650  -50.48700   43.97680
 10500.00000    9.27430   58.68270   17.04080  150.41420  150.41420   17.04080   17.93650    9.27430  465.70620  465.70620   31.23490  -79.99670  -28.77730   31.23490
 10550.00000    9.27140   87.12330   11.49390  199.98570  199.98570   11.49390   11.82360    9.27140  388.95800  388.95800   10.94000  -68.09230  -12.53490   10.94000
 10600.00000    8.97490   74.42910   13.43560  200.58750  200.58750   13.43560    5.81460    8.97490  429.80320  429.80320   12.49250  -80.95730  -21.01810   12.49250
 10650.00000    8.85780   15.83990   63.57440  136.94810  136.94810   63.57440   52.67670    8.85780  460.09650  460.09650   10.71720 -111.67960  -47.40220   10.71720
 10700.00000    9.05550   36.38370   27.48480   65.49650   65.49650   27.48480   16.93100    9.05550  471.96870  471.96870   49.31890  -74.49060   -5.83160   49.31890
 10750.00000    9.17910   19.49800   51.28720    -999.25    -999.25   51.28720   39.06210    9.17910  619.26090  619.26090  268.20660  -74.43330   -5.42550  268.20660
