~Version ---------------------------------------------------
VERS. 2.0 : CWLS log ASCII Standard -VERSION 2.0
WRAP.  NO : ONE LINE PER DEPTH STEP
~Well ------------------------------------------------------
STRT.F                             1100.0 : START DEPTH
STOP.F                            10550.0 : STOP DEPTH
STEP.F                           50.00000 : STEP LENGTH
NULL.                             -999.25 : NULL VALUE
COMP.                CHEVRON STANDARD LTD : COMPANY
WELL. CHEVRON GULF SHININGBANK 3-13-56-15 : WELL
FLD .                                     : FIELD
LOC .                                     : LOCATION
CTRY.                              CANADA : COUNTRY
SRVC.              Schlumberger of Canada : SERVICE COMPANY
DATE.                         25-Oct-1976 : LOGDATE
PROV.                             Alberta : PROVINCE
UWI .                    100031305615W500 : UNIQUE WELL ID
SLAT.WGS84                       53.83559 : SURFACE LATITUDE
SLON.WGS84                      -116.0977 : SURFACE LONGITUDE
~Curve Information -----------------------------------------
DEPT   .F    0   1   0  0 : 1 MEASURED DEPTH
GRS    .GAPI 60 310 01 00 : GAMMA RAY FROM SONIC LOG
DT     .US/F 60 500 00 00 : DELTA-T (INTERVAL TRANSIT TIME)
CALS   .IN   60 280 50 00 : CALIPER FROM SONIC LOG
TENS   .LB   60 635 00 00 : TENSION FROM SONIC LOG
SPR    .MV   07 010 01 00 : SPONTANEOUS POTENTIAL FROM RESISTIVITY LOG
ILD    .OHMM 07 120 46 00 : INDUCTION DEEP RESISTIVITY
ILM    .OHMM 07 120 44 00 : INDUCTION MEDIUM RESISTIVITY
LL8    .OHMM 07 220 08 00 : LATEROLOG 8
TEND   .LB   45 635 00 00 : TENSION FROM DENSITY LOG
RHOB   .G/C3 45 350 01 00 : BULK DENSITY
DCOR   .G/C3 45 356 01 00 : DENSITY CORRECTION
GRD    .GAPI 45 310 01 00 : GAMMA RAY FROM DENSITY LOG
NPHI_SS.DEC  42 890 03 00 : NEUTRON POROSITY SANDSTONE
CALD   .IN   45 280 60 00 : CALIPER FROM DENSITY LOG
DPHI_SS.DEC  45 890 12 00 : DENSITY POROSITY SANDSTONE
NPHI_LS.DEC  42 890 01 00 : NEUTRON POROSITY LIMESTONE
DPHI_LS.DEC  45 890 10 00 : DENSITY POROSITY LIMESTONE
~Params ----------------------------------------------------
EKB .FT               2889.7 : KELLY BUSHING
EGL .FT               2873.6 : GROUND LEVEL
DATE.               10/25/76 : RUN DATE
RUN .                      1 : RUN NUMBER
DD  .FT                10595 : DEPTH DRILLER
DL  .FT                10593 : DEPTH LOGGER
BLI .FT                10592 : BOTTOM LOG INTERVAL
TLI .FT                 1094 : TOP LOG INTERVAL
CBD .FT               1094.6 : CASING BOTTOM DRILLER
CBL .FT                 1094 : CASING BOTTOM LOGGER
BS  .IN                 8.75 : BIT SIZE
BSD .FT                10595 : BIT SIZE AT DEPTH
DFT .               GEL CHEM : DRILLING FLUID TYPE
DFD .                    9.5 : DRILLING FLUID DENSITY
DFV .                    124 : DRILLING FLUID VISCOSITY
DFPH.                   10.5 : DRILLING FLUID PH
DFL .                     10 : DRILLING FLUID LOSS
RMC .OHMM               2.04 : RESISTIVITY MUD CAKE
MCST.DEGF                 56 : MUD CAKE SAMPLE TEMPERATURE
RMB .OHMM               0.41 : RESISTIVITY MUD AT BHT
TCS .HRS                   5 : TIME CIRCULATED STOPPED
LUN .                   7691 : LOGGING UNIT NUMBER
LUL .                    WCT : LOGGING UNIT LOCATION
ENGI.              CROCKFORD : RECORDING ENGINEER
WITN.        WONG RICHARDSON : WITNESSED BY
CLNT.                A2DTECH : CLIENT CODE
ORIG.            2" 5" PRINT : ORIGIN OF DATA
UWI .       100031305615W500 : UNIQUE WELL ID
DICO. A2D Technologies, Inc. : DIGITIZING COMPANY
~Other -----------------------------------------------------
~ASCII -----------------------------------------------------
# ...
 7250.00000   14.08740   50.50440   12.07110 1744.86630 -146.49870  214.47050  111.12310  220.13970 1634.30480    1.80600    0.14790   12.29550    -999.25   15.48190    -999.25    0.00930    0.45120
 7300.00000   10.04050   51.48070   10.05920 1966.42870 -172.41980   36.67930   56.83840  238.53360 1794.90860    2.52950    0.14020    9.73200    -999.25   10.36880    -999.25    0.01370    0.11450
 7350.00000   57.09670   56.99130    9.49970 2612.63260  -83.40250   10.32950   10.85530   13.22320 2019.25510    2.70130    0.00970   61.19400    -999.25    9.64490    -999.25    0.08320    0.02100
 7400.00000   61.89600   55.99860    9.25130 1275.00890  -82.10850   21.94480   23.26670   36.91680 2071.32590    2.71320    0.00570   60.65660    -999.25    9.55680    -999.25    0.06170   -0.00440
 7450.00000   34.42640   53.11920    9.70220 1476.42360 -109.67960   10.40420   14.50890   38.90160 2409.02510    2.71420    0.03430   32.49540    -999.25   10.10710    -999.25    0.04510   -0.00730
 7500.00000   34.30390   57.92070    9.60600 1634.04200  -77.96950   24.75360   28.19450   37.07500 1424.85730    2.71170    0.03180   38.27530    -999.25    9.92160    -999.25    0.04340    0.00660
 7550.00000   45.18850   55.45810    9.72280 1588.93540  -71.40630   48.75950   47.42120   58.76860 1332.35800    2.72360   -0.00020   46.39760    -999.25    9.81420    -999.25    0.02810   -0.02120
 7600.00000   35.94650   53.79910    9.28320 1751.36760  -70.85030   50.12500   58.79420   93.08830 1475.77190    2.66840    0.01210   34.91980    -999.25    9.47140    -999.25    0.01330    0.01480
 7650.00000   52.12120   59.22980    9.76390 1957.51200  -56.66110   24.19640   25.37550   32.21040 1674.95210    2.68210    0.00990   54.85720    -999.25    9.78340    -999.25    0.05420    0.01160
 7700.00000   47.03400   59.41070    9.72900 2146.20260  -60.55640   21.45320   22.17900   26.95910 1644.55250    2.70330    0.03040   46.00670    -999.25    9.80920    -999.25    0.04820    0.01290
 7750.00000   33.88160   54.61750    9.31060 1757.34230  -67.39370   51.30280   55.64390   80.82020 1786.98440    2.66670   -0.00200   34.01090    -999.25    9.51930    -999.25    0.01710    0.01760
 7800.00000   38.22210   54.54660    9.08490 1749.57960  -77.20460   82.73730   85.38040  122.93670  959.83700    2.71680   -0.00270   40.54650    -999.25    9.32690    -999.25    0.01160    0.01020
 7850.00000  166.00910   69.45760    9.31950 1872.98860  -78.77060   27.91900   33.25040   27.46040 1132.90210    2.60100    0.00620  192.98780    -999.25    9.40220    -999.25    0.16650    0.03740
 7900.00000   20.34990   49.98660    9.09760 1986.09480 -101.10850  464.77070  320.46400  537.03420 1344.12990    2.64930    0.01700   22.08980    -999.25    9.84660    -999.25    0.00590    0.02040
 7950.00000   15.95290   49.64070    9.31760 2189.82570 -145.81060  854.99800  928.70770  669.33690 1489.94450    2.60600    0.16260   14.62760    -999.25   10.80810    -999.25   -0.00280    0.02440
 8000.00000   16.72270   51.24290    9.34160 2210.47170 -136.79660   54.12790   51.24480   78.64410 1580.71830    2.70910    0.01010   18.17790    -999.25    9.90750    -999.25    0.00460   -0.00590
 8050.00000   12.00090   51.17960    9.52790 2164.85280 -146.05250  171.47640  234.22180  211.05570 1698.07960    2.39250    0.21090    8.84410    -999.25   12.05700    -999.25   -0.00080    0.20340
 8100.00000   13.83830   50.19810    9.36060 2105.27660 -138.20350   43.43810   39.93100   49.24720 1817.22400    2.67550    0.02610   12.64850    -999.25   10.16260    -999.25    0.06270    0.02540
 8150.00000   12.72650   51.20030   11.59020 1743.16670 -149.18420  729.42410 1609.80680  620.77150 1847.93810    2.16890    0.18090   12.25500    -999.25   13.21160    -999.25    0.01180    0.33760
 8200.00000    8.78700   50.70250    9.25290 1777.65390 -174.15620   31.07590   36.28200  210.81150 1872.84530    2.67170    0.01470    9.25310    -999.25    9.51220    -999.25    0.00420    0.05360
 8250.00000   11.49590   51.48630    8.90550 1844.47410 -201.79010   19.67910   33.52150  205.96210 1019.25420    2.62370    0.23930   11.37660    -999.25    9.21770    -999.25    0.04010    0.04130
 8300.00000   10.38940   49.95050    9.35820 1965.26840 -154.76530  178.08980  184.71380  201.58870 1154.00710    2.65380    0.06540   10.17910    -999.25   10.06430    -999.25    0.00490    0.06800
 8350.00000   16.65450   50.49920    9.66010 2039.60770 -157.61320  243.06750  111.57630  492.10080 1143.82850    2.22560    0.20450   14.89580    -999.25   13.74280    -999.25    0.01430    0.25790
 8400.00000   14.02030   49.42640    9.78950 2081.74710 -155.77790  442.73020  220.62190  754.00280 1506.99680    2.55970    0.21270   19.04190    -999.25   12.34770    -999.25   -0.00600    0.06610
 8450.00000   13.92740   50.76950    9.86660 1866.07070 -148.79750  758.84100  191.60500  622.05460 1479.91600    2.39760    0.19810   11.17780    -999.25   13.36430    -999.25   -0.00210    0.16900
 8500.00000   12.14270   50.58430    9.31510 1372.97020 -184.47060   39.12140   43.57700  188.00920 1678.47440    2.64390    0.08290   11.85640    -999.25   10.00550    -999.25    0.00390    0.04540
 8550.00000   21.14440   49.43000    9.31720 1674.25240 -136.12760  204.91480  371.36820 1490.95250 1651.56070    2.86730    0.01560   21.33440    -999.25    9.69670    -999.25    0.00640   -0.08810
 8600.00000   12.88720   48.88180    9.32620 1708.18480 -118.68970  335.91280 1357.70920 1538.04590 1817.95780    2.87580   -0.00460   14.37220    -999.25    9.73670    -999.25   -0.00170   -0.12270
 8650.00000   23.36240   50.93100    9.88550 1690.56930 -142.24490  146.02170   86.94490  247.18660 2036.08680    2.25600    0.22740   22.15630    -999.25   12.99530    -999.25    0.04270    0.30420
 8700.00000   32.42530   54.99370    9.93010 1394.49790 -142.62440   46.13070   37.07290   36.87640 2268.51170    2.17590    0.19940   34.72670    -999.25   12.27410    -999.25    0.08020    0.35710
 8750.00000   24.84370   49.81300    9.74690 1319.58460 -115.00160   54.41400   45.25540   96.43980 2069.73000    2.30510    0.23390   22.26650    -999.25   11.61320    -999.25    0.05890    0.25710
 8800.00000   32.19000   52.16610    9.67970 1355.94520  -70.12830  107.08790   99.71400  199.92660 2143.27490    2.70030   -0.00020   31.25980    -999.25    9.84110    -999.25    0.01230    0.00490
 8850.00000   62.84830   63.11210   10.09340 1712.23720  -64.85100   12.32490   11.50080   14.95730 2153.66280    2.67640    0.00790   84.48770    -999.25   10.31080    -999.25    0.07970    0.00380
 8900.00000   58.80460   61.68670    9.89400 1408.76500  -66.73740   12.73580   12.26150   15.69130    -999.25    -999.25    -999.25    -999.25    -999.25    -999.25    -999.25    -999.25    -999.25
 8950.00000   64.93280   65.78300   10.26620 1626.16410  -68.86550    9.38410    8.84520   11.54680    -999.25    -999.25    -999.25    -999.25    -999.25    -999.25    -999.25    -999.25    -999.25
 9000.00000   80.48520   78.62120   13.33590 1343.55940  -71.73720    5.39200    4.93680    6.46490    -999.25    -999.25    -999.25    -999.25    -999.25    -999.25    -999.25    -999.25    -999.25
 9050.00000   70.77420   77.33660   13.97990 1214.10110  -84.76400    5.26420    4.06720    6.28450    -999.25    -999.25    -999.25    -999.25    -999.25    -999.25    -999.25    -999.25    -999.25
 9100.00000   74.67990   70.57410   12.05340 1356.62110  -69.29070    6.90990    7.98200   10.68480    -999.25    -999.25    -999.25    -999.25    -999.25    -999.25    -999.25    -999.25    -999.25
 9150.00000   46.61510   60.03390    9.42080 1633.46960  -67.48010   22.50010   26.15330   26.11610    -999.25    -999.25    -999.25    -999.25    -999.25    -999.25    -999.25    -999.25    -999.25
 9200.00000   70.22670   75.74660   13.16390 2029.01390  -73.67070    5.87810    5.74650    8.13490    -999.25    -999.25    -999.25    -999.25    -999.25    -999.25    -999.25    -999.25    -999.25
 9250.00000   76.29100   79.37520   14.08220 1250.95870  -72.08070    5.09300    4.76920    6.87730    -999.25    -999.25    -999.25    -999.25    -999.25    -999.25    -999.25    -999.25    -999.25
