~Version ---------------------------------------------------
VERS.      2.0 : CWLS log ASCII Standard -VERSION 2.0
WRAP.       NO : One line per depth step
CREA. 12/12/17 : LAS Creation Date
~Well ------------------------------------------------------
STRT.FT                       800.0 : START DEPTH
STOP.FT                      7450.0 : STOP DEPTH
STEP.FT                    50.00000 : STEP LENGTH
NULL.                       -999.25 : NULL VALUE
COMP. WESTERN DECALTA PETROLEUM LTD : COMPANY
WELL.  DECALTA PORE SARAH 2-33-65-7 : WELL
FLD .                               : FIELD
LOC .                               : LOCATION
CTRY.                        CANADA : COUNTRY
SRVC.                    Lane Wells : SERVICE COMPANY
DATE.                   02-Feb-1965 : LOGDATE
PROV.                       Alberta : PROVINCE
UWI .              100023306507W500 : UNIQUE WELL ID
SLAT.WGS84                  54.6631 : SURFACE LATITUDE
SLON.WGS84                 -114.993 : SURFACE LONGITUDE
~Curve Information -----------------------------------------
DEPT  .FT    : Depth Curve
ACED  .US/F  : ACOUSTIC TIME FROM SONIC LOG  [ADJ. TO RESISTIVITY LOG]
CILDED.MMHO  : DEEP INDUCTION CONDUCTIVITY FROM RESISTIVITY LOG
CONDWS.MMHO  : SHALLOW RESISTIVITY [ASNED]
DRESWS.OHMM  : DEEP RESISTIVITY [1000/CILDED,IF ILDED<2,ILDED]
DTWS  .US/F  : COMPRESSIONAL SONIC [ACED]
GRSED .GAPI  : GAMMA RAY FROM SONIC LOG [ADJ. TO RESISTIVITY LOG]
GRWS  .GAPI  : GAMMA RAY [GRSED]
ILDED .OHMM  : DEEP INDUCTION RESISTIVITY FROM RESISTIVITY LOG
SNED  .OHMM  : 16" SHORT NORMAL RESISTIVITY FROM RESISTIVITY LOG
SPRED .MV    : SPONTANEOUS POTENTIAL FROM RESISTIVITY LOG
SPWS  .MV    : SPONTANEOUS POTENTIAL [BASELINE 0 MV,SPRED]
SRESWS.OHMM  : SHALLOW RESISTIVITY [SNED]
~Params ----------------------------------------------------
PD  .                     GL : PERMANENT DATUM
EPD .FT               2781.9 : ELEVATION PERMANENT DATUM
LMF .                     KB : LOG MEASURED FROM
DAPD.FT                 13.7 : FEET ABOVE PERMANENT DATUM
DMF .                     KB : DRILLING MEASURED FROM
EKB .FT               2795.6 : KELLY BUSHING
EGL .FT               2781.9 : GROUND LEVEL
DATE.               02/02/65 : RUN DATE
RUN .                      1 : RUN NUMBER
DD  .FT                 7455 : DEPTH DRILLER
DL  .FT                 7456 : DEPTH LOGGER
BLI .FT                 7452 : BOTTOM LOG INTERVAL
TLI .FT                  759 : TOP LOG INTERVAL
CS  .IN                8.625 : CASING SIZE
CBD .FT                  759 : CASING BOTTOM DRILLER
CBL .FT                  759 : CASING BOTTOM LOGGER
BS  .IN                7.875 : BIT SIZE
BSD .FT                 7455 : BIT SIZE AT DEPTH
DFT .         MUD GEL 5% OIL : DRILLING FLUID TYPE
DFD .                    9.6 : DRILLING FLUID DENSITY
DFV .                    100 : DRILLING FLUID VISCOSITY
DFPH.                    8.0 : DRILLING FLUID PH
DFL .                    9.8 : DRILLING FLUID LOSS
MSS .                    IST : MUD SAMPLE SOURCE
RMS .OHMM                2.2 : RESISTIVITY MUD SAMPLE
MST .DEGF                 68 : MUD SAMPLE TEMPERATURE
RMF .OHMM                1.0 : RESISTIVITY MUD FILTRATE SAMPLE
MFST.DEGF                 80 : MUD FILTRATE SAMPLE TEMPERATURE
RMC .OHMM                1.8 : RESISTIVITY MUD CAKE
MCST.DEGF                 76 : MUD CAKE SAMPLE TEMPERATURE
MFSS.                   MEAS : MUD FILTRATE SAMPLE SOURCE
MCSS.                   MEAS : MUD CAKE SAMPLE SOURCE
RMB .OHMM               0.98 : RESISTIVITY MUD AT BHT
TCS .HRS                  20 : TIME CIRCULATED STOPPED
LUN .                   8034 : LOGGING UNIT NUMBER
LUL .                     RD : LOGGING UNIT LOCATION
ENGI.                ROULEAU : RECORDING ENGINEER
WITN.                 WIGHAM : WITNESSED BY
CLNT.                A2DTECH : CLIENT CODE
ORIG.            2" 5" PRINT : ORIGIN OF DATA
UWI .       100023306507W500 : UNIQUE WELL ID
DICO. A2D Technologies, Inc. : DIGITIZING COMPANY
~Other -----------------------------------------------------
IEL-AC LOG RUN
ALL DATA FROM TOP TO 7100' FROM 2" SCALE LOG
~ASCII -----------------------------------------------------
# ...
 3600.00000    -999.25  232.97460  249.26960    4.01180    -999.25    -999.25    -999.25    4.01180   13.12480  -92.38240  -67.95390   13.12480
 3650.00000    -999.25  222.65900  231.91090    4.31200    -999.25    -999.25    -999.25    4.31200    6.50130  -44.19690  -19.67550    6.50130
 3700.00000    -999.25  252.41870  252.74860    3.96090    -999.25    -999.25    -999.25    3.96090    8.32270  -43.18770  -18.57250    8.32270
 3750.00000    -999.25  204.39940  216.55800    4.61770    -999.25    -999.25    -999.25    4.61770   18.80100 -111.27720  -86.56900   18.80100
 3800.00000    -999.25  176.64380  186.68560    5.35660    -999.25    -999.25    -999.25    5.35660    8.13070  -41.68070  -16.87910    8.13070
 3850.00000    -999.25  405.76830  405.82720    2.46420    -999.25    -999.25    -999.25    2.46420    3.43190  -33.04060   -8.14520    3.43190
 3900.00000    -999.25  218.77870  221.85740    4.50740    -999.25    -999.25    -999.25    4.50740    6.89560  -37.47480  -12.48640    6.89560
 3950.00000    -999.25  122.69940  122.67930    8.15140    -999.25    -999.25    -999.25    8.15140   13.71290  -44.67130  -19.58910   13.71290
 4000.00000    -999.25  128.90820  128.92410    7.75650    -999.25    -999.25    -999.25    7.75650   14.21880  -46.37770  -21.20250   14.21880
 4050.00000    -999.25  117.62840  115.28840    8.67390    -999.25    -999.25    -999.25    8.67390   24.78220  -90.12990  -64.86130   24.78220
 4100.00000   83.57480  192.27290  192.26330    5.20120   83.57480   76.82680   76.82680    5.20120   22.40580 -103.38710  -78.02470   22.40580
 4150.00000   90.14280  149.88420  149.89810    6.67120   90.14280   83.04360   83.04360    6.67120   16.38310  -65.46080  -40.00540   16.38310
 4200.00000   90.50790  173.10370  173.67560    5.75790   90.50790   79.95970   79.95970    5.75790   14.15030  -68.71720  -43.16800   14.15030
 4250.00000   88.41740  183.52740  183.47610    5.45030   88.41740  106.32420  106.32420    5.45030    8.89070  -39.91810  -14.27590    8.89070
 4300.00000   92.72670  146.04810  139.54400    7.16620   92.72670  135.25640  135.25640    7.16620   13.44320  -32.51920   -6.78360   13.44320
 4350.00000   70.68630   97.21270   95.81250   10.43700   70.68630   78.28300   78.28300   10.43700   17.10300  -42.61200  -15.80340   17.10300
 4400.00000   73.43470   72.91930   70.85670   14.11300   73.43470   55.32900   55.32900   14.11300   29.11850  -35.10730   -6.54020   29.11850
 4450.00000   63.56370   44.62900   38.73780   25.82390   63.56370   86.50200   86.50200   25.82390   70.65140  -55.64730  -25.48460   70.65140
 4500.00000   56.58620   34.64840   30.19480   33.11830   56.58620   12.70590   12.70590   33.11830  125.07700 -188.57760 -157.08950  125.07700
 4550.00000   49.43510   13.43550    3.97750  251.41250   49.43510   13.28640   13.28640  251.41250  133.82430 -124.60830  -91.78810  133.82430
 4600.00000   61.79380  114.67600  114.66840    8.72140   61.79380   13.32890   13.32890    8.72140   65.70210 -163.51320 -129.35430   65.70210
 4650.00000   53.12320   41.71620   38.62360   25.89090   53.12320   14.88850   14.88850   25.89090  115.82050 -273.67140 -238.18700  115.82050
 4700.00000   58.92240  104.49000   99.79990   10.02440   58.92240   17.27700   17.27700   10.02440   78.06780 -203.18770 -166.36460   78.06780
 4750.00000   56.77520   63.50480   61.42360   16.28040   56.77520   14.49350   14.49350   16.28040  118.87250 -240.06560 -201.91700  118.87250
 4800.00000   61.87410   84.62800   85.85020   11.64820   61.87410   13.96760   13.96760   11.64820  102.06100 -207.29370 -167.81300  102.06100
 4850.00000   70.88710  191.04590  185.81000    5.38190   70.88710   13.99740   13.99740    5.38190   50.49800 -195.19920 -154.37980   50.49800
 4900.00000   71.84010  163.53380  163.50290    6.11610   71.84010   10.00290   10.00290    6.11610   53.76770 -197.92540 -155.78050   53.76770
 4950.00000   64.40760   93.47960   91.52390   10.92660   64.40760   17.04430   17.04430   10.92660   82.87400 -202.32760 -158.84400   82.87400
 5000.00000   58.66780   67.88200   67.02590   14.91960   58.66780   23.34880   23.34880   14.91960  100.94560 -219.31530 -174.50620  100.94560
 5050.00000   51.48750   10.83220    5.81720  171.90520   51.48750   15.48150   15.48150  171.90520  125.39240 -180.63860 -134.49740  125.39240
 5100.00000   62.49590   37.71750   31.53450   31.81870   62.49590   12.40240   12.40240   31.81870  118.13060 -208.33740 -160.85750  118.13060
 5150.00000    -999.25   57.73090   49.47870   20.21070    -999.25    -999.25    -999.25   20.21070  119.80630 -186.72010 -137.91480  119.80630
 5200.00000    -999.25   55.90080   55.82760   17.92860    -999.25    -999.25    -999.25   17.92860  113.01960 -206.56310 -156.41890  113.01960
 5250.00000    -999.25   20.59460   15.31070   65.31370    -999.25    -999.25    -999.25   65.31370  177.17180 -146.39470  -94.92520  177.17180
 5300.00000    -999.25  190.59070  194.88240    5.13130    -999.25    -999.25    -999.25    5.13130   11.58270 -110.29260  -57.49100   11.58270
 5350.00000    -999.25   70.53200   71.51680   14.03730    -999.25    -999.25    -999.25   14.03730   88.13800 -170.76380 -116.62330   88.13800
 5400.00000    -999.25   60.30320   61.06160   16.37690    -999.25    -999.25    -999.25   16.37690   64.63310 -163.96460 -108.49880   64.63310
 5450.00000    -999.25  149.46560  148.36400    6.74090    -999.25    -999.25    -999.25    6.74090   15.53860 -119.58470  -62.78010   15.53860
 5500.00000    -999.25   99.80660  101.04170    9.89690    -999.25    -999.25    -999.25    9.89690   16.05740  -76.82620  -18.69620   16.05740
 5550.00000    -999.25   37.92580   34.22410   29.21920    -999.25    -999.25    -999.25   29.21920   50.67780 -107.49770  -48.03560   50.67780
 5600.00000    -999.25   36.86690   32.42620   30.89980    -999.25    -999.25    -999.25   30.89980   48.65610 -115.52170  -54.72080   48.65610
 5650.00000    -999.25    9.82350    4.68290  213.54410    -999.25    -999.25    -999.25  213.54410   91.19310 -125.39600  -63.26970   91.19310
 5700.00000    -999.25  169.55160  165.28910    6.05020    -999.25    -999.25    -999.25    6.05020    7.35260  -86.73080  -23.26580    7.35260
 5750.00000    -999.25  168.31800  167.94870    5.95420    -999.25    -999.25    -999.25    5.95420    9.38800  -68.31430   -3.52380    9.38800
 5800.00000    -999.25  276.64170  268.34830    3.72650    -999.25    -999.25    -999.25    3.72650    4.43140  -72.51080   -8.78050    4.43140
 5850.00000    -999.25  281.69420  272.95560    3.66390    -999.25    -999.25    -999.25    3.66390    4.86990  -78.94200  -16.95550    4.86990
 5900.00000    -999.25  196.05290  199.74830    5.00630    -999.25    -999.25    -999.25    5.00630    5.68460  -89.14390  -28.88370    5.68460
 5950.00000    -999.25  271.29470  268.77070    3.72070    -999.25    -999.25    -999.25    3.72070    3.93840  -80.60600  -22.08950    3.93840
 6000.00000    -999.25  234.59020  242.54770    4.12290    -999.25    -999.25    -999.25    4.12290    4.41740  -69.99390  -13.20380    4.41740
 6050.00000    -999.25  236.86670  225.90190    4.42670    -999.25    -999.25    -999.25    4.42670    4.99290  -77.73940  -22.68440    4.99290
 6100.00000    -999.25  302.45700  289.32400    3.45640    -999.25    -999.25    -999.25    3.45640    3.71470  -65.05330  -11.74200    3.71470
 6150.00000    -999.25  240.80460  229.11080    4.36470    -999.25    -999.25    -999.25    4.36470    4.68590  -66.12450  -14.53950    4.68590
 6200.00000    -999.25  295.63390  288.49400    3.46630    -999.25    -999.25    -999.25    3.46630    3.85440  -75.43810  -25.59690    3.85440
 6250.00000    -999.25   93.89400   96.73430   10.33760    -999.25    -999.25    -999.25   10.33760   12.17300  -53.51340   -5.39850   12.17300
 6300.00000    -999.25   81.66440   81.56470   12.26020    -999.25    -999.25    -999.25   12.26020   16.99840  -50.60330   -4.22350   16.99840
 6350.00000    -999.25  114.98790  114.98870    8.69970    -999.25    -999.25    -999.25    8.69970   12.26490  -55.68500  -11.04890   12.26490
