~Version ---------------------------------------------------
VERS. 2.0 : CWLS log ASCII Standard -VERSION 2.0
WRAP.  NO : ONE LINE PER DEPTH STEP
~Well ------------------------------------------------------
STRT.F                                950.0 : START DEPTH
STOP.F                               9500.0 : STOP DEPTH
STEP.F                             50.00000 : STEP LENGTH
NULL.                               -999.25 : NULL VALUE
COMP.                 TEXACO CANADA LIMITED : COMPANY
WELL. TEXACO AMERADA SNIPE LAKE 14-29-69-19 : WELL
FLD .                                       : FIELD
LOC .                                       : LOCATION
CTRY.                                CANADA : COUNTRY
SRVC.                Schlumberger of Canada : SERVICE COMPANY
DATE.                           13-Mar-1960 : LOGDATE
PROV.                               Alberta : PROVINCE
UWI .                      100142906919W500 : UNIQUE WELL ID
SLAT.WGS84                         55.00866 : SURFACE LATITUDE
SLON.WGS84                        -116.8632 : SURFACE LONGITUDE
~Curve Information -----------------------------------------
DEPT .F                 : 
NEUT .NAPI 35 330 01 00 : NEUTRON
GRN  .GAPI 35 310 01 00 : GAMMA RAY FROM GRN LOG
MCAL .IN   15 280 01 00 : MLT (MICROLOG) CALIPER
DT   .US/F 60 500 33 00 : DELTA-T (INTERVAL TRANSIT TIME)
CILD .MMHO 05 110 46 00 : INDUCTION DEEP CONDUCTIVITY
ILD  .OHMM 05 120 46 00 : INDUCTION DEEP RESISTIVITY
SN   .OHMM 05 040 16 00 : SHORT NORMAL RESISTIVITY
SPR  .MV   05 010 01 00 : SPONTANEOUS POTENTIAL FROM RESISTIVITY LOG
GRN1 .GAPI 15 310 01 00 : GAMMA RAY FROM MICROLOG
NEUT1.DEC  35 330 01 00 : NEUTRON POROSITY IN SELECTED LITHOLOGY SANDSTONE
GR   .GAPI 30 310 01 00 : GAMMA RAY
~Params ----------------------------------------------------
LMF .                     KB : LOG MEASURED FROM
DMF .                     KB : DRILLING MEASURED FROM
EKB .FT                 2397 : KELLY BUSHING
DATE.               03/13/60 : RUN DATE
RUN .                      1 : RUN NUMBER
DD  .FT                 9513 : DEPTH DRILLER
DL  .FT                 9508 : DEPTH LOGGER
BLI .FT                 9503 : BOTTOM LOG INTERVAL
TLI .FT                  945 : TOP LOG INTERVAL
CBD .FT                  948 : CASING BOTTOM DRILLER
CBL .FT                  945 : CASING BOTTOM LOGGER
BS  .IN                    9 : BIT SIZE
BSD .FT                 9513 : BIT SIZE AT DEPTH
DFT .                    GEL : DRILLING FLUID TYPE
DFD .                   10.6 : DRILLING FLUID DENSITY
DFV .                    110 : DRILLING FLUID VISCOSITY
DFPH.                   10.5 : DRILLING FLUID PH
DFL .                    5.2 : DRILLING FLUID LOSS
RMS .OHMM                  3 : RESISTIVITY MUD SAMPLE
MST .DEGF                 60 : MUD SAMPLE TEMPERATURE
RMF .OHMM                1.3 : RESISTIVITY MUD FILTRATE SAMPLE
MFST.DEGF                 70 : MUD FILTRATE SAMPLE TEMPERATURE
RMC .OHMM                3.1 : RESISTIVITY MUD CAKE
MCST.DEGF                 70 : MUD CAKE SAMPLE TEMPERATURE
RMB .OHMM               0.95 : RESISTIVITY MUD AT BHT
TCS .HRS                   4 : TIME CIRCULATED STOPPED
LUN .                   2742 : LOGGING UNIT NUMBER
LUL .                     VV : LOGGING UNIT LOCATION
ENGI.                    GAU : RECORDING ENGINEER
WITN.                  IRVIN : WITNESSED BY
CLNT.                A2DTECH : CLIENT CODE
ORIG.            2" 5" PRINT : ORIGIN OF DATA
UWI .       100142906919W500 : UNIQUE WELL ID
DICO. A2D Technologies, Inc. : DIGITIZING COMPANY
~Other -----------------------------------------------------
~ASCII -----------------------------------------------------
  950.00000    -999.25    -999.25   14.62640    -999.25  332.50880    2.74990    3.79450 -173.25210    -999.25    -999.25    -999.25
 1000.00000    -999.25    -999.25   15.07430  141.73920  287.54390    3.13330    3.62860 -183.26680    -999.25    -999.25    -999.25
 1050.00000    -999.25    -999.25   15.10960  126.44450  302.46870    3.20220    3.68820 -192.39160    -999.25    -999.25    -999.25
 1100.00000    -999.25    -999.25    9.27870  115.39540  200.53690    5.39240    6.09360 -190.88550    -999.25    -999.25    -999.25
 1150.00000    -999.25    -999.25    9.33200  116.40860  155.85400    6.96510    7.47030 -196.87470    -999.25    -999.25    -999.25
 1200.00000    -999.25    -999.25   12.66990  141.56390  322.88470    2.84910    3.53160 -172.05400    -999.25    -999.25    -999.25
 1250.00000    -999.25    -999.25   13.01330  142.55120  405.55100    2.26470    2.99970 -173.01570    -999.25    -999.25    -999.25
 1300.00000    -999.25    -999.25   13.98320  140.95610  318.50430    3.00900    3.54800 -175.78040    -999.25    -999.25    -999.25
 1350.00000    -999.25    -999.25   13.34270  131.23810  278.18620    3.50890    3.97250 -174.07140    -999.25    -999.25    -999.25
 1400.00000    -999.25    -999.25   12.96490  142.27890  337.84640    2.85140    3.42200 -173.24510    -999.25    -999.25    -999.25
 1450.00000    -999.25    -999.25   12.07140  140.42660  320.82270    2.89290    3.49580 -174.36330    -999.25    -999.25    -999.25
 1500.00000    -999.25    -999.25    9.98760  118.63170  225.93480    4.36500    5.48540 -187.91300    -999.25    -999.25    -999.25
 1550.00000    -999.25    -999.25   11.63190  123.64490  331.49300    2.89600    3.37780 -182.62760    -999.25    -999.25    -999.25
 1600.00000    -999.25    -999.25   12.18860  124.33960  317.37520    2.97650    3.28730 -184.24400    -999.25    -999.25    -999.25
 1650.00000    -999.25    -999.25   12.22730  116.98570  225.27980    4.76510    5.14310 -173.69560    -999.25    -999.25    -999.25
 1700.00000    -999.25    -999.25   14.69640  118.85790  196.65100    5.22370    5.86960 -177.58920    -999.25    -999.25    -999.25
 1750.00000    -999.25    -999.25   11.29400  122.21600  240.70150    4.01280    5.14840 -179.76470    -999.25    -999.25    -999.25
 1800.00000    -999.25    -999.25   12.13670  124.18770  239.91400    3.98510    5.42520 -169.42210    -999.25    -999.25    -999.25
 1850.00000    -999.25    -999.25   11.16940  116.39600  199.29420    5.18820    6.95520 -173.97290    -999.25    -999.25    -999.25
 1900.00000    -999.25    -999.25   12.53070  111.16680  218.08930    4.65380    5.79850 -182.38130    -999.25    -999.25    -999.25
 1950.00000    -999.25    -999.25   12.95230  106.71990  176.37360    6.08400    6.84340 -182.76790    -999.25    -999.25    -999.25
 2000.00000    -999.25    -999.25   14.32620  117.24360  194.10780    5.30100    6.34760 -182.83020    -999.25    -999.25    -999.25
 2050.00000    -999.25    -999.25   12.09750  108.95750  183.94400    5.67550    6.26270 -180.61140    -999.25    -999.25    -999.25
 2100.00000    -999.25    -999.25   11.76290  113.45130  182.43920    5.81130    6.24550 -181.78760    -999.25    -999.25    -999.25
 2150.00000    -999.25    -999.25    9.97180  108.55690  198.09220    5.14250    5.91440 -184.53570    -999.25    -999.25    -999.25
 2200.00000    -999.25    -999.25   13.78940  109.04020  150.35400    7.21050    7.72410 -186.23910    -999.25    -999.25    -999.25
 2250.00000    -999.25    -999.25   15.35340  108.60450  191.04540    5.44070    6.16450 -183.97820    -999.25    -999.25    -999.25
 2300.00000    -999.25    -999.25   13.22690  105.80910  188.34470    5.43940    6.25420 -180.11210    -999.25    -999.25    -999.25
 2350.00000    -999.25    -999.25   13.86930  110.38160  177.38910    5.97440    6.56550 -185.51970    -999.25    -999.25    -999.25
 2400.00000    -999.25    -999.25   14.40250  114.89050  220.70720    4.49440    5.59510 -186.73590    -999.25    -999.25    -999.25
 2450.00000    -999.25    -999.25   13.65700  115.74630  227.44730    4.50900    5.51520 -186.09350    -999.25    -999.25    -999.25
 2500.00000    -999.25    -999.25   11.28080  106.00870  182.70430    5.71240    7.62480 -183.38840    -999.25    -999.25    -999.25
 2550.00000    -999.25    -999.25   12.07360  114.43510  201.59250    5.00010    6.55680 -185.48800    -999.25    -999.25    -999.25
 2600.00000    -999.25    -999.25   10.35220  117.53510  192.30240    5.39550    7.58390 -184.41010    -999.25    -999.25    -999.25
 2650.00000    -999.25    -999.25   11.28880  107.57100  180.77450    5.87070    7.46530 -182.24590    -999.25    -999.25    -999.25
 2700.00000    -999.25    -999.25   12.62400  112.29940  241.66970    4.07590    4.90990 -181.12410    -999.25    -999.25    -999.25
 2750.00000    -999.25    -999.25   10.64200  100.48530  180.11380    5.73260    6.68490 -180.87570    -999.25    -999.25    -999.25
 2800.00000    -999.25    -999.25   10.83580  106.02870  248.66020    3.97220    4.74660 -174.70700    -999.25    -999.25    -999.25
 2850.00000    -999.25    -999.25   11.15790  102.10810  285.11580    3.38500    4.07880 -178.76500    -999.25    -999.25    -999.25
 2900.00000    -999.25    -999.25   11.47920  100.16000  319.62970    2.99830    3.69690 -172.31090    -999.25    -999.25    -999.25
 2950.00000    -999.25    -999.25   11.89050  104.74140  198.06930    5.06860    5.58550 -173.92130    -999.25    -999.25    -999.25
 3000.00000    -999.25    -999.25   11.31670  104.57150  234.41750    4.24340    4.94260 -174.24830    -999.25    -999.25    -999.25
 3050.00000    -999.25    -999.25   11.72670  105.12640  260.82960    3.66050    4.77270 -171.30140    -999.25    -999.25    -999.25
 3100.00000    -999.25    -999.25   11.04640  118.13320  491.48470    1.79300    2.51380 -173.25900    -999.25    -999.25    -999.25
 3150.00000    -999.25    -999.25   12.01940  113.73100  498.73210    1.79920    2.40820 -170.88930    -999.25    -999.25    -999.25
 3200.00000    -999.25    -999.25   12.88780  111.77830  497.10060    1.68680    2.45400 -170.31300    -999.25    -999.25    -999.25
 3250.00000    -999.25    -999.25   12.13910  100.55130  328.22770    2.94200    3.51850 -172.30750    -999.25    -999.25    -999.25
 3300.00000    -999.25    -999.25   11.98290  102.81240  312.87200    3.00630    3.84410 -173.04010    -999.25    -999.25    -999.25
 3350.00000    -999.25    -999.25    9.85370   96.42610  242.36070    4.10110    5.49930 -173.21220    -999.25    -999.25    -999.25
 3400.00000    -999.25    -999.25    9.96000   88.13250  270.66510    3.57950    4.70480 -178.74410    -999.25    -999.25    -999.25
 3450.00000    -999.25    -999.25    9.76910   91.30180  283.84060    3.78040    5.15510 -171.10480    -999.25    -999.25    -999.25
 3500.00000    -999.25    -999.25    8.87030   91.98760  202.11230    4.94110    7.53610 -203.30160    -999.25    -999.25    -999.25
 3550.00000    -999.25    -999.25    9.11910   92.18390  254.58760    3.89020    4.83670 -177.58060    -999.25    -999.25    -999.25
 3600.00000    -999.25    -999.25    8.72460   96.31890  228.09780    4.40560    6.73380 -189.02900    -999.25    -999.25    -999.25
 3650.00000    -999.25    -999.25    8.74160   86.95870  159.35910    6.68990   14.74320 -232.58860    -999.25    -999.25    -999.25
 3700.00000    -999.25    -999.25    8.84980   91.93110  208.04310    4.94140    7.47420 -209.66230    -999.25    -999.25    -999.25
 3750.00000    -999.25    -999.25    9.67640   93.74050  254.64940    3.82020    4.87420 -180.38730    -999.25    -999.25    -999.25
 3800.00000    -999.25    -999.25    8.67130   92.25270  162.73710    6.45150   14.09790 -234.02090    -999.25    -999.25    -999.25
 3850.00000    -999.25    -999.25    8.92200   81.44290  173.18100    6.11520   10.50050 -211.67360    -999.25    -999.25    -999.25
 3900.00000    -999.25    -999.25    8.64340   94.66970  194.39510    5.36330   12.74170 -247.78740    -999.25    -999.25    -999.25
 3950.00000    -999.25    -999.25    8.60210   89.96700  240.36700    4.20680   12.20030 -257.15900    -999.25    -999.25    -999.25
