~Version ---------------------------------------------------
VERS. 2.0 : CWLS log ASCII Standard -VERSION 2.0
WRAP.  NO : One line per depth step
~Well ------------------------------------------------------
STRT.m                          300.0 : START DEPTH
STOP.m                         4550.0 : STOP DEPTH
STEP.m                       50.00000 : STEP LENGTH
NULL.                         -999.25 : NULL VALUE
COMP.       GULF CANADA RESOURCES INC : COMPANY
WELL. GULF ET AL WILD RIVER 5-7-56-24 : WELL
FLD .                                 : FIELD
LOC .                                 : LOCATION
CTRY.                          CANADA : COUNTRY
SRVC.                    Schlumberger : SERVICE COMPANY
DATE.                     01-Jan-1981 : LOGDATE
PROV.                         Alberta : PROVINCE
UWI .                100050705624W502 : UNIQUE WELL ID
SLAT.WGS84                   53.82225 : SURFACE LATITUDE
SLON.WGS84                   -117.563 : SURFACE LONGITUDE
~Curve Information -----------------------------------------
DEPT    .m      : Depth Curve
CALDED  .MM     : CALIPER  CNFD (ADJ TO RES.)
CALSED  .MM     : CALIPER  SONIC
CALWS   .MM     : CALIPER (CALDED)
CILDED  .MMHO   : CONDUCTIVITY FROM LOG
CONDWS  .MMHO   : CONDUCTIVITY (1000/DRESWS)
DCORWS  .KG/M3  : DENSITY CORRECTION (DRHOED)
DENWS   .KG/M3  : BULK DENSITY  (RHOBED<3440>FROM DPHILSED
DPHILSED.V/V    : DENSITY POROSITY SANDSTONE  (ADJ TO RES.)
DPHISSED.V/V    : DENSITY POROSITY LIMESTONE (ADJ TO RES.)
DPOLSWS .V/V    : DENSITY POROSITY (M=2710 F=1000 DPHILSED<3440>FROM DENWS)
DRESWS  .OHMM   : DEEP RESISTIVITY (ILDED)
DRHOED  .KG/M3  : DENSITY CORRECTION (ADJ TO RES.)
DTED    .US/F   : DELTA TIME
DTWS    .US/F   : DELTA TIME  (DTED)
GRDED   .GAPI   : GAMMA RAY  CNFD (ADJ TO RES.)
GRSED   .GAPI   : GAMMA RAY  SONIC
GRWS    .GAPI   : GAMMA RAY (GRDED/GRSED/GRDED @ 2647,2807)ADJUSTED IN CASING
ILDED   .OHMM   : DEEP INDUCTION RESISTIVITY
ILMED   .OHMM   : MEDIUM INDUCTION RESISTIVITY
MRESWS  .OHMM   : MEDIUM RESISTIVITY (ILMED)
NPHILSED.V/V    : NEUTRON POROSITY LIMESTONE (ADJ TO RES.)
NPHISSED.V/V    : NEUTRON POROSITY SANDSTONE (ADJ TO RES.)
NPOLSWS .V/V    : NEUTRON POROSITY LIMESTONE (NPHISSED CONVERTED TO LS<3440>NPHILSED)
RHOBED  .KG/M3  : BULK DENSITY ADJUSTED TO DPHISSED AND DPHILSED
SFLED   .OHMM   : SPHERICALLY FOCUSED RESISTIVITY
SPRED   .MV     : Spontaneous Potential  DIL
SPWS    .MV     : SPONTANEOUS POTENTIAL (SPRED) BASELINE 0 MV
SRESWS  .OHMM   : SHALLOW RESISTIVITY (SFLED)
~Params ----------------------------------------------------
PD  .                         GL : PERMANENT DATUM
EPD .M                    1096.4 : ELEVATION PERMANENT DATUM
LMF .                         KB : LOG MEASURED FROM
DAPD.M                       7.3 : FEET ABOVE PERMANENT DATUM
DMF .                         KB : DRILLING MEASURED FROM
EKB .M                    1103.7 : KELLY BUSHING
EGL .M                    1096.4 : GROUND LEVEL
DATE.                   01/01/81 : RUN DATE
RUN .                          2 : RUN NUMBER
DD  .M                      4578 : DEPTH DRILLER
DL  .M                      4576 : DEPTH LOGGER
BLI .M                      4575 : BOTTOM LOG INTERVAL
TLI .M                      2808 : TOP LOG INTERVAL
CS  .MM                      244 : CASING SIZE
CBD .M                      2810 : CASING BOTTOM DRILLER
CBL .M                      2808 : CASING BOTTOM LOGGER
BS  .MM                      215 : BIT SIZE
BSD .M                      4578 : BIT SIZE AT DEPTH
DFT .                   GEL CHEM : DRILLING FLUID TYPE
DFD .                       1285 : DRILLING FLUID DENSITY
DFV .                         95 : DRILLING FLUID VISCOSITY
DFPH.                         10 : DRILLING FLUID PH
DFL .                        7.5 : DRILLING FLUID LOSS
MSS .                CIRCULATION : MUD SAMPLE SOURCE
RMS .OHMM                   1.45 : RESISTIVITY MUD SAMPLE
MST .DEGC                   21.1 : MUD SAMPLE TEMPERATURE
RMF .OHMM                   0.89 : RESISTIVITY MUD FILTRATE SAMPLE
MFST.DEGC                   21.1 : MUD FILTRATE SAMPLE TEMPERATURE
RMC .OHMM                    1.6 : RESISTIVITY MUD CAKE
MCST.DEGC                   20.0 : MUD CAKE SAMPLE TEMPERATURE
MFSS.                      PRESS : MUD FILTRATE SAMPLE SOURCE
MCSS.                       MEAS : MUD CAKE SAMPLE SOURCE
RMB .OHMM                    0.4 : RESISTIVITY MUD AT BHT
TCS .HRS                    1630 : TIME CIRCULATED STOPPED
TLAB.HRS                     700 : TIME LOGGER AT BOTTOM
LUN .                       8108 : LOGGING UNIT NUMBER
LUL .                      EDSON : LOGGING UNIT LOCATION
ENGI.                   CHALMERS : RECORDING ENGINEER
WITN.           ELLIS TODDINGTON : WITNESSED BY
CLNT.                    A2DTECH : CLIENT CODE
ORIG. 6.5"/100M 16.5"/100M PRINT : ORIGIN OF DATA
UWI .           100050705624W502 : UNIQUE WELL ID
DICO.     A2D Technologies, Inc. : DIGITIZING COMPANY
~Other -----------------------------------------------------
~ASCII -----------------------------------------------------
  300.00000    -999.25    -999.25    -999.25    -999.25    -999.25    -999.25    -999.25    -999.25    -999.25    -999.25    -999.25    -999.25    -999.25    -999.25   47.07850    -999.25   47.07850    -999.25    -999.25    -999.25    -999.25    0.61540    0.63040    -999.25    -999.25    -999.25    -999.25    -999.25
  350.00000    -999.25    -999.25    -999.25    -999.25    -999.25    -999.25    -999.25    -999.25    -999.25    -999.25    -999.25    -999.25    -999.25    -999.25   53.35520    -999.25   53.35520    -999.25    -999.25    -999.25    -999.25    0.53300    0.54800    -999.25    -999.25    -999.25    -999.25    -999.25
  400.00000    -999.25    -999.25    -999.25    -999.25    -999.25    -999.25    -999.25    -999.25    -999.25    -999.25    -999.25    -999.25    -999.25    -999.25   64.58150    -999.25   64.58150    -999.25    -999.25    -999.25    -999.25    0.65300    0.66800    -999.25    -999.25    -999.25    -999.25    -999.25
  450.00000    -999.25    -999.25    -999.25    -999.25    -999.25    -999.25    -999.25    -999.25    -999.25    -999.25    -999.25    -999.25    -999.25    -999.25   56.27800    -999.25   56.27800    -999.25    -999.25    -999.25    -999.25    0.62720    0.64220    -999.25    -999.25    -999.25    -999.25    -999.25
  500.00000    -999.25    -999.25    -999.25    -999.25    -999.25    -999.25    -999.25    -999.25    -999.25    -999.25    -999.25    -999.25    -999.25    -999.25   41.92560    -999.25   41.92560    -999.25    -999.25    -999.25    -999.25    0.62830    0.64330    -999.25    -999.25    -999.25    -999.25    -999.25
  550.00000    -999.25    -999.25    -999.25    -999.25    -999.25    -999.25    -999.25    -999.25    -999.25    -999.25    -999.25    -999.25    -999.25    -999.25   48.79010   56.12290   48.79010    -999.25    -999.25    -999.25    -999.25    0.47640    0.49140    -999.25    -999.25    -999.25    -999.25    -999.25
  600.00000    -999.25    -999.25    -999.25    -999.25    -999.25    -999.25    -999.25    -999.25    -999.25    -999.25    -999.25    -999.25    -999.25    -999.25   51.85730   55.16200   51.85730    -999.25    -999.25    -999.25    -999.25    0.57610    0.59110    -999.25    -999.25    -999.25    -999.25    -999.25
  650.00000  353.82850  342.64860  353.82850    -999.25   85.60840   16.80620 2392.94630    -999.25    0.15060    0.18540   11.68110   16.80620  267.32980  267.32980   83.92370   79.84690   83.92370   11.68110    8.62390    8.62390    -999.25    0.27670    0.33620 2392.94630    9.64090  -45.49610  -16.48290    9.64090
  700.00000  323.95760  323.22300  323.95760    -999.25  133.68090    7.97150 2268.97630    -999.25    0.23130    0.25790    7.48050    7.97150  294.51400  294.51400  102.86570  113.43850  102.86570    7.48050    6.12640    6.12640    -999.25    0.36090    0.40150 2268.97630    5.99250  -50.57740  -21.39580    5.99250
  750.00000  328.51980  317.89480  328.51980    -999.25   81.48030   63.42110 2167.44020    -999.25    0.29190    0.31730   12.27290   63.42110  264.02800  264.02800   96.65010  102.60390   96.65010   12.27290   11.56960   11.56960    -999.25    0.33930    0.38530 2167.44020   11.30650  -51.92280  -22.52580   11.30650
  800.00000  424.77360  328.46880  424.77360    -999.25   97.32930   29.26440 1855.75880    -999.25    0.50680    0.49960   10.27440   29.26440  272.27880  272.27880   74.75350   79.88170   74.75350   10.27440    9.31220    9.31220    -999.25    0.36650    0.40560 1855.75880    9.12520  -62.12120  -32.50890    9.12520
  850.00000  378.75440  318.84430  378.75440    -999.25   86.19280    9.11910 1930.68510    -999.25    0.44770    0.45570   11.60190    9.11910  308.03870  308.03870   70.38140   89.86990   70.38140   11.60190    8.52220    8.52220    -999.25    0.39140    0.42380 1930.68510   11.69140  -59.07480  -29.24710   11.69140
  900.00000  328.59060  330.54820  328.59060    -999.25   64.05490    6.60340 2541.84790    -999.25    0.06980    0.09830   15.61160    6.60340  246.39870  246.39870   77.95620   84.38030   77.95620   15.61160   13.97830   13.97830    -999.25    0.22270    0.29090 2541.84790   13.09570  -60.92170  -30.87870   13.09570
  950.00000  297.69720  313.63550  297.69720    -999.25   14.66330   11.75910 2497.14110    -999.25    0.07490    0.12450   68.19760   11.75910  216.26760  216.26760   50.14720   56.16490   50.14720   68.19760   55.28880   55.28880    -999.25    0.18110    0.25390 2497.14110  154.48090 -115.48860  -85.23020  154.48090
 1000.00000  432.42130  334.78640  432.42130    -999.25   81.61530  126.92990 2533.71850    -999.25    0.09820    0.10310   12.25260  126.92990  245.79890  245.79890   93.99740   95.21010   93.99740   12.25260    9.85430    9.85430    -999.25    0.23240    0.29930 2533.71850   10.65410  -59.73950  -29.26580   10.65410
 1050.00000  492.37250  351.84370  492.37250    -999.25   97.57530    3.83980 2112.08350    -999.25    0.32880    0.34970   10.24850    3.83980  349.90580  349.90580   83.43370  103.96040   83.43370   10.24850    7.38840    7.38840    -999.25    0.36980    0.40800 2112.08350    8.49420  -49.29010  -18.60100    8.49420
 1100.00000  329.25700  327.04240  329.25700    -999.25   87.84950   -3.77920 2235.92360    -999.25    0.39310    0.27720   11.38310   -3.77920  245.24570  245.24570   70.39430   80.14740   70.39430   11.38310    9.98510    9.98510    -999.25    0.37520    0.41200 2235.92360    9.83400  -50.84400  -19.93960    9.83400
 1150.00000  433.15190  320.56620  433.15190    -999.25   66.13760   82.02300 2151.93140    -999.25    0.31990    0.32640   15.12000   82.02300  258.95260  258.95260   91.15040   90.76010   91.15040   15.12000   11.90310   11.90310    -999.25    0.36200    0.40230 2151.93140   13.28670  -55.20280  -24.08300   13.28670
 1200.00000  492.51640  344.84160  492.51640    -999.25   74.69260   75.20800 2085.06010    -999.25    0.33120    0.36550   13.38820   75.20800  258.00580  258.00580   80.47720   84.10550   80.47720   13.38820   11.74300   11.74300    -999.25    0.29780    0.35310 2085.06010   10.32390  -52.26630  -20.93110   10.32390
 1250.00000  463.11700  355.91650  463.11700    -999.25  150.77730   -7.05030 2453.69380    -999.25    0.11230    0.14990    6.63230   -7.05030  262.54190  262.54190   84.19850   93.21070   84.19850    6.63230    6.25360    6.25360    -999.25    0.30380    0.35790 2453.69380    6.11780  -51.74560  -20.19510    6.11780
 1300.00000  345.81240  348.22350  345.81240    -999.25   80.92640   26.91790 2507.08570    -999.25    0.08600    0.11870   12.35690   26.91790  242.77070  242.77070   70.22620   87.35480   70.22620   12.35690   10.35210   10.35210    -999.25    0.19420    0.26580 2507.08570   10.95220  -44.78350  -13.01760   10.95220
 1350.00000  476.85230  340.22970  476.85230    -999.25  111.86060   19.58410 2031.62590    -999.25    0.34540    0.39670    8.93970   19.58410  279.80580  279.80580   96.63870  101.74940   96.63870    8.93970    7.41820    7.41820    -999.25    0.32020    0.37060 2031.62590    8.92600  -41.48230   -9.64020    8.92600
 1400.00000  490.99830  333.29310  490.99830    -999.25   49.68920   35.73730 2522.53640    -999.25    0.07210    0.10960   20.12510   35.73730  240.20000  240.20000   59.52390   70.64400   59.52390   20.12510   17.61980   17.61980    -999.25    0.13020    0.20650 2522.53640   30.84370  -40.78820   -8.94610   30.84370
 1450.00000  492.03200  360.90320  492.03200    -999.25   34.18340   -2.92260 1525.67770    -999.25    0.68110    0.69260   29.25400   -2.92260  272.62180  272.62180   75.15580   83.30540   75.15580   29.25400   15.58050   15.58050    -999.25    0.35380    0.39620 1525.67770   14.82330  -36.92300   -5.08090   14.82330
 1500.00000  342.46100  332.98560  342.46100    -999.25   49.21530   61.99700 2139.84330    -999.25    0.31210    0.33340   20.31890   61.99700  207.20310  207.20310   65.43660   59.62550   65.43660   20.31890   19.71870   19.71870    -999.25    0.13870    0.21470 2139.84330   22.26220  -41.57530   -9.73320   22.26220
