~Version ---------------------------------------------------
VERS. 2.0 : CWLS log ASCII Standard -VERSION 2.0
WRAP.  NO : ONE LINE PER DEPTH STEP
~Well ------------------------------------------------------
STRT.FT                        950.0 : START DEPTH
STOP.FT                       9550.0 : STOP DEPTH
STEP.FT                     50.00000 : STEP LENGTH
NULL.                        -999.25 : NULL VALUE
COMP.  TENNESSE GAS TRANSMISSION CO. : COMPANY
WELL. TGT CALSTAN A1 BENT N 6-4-41-1 : WELL
FLD .                                : FIELD
LOC .                                : LOCATION
CTRY.                         CANADA : COUNTRY
SRVC.                   Schlumberger : SERVICE COMPANY
DATE.                    20-Jan-1961 : LOGDATE
LOC1.                                : LOCATION 1
SECT.                                : SECTION
TOWN.                                : TOWNSHIP
RNGE.                                : RANGE
PDAT.                                : PERM DATUM
EPD .                                : ELEVATION
LMF .                                : LOG MEASURED FROM
DMF .                                : DRILL MEASURED FROM
APD .                                : ABOVE PERM DATUM
EKB .                        2916.25 : ELEV-KELLY BUSHING.
EDF .                                : ELEV-DRILL FLOOR
EGL .                           2904 : ELEV-GROUND LEVEL
PROV.                        Alberta : PROVINCE
UWI .               100060404101W500 : UNIQUE WELL ID
SLAT.WGS84                  52.50008 : SURFACE LATITUDE
SLON.WGS84                 -114.0878 : SURFACE LONGITUDE
~Curve Information -----------------------------------------
DEPT  .FT                                  : DEPTH FEET
CALWS .IN                                  : CALIPER [MCALED]
CILDED.MMHO                                : CONDUCTIVITY FROM RESISTIVITY LOG
CONDWS.MMHO :   CONDUCTIVITY [1000/DRESWS] : CONDUCTIVITY [CILDED]
DRESWS.OHMM                                : DEEP RESISTIVITY [IF ILDED<1;1000/CILDED]
DTED  .US/F                                : DELTA TIME FROM SONIC LOG
DTWS  .US/F                                : DELTA TIME [DTED]
GRSED .UGRA_EQ                             : GAMMA RAY FROM SONIC LOG
GRWS  .GAPI                                : GAMMA RAY [GRSED*16.50]
ILDED .OHMM                                : INDUCTION LOG DEEP RESISTIVITY
MCALED.IN                                  : CALIPER MICROLOG
SNED  .OHMM                                : 16 INCH SHORT NORMAL RESISTIVITY FROM IEL
SPRED .MV                                  : SPONTANEOUS POTENTIAL FROM RESISTIVITY LOG
SPWS  .MV                                  : SPONTANEOUS POTENTIAL [BASELINE 0 MV] [SPRED]
SRESWS.OHMM                                : SHALLOW RESISTIVITY [SNED]
~Params ----------------------------------------------------
~Other -----------------------------------------------------
1. ALL CURVES APPEAR ON DEPTH, MUD DENSITY 10.4 PPG. DATA FROM 2" AND 5" IMAGES.
~ASCII -----------------------------------------------------
# ...
 5850.00000   10.76840   25.27930   32.14870   31.10550    -999.25    -999.25    -999.25    -999.25   31.10550   10.76840   56.12470  -76.79590  -16.68460   56.12470
 5900.00000    9.92490   92.10500   97.16100   10.29220    -999.25    -999.25    -999.25    -999.25   10.29220    9.92490   14.65780  -60.02100   -1.53860   14.65780
 5950.00000    9.70730   47.40570   53.96220   18.53150    -999.25    -999.25    -999.25    -999.25   18.53150    9.70730   28.97380  -59.98210   -3.12860   28.97380
 6000.00000    9.74340   31.11730   33.58440   29.77570    -999.25    -999.25    -999.25    -999.25   29.77570    9.74340   40.22560  -60.59500   -5.37050   40.22560
 6050.00000   10.27600   43.90000   49.35710   20.26050    -999.25    -999.25    -999.25    -999.25   20.26050   10.27600   27.41580  -63.69620  -10.10060   27.41580
 6100.00000    9.70790   57.15160   55.19950   18.11610   74.61710   74.61710    4.80820   79.33530   18.11610    9.70790   27.20410  -62.34430  -10.37770   27.20410
 6150.00000    9.48590   43.33830   49.96680   20.01330   75.13860   75.13860    4.94510   81.59410   20.01330    9.48590   31.97490  -55.98550   -5.64780   31.97490
 6200.00000    9.42840   19.23140   22.51270   44.41940   64.74710   64.74710    4.18470   69.04760   44.41940    9.42840   61.00410  -57.17360   -8.46480   61.00410
 6250.00000    9.29590   29.70830   32.14180   31.11210   61.12960   61.12960    3.86000   63.69000   31.11210    9.29590   41.86100  -66.48480  -19.40500   41.86100
 6300.00000    9.85940   60.16980   62.19370   16.07880   79.61460   79.61460    4.30700   71.06550   16.07880    9.85940   28.76000  -45.76020   -0.30930   28.76000
 6350.00000    9.26460    8.00410    9.46970  105.60030   51.90000   51.90000    0.73140   12.06810  105.60030    9.26460  138.79170  -56.34670  -11.97440  138.79170
 6400.00000    9.42050   11.51170   10.65850   93.82140   55.37410   55.37410    1.24220   20.49630   93.82140    9.42050   67.39040  -67.20600  -23.84420   67.39040
 6450.00000    9.71750    7.18760    6.57000  152.20700   55.34090   55.34090    1.02330   16.88450  152.20700    9.71750   77.25960  -59.51120  -17.16000   77.25960
 6500.00000    9.26350    8.17880    8.85930  112.87570   53.98310   53.98310    1.43960   23.75340  112.87570    9.26350   68.30240  -53.92470  -12.58400   68.30240
 6550.00000    9.26430    9.21540    7.59040  131.74620   54.42680   54.42680    1.65050   27.23330  131.74620    9.26430   79.62140  -50.32740   -9.99720   79.62140
 6600.00000    9.25660    6.93190    5.27960  189.40900   53.81760   53.81760    1.46200   24.12300  189.40900    9.25660   88.48710  -49.75660  -10.43700   88.48710
 6650.00000    9.25740    6.46560    3.99070  250.58340   53.06640   53.06640    1.63360   26.95440  250.58340    9.25740  100.85510  -44.02080   -5.71170  100.85510
 6700.00000    9.03520    8.98670    5.53390  180.70440   62.15380   62.15380    5.47310   90.30610  180.70440    9.03520   85.46000  -37.35000   -0.05150   85.46000
 6750.00000    9.61450   20.73880   10.26280   97.43910   52.52610   52.52610    0.49810    8.21870   97.43910    9.61450   84.27730  -44.41300   -6.67300   84.27730
 6800.00000   10.75380   10.40120    4.64020  215.50650   59.26230   59.26230    1.59380   26.29770  215.50650   10.75380   82.79340  -96.32470  -57.63300   82.79340
 6850.00000    9.57830   19.17600   16.84280   59.37240   51.10650   51.10650    0.66790   11.02040   59.37240    9.57830   64.00810 -107.41680  -67.77340   64.00810
 6900.00000   10.33220   10.29110   10.10960   98.91560   51.01450   51.01450    1.84810   30.49370   98.91560   10.33220   66.37820  -88.11290  -47.51790   66.37820
 6950.00000    9.63420   23.23100   17.06700   58.59270   52.99620   52.99620    0.76220   12.57630   58.59270    9.63420   54.13880  -90.13770  -48.59100   54.13880
 7000.00000    9.42560    6.91270    4.28160  233.55610   49.49940   49.49940    1.14530   18.89740  233.55610    9.42560   92.02930 -102.52940  -60.03100   92.02930
 7050.00000    9.41530    6.20510    4.99650  200.14100   50.74820   50.74820    0.76230   12.57800  200.14100    9.41530   88.60920  -99.49800  -56.04790   88.60920
 7100.00000    9.26580   11.46570   11.11110   89.99980   51.04170   51.04170    0.63990   10.55840   89.99980    9.26580   75.28880 -105.62470  -61.22300   75.28880
 7150.00000    9.81960   19.62900   20.93810   47.75990   50.58600   50.58600    2.65150   43.74970   47.75990    9.81960   52.52370 -107.25430  -61.90090   52.52370
 7200.00000    9.51200    8.24540    3.22130  310.43450   53.67160   53.67160    0.80630   13.30400  310.43450    9.51200  101.95940 -108.81070  -62.50560  101.95940
 7250.00000    9.31580    4.82570    1.99790  500.52740   48.09300   48.09300    0.53420    8.81430  500.52740    9.31580  135.20060  -94.41810  -47.16140  135.20060
 7300.00000    9.30590    5.58970    3.48730  286.75730   48.59440   48.59440    0.69990   11.54830  286.75730    9.30590  107.89200 -100.75030  -52.54190  107.89200
 7350.00000    9.47830    7.46790    8.02590  124.59710   52.24580   52.24580    1.01590   16.76240  124.59710    9.47830   91.23650  -76.13190  -26.97180   91.23650
 7400.00000    9.35110    5.83090    3.46950  288.22900   50.72990   50.72990    1.05800   17.45700  288.22900    9.35110   99.20370  -81.70610  -31.59430   99.20370
 7450.00000    9.04220    6.00570    4.19260  238.51710   50.20290   50.20290    1.37610   22.70570  238.51710    9.04220  121.76080  -71.47390  -20.41050  121.76080
 7500.00000    9.23340   12.58640   12.32080   81.16340   44.84230   44.84230    2.78630   45.97400   81.16340    9.23340   59.16730  -54.96870   -2.95360   59.16730
 7550.00000    9.54530    5.04010    1.99960  500.08880   56.48750   56.48750    1.07350   17.71280  500.08880    9.54530  130.12170 -107.59810  -54.63130  130.12170
 7600.00000    9.10800    4.05690    2.00350  499.13670   47.62130   47.62130    1.74360   28.76940  499.13670    9.10800  170.89490 -104.09690  -50.17850  170.89490
 7650.00000   10.11250    6.37820    5.07570  197.01570   51.89630   51.89630    0.94170   15.53810  197.01570   10.11250   97.14140  -85.44480  -30.57470   97.14140
 7700.00000    9.16820   48.72090   46.65420   21.43430   56.05300   56.05300    3.28310   54.17120   21.43430    9.16820   35.62850  -93.37010  -37.54830   35.62850
 7750.00000    9.27930   33.48940   28.34310   35.28200   59.96680   59.96680    4.10880   67.79520   35.28200    9.27930   33.51330  -58.49960   -1.72620   33.51330
 7800.00000    9.31940   58.16460   59.41140   16.83180   66.68300   66.68300    4.97110   82.02320   16.83180    9.31940   19.10140  -62.45860  -14.16180   19.10140
 7850.00000    9.44810   66.94820   65.31810   15.30970   68.92330   68.92330    4.26140   70.31310   15.30970    9.44810   17.06580  -45.32150   -5.79300   17.06580
 7900.00000   12.31600  128.99430  136.71470    7.31450   71.17020   71.17020    5.25610   86.72570    7.31450   12.31600    9.60530  -75.01190  -41.79960    9.60530
 7950.00000    9.50810   88.72370   91.16440   10.96920   69.67350   69.67350    5.79740   95.65710   10.96920    9.50810   14.50650  -53.34040  -21.68410   14.50650
 8000.00000    9.81920   89.00150   92.14470   10.85250   69.65490   69.65490    5.18910   85.62010   10.85250    9.81920   13.86340  -82.29990  -52.19960   13.86340
 8050.00000    9.64340   78.32260   79.81550   12.52890   67.77700   67.77700    5.04610   83.26060   12.52890    9.64340   15.29030  -59.99490  -31.45060   15.29030
 8100.00000    9.62940   73.37950   74.73230   13.38110   67.41630   67.41630    4.86510   80.27420   13.38110    9.62940   16.12880  -74.61890  -47.63070   16.12880
 8150.00000    9.39060   28.46390   24.87560   40.20010   57.68640   57.68640    3.13220   51.68130   40.20010    9.39060   34.80360  -71.30720  -45.87500   34.80360
 8200.00000   10.00490   95.23540  100.43890    9.95630   72.74400   72.74400    5.83640   96.30060    9.95630   10.00490   13.07230  -24.31700   -0.44080   13.07230
 8250.00000    9.54210   79.13720   81.81770   12.22230   70.59580   70.59580    5.36390   88.50440   12.22230    9.54210   15.51510  -22.61320   -0.29310   15.51510
