~Version ---------------------------------------------------
VERS. 2.0 : CWLS log ASCII Standard -VERSION 2.0
WRAP.  NO : ONE LINE PER DEPTH STEP
~Well ------------------------------------------------------
STRT.FT                        950.0 : START DEPTH
STOP.FT                       9550.0 : STOP DEPTH
STEP.FT                     50.00000 : STEP LENGTH
NULL.                        -999.25 : NULL VALUE
COMP.  TENNESSE GAS TRANSMISSION CO. : COMPANY
WELL. TGT CALSTAN A1 BENT N 6-4-41-1 : WELL
FLD .                                : FIELD
LOC .                                : LOCATION
CTRY.                         CANADA : COUNTRY
SRVC.                   Schlumberger : SERVICE COMPANY
DATE.                    20-Jan-1961 : LOGDATE
LOC1.                                : LOCATION 1
SECT.                                : SECTION
TOWN.                                : TOWNSHIP
RNGE.                                : RANGE
PDAT.                                : PERM DATUM
EPD .                                : ELEVATION
LMF .                                : LOG MEASURED FROM
DMF .                                : DRILL MEASURED FROM
APD .                                : ABOVE PERM DATUM
EKB .                        2916.25 : ELEV-KELLY BUSHING.
EDF .                                : ELEV-DRILL FLOOR
EGL .                           2904 : ELEV-GROUND LEVEL
PROV.                        Alberta : PROVINCE
UWI .               100060404101W500 : UNIQUE WELL ID
SLAT.WGS84                  52.50008 : SURFACE LATITUDE
SLON.WGS84                 -114.0878 : SURFACE LONGITUDE
~Curve Information -----------------------------------------
DEPT  .FT                                  : DEPTH FEET
CALWS .IN                                  : CALIPER [MCALED]
CILDED.MMHO                                : CONDUCTIVITY FROM RESISTIVITY LOG
CONDWS.MMHO :   CONDUCTIVITY [1000/DRESWS] : CONDUCTIVITY [CILDED]
DRESWS.OHMM                                : DEEP RESISTIVITY [IF ILDED<1;1000/CILDED]
DTED  .US/F                                : DELTA TIME FROM SONIC LOG
DTWS  .US/F                                : DELTA TIME [DTED]
GRSED .UGRA_EQ                             : GAMMA RAY FROM SONIC LOG
GRWS  .GAPI                                : GAMMA RAY [GRSED*16.50]
ILDED .OHMM                                : INDUCTION LOG DEEP RESISTIVITY
MCALED.IN                                  : CALIPER MICROLOG
SNED  .OHMM                                : 16 INCH SHORT NORMAL RESISTIVITY FROM IEL
SPRED .MV                                  : SPONTANEOUS POTENTIAL FROM RESISTIVITY LOG
SPWS  .MV                                  : SPONTANEOUS POTENTIAL [BASELINE 0 MV] [SPRED]
SRESWS.OHMM                                : SHALLOW RESISTIVITY [SNED]
~Params ----------------------------------------------------
~Other -----------------------------------------------------
1. ALL CURVES APPEAR ON DEPTH, MUD DENSITY 10.4 PPG. DATA FROM 2" AND 5" IMAGES.
~ASCII -----------------------------------------------------
  950.00000    -999.25  115.56050  130.53810    7.66060    -999.25    -999.25    -999.25    -999.25    7.66060    -999.25   14.06190  -98.43480   -2.84920   14.06190
 1000.00000    -999.25   95.84100  122.06440    8.19240    -999.25    -999.25    -999.25    -999.25    8.19240    -999.25   12.90910  -98.20900   -2.08860   12.90910
 1050.00000    -999.25  173.86470  191.61490    5.21880    -999.25    -999.25    -999.25    -999.25    5.21880    -999.25    5.83170  -96.84020   -0.18500    5.83170
 1100.00000    -999.25  145.95570  190.87250    5.23910    -999.25    -999.25    -999.25    -999.25    5.23910    -999.25    5.79550  -97.42920   -0.29770    5.79550
 1150.00000    -999.25  315.52960  282.59760    3.53860    -999.25    -999.25    -999.25    -999.25    3.53860    -999.25    2.77660  -99.29230   -2.60060    2.77660
 1200.00000    -999.25  164.88260  194.87480    5.13150    -999.25    -999.25    -999.25    -999.25    5.13150    -999.25    7.87290  -97.86280   -1.61100    7.87290
 1250.00000    -999.25  149.89620  155.28910    6.43960    -999.25    -999.25    -999.25    -999.25    6.43960    -999.25    9.86340  -97.00220   -1.19020    9.86340
 1300.00000    -999.25  230.77760  255.42130    3.91510    -999.25    -999.25    -999.25    -999.25    3.91510    -999.25    4.41450  -95.93060   -0.55840    4.41450
 1350.00000    -999.25  147.06640  171.90400    5.81720    -999.25    -999.25    -999.25    -999.25    5.81720    -999.25    6.13760  -95.94190   -1.00960    6.13760
 1400.00000    -999.25  124.46070  145.56890    6.86960    -999.25    -999.25    -999.25    -999.25    6.86960    -999.25    7.70640  -95.92510   -1.43260    7.70640
 1450.00000    -999.25  128.61600  143.20490    6.98300    -999.25    -999.25    -999.25    -999.25    6.98300    -999.25    7.76140  -94.67270   -0.62000    7.76140
 1500.00000    -999.25  149.35130  159.25090    6.27940    -999.25    -999.25    -999.25    -999.25    6.27940    -999.25    7.01540  -94.52090   -0.90810    7.01540
 1550.00000    -999.25  180.42680  204.27760    4.89530    -999.25    -999.25    -999.25    -999.25    4.89530    -999.25    5.60290  -93.74420   -0.57120    5.60290
 1600.00000    -999.25  136.10130  133.55590    7.48750    -999.25    -999.25    -999.25    -999.25    7.48750    -999.25    9.33760  -94.28540   -1.55220    9.33760
 1650.00000    -999.25  118.87640  122.33610    8.17420    -999.25    -999.25    -999.25    -999.25    8.17420    -999.25    9.64200  -93.79770   -1.50440    9.64200
 1700.00000    -999.25  210.96100  206.63720    4.83940    -999.25    -999.25    -999.25    -999.25    4.83940    -999.25    5.28440  -92.10450   -0.25100    5.28440
 1750.00000    -999.25  276.12460  204.55340    4.88870    -999.25    -999.25    -999.25    -999.25    4.88870    -999.25    4.29700  -91.55320   -0.13950    4.29700
 1800.00000    -999.25   99.87970  114.33010    8.74660    -999.25    -999.25    -999.25    -999.25    8.74660    -999.25    7.98120  -92.29880   -1.32500    7.98120
 1850.00000    -999.25  106.59330   88.23400   11.33350    -999.25    -999.25    -999.25    -999.25   11.33350    -999.25   14.50510  -92.36890   -1.87690   14.50510
 1900.00000    -999.25   55.18840   68.63230   14.57040    -999.25    -999.25    -999.25    -999.25   14.57040    -999.25   14.23380 -101.87350  -12.34670   14.23380
 1950.00000    -999.25  184.78470  168.82480    5.92330    -999.25    -999.25    -999.25    -999.25    5.92330    -999.25    5.43620  -89.42910   -0.86740    5.43620
 2000.00000    -999.25   95.67850  103.89070    9.62550    -999.25    -999.25    -999.25    -999.25    9.62550    -999.25    8.81430  -90.38990   -2.79340    8.81430
 2050.00000    -999.25  182.41780  161.96430    6.17420    -999.25    -999.25    -999.25    -999.25    6.17420    -999.25    8.74050  -88.18430   -1.55290    8.74050
 2100.00000    -999.25  220.68730  198.93770    5.02670    -999.25    -999.25    -999.25    -999.25    5.02670    -999.25    5.82850  -86.63110   -0.96490    5.82850
 2150.00000    -999.25  235.12510  195.03060    5.12740    -999.25    -999.25    -999.25    -999.25    5.12740    -999.25    4.27700  -86.27740   -1.07540    4.27700
 2200.00000    -999.25  181.46560  174.98730    5.71470    -999.25    -999.25    -999.25    -999.25    5.71470    -999.25    6.16530  -87.54740   -2.78880    6.16530
 2250.00000    -999.25  172.04620  176.69720    5.65940    -999.25    -999.25    -999.25    -999.25    5.65940    -999.25    6.19150  -86.66300   -2.34780    6.19150
 2300.00000    -999.25  141.86290  145.16950    6.88850    -999.25    -999.25    -999.25    -999.25    6.88850    -999.25    9.28540  -86.25700   -2.38520    9.28540
 2350.00000    -999.25  180.01870  165.31110    6.04920    -999.25    -999.25    -999.25    -999.25    6.04920    -999.25    6.38760  -83.89810   -0.46970    6.38760
 2400.00000    -999.25  130.64940  113.62220    8.80110    -999.25    -999.25    -999.25    -999.25    8.80110    -999.25    9.33470  -84.07110   -1.08600    9.33470
 2450.00000    -999.25  160.11180  161.31890    6.19890    -999.25    -999.25    -999.25    -999.25    6.19890    -999.25    7.55130  -83.78840   -1.24670    7.55130
 2500.00000    -999.25   78.32580   95.82400   10.43580    -999.25    -999.25    -999.25    -999.25   10.43580    -999.25   12.55190  -84.22240   -1.97920   12.55190
 2550.00000    -999.25  130.36130  125.93820    7.94040    -999.25    -999.25    -999.25    -999.25    7.94040    -999.25    8.19680  -83.58230   -1.50910    8.19680
 2600.00000    -999.25  217.75010  200.80720    4.97990    -999.25    -999.25    -999.25    -999.25    4.97990    -999.25    4.22620  -82.07400   -0.17080    4.22620
 2650.00000    -999.25  198.06570  181.94390    5.49620    -999.25    -999.25    -999.25    -999.25    5.49620    -999.25    4.54970  -82.04800   -0.31480    4.54970
 2700.00000    -999.25  224.38490  202.87680    4.92910    -999.25    -999.25    -999.25    -999.25    4.92910    -999.25    4.11680  -81.43110    0.13210    4.11680
 2750.00000    -999.25  102.58250  103.94470    9.62050    -999.25    -999.25    -999.25    -999.25    9.62050    -999.25   11.26130  -85.34170   -3.94840   11.26130
 2800.00000    -999.25   98.78350   92.05900   10.86260    -999.25    -999.25    -999.25    -999.25   10.86260    -999.25   13.38470  -89.31410   -8.09080   13.38470
 2850.00000    -999.25   72.69780   70.42850   14.19880    -999.25    -999.25    -999.25    -999.25   14.19880    -999.25   16.37600  -90.39740   -9.34410   16.37600
 2900.00000    -999.25  180.27930  170.52330    5.86430    -999.25    -999.25    -999.25    -999.25    5.86430    -999.25    6.37630  -81.69460   -0.81130    6.37630
 2950.00000    -999.25   87.81970   92.99380   10.75340    -999.25    -999.25    -999.25    -999.25   10.75340    -999.25   13.10790  -85.98200   -5.26870   13.10790
 3000.00000    -999.25  217.17260  171.52360    5.83010    -999.25    -999.25    -999.25    -999.25    5.83010    -999.25    6.14010  -79.44280    1.10050    6.14010
 3050.00000    -999.25  170.81280  163.87800    6.10210    -999.25    -999.25    -999.25    -999.25    6.10210    -999.25    6.52140  -79.20130    1.17200    6.52140
 3100.00000    -999.25  187.00990  187.78280    5.32530    -999.25    -999.25    -999.25    -999.25    5.32530    -999.25    5.76620  -81.35060   -1.14730    5.76620
 3150.00000    -999.25  121.76950   94.45990   10.58650    -999.25    -999.25    -999.25    -999.25   10.58650    -999.25   16.94970  -97.23250  -17.19920   16.94970
 3200.00000    -999.25   70.25410   54.62840   18.30550    -999.25    -999.25    -999.25    -999.25   18.30550    -999.25   28.68350  -85.01300   -5.14970   28.68350
 3250.00000    -999.25  120.83220   99.13750   10.08700    -999.25    -999.25    -999.25    -999.25   10.08700    -999.25   13.18810  -81.11850   -1.42510   13.18810
 3300.00000    -999.25  160.99580  156.90950    6.37310    -999.25    -999.25    -999.25    -999.25    6.37310    -999.25    6.89150  -80.15340   -0.63000    6.89150
 3350.00000   11.92510  160.74660  162.98860    6.13540  113.84050  113.84050    3.39350   55.99280    6.13540   11.92510    6.38050  -78.70660    0.64680    6.38050
