~Version ---------------------------------------------------
VERS.      2.0 : CWLS log ASCII Standard -VERSION 2.0
WRAP.       NO : One line per depth step
CREA. 11/21/17 : LAS Creation Date
~Well ------------------------------------------------------
STRT.FT                       1200.0 : START DEPTH
STOP.FT                      14950.0 : STOP DEPTH
STEP.FT                     50.00000 : STEP LENGTH
NULL.                        -999.25 : NULL VALUE
COMP.           PETROFINA CANADA LTD : COMPANY
WELL. PC FINA GULF ERITH 15-10-49-19 : WELL
FLD .                             WC : FIELD
LOC .                                : LOCATION
CTRY.                         CANADA : COUNTRY
SRVC.                   Schlumberger : SERVICE COMPANY
DATE.                    25-May-1972 : LOGDATE
PROV.                        Alberta : PROVINCE
UWI .               100151004919W500 : UNIQUE WELL ID
SLAT.WGS84                  53.21922 : SURFACE LATITUDE
SLON.WGS84                  -116.691 : SURFACE LONGITUDE
~Curve Information -----------------------------------------
DEPT    .FT    : Depth Curve
CALDED  .IN    : CALIPER FROM DENSITY LOG  [ADJ. TO RESISTIVITY LOG]
CALSED  .IN    : CALIPER FROM SONIC LOG
CALWS   .IN    : CALIPER [CALSED]
CILDED  .MMHO  : CONDUCTIVITY FROM RESISTIVITY LOG
CONDWS  .MMHO  : CONDUCTIVITY [1000/DRESWS]
DCORED  .G/C3  : DENSITY CORRECTION FROM DENSITY LOG  [ADJ. TO RESISTIVITY LOG]
DCORWS  .G/C3  : DENSITY CORRECTION [DCORED]
DENWS   .G/C3  : FORMATION BULK DENSITY [CALC. FROM DPOLSWS, M=2.71, F=1.00]
DPHILSED.V/V   : DENSITY POROSITY [M=2.71, F=1.00] FROM DENSITY LOG  [ADJ. TO RESISTIVITY LOG]
DPOLSWS .V/V   : DENSITY POROSITY LIMESTONE [DPHILSED]
DRESWS  .OHMM  : DEEP RESISTIVITY [1000/CILDED IF ILDED < 1, ILDED SPL. ILD @ 8190.5']
DTED    .US/F  : DELTA TIME FROM SONIC LOG
DTWS    .US/F  : COMPRESSIONAL SONIC [DTED]
GRDED   .GAPI  : GAMMA RAY FROM DENSITY LOG [ADJ. TO RESISTIVITY LOG]
GRNED   .GAPI  : GAMMA RAY FROM NEUTRON LOG [ADJ. TO RESISTIVITY LOG]
GRSED   .GAPI  : GAMMA RAY FROM SONIC LOG
GRWS    .GAPI  : GAMMA RAY [GRSED]
ILDED   .MMHO  : DEEP INDUCTION LOG  RESISTIVITY FROM RESISTIVITY LOG
ILMED   .OHMM  : MEDIUM INDUCTION LOG  RESISTIVITY FROM RESISTIVITY LLOG
LL8ED   .OHMM  : 8 INCH LATEROLOG RESISTIVITY FROM RESISTIVITY LOG
MRESWS  .OHMM  : MEDIUM RESISTIVITY [ILMED]
NEUTED  .NAPI  : NEUTRON FROM NEUTRON LOG [ADJ. TO SONIC LOG]
NEUTWS  .NAPI  : NEUTRON [NEUTED]
NPHILSED.V/V   : NEUTRON POROSITY LIMESTONE FROM DENSITY LOG [ADJ. TO RESISTIVITY LOG]
NPOLSWS .V/V   : NEUTRON POROSITY LIMESTONE [NPHILSED]
RHOBED  .G/C3  : BULK DENSITY FROM DENSITY LOG  [ADJ. TO RESISTIVITY LOG]
SPRED   .MV    : SPONTANEOUS POTENTIAL FROM RESISTIVITY LOG
SPWS    .MV    : SPONTANEOUS POTENTIAL [BASELINE 0 MV, SPRED]
SRESWS  .OHMM  : SHALLOW RESISTIVITY [LL8ED]
~Params ----------------------------------------------------
PD  .                     GL : PERMANENT DATUM
EPD .FT                 3706 : ELEVATION PERMANENT DATUM
LMF .                     KB : LOG MEASURED FROM
DAPD.FT                 17.5 : FEET ABOVE PERMANENT DATUM
EKB .FT               3723.5 : KELLY BUSHING
EGL .FT                 3706 : GROUND LEVEL
DATE.               06/07/72 : RUN DATE
RUN .                      3 : RUN NUMBER
DD  .FT                14975 : DEPTH DRILLER
DL  .FT                14971 : DEPTH LOGGER
BLI .FT                14966 : BOTTOM LOG INTERVAL
TLI .FT                14400 : TOP LOG INTERVAL
CBD .FT                11336 : CASING BOTTOM DRILLER
CBL .FT                11343 : CASING BOTTOM LOGGER
BS  .IN                  8.5 : BIT SIZE
BSD .FT                14975 : BIT SIZE AT DEPTH
DFT .       GEL CHEM POLYMER : DRILLING FLUID TYPE
DFD .                   13.5 : DRILLING FLUID DENSITY
DFV .                     55 : DRILLING FLUID VISCOSITY
DFPH.                   11.5 : DRILLING FLUID PH
DFL .                     15 : DRILLING FLUID LOSS
RMF .OHMM               0.28 : RESISTIVITY MUD FILTRATE SAMPLE
MFST.DEGF                 67 : MUD FILTRATE SAMPLE TEMPERATURE
RMB .OHMM               0.07 : RESISTIVITY MUD AT BHT
TCS .HRS                   6 : TIME CIRCULATED STOPPED
LUN .                  OSU-C : LOGGING UNIT NUMBER
LUL .               1123 EDM : LOGGING UNIT LOCATION
ENGI.                HACKNEY : RECORDING ENGINEER
WITN.               ROTA LEE : WITNESSED BY
CLNT.                A2DTECH : CLIENT CODE
ORIG.            2" 5" PRINT : ORIGIN OF DATA
UWI .       100151004919W500 : UNIQUE WELL ID
DICO. A2D Technologies, Inc. : DIGITIZING COMPANY
~Other -----------------------------------------------------
~ASCII -----------------------------------------------------
# ...
 11200.00000    -999.25   14.26560   14.26560    -999.25   80.95720    -999.25    -999.25    -999.25    -999.25    -999.25   12.35220   76.95680   76.95680    -999.25    -999.25   98.08940   98.08940   12.35220   15.77610   11.73840   15.77610  159.03090  159.03090    -999.25    -999.25    -999.25   88.24470   -3.44650   11.73840
 11250.00000    -999.25   13.05920   13.05920    -999.25   75.36650    -999.25    -999.25    -999.25    -999.25    -999.25   13.26850   72.49860   72.49860    -999.25    -999.25   91.16520   91.16520   13.26850    8.10260   15.42360    8.10260  168.22650  168.22650    -999.25    -999.25    -999.25   86.89000   -6.24380   15.42360
 11300.00000    -999.25   12.52220   12.52220    -999.25   58.28760    -999.25    -999.25    -999.25    -999.25    -999.25   17.15630   78.01280   78.01280    -999.25    -999.25   90.51840   90.51840   17.15630   14.43480   17.91840   14.43480    -999.25    -999.25    -999.25    -999.25    -999.25   76.27980  -15.95680   17.91840
 11350.00000    -999.25    7.85240    7.85240    -999.25    0.62470    -999.25    -999.25    -999.25    -999.25    -999.25 1600.84140   55.73090   55.73090    -999.25    -999.25   16.26740   16.26740 1600.84140 1581.40380  566.61590 1581.40380    -999.25    -999.25    -999.25    -999.25    -999.25   61.84410  -29.49530  566.61590
 11400.00000    -999.25    8.38780    8.38780    -999.25    0.57590    -999.25    -999.25    -999.25    -999.25    -999.25 1736.37810   54.13840   54.13840    -999.25    -999.25   21.03980   21.03980 1736.37810 1580.69470 1506.37050 1580.69470    -999.25    -999.25    -999.25    -999.25    -999.25   10.27870  -80.16360 1506.37050
 11450.00000    -999.25    8.36200    8.36200    -999.25    1.47350    -999.25    -999.25    -999.25    -999.25    -999.25  678.65820   55.77110   55.77110    -999.25    -999.25   85.33040   85.33040  678.65820 1514.01570  731.97160 1514.01570    -999.25    -999.25    -999.25    -999.25    -999.25  -12.62490 -102.16550  731.97160
 11500.00000    -999.25    7.60530    7.60530    -999.25    3.01330    -999.25    -999.25    -999.25    -999.25    -999.25  331.85890   50.55340   50.55340    -999.25    -999.25   24.33790   24.33790  331.85890  133.37410  129.24220  133.37410    -999.25    -999.25    -999.25    -999.25    -999.25  -38.00180 -126.64970  129.24220
 11550.00000    -999.25    7.71630    7.71630    -999.25   10.20980    -999.25    -999.25    -999.25    -999.25    -999.25   97.94510   51.83660   51.83660    -999.25    -999.25   30.60860   30.60860   97.94510  135.78580  113.15290  135.78580    -999.25    -999.25    -999.25    -999.25    -999.25  -60.27190 -148.02260  113.15290
 11600.00000    -999.25    7.53030    7.53030    -999.25    3.41810    -999.25    -999.25    -999.25    -999.25    -999.25  292.55720   50.41910   50.41910    -999.25    -999.25   19.10000   19.10000  292.55720  253.80480  205.76360  253.80480    -999.25    -999.25    -999.25    -999.25    -999.25  -49.53020 -136.38380  205.76360
 11650.00000    -999.25    8.77640    8.77640    -999.25    8.33110    -999.25    -999.25    -999.25    -999.25    -999.25  120.03270   52.11710   52.11710    -999.25    -999.25   37.69470   37.69470  120.03270 1687.83400  892.40310 1687.83400    -999.25    -999.25    -999.25    -999.25    -999.25  -31.47350 -117.42990  892.40310
 11700.00000    -999.25    8.50880    8.50880    -999.25    8.64750    -999.25    -999.25    -999.25    -999.25    -999.25  115.63990   51.07230   51.07230    -999.25    -999.25   27.26240   27.26240  115.63990  128.35880  162.35940  128.35880    -999.25    -999.25    -999.25    -999.25    -999.25  -30.84970 -115.90440  162.35940
 11750.00000    -999.25    8.93050    8.93050    -999.25    6.72680    -999.25    -999.25    -999.25    -999.25    -999.25  148.65820   50.83310   50.83310    -999.25    -999.25    8.91070    8.91070  148.65820  160.24950 1521.65780  160.24950    -999.25    -999.25    -999.25    -999.25    -999.25  -35.26470 -119.42680 1521.65780
 11800.00000    -999.25    8.85220    8.85220    -999.25   53.94990    -999.25    -999.25    -999.25    -999.25    -999.25   18.53570   56.47600   56.47600    -999.25    -999.25   38.23600   38.23600   18.53570   20.07060   30.24900   20.07060    -999.25    -999.25    -999.25    -999.25    -999.25  -34.10620 -117.37110   30.24900
 11850.00000    -999.25    9.37140    9.37140    -999.25    0.77270    -999.25    -999.25    -999.25    -999.25    -999.25 1294.10280   49.95950   49.95950    -999.25    -999.25    8.01730    8.01730 1294.10280 1633.21720 1556.93950 1633.21720    -999.25    -999.25    -999.25    -999.25    -999.25  -25.44130 -107.80900 1556.93950
 11900.00000    -999.25    8.83050    8.83050    -999.25    6.15350    -999.25    -999.25    -999.25    -999.25    -999.25  162.50790   50.14460   50.14460    -999.25    -999.25   20.09260   20.09260  162.50790  746.77240 1270.79350  746.77240    -999.25    -999.25    -999.25    -999.25    -999.25  -44.04680 -125.51730 1270.79350
 11950.00000    -999.25    7.27380    7.27380    -999.25    0.62800    -999.25    -999.25    -999.25    -999.25    -999.25 1592.45670   50.22600   50.22600    -999.25    -999.25   10.80870   10.80870 1592.45670 1708.01350 1508.53580 1708.01350    -999.25    -999.25    -999.25    -999.25    -999.25  -51.35140 -131.92030 1508.53580
 12000.00000    -999.25    8.99690    8.99690    -999.25   44.87460    -999.25    -999.25    -999.25    -999.25    -999.25   22.28430   56.98620   56.98620    -999.25    -999.25   41.97390   41.97390   22.28430   26.61430   32.02170   26.61430    -999.25    -999.25    -999.25    -999.25    -999.25  -45.29390 -124.97010   32.02170
 12050.00000    -999.25    8.61290    8.61290    -999.25   11.56490    -999.25    -999.25    -999.25    -999.25    -999.25   86.46820   55.17320   55.17320    -999.25    -999.25   38.42110   38.42110   86.46820  105.37350  120.86550  105.37350    -999.25    -999.25    -999.25    -999.25    -999.25  -39.02480 -117.80380  120.86550
 12100.00000    -999.25    9.04310    9.04310    -999.25   39.76030    -999.25    -999.25    -999.25    -999.25    -999.25   25.15070   61.05920   61.05920    -999.25    -999.25   65.89500   65.89500   25.15070   22.59040   28.46920   22.59040    -999.25    -999.25    -999.25    -999.25    -999.25  -17.53390  -95.41580   28.46920
 12150.00000    -999.25    8.55700    8.55700    -999.25   25.71610    -999.25    -999.25    -999.25    -999.25    -999.25   38.88620   57.32360   57.32360    -999.25    -999.25   32.82930   32.82930   38.88620   42.71290   40.97600   42.71290    -999.25    -999.25    -999.25    -999.25    -999.25  -18.05700  -95.04170   40.97600
 12200.00000    -999.25    8.61560    8.61560    -999.25   11.24940    -999.25    -999.25    -999.25    -999.25    -999.25   88.89380   56.04420   56.04420    -999.25    -999.25   31.06160   31.06160   88.89380   74.89620   79.28400   74.89620    -999.25    -999.25    -999.25    -999.25    -999.25  -29.93050 -106.01350   79.28400
 12250.00000    -999.25    8.55670    8.55670    -999.25    3.25510    -999.25    -999.25    -999.25    -999.25    -999.25  307.20750   54.01120   54.01120    -999.25    -999.25   30.00640   30.00640  307.20750  203.08000  195.44060  203.08000    -999.25    -999.25    -999.25    -999.25    -999.25  -24.77650  -99.96680  195.44060
 12300.00000    -999.25    8.58710    8.58710    -999.25    5.12580    -999.25    -999.25    -999.25    -999.25    -999.25  195.09110   53.51270   53.51270    -999.25    -999.25   30.10230   30.10230  195.09110  210.04030  197.65390  210.04030    -999.25    -999.25    -999.25    -999.25    -999.25  -14.38740  -88.68060  197.65390
 12350.00000    -999.25    8.83310    8.83310    -999.25    3.66480    -999.25    -999.25    -999.25    -999.25    -999.25  272.86380   54.70820   54.70820    -999.25    -999.25   35.22880   35.22880  272.86380  167.59380  156.73050  167.59380    -999.25    -999.25    -999.25    -999.25    -999.25  -14.34960  -87.74560  156.73050
 12400.00000    -999.25    8.53250    8.53250    -999.25    6.63840    -999.25    -999.25    -999.25    -999.25    -999.25  150.63960   55.81280   55.81280    -999.25    -999.25   39.18750   39.18750  150.63960   90.16010   94.78970   90.16010    -999.25    -999.25    -999.25    -999.25    -999.25  -20.76130  -93.26010   94.78970
