~Version ---------------------------------------------------
VERS.      2.0 : CWLS log ASCII Standard -VERSION 2.0
WRAP.       NO : One line per depth step
CREA. 11/16/17 : LAS Creation Date
~Well ------------------------------------------------------
STRT.FT                   1000.0 : START DEPTH
STOP.FT                  10100.0 : STOP DEPTH
STEP.FT                 50.00000 : STEP LENGTH
NULL.                    -999.25 : NULL VALUE
COMP.     CALIFORNIA STANDARD CO : COMPANY
WELL. CALSTAN MEEKWAP 4-11-65-19 : WELL
FLD .                            : FIELD
LOC .                            : LOCATION
CTRY.                     CANADA : COUNTRY
SRVC.               Schlumberger : SERVICE COMPANY
DATE.                22-Sep-1960 : LOGDATE
PROV.                    Alberta : PROVINCE
UWI .           100041106519W500 : UNIQUE WELL ID
SLAT.WGS84              54.60522 : SURFACE LATITUDE
SLON.WGS84             -116.7693 : SURFACE LONGITUDE
~Curve Information -----------------------------------------
DEPT  .FT         : Depth Curve
CALWS .IN         : CALIPER [MCALED]
CILDED.MMHO       : DEEP INDUCTION CONDUCTIVITY FROM RESISTIVITY LOG
CONDWS.MMHO       : CONDUCTIVITY [1000/DRESWS]
DRESWS.OHMM       : DEEP RESISTIVITY [1000/CILDED,IF ILDED <1,ILDED]
DT1ED .US/F       : DELTA-T FROM SONIC LOG
DTED  .US/F       : DELTA-T FROM SONIC LOG
DTWS  .US/F       : COMPRESSIONAL SONIC [DTED]
GRED  .GAPI       : GAMMA RAY (CASING & COLLARS) FROM GRN LOG [ADJ. TO RESISTIVITY]
GRSED .UgRa-Eq/T  : GAMMA RAY FROM SONIC LOG [ADJ. TO RESISTIVITY]
GRWS  .GAPI       : GAMMA RAY [GRSED*16.5]
ILDED .OHMM       : DEEP INDUCTION RESISTIVITY FROM RESISTIVITY LOG
MCALED.IN         : CALIPER FROM MICROLOG
SNED  .OHMM       : SHORT NORMAL RESISTIVITY FROM RESISTIVITY LOG
SPRED .MV         : SPONTANEOUS POTENTIAL FROM RESISTIVITY LOG
SPWS  .MV         : SPONTANEOUS POTENTIAL [BASELINE 0 MV,SPRED]
SRESWS.OHMM       : SHALLOW RESISTIVITY [SNED]
TENRED.LBF        : TENSION FROM GRN LOG
~Params ----------------------------------------------------
LMF .                     KB : LOG MEASURED FROM
DMF .                     KB : DRILLING MEASURED FROM
EKB .FT                 2604 : KELLY BUSHING
EGL .FT                 2592 : GROUND LEVEL
DATE.               09/22/60 : RUN DATE
RUN .                      2 : RUN NUMBER
DD  .FT                10120 : DEPTH DRILLER
DL  .FT                10126 : DEPTH LOGGER
BLI .FT                10122 : BOTTOM LOG INTERVAL
TLI .FT                 5400 : TOP LOG INTERVAL
BS  .IN                    9 : BIT SIZE
BSD .FT                10120 : BIT SIZE AT DEPTH
DFT .               OIL EMUL : DRILLING FLUID TYPE
DFD .                   10.5 : DRILLING FLUID DENSITY
DFV .                    108 : DRILLING FLUID VISCOSITY
DFPH.                    9.5 : DRILLING FLUID PH
DFL .                    7.6 : DRILLING FLUID LOSS
RMS .OHMM                2.6 : RESISTIVITY MUD SAMPLE
MST .DEGF                 75 : MUD SAMPLE TEMPERATURE
RMF .OHMM                  2 : RESISTIVITY MUD FILTRATE SAMPLE
MFST.DEGF                 79 : MUD FILTRATE SAMPLE TEMPERATURE
RMC .OHMM                2.7 : RESISTIVITY MUD CAKE
MCST.DEGF                 79 : MUD CAKE SAMPLE TEMPERATURE
RMB .OHMM                1.0 : RESISTIVITY MUD AT BHT
TCS .HRS                   3 : TIME CIRCULATED STOPPED
LUN .                   1534 : LOGGING UNIT NUMBER
LUL .                    SKW : LOGGING UNIT LOCATION
ENGI.                  GOETZ : RECORDING ENGINEER
WITN.                 FARKAS : WITNESSED BY
CLNT.                A2DTECH : CLIENT CODE
ORIG.            2" 5" PRINT : ORIGIN OF DATA
UWI .       100041106519W500 : UNIQUE WELL ID
DICO. A2D Technologies, Inc. : DIGITIZING COMPANY
~Other -----------------------------------------------------
~ASCII -----------------------------------------------------
# ...
 3050.00000   11.44930  144.93890  153.69600    6.50640    -999.25   90.84890   90.84890    -999.25    6.39950  105.59260    6.50640   11.44930    8.43940 -174.41480   -7.23050    8.43940    -999.25
 3100.00000   11.17190  145.61610  152.52970    6.55610    -999.25   94.31450   94.31450    -999.25    6.69600  110.48400    6.55610   11.17190    8.41740 -178.71900  -11.43410    8.41740    -999.25
 3150.00000   10.60130  121.23650  128.69680    7.77020    -999.25   91.19100   91.19100    -999.25    6.32840  104.41860    7.77020   10.60130   10.00010 -177.97530  -10.59060   10.00010    -999.25
 3200.00000   11.12090  145.96230  151.36380    6.60660    -999.25   95.23880   95.23880    -999.25    7.24350  119.51770    6.60660   11.12090    8.45890 -178.80220  -11.31690    8.45890    -999.25
 3250.00000   10.25650  154.51710  158.96230    6.29080    -999.25   93.17820   93.17820    -999.25    6.88130  113.54150    6.29080   10.25650    7.64530 -180.87220  -13.28700    7.64530    -999.25
 3300.00000   11.14210  129.48010  135.13420    7.40010    -999.25   90.66870   90.66870    -999.25    6.21390  102.53020    7.40010   11.14210    9.13990 -180.85700  -13.17200    9.13990    -999.25
 3350.00000   11.51780  154.75360  161.45180    6.19380    -999.25   98.40650   98.40650    -999.25    6.63120  109.41480    6.19380   11.51780    7.63070 -180.40100  -12.61540    7.63070    -999.25
 3400.00000   10.87050  105.92630  111.68440    8.95380    -999.25   91.24750   91.24750    -999.25    6.73230  111.08300    8.95380   10.87050   11.18060 -179.99800  -12.11260   11.18060    -999.25
 3450.00000   10.91300  132.22180  141.97290    7.04360    -999.25   92.93320   92.93320    -999.25    7.03570  116.08910    7.04360   10.91300    9.61550 -178.67640  -10.69040    9.61550    -999.25
 3500.00000   11.05140  113.69850  117.72180    8.49460    -999.25   98.42830   98.42830    -999.25    5.77790   95.33540    8.49460   11.05140   10.34060 -178.76710  -10.68130   10.34060    -999.25
 3550.00000   11.37170  122.05680  128.65710    7.77260    -999.25   89.67000   89.67000    -999.25    6.71570  110.80990    7.77260   11.37170    9.71660 -183.19610  -15.01040    9.71660    -999.25
 3600.00000   11.28220  151.62860  159.62970    6.26450    -999.25   95.65020   95.65020    -999.25    6.64700  109.67470    6.26450   11.28220    8.25630 -181.75600  -13.46980    8.25630    -999.25
 3650.00000   11.57240  160.72630  166.16260    6.01820    -999.25  100.74630  100.74630    -999.25    7.77790  128.33620    6.01820   11.57240    8.17940 -176.64310   -8.25700    8.17940    -999.25
 3700.00000   10.79880  128.07740  138.54830    7.21770    -999.25  102.24430  102.24430    -999.25    7.02730  115.95050    7.21770   10.79880   10.31720 -177.02020   -8.53360   10.31720    -999.25
 3750.00000   11.17760  137.80870  148.95360    6.71350    -999.25  104.14250  104.14250    -999.25    6.83150  112.71890    6.71350   11.17760    9.82420 -177.90300   -9.31650    9.82420    -999.25
 3800.00000   10.23760  112.86140  116.71200    8.56810    -999.25  112.12260  112.12260    -999.25    7.40480  122.17920    8.56810   10.23760   13.32880 -176.36120   -7.67480   13.32880    -999.25
 3850.00000    9.75370  110.45280  114.89890    8.70330    -999.25  100.72500  100.72500    -999.25    7.42470  122.50670    8.70330    9.75370   13.55260 -175.96480   -7.17790   13.55260    -999.25
 3900.00000   10.15590  131.34000  137.90820    7.25120    -999.25  100.51930  100.51930    -999.25    7.19010  118.63670    7.25120   10.15590   11.41560 -175.63170   -6.74490   11.41560    -999.25
 3950.00000   11.16110  169.92000  176.99430    5.64990    -999.25   89.87850   89.87850    -999.25    6.68850  110.36030    5.64990   11.16110    7.30970 -178.15410   -9.16680    7.30970    -999.25
 4000.00000   10.45290  169.06350  173.13020    5.77600    -999.25   92.34350   92.34350    -999.25    6.34620  104.71230    5.77600   10.45290    7.36310 -177.30570   -8.21850    7.36310    -999.25
 4050.00000   10.43690  127.04020  131.14410    7.62520    -999.25   85.38650   85.38650    -999.25    6.07230  100.19300    7.62520   10.43690   10.13060 -175.87500   -6.68790   10.13060    -999.25
 4100.00000   10.41420  160.12160  168.08420    5.94940    -999.25   89.97200   89.97200    -999.25    6.75030  111.38000    5.94940   10.41420    7.64320 -176.58470   -7.29710    7.64320    -999.25
 4150.00000   10.05380  108.87070  115.39620    8.66580    -999.25   87.56950   87.56950    -999.25    5.66030   93.39500    8.66580   10.05380   12.08640 -182.44670  -13.05920   12.08640    -999.25
 4200.00000   11.21140  162.02170  167.24930    5.97910    -999.25   93.20730   93.20730    -999.25    6.83920  112.84600    5.97910   11.21140    7.57800 -176.95530   -7.46730    7.57800    -999.25
 4250.00000   11.25350  177.57240  177.47490    5.63460    -999.25   94.75630   94.75630    -999.25    5.91320   97.56780    5.63460   11.25350    7.12400 -175.98320   -6.39530    7.12400    -999.25
 4300.00000   11.85240  185.33150  191.10780    5.23260    -999.25   95.61620   95.61620    -999.25    7.18360  118.52940    5.23260   11.85240    6.80490 -175.70570   -6.01790    6.80490    -999.25
 4350.00000   11.47570  255.12130  253.96830    3.93750    -999.25  116.29000  116.29000    -999.25    7.86010  129.69170    3.93750   11.47570    4.64830 -173.69400   -3.90570    4.64830    -999.25
 4400.00000   12.33410  357.71200  334.73920    2.98740    -999.25  103.60830  103.60830    -999.25    6.60660  109.00890    2.98740   12.33410    3.44880 -173.10050   -3.21230    3.44880    -999.25
 4450.00000   12.63290  329.69620  293.67710    3.40510    -999.25  102.79280  102.79280    -999.25    6.99020  115.33910    3.40510   12.63290    3.83490 -172.82000   -2.83130    3.83490    -999.25
 4500.00000   10.69490  201.66890  201.51130    4.96250    -999.25   92.76480   92.76480    -999.25    6.21650  102.57230    4.96250   10.69490    6.22170 -173.26760   -3.21600    6.22170    -999.25
 4550.00000   10.54230  178.38000  180.67990    5.53470    -999.25   92.06110   92.06110    -999.25    6.63960  109.55340    5.53470   10.54230    7.29500 -178.47730   -8.51300    7.29500    -999.25
 4600.00000   10.14680   99.26990  104.26010    9.59140    -999.25   80.76900   80.76900    -999.25    5.53460   91.32090    9.59140   10.14680   12.86830 -183.05660  -13.18020   12.86830    -999.25
 4650.00000   10.49800  327.08330  290.56250    3.44160    -999.25   87.80800   87.80800    -999.25    5.53490   91.32590    3.44160   10.49800    3.69550 -182.08490  -12.29580    3.69550    -999.25
 4700.00000    9.66810   83.57380   83.78230   11.93570    -999.25   77.55930   77.55930    -999.25    4.39490   72.51590   11.93570    9.66810   17.12560 -190.91810  -21.21690   17.12560    -999.25
 4750.00000    9.67420  104.48750  108.30830    9.23290    -999.25   78.79080   78.79080    -999.25    4.95440   81.74760    9.23290    9.67420   12.68510 -184.40660  -14.79280   12.68510    -999.25
 4800.00000    9.89660  103.26850  107.85280    9.27190    -999.25   86.64460   86.64460    -999.25    5.35900   88.42270    9.27190    9.89660   14.07730 -181.22840  -11.70190   14.07730    -999.25
 4850.00000   14.88150  156.47990  164.36010    6.08420    -999.25  106.93170  106.93170    -999.25    5.76600   95.13900    6.08420   14.88150    9.27980 -179.47440  -10.03580    9.27980    -999.25
 4900.00000    9.81630   82.53420   84.28080   11.86510    -999.25   76.99680   76.99680    -999.25    5.58320   92.12200   11.86510    9.81630   19.35080 -178.59530   -9.24400   19.35080    -999.25
 4950.00000   10.02830   74.21270   78.17750   12.79140    -999.25  102.32700  102.32700    -999.25    4.92960   81.33840   12.79140   10.02830   18.81860 -172.14030   -2.87690   18.81860    -999.25
 5000.00000    9.82970  117.96910  120.04800    8.33000    -999.25   75.83020   75.83020    -999.25    5.77390   95.26940    8.33000    9.82970   12.06750 -170.35380   -1.17770   12.06750    -999.25
 5050.00000    9.66740  142.28630  148.85490    6.71800    -999.25   84.49060   84.49060    -999.25    3.69430   60.95600    6.71800    9.66740   16.93350 -201.34330  -32.59840   16.93350    -999.25
