~Version ---------------------------------------------------
VERS.      2.0 : CWLS log ASCII Standard -VERSION 2.0
WRAP.       NO : One line per depth step
CREA. 11/17/17 : LAS Creation Date
~Well ------------------------------------------------------
STRT.FT                       300.0 : START DEPTH
STOP.FT                      9300.0 : STOP DEPTH
STEP.FT                    50.00000 : STEP LENGTH
NULL.                       -999.25 : NULL VALUE
COMP. CANADIAN EXPORT OIL & GAS LTD : COMPANY
WELL. CEGO ET AL SUNSET 10-23-69-19 : WELL
FLD .                               : FIELD
LOC .                               : LOCATION
CTRY.                        CANADA : COUNTRY
SRVC.                       Unknown : SERVICE COMPANY
DATE.                   18-Jan-1973 : LOGDATE
PROV.                       Alberta : PROVINCE
UWI .              100102306919W500 : UNIQUE WELL ID
SLAT.WGS84                   54.992 : SURFACE LATITUDE
SLON.WGS84                -116.7783 : SURFACE LONGITUDE
~Curve Information -----------------------------------------
DEPT   .FT    : Depth Curve
ASFLED .OHMM  : AMPLIFIED SHALLOW FOCUSED RESISTIVITY FROM SFIL LOG
ASNED  .OHMM  : AMPLIFIED SHORT NORMAL RESISTIVITY 16" FROM IEL LOG
CALSED .IN    : CALIPER FROM SONIC LOG
CALWS  .IN    : CALIPER [CALSED]
CILD1ED.MMHO  : CONDUCTIVITY FROM IEL LOG
CILDED .MMHO  : CONDUCTIVITY FROM SFIL LOG
CONDWS .MMHO  : CONDUCTIVITY [1000/DRESWS]
DRESWS .OHMM  : DEEP RESISTIVITY [1000/CILDED, IF ILDED<5, ILDED SPL. TO 1000/CILD1ED, IF ILD1ED<5, ILD1ED @ 8996']
DTED   .US/F  : DELTA TIME FROM SONIC LOG
DTWS   .US/F  : COMPRESSIONAL SONIC [DTED]
GRED   .GAPI  : CASED HOLE GAMMA RAY FROM CBL LOG [ADJ. TO ISF LOG/GRSED]
GRSED  .GAPI  : GAMMA RAY FROM SONIC LOG
GRWS   .GAPI  : GAMMA RAY [GRED SPL. TO GRSED @ 922'-4973', 4978'-6674' AND 6682']
ILD1ED .OHMM  : DEEP INDUCTION LOG RESISTIVITY FROM IEL LOG
ILDED  .OHMM  : DEEP INDUCTION LOG RESISTIVITY FROM SFIL LOG
SPR1ED .MV    : SPONTANEOUS POTENTIAL FROM IEL LOG
SPRED  .MV    : SPONTANEOUS POTENTIAL FROM SFIL LOG
SPWS   .MV    : SPONTANEOUS POTENTIAL [BASELINE 0 MV(SPRED SPL. TO SPR1ED @ 8996')*-1}]
SRESWS .OHMM  : SHALLOW RESISTIVITY [ASFLED SPL. TO ASNED @ 8996']
~Params ----------------------------------------------------
PD  .                     GL : PERMANENT DATUM
EPD .FT                 2660 : ELEVATION PERMANENT DATUM
LMF .                     KB : LOG MEASURED FROM
DAPD.FT                 14.7 : FEET ABOVE PERMANENT DATUM
EKB .FT               2674.7 : KELLY BUSHING
EGL .FT                 2660 : GROUND LEVEL
DATE.               01/18/73 : RUN DATE
RUN .                      2 : RUN NUMBER
DD  .FT                 9336 : DEPTH DRILLER
DL  .FT                 9336 : DEPTH LOGGER
BLI .FT                 9325 : BOTTOM LOG INTERVAL
TLI .FT                 8800 : TOP LOG INTERVAL
CBD .FT                  944 : CASING BOTTOM DRILLER
CBL .FT                  941 : CASING BOTTOM LOGGER
BS  .IN                7.875 : BIT SIZE
BSD .FT                 9336 : BIT SIZE AT DEPTH
DFT .                    KCL : DRILLING FLUID TYPE
DFD .                    9.1 : DRILLING FLUID DENSITY
DFV .                     60 : DRILLING FLUID VISCOSITY
DFPH.                    9.0 : DRILLING FLUID PH
DFL .                    8.2 : DRILLING FLUID LOSS
RMS .OHMM               0.44 : RESISTIVITY MUD SAMPLE
MST .DEGF                 55 : MUD SAMPLE TEMPERATURE
RMF .OHMM                0.6 : RESISTIVITY MUD FILTRATE SAMPLE
MFST.DEGF                 60 : MUD FILTRATE SAMPLE TEMPERATURE
RMB .OHMM               0.14 : RESISTIVITY MUD AT BHT
TCS .HRS                   2 : TIME CIRCULATED STOPPED
LUN .                   7635 : LOGGING UNIT NUMBER
LUL .                    D C : LOGGING UNIT LOCATION
ENGI.                   HALL : RECORDING ENGINEER
WITN.         WIGGINS WILMER : WITNESSED BY
CLNT.                A2DTECH : CLIENT CODE
ORIG.            2" 5" PRINT : ORIGIN OF DATA
UWI .       100102306919W500 : UNIQUE WELL ID
DICO. A2D Technologies, Inc. : DIGITIZING COMPANY
~Other -----------------------------------------------------
SFIL-IEL-BCS-GR TOOL RUN
GAP IN GR AND SPR AS PER IMAGE
SPR INOPERATIVE SALT MUD
SFIL-SONIC LOG (TOP TO 960.1M) FROM SMALL SCALE LOG
~ASCII -----------------------------------------------------
# ...
 5850.00000   14.66430    -999.25    7.92430    7.92430    -999.25  166.02670  149.09480    6.71650   60.95440   60.95440   16.04150   14.68550   14.68550    -999.25    6.71650    -999.25    -999.25    -999.25   14.66430
 5900.00000   24.27460    -999.25    7.74860    7.74860    -999.25   58.29160   48.84980   20.47090   59.83600   59.83600    8.83300   14.88900   14.88900    -999.25   20.47090    -999.25    -999.25    -999.25   24.27460
 5950.00000   51.92900    -999.25    8.03090    8.03090    -999.25   28.59690   20.98310   47.73350   53.45490   53.45490   17.24280   15.71490   15.71490    -999.25   47.73350    -999.25    -999.25    -999.25   51.92900
 6000.00000    2.51280    -999.25    8.73430    8.73430    -999.25  523.63840  523.63840    1.90970   81.20210   81.20210   96.46750   71.19150   71.19150    -999.25    1.82700    -999.25    -999.25    -999.25    2.51280
 6050.00000    7.53810    -999.25    8.59510    8.59510    -999.25  220.97930  220.97930    4.52530   75.04890   75.04890   84.83700   75.12140   75.12140    -999.25    4.55640    -999.25    -999.25    -999.25    7.53810
 6100.00000   14.52600    -999.25    8.29430    8.29430    -999.25  159.95290  141.48040    7.08040   61.15250   61.15250   49.91710   47.10170   47.10170    -999.25    7.08040    -999.25    -999.25    -999.25   14.52600
 6150.00000   72.04940    -999.25    8.03430    8.03430    -999.25   18.46690   13.11150   76.26900   53.22140   53.22140   20.71120   19.42910   19.42910    -999.25   76.26900    -999.25    -999.25    -999.25   72.04940
 6200.00000   54.20410    -999.25    8.28260    8.28260    -999.25   25.22790   18.61540   53.82470   54.13390   54.13390   17.77020   25.09990   25.09990    -999.25   53.82470    -999.25    -999.25    -999.25   54.20410
 6250.00000   55.48570    -999.25    8.17770    8.17770    -999.25   25.94990   19.92170   50.19650   54.60710   54.60710   19.68680   20.67680   20.67680    -999.25   50.19650    -999.25    -999.25    -999.25   55.48570
 6300.00000   34.52170    -999.25    7.81910    7.81910    -999.25   41.38940   32.26340   30.99490   57.93210   57.93210   22.67410   32.87850   32.87850    -999.25   30.99490    -999.25    -999.25    -999.25   34.52170
 6350.00000   42.90740    -999.25    8.03550    8.03550    -999.25   29.63190   22.23680   44.97100   56.64870   56.64870   27.69050   20.65720   20.65720    -999.25   44.97100    -999.25    -999.25    -999.25   42.90740
 6400.00000   28.53410    -999.25    8.05180    8.05180    -999.25   43.14310   34.70510   28.81420   58.95810   58.95810   27.29740   31.59740   31.59740    -999.25   28.81420    -999.25    -999.25    -999.25   28.53410
 6450.00000   23.17960    -999.25    8.14680    8.14680    -999.25   57.14760   47.26420   21.15910   61.22380   61.22380   45.93270   40.70360   40.70360    -999.25   21.15910    -999.25    -999.25    -999.25   23.17960
 6500.00000   22.03230    -999.25    8.03790    8.03790    -999.25   66.16610   56.12270   17.81810   64.11310   64.11310   49.32080   42.62280   42.62280    -999.25   17.81810    -999.25    -999.25    -999.25   22.03230
 6550.00000   19.20110    -999.25    8.02620    8.02620    -999.25   69.20550   58.26390   17.16330   63.79970   63.79970   40.97850   55.05950   55.05950    -999.25   17.16330    -999.25    -999.25    -999.25   19.20110
 6600.00000   26.79890    -999.25    8.06750    8.06750    -999.25   65.69630   55.57010   17.99650   61.67350   61.67350   38.97500   36.40940   36.40940    -999.25   17.99650    -999.25    -999.25    -999.25   26.79890
 6650.00000    7.94300    -999.25    8.31180    8.31180    -999.25  134.48690  123.28180    8.11150   65.53120   65.53120   78.87730   69.14580   69.14580    -999.25    8.11150    -999.25    -999.25    -999.25    7.94300
 6700.00000  130.14910    -999.25    8.40000    8.40000    -999.25   11.76970    5.35980  187.38400   51.47280   51.47280   16.64430   18.09920   18.09920    -999.25  187.38400    -999.25    -999.25    -999.25  130.14910
 6750.00000   49.74930    -999.25    8.48420    8.48420    -999.25   36.13490   28.95630   34.53480   56.05650   56.05650   15.45770   17.03880   17.03880    -999.25   34.53480    -999.25    -999.25    -999.25   49.74930
 6800.00000  111.98060    -999.25    8.42680    8.42680    -999.25    8.33060    1.85660  538.62870   51.15940   51.15940   18.08750   17.84240   17.84240    -999.25  538.62870    -999.25    -999.25    -999.25  111.98060
 6850.00000   74.37420    -999.25    8.32910    8.32910    -999.25   12.36370    5.87650  170.46770   51.77600   51.77600   12.25870   14.51550   14.51550    -999.25  170.46770    -999.25    -999.25    -999.25   74.37420
 6900.00000   72.40490    -999.25    8.22210    8.22210    -999.25    8.72450    2.75260  363.29610   51.11310   51.11310   15.73800   18.22120   18.22120    -999.25  363.29610    -999.25    -999.25    -999.25   72.40490
 6950.00000   70.79000    -999.25    8.25330    8.25330    -999.25   11.15160    4.65440  215.44460   51.54880   51.54880   12.46070   13.07210   13.07210    -999.25  215.44460    -999.25    -999.25    -999.25   70.79000
 7000.00000   41.76470    -999.25    8.22390    8.22390    -999.25   40.81030   31.68480   31.56090   55.05370   55.05370   15.91460   13.62410   13.62410    -999.25   31.56090    -999.25    -999.25    -999.25   41.76470
 7050.00000   74.15210    -999.25    8.08240    8.08240    -999.25   33.23250   25.42160   39.33660   52.87690   52.87690   11.97880   10.93300   10.93300    -999.25   39.33660    -999.25    -999.25    -999.25   74.15210
 7100.00000   58.89870    -999.25    8.33540    8.33540    -999.25   34.66750   26.14750   38.26410   53.25330   53.25330    8.20440   13.24580   13.24580    -999.25   38.26410    -999.25    -999.25    -999.25   58.89870
 7150.00000   66.04680    -999.25    8.30910    8.30910    -999.25    9.59180    3.84100  260.34910   50.97880   50.97880   10.18020   12.52550   12.52550    -999.25  260.34910    -999.25  -97.40950   -8.77600   66.04680
 7200.00000   65.12390    -999.25    8.27110    8.27110    -999.25    7.41940    1.99930  500.17490   50.65550   50.65550   12.51560    9.98100    9.98100    -999.25  500.17490    -999.25  -93.82260  -12.17660   65.12390
 7250.00000   62.12280    -999.25    8.43700    8.43700    -999.25    7.10950    1.81320  551.50400   51.03090   51.03090   12.51820   13.25800   13.25800    -999.25  551.50400    -999.25  -85.22710  -20.58690   62.12280
 7300.00000   57.14020    -999.25    8.55370    8.55370    -999.25    7.79370    1.82000  549.45530   52.66690   52.66690   12.77470   15.43250   15.43250    -999.25  549.45530    -999.25  -71.49080  -34.13810   57.14020
 7350.00000   48.30290    -999.25    7.40230    7.40230    -999.25   28.62520   21.33410   47.02190   52.28330   52.28330   18.75930   12.92320   12.92320    -999.25   47.02190    -999.25  -75.40720  -30.03540   48.30290
 7400.00000   19.69780    -999.25    7.22150    7.22150    -999.25  156.73870  146.37430    6.83180   56.74790   56.74790   18.51510   16.22900   16.22900    -999.25    6.83180    -999.25  -84.34070  -20.91680   19.69780
 7450.00000    7.10600    -999.25    8.66510    8.66510    -999.25  316.50500  316.50500    3.20430   54.55620   54.55620   18.18140   21.14220   21.14220    -999.25    3.82540    -999.25  -74.68750  -30.38360    7.10600
 7500.00000   11.06130    -999.25    8.04990    8.04990    -999.25  363.19260  363.19260    2.75340   67.41590   67.41590   33.44600   33.51510   33.51510    -999.25    2.76670    -999.25  -90.57780  -14.30820   11.06130
 7550.00000   76.06570    -999.25    7.99960    7.99960    -999.25   22.15500   13.45980   74.29520   49.18260   49.18260   18.06080   19.71180   19.71180    -999.25   74.29520    -999.25  -93.66520  -11.03570   76.06570
 7600.00000   17.11950    -999.25    7.99830    7.99830    -999.25   61.11140   52.40800   19.10170   54.44500   54.44500   26.42520   27.01460   27.01460    -999.25   19.10170    -999.25  -98.75550   -5.75900   17.11950
 7650.00000   28.80460    -999.25    8.00940    8.00940    -999.25   35.13370   26.34900   37.95210   53.83120   53.83120   36.76940   30.22350   30.22350    -999.25   37.95210    -999.25  -97.21490   -7.12370   28.80460
