~Version ---------------------------------------------------
VERS. 2.0 : CWLS log ASCII Standard -VERSION 2.0
WRAP.  NO : One line per depth step
~Well ------------------------------------------------------
STRT.M                           300.0 : START DEPTH
STOP.M                          1700.0 : STOP DEPTH
STEP.M                        50.00000 : STEP LENGTH
NULL.                          -999.25 : NULL VALUE
COMP.             TALISMAN ENERGY INC. : COMPANY
WELL. INVERNESS ET AL NIPISI 2-17-80-7 : WELL
FLD .                           NIPISI : FIELD
LOC .                                  : LOCATION
CTRY.                           CANADA : COUNTRY
SRVC.                   Atlas Wireline : SERVICE COMPANY
DATE.                      13-Feb-1990 : LOGDATE
PROV.                          Alberta : PROVINCE
UWI .                 100021708007W500 : UNIQUE WELL ID
SLAT.WGS84                55.928604126 : SURFACE LATITUDE
SLON.WGS84             -115.0550994873 : SURFACE LONGITUDE
~Curve Information -----------------------------------------
DEPT   .M     : DEPTH METERS
AC     .US/M  : DELTA TIME (ACOUSTIC) FROM SONIC LOG
C24D   .MM    : CALIPER 2-4 FROM DENSITY LOG
C24S   .MM    : CALIPER 2-4 FROM SONIC LOG
CNC_SS .DEC   : NEUTRON POROSITY SANDSTONE FROM DENSITY LOG
GRR    .GAPI  : GAMMA RAY FROM RESISTIVITY LOG
PE     .B/E   : PHOTOELECTRIC FACTOR FROM DENSITY LOG
PORZ_SS.DEC   : DENSITY POROSITY [M=2.65 F=1.0] FROM DENSITY LOG
RFOC   .OHMM  : FOCUSED RESISTIVITY
RILD   .OHMM  : INDUCTION LOG DEEP RESISTIVITY
RILM   .OHMM  : INDUCTION LOG MEDIUM RESISTIVITY
SPR    .MV    : SPONTANEOUS POTENTIAL FROM RESISTIVITY LOG
ZCOR   .G/C3  : DENSITY CORRECTION FROM DENSITY LOG
ZDEN   .G/C3  : BULK DENSITY FROM DENSITY LOG
~Params ----------------------------------------------------
PD  .                         GL : PERMANENT DATUM
EPD .M                    662.08 : ELEVATION PERMANENT DATUM
LMF .                         KB : LOG MEASURED FROM
DAPD.M                      4.95 : FEET ABOVE PERMANENT DATUM
DMF .                         KB : DRILLING MEASURED FROM
EKB .M                    667.03 : KELLY BUSHING
EGL .M                    662.08 : GROUND LEVEL
DATE.                   02/13/90 : RUN DATE
RUN .                          1 : RUN NUMBER
DD  .M                      1708 : DEPTH DRILLER
DL  .M                    1706.7 : DEPTH LOGGER
BLI .M                    1706.0 : BOTTOM LOG INTERVAL
TLI .M                     191.5 : TOP LOG INTERVAL
CS  .MM                      219 : CASING SIZE
CBD .M                       192 : CASING BOTTOM DRILLER
CBL .M                     191.5 : CASING BOTTOM LOGGER
BS  .MM                      200 : BIT SIZE
BSD .M                      1708 : BIT SIZE AT DEPTH
DFT .                   CHEM GEL : DRILLING FLUID TYPE
DFD .                       1130 : DRILLING FLUID DENSITY
DFV .                         56 : DRILLING FLUID VISCOSITY
DFPH.                         10 : DRILLING FLUID PH
DFL .                        7.5 : DRILLING FLUID LOSS
MSS .                   FLOWLINE : MUD SAMPLE SOURCE
RMS .OHMM                   0.78 : RESISTIVITY MUD SAMPLE
MST .DEGC                   20.4 : MUD SAMPLE TEMPERATURE
RMF .OHMM                   0.65 : RESISTIVITY MUD FILTRATE SAMPLE
MFST.DEGC                   20.4 : MUD FILTRATE SAMPLE TEMPERATURE
RMC .OHMM                   0.71 : RESISTIVITY MUD CAKE
MCST.DEGC                   20.4 : MUD CAKE SAMPLE TEMPERATURE
MFSS.                       MEAS : MUD FILTRATE SAMPLE SOURCE
MCSS.                       MEAS : MUD CAKE SAMPLE SOURCE
RMB .OHMM                   0.55 : RESISTIVITY MUD AT BHT
TCS .HRS                       8 : TIME CIRCULATED STOPPED
LUN .                    HL 6444 : LOGGING UNIT NUMBER
LUL .                        G P : LOGGING UNIT LOCATION
ENGI.                        GEE : RECORDING ENGINEER
WITN.                    THACKER : WITNESSED BY
CLNT.                    A2DTECH : CLIENT CODE
ORIG. 6.5"/100M 16.5"/100M PRINT : ORIGIN OF DATA
UWI .           100021708007W500 : UNIQUE WELL ID
DICO.     A2D Technologies, Inc. : DIGITIZING COMPANY
~Other -----------------------------------------------------
~ASCII -----------------------------------------------------
  300.00000  531.16670    -999.25  290.16670    -999.25   82.21590    -999.25    -999.25    2.65220    2.40050    2.28510  -19.55800    -999.25    -999.25
  350.00000  451.97060    -999.25  221.37730    -999.25   67.40790    -999.25    -999.25    3.49710    3.90800    4.04530  -20.34950    -999.25    -999.25
  400.00000  398.36580    -999.25  208.71350    -999.25   61.71560    -999.25    -999.25    7.71620   10.02970   10.27460  -24.89720    -999.25    -999.25
  450.00000  371.28830    -999.25  255.24360    -999.25   59.90070    -999.25    -999.25    8.29150    6.81870    8.26250  -28.19720    -999.25    -999.25
  500.00000  351.35620    -999.25  254.88520    -999.25   56.36090    -999.25    -999.25    7.28340    6.34460    7.67850  -26.33820    -999.25    -999.25
  550.00000  354.71450    -999.25  271.60580    -999.25   64.86500    -999.25    -999.25    6.96330    6.00310    6.45100  -27.14880    -999.25    -999.25
  600.00000  208.06080    -999.25  272.81010    -999.25   16.08230    -999.25    -999.25  103.53630  113.46750  203.33120  -59.88070    -999.25    -999.25
  650.00000  257.01460    -999.25  276.84500    -999.25   35.40250    -999.25    -999.25   11.12500    8.81260    8.91230  -31.51470    -999.25    -999.25
  700.00000  220.09660    -999.25  227.65290    -999.25   24.78640    -999.25    -999.25   17.65920   13.12600   13.28040  -58.74760    -999.25    -999.25
  750.00000  216.31560    -999.25  231.40420    -999.25   21.32840    -999.25    -999.25   19.02800   14.33070   15.89310  -58.15560    -999.25    -999.25
  800.00000  184.16870    -999.25  239.52440    -999.25   18.66660    -999.25    -999.25   77.08380   41.17810   61.77740  -87.02710    -999.25    -999.25
  850.00000  187.88890    -999.25  236.42080    -999.25   18.41090    -999.25    -999.25   52.26120   21.34160   27.25600  -96.78880    -999.25    -999.25
  900.00000  203.57080    -999.25  250.12640    -999.25   14.23510    -999.25    -999.25   48.20620   14.86830   27.02940 -106.53740    -999.25    -999.25
  950.00000  173.94650    -999.25  235.04690    -999.25   15.35110    -999.25    -999.25  110.33490   68.67470   97.18460 -101.73330    -999.25    -999.25
 1000.00000  166.23140    -999.25  222.12580    -999.25   13.55590    -999.25    -999.25  162.62210   74.16440  118.17000 -112.87010    -999.25    -999.25
 1050.00000  290.67490    -999.25  278.52100    -999.25   62.62220    -999.25    -999.25    8.79540    3.05530    4.47030 -100.74330    -999.25    -999.25
 1100.00000  177.34940    -999.25  235.66960    -999.25   29.42140    -999.25    -999.25   36.39180   18.39330   22.46120  -80.78080    -999.25    -999.25
 1150.00000  207.46650    -999.25  228.09900    -999.25   37.62120    -999.25    -999.25   22.09080    8.13970   14.15040 -109.90290    -999.25    -999.25
 1200.00000  247.46650    -999.25  241.15960    -999.25   61.93480    -999.25    -999.25    7.07940    7.34020    6.77470  -64.43910    -999.25    -999.25
 1250.00000  253.94990    -999.25  271.02470    -999.25   84.78460    -999.25    -999.25    5.31240    4.74800    4.82460  -63.49390    -999.25    -999.25
 1300.00000  242.09120    -999.25  241.10440    -999.25   59.25750    -999.25    -999.25    9.49580    8.70800    9.36430  -59.30830    -999.25    -999.25
 1350.00000  200.60130  237.55680  222.11900    0.13680   31.45020    4.54390   -0.00800   17.66980   14.64460   14.83360  -60.74940    0.00380    2.67120
 1400.00000  258.89830  239.50960  220.63390    0.23290   56.77700    3.96780    0.02650    5.84570    5.68130    5.82830  -54.90480    0.09870    2.62360
 1450.00000  321.22600  388.35310  309.41320    0.50610   74.54050    2.52160    0.16500    3.39880    4.01520    3.39920  -62.84210    0.11430    2.35000
 1500.00000  203.33270  224.03900  208.95010    0.16390   35.47190    4.14780   -0.00910   19.47660   18.11200   22.16080  -61.79040    0.00300    2.65000
 1550.00000  234.38260  230.56510  219.87130    0.19200   46.31800    4.14790   -0.00590    8.51420    8.39550   10.30680  -55.36770    0.07850    2.66680
 1600.00000  267.49080  233.94320  229.26880    0.28290   79.64700    3.35400   -0.04610    6.17580    5.32880    5.84350  -55.86990    0.28840    2.64150
 1650.00000  290.44030  241.83810  230.88470    0.26670   89.00530    3.64140    0.14040    4.66870    4.97050    5.33710  -58.61560    0.26340    2.41840
 1700.00000    -999.25    -999.25    -999.25    0.07470    -999.25    4.94480   -0.13420   21.68010   20.41700   19.97900  -55.26280    0.02310    2.86960
