~Version ---------------------------------------------------
VERS.      2.0 : CWLS log ASCII Standard -VERSION 2.0
WRAP.       NO : One line per depth step
CREA. 09/25/17 : LAS Creation Date
~Well ------------------------------------------------------
STRT.FT                               300.0 : START DEPTH
STOP.FT                              8350.0 : STOP DEPTH
STEP.FT                            50.00000 : STEP LENGTH
NULL.                               -999.25 : NULL VALUE
COMP. CANADA CITIES SERVICE PETROLEUM CORP. : COMPANY
WELL.          CITIES SERVICE KEYSTONE 8-15 : WELL
FLD .                                       : FIELD
LOC .                                       : LOCATION
CTRY.                                CANADA : COUNTRY
SRVC.                               Unknown : SERVICE COMPANY
DATE.                           07-May-1956 : LOGDATE
PROV.                               Alberta : PROVINCE
UWI .                      100081504804W500 : UNIQUE WELL ID
SLAT.WGS84                         53.13956 : SURFACE LATITUDE
SLON.WGS84                         -114.492 : SURFACE LONGITUDE
~Curve Information -----------------------------------------
DEPT   .FT         : Depth Curve
CALMED .IN         : CALIPER FROM MICROLATEROLOG [ADJ TO SLB EL LOG]
CALWS  .IN         : CALIPER [MCALED SPL. @6414' TO CALMED]
CONDWS .MMHO       : CONDUCTIVITY [1000/DRESWS]
DRESWS .OHMM       : DEEP RESISTIVITY [LNED]
GRN1ED .UgRa-Eq/T  : GAMMA RAY FROM SLB GRN-RADIATION LOG
GRN2ED .GAPI       : GAMMA RAY FROM GRN LOG [ADJ TO SLB EL LOG]
GRNED  .UR/HR      : GAMMA RAY FROM McCULLOUGH GRN RADIATION LOG
GRWS   .GAPI       : GAMMA RAY [GRNED*10.4 SPL @ 5170' TO GRN1ED*16.50]
LAT9ED .OHMM       : LATERAL 9' FROM HLB EL LOG [ADJ TO SLB EL LOG]
LNED   .OHMM       : LONG NORMAL RESISTIVITY FROM SLB EL LOG
LT16ED .OHMM       : 16 INCH LATERAL  FROM HLB EL LOG [ADJ TO SLB EL LOG]
LT18ED .OHMM       : 18 INCH LATERAL  FROM SLB EL LOG
MCALED .IN         : CALIPER CONTACT TOOL FROM HLB EL LOG
MLLED  .OHMM       : MICRO FOCUSED LATEROLOG RESISTIVITY  FROM MICROLATEROLOG [ADJ TO SLB EL LOG]
NEUT1ED.NAPI       : NEUTRON FROM SLB GRN-RADIATION LOG
NEUT2ED.NAPI       : NEUTRON FROM GRN LOG [ADJ TO SLB EL LOG]
NEUTED .NAPI       : NEUTRON FROM McCULLOUGH GRN RADIATION LOG
NEUTWS .NAPI       : NEUTRON [NEUTED SPL @5182' TO NEUT1ED]
SN1ED  .OHMM       : SHORT NORMAL 18 INCH FROM HLB EL LOG [ADJ TO SLB EL LOG]
SNED   .OHMM       : SHORT NORMAL RESISTIVITY FROM SLB EL LOG
SPR1ED .MV         : SPONTANEOUS POTENTIAL FROM HLB EL LOG [ADJ TO SLB EL LOG]
SPRED  .MV         : SPONTANEOUS POTENTIAL FROM SLB EL LOG
SPWS   .MV         : SPONTANEOUS POTENTIAL [BASELINE 0MV, SPRED]
SRESWS .OHMM       : SHALLOW RESISTIVITY [SNED]
~Params ----------------------------------------------------
LMF .                     KB : LOG MEASURED FROM
DMF .                     KB : DRILLING MEASURED FROM
EKB .FT                 2813 : KELLY BUSHING
DATE.               05/07/56 : RUN DATE
RUN .                      1 : RUN NUMBER
DD  .FT                 8499 : DEPTH DRILLER
DL  .FT                 8499 : DEPTH LOGGER
BLI .FT                 8498 : BOTTOM LOG INTERVAL
TLI .FT                  610 : TOP LOG INTERVAL
CBL .FT                  610 : CASING BOTTOM LOGGER
BS  .IN                    9 : BIT SIZE
BSD .FT                 8499 : BIT SIZE AT DEPTH
DFT .              LIME BASE : DRILLING FLUID TYPE
DFD .                   11.1 : DRILLING FLUID DENSITY
DFV .                     98 : DRILLING FLUID VISCOSITY
DFPH.                     13 : DRILLING FLUID PH
DFL .                     48 : DRILLING FLUID LOSS
RMS .OHMM               0.72 : RESISTIVITY MUD SAMPLE
MST .DEGF                 85 : MUD SAMPLE TEMPERATURE
RMB .OHMM               0.39 : RESISTIVITY MUD AT BHT
TCS .HRS                 2.5 : TIME CIRCULATED STOPPED
LUN .                   2786 : LOGGING UNIT NUMBER
LUL .                    EDM : LOGGING UNIT LOCATION
ENGI.                 TAYLOR : RECORDING ENGINEER
WITN.              ARMSTRONG : WITNESSED BY
CLNT.                A2DTECH : CLIENT CODE
ORIG.            2" 5" PRINT : ORIGIN OF DATA
UWI .       100081504804W500 : UNIQUE WELL ID
DICO. A2D Technologies, Inc. : DIGITIZING COMPANY
~Other -----------------------------------------------------
EL-MLL-GR-NEU LOG RAN
~ASCII -----------------------------------------------------
# ...
 3200.00000    -999.25    9.13150  126.73630    7.89040    -999.25   24.65710    7.55950   78.61880   41.55570    7.89040   44.00330   58.30930    9.13150    -999.25    -999.25  238.02360  191.82510  191.82510    6.29470    8.34910  -44.56790  -43.13840   -4.62090    8.34910
 3250.00000    -999.25    9.11530   84.79970   11.79250    -999.25   27.20710    7.18150   74.68760    3.39660   11.79250    3.58580    5.91560    9.11530    -999.25    -999.25  444.39130  353.81480  353.81480    8.74410    9.42100  -48.49340  -48.40440   -9.94520    9.42100
 3300.00000    -999.25    9.23370  103.93880    9.62140    -999.25   33.50700    7.30380   75.95900   11.40140    9.62140    7.06790   11.65410    9.23370    -999.25    -999.25  420.26630  335.87980  335.87980    6.29750    7.56810  -51.06640  -46.17630   -7.77510    7.56810
 3350.00000    -999.25    9.32950   95.24080   10.49970    -999.25   29.70310    7.32340   76.16340   10.77500   10.49970    8.74170   12.03720    9.32950    -999.25    -999.25  415.29540  377.24990  377.24990   10.09090    9.76220  -48.81370  -45.25470   -6.91210    9.76220
 3400.00000    -999.25    -999.25  129.59410    7.71640    -999.25   30.28130    9.51010   98.90500    6.84880    7.71640    5.36020    8.77290    -999.25    -999.25    -999.25  152.88890  159.17860  159.17860    5.37720    5.88270  -45.59830  -42.71450   -4.43010    5.88270
 3450.00000    -999.25    -999.25  104.14930    9.60160    -999.25   44.25310   10.24770  106.57610    7.92990    9.60160    6.98320   11.09610    -999.25    -999.25    -999.25  171.50930  191.97130  191.97130    5.57310    6.42950  -49.22020  -40.72530   -2.49920    6.42950
 3500.00000    -999.25    -999.25  109.27650    9.15110    -999.25   56.06360   11.49450  119.54280    8.43040    9.15110    6.88360   10.66330    -999.25    -999.25    -999.25  144.11170  204.75110  204.75110    5.68430    6.45240  -46.64400  -44.45050   -6.28270    6.45240
 3550.00000    -999.25    -999.25   92.28970   10.83550    -999.25   56.11200   11.44190  118.99580   10.13690   10.83550    7.82030   11.76930    -999.25    -999.25    -999.25  174.98520  188.89860  188.89860    7.03280    7.23630  -43.86630  -45.52220   -7.41240    7.23630
 3600.00000    -999.25    -999.25   94.94960   10.53190    -999.25   57.28330   11.06880  115.11550   10.72560   10.53190    8.07760   12.58920    -999.25    -999.25    -999.25  207.39100  211.40880  211.40880    7.18160    7.41550  -44.22900  -43.86510   -5.81390    7.41550
 3650.00000    -999.25    -999.25  104.95710    9.52770    -999.25   50.07290   11.94110  124.18740    8.91780    9.52770    6.51380   11.00410    -999.25    -999.25    -999.25  113.97700  146.35040  146.35040    6.84010    7.27490  -49.16280  -41.76870   -3.77580    7.27490
 3700.00000    -999.25    -999.25   96.69590   10.34170    -999.25   55.87800   12.31290  128.05420   10.01670   10.34170    7.29630   11.52540    -999.25    -999.25    -999.25  125.65350  128.20780  128.20780    6.97690    7.85030  -46.51340  -42.33480   -4.40020    7.85030
 3750.00000    -999.25    -999.25   87.59940   11.41560    -999.25   68.43140   12.75810  132.68420   11.35440   11.41560    8.36750   12.37080    -999.25    -999.25    -999.25   95.15820  138.63770  138.63770    8.13430    8.52380  -45.98000  -40.76430   -2.88800    8.52380
 3800.00000    -999.25    -999.25   63.74850   15.68670    -999.25   77.86660   13.89260  144.48300   14.09110   15.68670   10.56400   16.24090    -999.25    -999.25    -999.25  143.88780  194.88700  194.88700   11.03550   10.77920  -46.76930  -43.32390   -5.50550   10.77920
 3850.00000    -999.25    -999.25   62.24520   16.06550    -999.25   78.05340   16.52960  171.90780   14.71680   16.06550    9.83760   16.38470    -999.25    -999.25    -999.25  117.20060  179.30980  179.30980   11.04770   11.03310  -43.81790  -43.04100   -5.28130   11.03310
 3900.00000    -999.25    -999.25   78.76990   12.69520    -999.25   53.12740   11.69720  121.65090   12.57550   12.69520    8.98090   13.41880    -999.25    -999.25    -999.25  160.62040  250.50720  250.50720    8.38520    8.83220  -42.35030  -41.41250   -3.71110    8.83220
 3950.00000    -999.25    -999.25   95.25440   10.49820    -999.25   58.01560   12.14380  126.29550    9.07290   10.49820    6.82980   11.27360    -999.25    -999.25    -999.25  158.98770  187.39860  187.39860    6.77360    7.41850  -43.43930  -43.11150   -5.46840    7.41850
 4000.00000    -999.25    -999.25  102.43910    9.76190    -999.25   46.41210   11.34240  117.96100   10.20640    9.76190    7.65780   11.71560    -999.25    -999.25    -999.25   77.30630  112.99480  112.99480    6.56250    6.86390  -46.21840  -43.26890   -5.68400    6.86390
 4050.00000    -999.25    -999.25   82.04910   12.18800    -999.25   52.50320   10.92940  113.66580   10.48700   12.18800    7.30470   11.25260    -999.25    -999.25    -999.25  246.35760  252.40580  252.40580    9.03150    9.17480  -45.75210  -46.23580   -8.70890    9.17480
 4100.00000    -999.25    -999.25   85.90620   11.64060    -999.25   55.88720   11.95080  124.28830   13.04130   11.64060    7.75170   12.05910    -999.25    -999.25    -999.25  144.04390  322.49510  322.49510    7.87870    8.32270  -46.42310  -43.22010   -5.75180    8.32270
 4150.00000    -999.25    -999.25  108.49520    9.21700    -999.25   59.09610   10.84820  112.82130    9.09100    9.21700    6.90990   11.33870    -999.25    -999.25    -999.25  134.32550  451.67830  451.67830    5.86890    6.92560  -52.72560  -43.91440   -6.50440    6.92560
 4200.00000    -999.25    -999.25   83.43070   11.98600    -999.25   48.09660   10.17060  105.77420    8.15200   11.98600    5.10420    9.50830    -999.25    -999.25    -999.25  191.78630  459.53210  459.53210    8.62740    9.02650  -50.55730  -43.78810   -6.43640    9.02650
 4250.00000    -999.25   10.98690   96.23430   10.39130    -999.25   56.51660   10.22610  106.35140    9.20250   10.39130    7.28900   11.92870   10.98690    -999.25    -999.25  141.09680  500.74420  500.74420    7.40450    7.74410  -53.55740  -40.80710   -3.51370    7.74410
 4300.00000    -999.25   10.94590   32.73200   30.55140    -999.25   40.71380    7.71520   80.23860   34.69920   30.55140   12.89790   21.27680   10.94590    -999.25    -999.25  356.62070  594.28350  594.28350   22.02580   18.85940  -53.43340  -47.71380  -10.47840   18.85940
 4350.00000    -999.25   11.07660   80.98150   12.34850    -999.25   54.59810   10.81330  112.45830   13.21690   12.34850   10.23730   15.76320   11.07660    -999.25    -999.25  169.27100  444.26770  444.26770    8.08720    8.09100  -54.81420  -44.72430   -7.54750    8.09100
 4400.00000    -999.25   11.27910   87.03520   11.48960    -999.25   65.04370   10.23280  106.42110   11.20420   11.48960    7.84750   12.39700   11.27910    -999.25    -999.25  229.09590  472.83860  472.83860    8.16540    7.83020  -54.14260  -44.35680   -7.23820    7.83020
 4450.00000    -999.25    -999.25   79.12640   12.63800    -999.25   63.27300   11.25910  117.09460   12.72480   12.63800    8.31770   13.27380    -999.25    -999.25    -999.25  214.13340  168.18440  168.18440    9.65260    9.06780  -60.99520  -43.96550   -6.90530    9.06780
 4500.00000    -999.25    -999.25   80.64970   12.39930    -999.25   58.83770   10.94620  113.84050   12.49450   12.39930    7.09140   12.95030    -999.25    -999.25    -999.25  193.18990  127.19260  127.19260    9.05950    8.83510  -56.16620  -44.04970   -7.04780    8.83510
 4550.00000    -999.25    -999.25   99.75500   10.02460    -999.25   60.86220   12.25820  127.48530   10.13400   10.02460    6.11140    9.92740    -999.25    -999.25    -999.25   94.91140  -20.37050  -20.37050    6.64950    7.36460  -50.49510  -40.39410   -3.45020    7.36460
 4600.00000    -999.25    -999.25   72.44170   13.80420    -999.25   72.04010   13.67770  142.24810   10.61910   13.80420    6.98030   11.66560    -999.25    -999.25    -999.25  172.54050  123.55660  123.55660   11.52550   11.86540  -46.12860  -42.79090   -5.90550   11.86540
