~Version ---------------------------------------------------
VERS.      2.0 : CWLS log ASCII Standard -VERSION 2.0
WRAP.       NO : One line per depth step
CREA. 12/15/17 : LAS Creation Date
~Well ------------------------------------------------------
STRT.FT                                 1000.0 : START DEPTH
STOP.FT                                 9900.0 : STOP DEPTH
STEP.FT                               50.00000 : STEP LENGTH
NULL.                                  -999.25 : NULL VALUE
COMP. THE BRITISH AMERICAN OIL COMPANY LIMITED : COMPANY
WELL.                  B.A. MEEKWAP 10-1-66-19 : WELL
FLD .                                          : FIELD
LOC .                                          : LOCATION
CTRY.                                   CANADA : COUNTRY
SRVC.                   Schlumberger of Canada : SERVICE COMPANY
DATE.                              27-Feb-1961 : LOGDATE
PROV.                                  Alberta : PROVINCE
UWI .                         100100106619W500 : UNIQUE WELL ID
SLAT.WGS84                            54.68526 : SURFACE LATITUDE
SLON.WGS84                           -116.7316 : SURFACE LONGITUDE
~Curve Information -----------------------------------------
DEPT  .FT         : Depth Curve
CILDED.MMHO       : CONDUCTIVITY FROM RESISTIVITY LOG
CONDWS.MMHO       : CONDUCTIVITY [1000/DRESWS]
DRESWS.OHMM       : DEEP RESISTIVITY [1000/CILDED IF ILDED <=3, ILDED]
DT1ED .US/F       : DELTA TIME [SPAN 1'] FROM SONIC LOG [ADJ. TO RESISTIVITY LOG]
DTED  .US/F       : DELTA TIME [SPAN 3'] FROM SONIC LOG [ADJ. TO RESISTIVITY LOG]
DTWS  .US/F       : COMPRESSIONAL SONIC [DTED]
GRSED .UgRa-Eq/T  : GAMMA RAY FROM SONIC LOG [ADJ. TO RESISTIVITY LOG]
GRWS  .GAPI       : GAMMA RAY [GRSED*16.5]
ILDED .OHMM       : DEEP  INDUCTION LOG RESISTIVITY FROM RESISTIVITY LOG
SNED  .OHMM       : SHORT NORMAL 16" RESISTIVITY FROM RESISTIVITY LOG
SPRED .MV         : SPONTANEOUS POTENTIAL FROM RESISTIVITY LOG
SPWS  .MV         : SPONTANEOUS POTENTIAL [BASELINE 0 MV, SPRED]
SRESWS.OHMM       : SHALLOW RESISTIVITY [SNED]
~Params ----------------------------------------------------
LMF .                     KB : LOG MEASURED FROM
DMF .                     KB : DRILLING MEASURED FROM
EKB .FT                 2815 : KELLY BUSHING
DATE.               02/27/61 : RUN DATE
RUN .                      2 : RUN NUMBER
DD  .FT                 9915 : DEPTH DRILLER
DL  .FT                 9909 : DEPTH LOGGER
BLI .FT                 9908 : BOTTOM LOG INTERVAL
TLI .FT                 6157 : TOP LOG INTERVAL
CBD .FT                 1004 : CASING BOTTOM DRILLER
BS  .IN                 6.25 : BIT SIZE
BSD .FT                 9915 : BIT SIZE AT DEPTH
DFT .                    GEL : DRILLING FLUID TYPE
DFD .                   10.4 : DRILLING FLUID DENSITY
DFV .                     84 : DRILLING FLUID VISCOSITY
DFPH.                      9 : DRILLING FLUID PH
DFL .                      7 : DRILLING FLUID LOSS
RMF .OHMM               1.95 : RESISTIVITY MUD FILTRATE SAMPLE
MFST.DEGF                 64 : MUD FILTRATE SAMPLE TEMPERATURE
RMC .OHMM                3.9 : RESISTIVITY MUD CAKE
MCST.DEGF                 64 : MUD CAKE SAMPLE TEMPERATURE
TCS .HRS                 9.5 : TIME CIRCULATED STOPPED
LUN .                  1573C : LOGGING UNIT NUMBER
LUL .                     WC : LOGGING UNIT LOCATION
ENGI.               STAFFORD : RECORDING ENGINEER
WITN.               ANDERSON : WITNESSED BY
CLNT.                A2DTECH : CLIENT CODE
ORIG.            2" 5" PRINT : ORIGIN OF DATA
UWI .       100100106619W500 : UNIQUE WELL ID
DICO. A2D Technologies, Inc. : DIGITIZING COMPANY
~Other -----------------------------------------------------
~ASCII -----------------------------------------------------
# ...
 6200.00000   17.62450   15.46050   64.68090    -999.25   54.58210   54.58210    4.03300   66.54450   64.68090   60.27710 -117.27130   -9.82500   60.27710
 6250.00000   12.03600   10.10360   98.97500    -999.25   51.26670   51.26670    1.75140   28.89810   98.97500  169.98400 -164.87010  -55.97860  169.98400
 6300.00000  382.60230  382.60230    2.61370    -999.25   65.42730   65.42730    3.47120   57.27480    2.38280   17.55890 -222.68160 -112.39410   17.55890
 6350.00000  102.16160  112.87570    8.85930    -999.25   53.59410   53.59410    4.19810   69.26870    8.85930   25.64520 -175.86610  -64.17340   25.64520
 6400.00000   56.16930   46.97390   21.28840    -999.25   54.06310   54.06310    3.03500   50.07750   21.28840   39.51210 -142.68520  -29.59650   39.51210
 6450.00000   42.97980   40.79300   24.51400    -999.25   51.52490   51.52490    1.75690   28.98880   24.51400   86.55610 -252.58590 -138.09200   86.55610
 6500.00000   21.45820   17.02080   58.75150    -999.25   50.47680   50.47680    1.66250   27.43130   58.75150  124.81480 -245.99970 -130.10980  124.81480
 6550.00000   19.83680   16.97210   58.92030    -999.25   52.37940   52.37940    1.40680   23.21220   58.92030  133.24860 -247.72080 -130.43490  133.24860
 6600.00000  264.86610  273.79880    3.65230    -999.25   62.13800   62.13800    7.34360  121.16940    3.55340    9.14770 -149.56180  -32.25390    9.14770
 6650.00000  128.81620  139.88750    7.14860    -999.25   63.24000   63.24000    4.47940   73.90930    7.14860   10.06570 -129.85860  -19.56470   10.06570
 6700.00000  428.23550  428.23550    2.33520    -999.25   71.57960   71.57960    5.48000   90.42000    2.02820    7.19850 -168.11240  -64.87870    7.19850
 6750.00000   59.57440   57.21770   17.47710    -999.25   56.16630   56.16630    4.43230   73.13290   17.47710   30.47090 -128.45010  -32.23050   30.47090
 6800.00000   17.75190   18.43370   54.24840    -999.25   54.99080   54.99080    3.84790   63.49030   54.24840   62.96130 -121.71710  -29.56920   62.96130
 6850.00000   23.44350   23.19350   43.11560    -999.25   53.91500   53.91500    2.23010   36.79670   43.11560   46.97600 -115.54550  -20.45370   46.97600
 6900.00000    3.81800    2.28930  436.81750    -999.25   51.59800   51.59800    1.53850   25.38520  436.81750  179.48490 -133.89830  -35.88190  179.48490
 6950.00000    9.36030    7.97270  125.42880    -999.25   52.81400   52.81400    3.13030   51.65000  125.42880   90.99800 -122.89880  -21.93850   90.99800
 7000.00000   13.43490   11.01810   90.75940    -999.25   53.69550   53.69550    3.12980   51.64170   90.75940   74.55750 -133.11630  -29.23140   74.55750
 7050.00000   24.23000   22.18540   45.07470    -999.25   58.76210   58.76210    4.94720   81.62880   45.07470   47.17470 -135.27080  -28.46120   47.17470
 7100.00000   15.16290   12.12860   82.44970    -999.25   54.62620   54.62620    3.94340   65.06610   82.44970   69.31620 -135.17490  -25.42150   69.31620
 7150.00000   19.51690   17.20860   58.11060    -999.25   55.63050   55.63050    4.30820   71.08530   58.11060   55.97110 -138.50520  -25.82710   55.97110
 7200.00000   12.43440   10.92200   91.55800    -999.25   55.69880   55.69880    4.11330   67.86950   91.55800   80.99830 -149.37570  -33.75380   80.99830
 7250.00000   59.66420   60.58480   16.50580    -999.25   60.00160   60.00160    7.29840  120.42360   16.50580   21.59040 -142.50260  -23.95600   21.59040
 7300.00000   14.79950   12.70730   78.69510    -999.25   53.10340   53.10340    2.42610   40.03070   78.69510  102.01140 -130.98190  -13.54890  102.01140
 7350.00000    7.78090    2.76460  361.71350    -999.25   49.05370   49.05370    1.48920   24.57180  361.71350  156.54390 -190.52530  -76.65210  156.54390
 7400.00000    5.38210    2.94960  339.03470    -999.25   49.32950   49.32950    1.59580   26.33070  339.03470  187.39990 -179.49950  -69.16280  187.39990
 7450.00000    8.28790    3.45760  289.21510    -999.25   49.30330   49.30330    1.65990   27.38830  289.21510  157.82890 -181.10800  -74.33110  157.82890
 7500.00000    8.70480    5.92240  168.85050    -999.25   49.69740   49.69740    1.32270   21.82450  168.85050  113.57220 -171.13250  -67.89210  113.57220
 7550.00000    6.96410    3.71390  269.26110    -999.25   49.28980   49.28980    1.47230   24.29290  269.26110  152.05170 -188.28490  -88.58110  152.05170
 7600.00000   29.76930   27.49250   36.37360    -999.25   52.14830   52.14830    1.38330   22.82440   36.37360  115.22220 -262.15630 -166.01230  115.22220
 7650.00000   21.52580   18.05900   55.37390    -999.25   51.20290   51.20290    1.25400   20.69100   55.37390  107.09860 -221.72530 -129.11780  107.09860
 7700.00000    8.29090    5.69410  175.62070    -999.25   50.39850   50.39850    1.34120   22.12980  175.62070  137.21680 -181.16480  -92.11710  137.21680
 7750.00000    7.67030    4.98390  200.64690    -999.25   50.17630   50.17630    1.47780   24.38370  200.64690  113.08470 -177.67350  -92.16230  113.08470
 7800.00000    7.09330    5.30870  188.37060    -999.25   50.05400   50.05400    1.48410   24.48760  188.37060  157.00230 -180.24940  -98.27470  157.00230
 7850.00000    9.44800    7.22710  138.36730    -999.25   50.02560   50.02560    1.54450   25.48420  138.36730  114.90100 -195.43340 -117.01850  114.90100
 7900.00000   25.69570   24.03800   41.60080    -999.25   52.56100   52.56100    1.31320   21.66780   41.60080  115.35590 -284.72130 -209.84290  115.35590
 7950.00000   22.11860   19.04330   52.51200    -999.25   51.70370   51.70370    1.54810   25.54370   52.51200  100.06150 -222.06810 -150.74950  100.06150
 8000.00000   16.80650   13.49830   74.08340    -999.25   49.27460   49.27460    1.45130   23.94650   74.08340  103.42830 -184.87560 -117.09350  103.42830
 8050.00000   64.52930   73.80400   13.54940    -999.25   61.25180   61.25180    2.92630   48.28390   13.54940   53.57480 -138.95100  -74.70550   53.57480
 8100.00000   13.53260   11.21170   89.19280    -999.25   46.22000   46.22000    1.85720   30.64380   89.19280  114.19780 -101.70470  -41.01890  114.19780
 8150.00000   22.99470   20.21710   49.46300    -999.25   47.82450   47.82450    1.63330   26.94940   49.46300  120.24390 -144.99170  -87.84250  120.24390
 8200.00000   12.88660   10.77210   92.83200    -999.25   51.30950   51.30950    2.89830   47.82200   92.83200   94.50480 -110.60210  -57.01270   94.50480
 8250.00000   10.09690    8.55730  116.85870    -999.25   52.74790   52.74790    3.33060   54.95490  116.85870  101.83340  -84.22630  -34.17340  101.83340
 8300.00000   40.18320   39.15840   25.53730    -999.25   61.56420   61.56420    4.93380   81.40770   25.53730   31.72550  -47.86600   -1.34960   31.72550
 8350.00000    9.09820    6.40680  156.08330    -999.25   53.43970   53.43970    2.73620   45.14730  156.08330  132.92640  -61.56230  -18.29770  132.92640
 8400.00000   26.16560   24.74200   40.41710    -999.25   53.50940   53.50940    2.75590   45.47230   40.41710   46.77930  -62.68380  -22.63730   46.77930
 8450.00000  126.70030  152.14910    6.57250    -999.25   76.60970   76.60970    6.58640  108.67560    6.57250   12.38500  -81.47950  -44.67230   12.38500
 8500.00000  235.25600  261.36270    3.82610    -999.25   82.83730   82.83730    7.23830  119.43200    3.82610    7.25860 -110.16680  -76.57770    7.25860
 8550.00000  172.41530  196.45210    5.09030    -999.25   74.72310   74.72310    7.08410  116.88770    5.09030    7.68700 -113.52320  -83.15220    7.68700
 8600.00000  270.49120  302.90180    3.30140    -999.25   81.08350   81.08350    6.74540  111.29910    3.30140    4.75970 -130.33980 -103.20810    4.75970
 8650.00000  231.56390  251.85110    3.97060    -999.25   76.14630   76.14630    6.90150  113.87480    3.97060    5.49440 -104.89130  -80.97770    5.49440
 8700.00000  234.69250  262.08880    3.81550    -999.25   78.81460   78.81460    6.85150  113.04970    3.81550    5.06660  -86.90920  -66.23490    5.06660
 8750.00000  256.20230  280.40270    3.56630    -999.25   81.08980   81.08980    6.27640  103.56060    3.56630    5.17630  -86.84560  -69.38940    5.17630
