~Version ---------------------------------------------------
VERS.      2.0 : CWLS log ASCII Standard -VERSION 2.0
WRAP.      YES : Multiple lines per depth step
CREA. 09/25/17 : LAS Creation Date
~Well ------------------------------------------------------
STRT.FT                      300.0 : START DEPTH
STOP.FT                    12100.0 : STOP DEPTH
STEP.FT                   50.00000 : STEP LENGTH
NULL.                      -999.25 : NULL VALUE
COMP. TRANS-PRAIRIES PIPELINES LTD : COMPANY
WELL.  TPPL DEEP VALLEY 7-11-64-25 : WELL
FLD .                              : FIELD
LOC .                              : LOCATION
CTRY.                       CANADA : COUNTRY
SRVC.       Schlumberger of Canada : SERVICE COMPANY
DATE.                  16-Mar-1975 : LOGDATE
PROV.                      Alberta : PROVINCE
UWI .             100071106425W500 : UNIQUE WELL ID
SLAT.WGS84                54.52029 : SURFACE LATITUDE
SLON.WGS84               -117.6631 : SURFACE LONGITUDE
~Curve Information -----------------------------------------
DEPT    .FT    : Depth Curve
CALDED  .IN    : CALIPER FROM DENSITY LOG
CALSED  .IN    : CALIPER FROM SONIC LOG
CALWS   .IN    : CALIPER [CALSED]
CILDED  .MMHO  : CONDUCTIVITY FROM RESISTIVITY LOG
CONDWS  .MMHO  : CONDUCTIVITY [1000/DRESWS]
DCORED  .G/C3  : DENSITY CORRECTION FROM DENSITY LOG
DCORWS  .G/C3  : DENSITY CORRECTION [DCORED]
DENWS   .G/C3  : FORMATION BULK DENSITY [RHOBED]
DPHILSED.V/V   : DENSITY POROSITY LIME [M=2.71, F=1.0] FROM DENSITY LOG [ADJ. TO RHOBED]
DPHISSED.V/V   : DENSITY POROSITY SAND [M=2.65, F=1.0] FROM DENSITY LOG [ADJ. TO RHOBED]
DPOLSWS .V/V   : DENSITY POROSITY LIME [CALC. FROM DENWS, M=2.71, F=1.0]
DRESWS  .OHMM  : DEEP RESISTIVITY [1000/CILDED, IF ILDED < 1, ILDED]
DTED    .US/F  : DELTA-T FROM SONIC LOG
DTWS    .US/F  : COMPRESSIONAL SONIC [DTED]
GRDED   .GAPI  : GAMMA RAY FROM DENSITY LOG
GRWS    .GAPI  : GAMMA RAY [GRDED]
ILDED   .OHMM  : DEEP INDUCTION FROM RESISTIVITY LOG
ILMED   .OHMM  : MEDIUM INDUCTION FROM RESISTIVITY LOG
LL8ED   .OHMM  : LATEROLOG FROM RESISTIVITY LOG
MRESWS  .OHMM  : MEDIUM RESISTIVITY [ILMED]
NPHILSED.V/V   : NEUTRON POROSITY LIME FROM DENSITY LOG [ADJ. TO RHOBED]
NPHISSED.V/V   : NEUTRON POROSITY SAND FROM DENSITY LOG [ADJ. TO RHOBED]
NPOLSWS .V/V   : NEUTRON POROSITY LIME [SS MATRIX CONVERTED TO LS & SPL. TO NPHILSED @ 7950']
RHOBED  .G/C3  : BULK DENSITY FROM DENSITY LOG
SPRED   .MV    : SPONTANEOUS POTENTIAL FROM RESISTIVITY LOG
SPWS    .MV    : SPONTANEOUS POTENTIAL [BASELINE 0 MV,SPRED]
SRESWS  .OHMM  : SHALLOW RESISTIVITY [LL8ED]
~Params ----------------------------------------------------
EKB .FT                 2835 : KELLY BUSHING
EGL .FT                 2813 : GROUND LEVEL
DATE.               03/16/75 : RUN DATE
RUN .                      1 : RUN NUMBER
DD  .FT                12140 : DEPTH DRILLER
DL  .FT                12139 : DEPTH LOGGER
BLI .FT                12133 : BOTTOM LOG INTERVAL
TLI .FT                 1603 : TOP LOG INTERVAL
CBD .FT                 1603 : CASING BOTTOM DRILLER
CBL .FT                 1604 : CASING BOTTOM LOGGER
BS  .IN                  8.5 : BIT SIZE
BSD .FT                12140 : BIT SIZE AT DEPTH
DFT .               GEL CHEM : DRILLING FLUID TYPE
DFD .                    9.3 : DRILLING FLUID DENSITY
DFV .                    109 : DRILLING FLUID VISCOSITY
DFPH.                    9.5 : DRILLING FLUID PH
DFL .                    7.8 : DRILLING FLUID LOSS
MSS .               FLOWLINE : MUD SAMPLE SOURCE
RMS .OHMM               1.57 : RESISTIVITY MUD SAMPLE
MST .DEGF                 61 : MUD SAMPLE TEMPERATURE
RMF .OHMM               1.19 : RESISTIVITY MUD FILTRATE SAMPLE
MFST.DEGF                 63 : MUD FILTRATE SAMPLE TEMPERATURE
RMC .OHMM               2.57 : RESISTIVITY MUD CAKE
MCST.DEGF                 60 : MUD CAKE SAMPLE TEMPERATURE
TCS .HRS                   4 : TIME CIRCULATED STOPPED
LUN .                   7691 : LOGGING UNIT NUMBER
LUL .                    EDM : LOGGING UNIT LOCATION
ENGI.                  BORLE : RECORDING ENGINEER
WITN.                 TAYLOR : WITNESSED BY
CLNT.                A2DTECH : CLIENT CODE
ORIG.            2" 5" PRINT : ORIGIN OF DATA
UWI .       100071106425W500 : UNIQUE WELL ID
DICO. A2D Technologies, Inc. : DIGITIZING COMPANY
~Other -----------------------------------------------------
~ASCII -----------------------------------------------------
# ...
 9400.00000    8.91900    8.40830    8.40830    -999.25   22.62520   -0.54120   -0.54120    2.73250   -0.01570    -999.25   -0.01320   44.19860   54.29970   54.29970   48.41910   48.41910   44.19860   48.02890   81.22000   48.02890    0.03850    -999.25    0.03850    2.73250 -182.93280  -86.25110   81.22000
 9450.00000    8.87500    8.38530    8.38530    -999.25   15.68600   -0.55760   -0.55760    2.76640   -0.02380    -999.25   -0.03300   63.75100   56.12720   56.12720   51.55570   51.55570   63.75100   79.16250  118.69040   79.16250    0.05000    -999.25    0.05000    2.76640 -107.33860  -10.67420  118.69040
 9500.00000    8.89030    8.53180    8.53180    -999.25   29.32220   -0.50750   -0.50750    2.67950    0.02140    -999.25    0.01780   34.10390   64.56520   64.56520   94.68160   94.68160   34.10390   36.11990   46.65560   36.11990    0.11350    -999.25    0.11350    2.67950 -155.64130  -58.90730   46.65560
 9550.00000    8.71260    8.41490    8.41490    -999.25    4.18670   -0.50780   -0.50780    2.67920    0.01570    -999.25    0.01800  238.85220   53.92790   53.92790   37.78270   37.78270  238.85220  385.67500  912.73820  385.67500    0.02900    -999.25    0.02900    2.67920 -106.41960   -9.52540  912.73820
 9600.00000    9.21570    8.38410    8.38410    -999.25   47.55520   -0.54340   -0.54340    2.62870    0.04760    -999.25    0.04750   21.02820   61.12750   61.12750  160.87460  160.87460   21.02820   23.17160   28.67910   23.17160    0.16140    -999.25    0.16140    2.62870 -110.85040  -14.00550   28.67910
 9650.00000    9.05860    8.74480    8.74480    -999.25    1.05720   -0.63120   -0.63120    2.71390    0.00350    -999.25   -0.00230  945.86180   48.39050   48.39050   18.29340   18.29340  945.86180 1384.22740 1537.27170 1384.22740    0.00320    -999.25    0.00320    2.71390 -212.97500 -116.30800 1537.27170
 9700.00000    9.49000    8.57670    8.57670    -999.25    1.40080   -0.66980   -0.66980    2.71850   -0.00140    -999.25   -0.00500  713.90170   48.33960   48.33960   17.67030   17.67030  713.90170 1152.54060 1500.29050 1152.54060    0.00510    -999.25    0.00510    2.71850 -226.89990 -130.41070 1500.29050
 9750.00000   10.00330    8.70590    8.70590    -999.25    1.08910   -0.67470   -0.67470    2.63190    0.04330    -999.25    0.04570  918.16940   48.35790   48.35790   17.39290   17.39290  918.16940 1367.34120 1498.29280 1367.34120   -0.00080    -999.25   -0.00080    2.63190 -212.82760 -116.51620 1498.29280
 9800.00000   10.40640    8.84620    8.84620    -999.25    1.09490   -0.74480   -0.74480    2.64850    0.03170    -999.25    0.03600  913.35120   48.52050   48.52050   14.05790   14.05790  913.35120  505.61950 1486.64690  505.61950   -0.00020    -999.25   -0.00020    2.64850 -259.45870 -163.32520 1486.64690
 9850.00000    9.91600    8.91290    8.91290    -999.25    0.76210   -0.68010   -0.68010    2.48840    0.13000    -999.25    0.12960 1312.21150   49.45720   49.45720   17.36630   17.36630 1312.21150  410.55680 1462.35290  410.55680    0.00840    -999.25    0.00840    2.48840 -273.12540 -177.16970 1462.35290
 9900.00000   10.43690    9.01690    9.01690    -999.25    1.30380   -0.66800   -0.66800    2.44630    0.17070    -999.25    0.15420  766.97820   48.26410   48.26410   13.37310   13.37310  766.97820 1359.42690 1486.15810 1359.42690    0.01370    -999.25    0.01370    2.44630 -253.32090 -157.54310 1486.15810
 9950.00000    9.53130    8.87920    8.87920    -999.25    1.85270   -0.70580   -0.70580    2.51290    0.11530    -999.25    0.11530  539.74420   49.73940   49.73940   12.16350   12.16350  539.74420  348.54170  684.84570  348.54170    0.00790    -999.25    0.00790    2.51290 -210.04980 -114.44980  684.84570
 10000.00000    9.65210    8.53630    8.53630    -999.25    1.32240   -0.74710   -0.74710    2.65600    0.04040    -999.25    0.03160  756.18490   48.77840   48.77840   14.42330   14.42330  756.18490  944.95820 1469.27160  944.95820    0.01110    -999.25    0.01110    2.65600 -211.78640 -116.36420 1469.27160
 10050.00000    9.99810    8.75520    8.75520    -999.25    0.98630   -0.73340   -0.73340    2.47870    0.14320    -999.25    0.13530 1013.86250   48.31930   48.31930   14.86540   14.86540 1013.86250 1234.29100 1476.49480 1234.29100    0.00610    -999.25    0.00610    2.47870 -228.97670 -133.73240 1476.49480
 10100.00000    9.58460    8.81650    8.81650    -999.25    0.83860   -0.73460   -0.73460    2.58020    0.07680    -999.25    0.07590 1192.53160   48.54040   48.54040   14.88210   14.88210 1192.53160  964.18460 1491.60340  964.18460    0.00940    -999.25    0.00940    2.58020 -229.27970 -134.21320 1491.60340
 10150.00000   10.33690    8.93210    8.93210    -999.25    1.36920   -0.69930   -0.69930    2.50320    0.12230    -999.25    0.12090  730.34490   48.14690   48.14690   14.64750   14.64750  730.34490  981.07950 1475.62370  981.07950    0.00950    -999.25    0.00950    2.50320 -263.34530 -168.45670 1475.62370
 10200.00000    9.26020    8.75050    8.75050    -999.25    1.01870   -0.75090   -0.75090    2.56500    0.09680    -999.25    0.08480  981.61880   48.52370   48.52370   14.98540   14.98540  981.61880  972.15340 1482.38790  972.15340    0.00950    -999.25    0.00950    2.56500 -251.54580 -156.83500 1482.38790
 10250.00000    9.58000    8.86000    8.86000    -999.25    1.08040   -0.67950   -0.67950    2.47850    0.13290    -999.25    0.13540  925.58810   49.39370   49.39370   14.73330   14.73330  925.58810  454.48650 1475.66160  454.48650    0.00600    -999.25    0.00600    2.47850 -250.65350 -156.12050 1475.66160
 10300.00000    9.81070    9.27250    9.27250    -999.25    1.31810   -0.62780   -0.62780    2.49180    0.12060    -999.25    0.12760  758.65520   50.04700   50.04700   15.75310   15.75310  758.65520  498.42230 1282.50180  498.42230    0.01200    -999.25    0.01200    2.49180 -242.94780 -148.59270 1282.50180
 10350.00000    8.85210    8.80890    8.80890    -999.25    7.74900   -0.54190   -0.54190    2.71890   -0.00740    -999.25   -0.00520  129.04840   49.16060   49.16060   13.11740   13.11740  129.04840  139.80580  145.69190  139.80580    0.00590    -999.25    0.00590    2.71890 -260.19330 -166.01600  145.69190
 10400.00000    8.69890    8.85030    8.85030    -999.25    1.22070   -0.50470   -0.50470    2.88410   -0.10700    -999.25   -0.10180  819.18600   49.57330   49.57330   11.22930   11.22930  819.18600 1383.94560 1491.17930 1383.94560    0.00160    -999.25    0.00160    2.88410 -241.38920 -147.38980 1491.17930
 10450.00000    8.42030    8.26270    8.26270    -999.25   17.48770   -0.61490   -0.61490    2.77770   -0.04340    -999.25   -0.03960   57.18300   52.42810   52.42810   35.26290   35.26290   57.18300   87.20740  182.21690   87.20740    0.07770    -999.25    0.07770    2.77770 -244.62880 -150.80720  182.21690
 10500.00000    8.56250    8.88700    8.88700    -999.25    6.38450   -0.67060   -0.67060    2.72970   -0.00950    -999.25   -0.01150  156.62820   48.35580   48.35580   16.19640   16.19640  156.62820  127.24210  221.28260  127.24210    0.06820    -999.25    0.06820    2.72970 -260.15740 -166.51360  221.28260
 10550.00000   11.45320    9.24990    9.24990    -999.25   12.18570   -0.74540   -0.74540    2.45030    0.16170    -999.25    0.15190   82.06370   53.04710   53.04710   28.15610   28.15610   82.06370   47.17670   84.24990   47.17670    0.07170    -999.25    0.07170    2.45030 -215.15610 -121.69020   84.24990
 10600.00000   10.84180    9.46140    9.46140    -999.25    1.47560   -0.63330   -0.63330    2.53450    0.10680    -999.25    0.10260  677.70420   51.11760   51.11760   20.89500   20.89500  677.70420  835.05630 1482.42210  835.05630    0.01740    -999.25    0.01740    2.53450 -208.53730 -115.24920 1482.42210
 10650.00000   12.01630    9.34840    9.34840    -999.25    0.70310   -0.75630   -0.75630    2.47970    0.13600    -999.25    0.13470 1422.35500   50.73890   50.73890   22.65020   22.65020 1422.35500  574.83280  574.95300  574.83280    0.01420    -999.25    0.01420    2.47970 -233.26310 -140.15290  574.95300
