~Version ---------------------------------------------------
VERS.      2.0 : CWLS log ASCII Standard -VERSION 2.0
WRAP.       NO : One line per depth step
CREA. 12/13/17 : LAS Creation Date
~Well ------------------------------------------------------
STRT.FT                         1100.0 : START DEPTH
STOP.FT                        16100.0 : STOP DEPTH
STEP.FT                       50.00000 : STEP LENGTH
NULL.                          -999.25 : NULL VALUE
COMP. AQUITAINE COMPANY OF CANADA LTD. : COMPANY
WELL. AQUIT ET AL OWL RIVER 1-24-45-16 : WELL
FLD .                                  : FIELD
LOC .                                  : LOCATION
CTRY.                           CANADA : COUNTRY
SRVC.                     Schlumberger : SERVICE COMPANY
DATE.                      22-May-1976 : LOGDATE
PROV.                          Alberta : PROVINCE
UWI .                 100012404516W502 : UNIQUE WELL ID
SLAT.WGS84                    52.88968 : SURFACE LATITUDE
SLON.WGS84                    -116.182 : SURFACE LONGITUDE
~Curve Information -----------------------------------------
DEPT    .FT    : Depth Curve
CALDED  .IN    : CALIPER FROM DENSITY LOG [ADJ. TO DLL LOG]
CALSED  .IN    : CALIPER FROM SONIC LOG
CALWS   .IN    : CALIPER [CALSED]
CONDWS  .MMHO  : CONDUCTIVITY [1000/DRESWS]
DCORWS  .G/C3  : DENSITY CORRECTION [DRHOED]
DENWS   .G/C3  : FORMATION BULK DENSITY [CALC. FROM DPOLSWS, M=2.71, F=1.00 ASSUMED]
DPHILSED.V/V   : DENSITY POROSITY LIMESTONE [M=2.71, F=1.00 ASSUMED] FROM DENSITY LOG
DPOLSWS .V/V   : DENSITY POROSITY LIMESTONE [DPHILSED]
DRESWS  .OHMM  : DEEP RESISTIVITY [ILDED SPL. TO LLDED @ 13065']
DRHOED  .G/C3  : DENSITY CORRECTION FROM DENSITY LOG [ADJ. TO DPHILSED/ DLL LOG]
DTED    .US/F  : DELTA TIME FROM SONIC LOG
DTWS    .US/F  : COMPRESSIONAL SONIC [DTED]
GRDED   .GAPI  : GAMMA RAY FROM DENSITY LOG [ADJ. TO DLL LOG]
GRSED   .GAPI  : GAMMA RAY FROM SONIC LOG
GRWS    .GAPI  : GAMMA RAY [GRSED]
ILDED   .OHMM  : DEEP INDUCTION RESISTIVITY FROM DIL LOG
ILMED   .OHMM  : DEEP RESISTIVITY [ILDED SPL. TO LLDED @ 13065']
LL8ED   .OHMM  : LATEROLOG 8  RESISTIVITY FROM DIL LOG
LLDED   .OHMM  : DEEP LATEROLOG RESISTIVITY  FROM DLL LOG
LLSED   .OHMM  : SHALLOW  LATEROLOG RESISTIVITY FROM DLL LOG
MRESWS  .OHMM  : MEDIUM RESISTIVITY [ILMED]
NPHILSED.V/V   : NEUTRON POROSITY LIMESTONE FROM DENSITY LOG [ADJ. TO DLL LOG]
NPOLSWS .V/V   : NEUTRON POROSITY LIMESTONE [NPHILSED]
RHOBED  .G/C3  : BULK DENSITY FROM DENSITY LOG [ADJ. TO DPHILSED/DLL LOG]
SPED    .MV    : SPONTANEOUS POTENTIAL [SPR1ED SPL. TO SPRED @ 12893']
SPR1ED  .MV    : SPONTANEOUS POTENTIAL FROM DIL LOG
SPRED   .MV    : SPONTANEOUS POTENTIAL FROM DLL LOG
SPWS    .MV    : SPONTANEOUS POTENTIAL [BASELINE 0 MV, SPED]
SRESWS  .OHMM  : SHALLOW RESISTIVITY [LL8ED SPL. TO LLSED @ 12900']
~Params ----------------------------------------------------
PD  .                     GL : PERMANENT DATUM
EPD .FT                 4186 : ELEVATION PERMANENT DATUM
LMF .                     KB : LOG MEASURED FROM
DAPD.FT                   20 : FEET ABOVE PERMANENT DATUM
EKB .FT                 4206 : KELLY BUSHING
EGL .FT                 4186 : GROUND LEVEL
DATE.               22/05/76 : RUN DATE
RUN .                      4 : RUN NUMBER
DD  .FT                16151 : DEPTH DRILLER
DL  .FT                16146 : DEPTH LOGGER
BLI .FT                16144 : BOTTOM LOG INTERVAL
TLI .FT                15300 : TOP LOG INTERVAL
CBD .FT                12900 : CASING BOTTOM DRILLER
CBL .FT                12900 : CASING BOTTOM LOGGER
BS  .IN                    6 : BIT SIZE
BSD .FT                16151 : BIT SIZE AT DEPTH
DFT .                    KCL : DRILLING FLUID TYPE
DFD .                      9 : DRILLING FLUID DENSITY
DFV .                    114 : DRILLING FLUID VISCOSITY
DFPH.                     11 : DRILLING FLUID PH
DFL .                     15 : DRILLING FLUID LOSS
TCS .HRS                11.5 : TIME CIRCULATED STOPPED
LUN .              OSU C 264 : LOGGING UNIT NUMBER
LUL .                     RD : LOGGING UNIT LOCATION
ENGI.               FIGGURES : RECORDING ENGINEER
WITN.        LABADI CZERNIAK : WITNESSED BY
CLNT.                A2DTECH : CLIENT CODE
ORIG.            2" 5" PRINT : ORIGIN OF DATA
UWI .       100012404516W502 : UNIQUE WELL ID
DICO. A2D Technologies, Inc. : DIGITIZING COMPANY
~Other -----------------------------------------------------
DIL-DLL-FDC-CNL-LCS LOG RUN
RHOB & DRHO CURVES VERIFIED FROM 2" SCALE SECTION.
LCS- RUN4: PULLED TIGHT @ 12910' & 15140'
~ASCII -----------------------------------------------------
# ...
 12350.00000    -999.25    8.79990    8.79990   40.16890    -999.25    -999.25    -999.25    -999.25   24.89490    -999.25   52.75490   52.75490    -999.25   39.19710   39.19710   24.89490   26.49650   34.96050    -999.25    -999.25   26.49650    -999.25    -999.25    -999.25  -88.85650 -118.85650    -999.25  -98.22410   34.96050
 12400.00000    -999.25    8.71430    8.71430  124.01130    -999.25    -999.25    -999.25    -999.25    8.06880    -999.25   58.56340   58.56340    -999.25   37.64970   37.64970    8.06880    9.03970   11.32830    -999.25    -999.25    9.03970    -999.25    -999.25    -999.25  -65.32070  -95.32070    -999.25  -74.25330   11.32830
 12450.00000    -999.25    8.53680    8.53680   14.32980    -999.25    -999.25    -999.25    -999.25   69.78470    -999.25   52.88980   52.88980    -999.25   40.63580   40.63580   69.78470  144.74340  115.62350    -999.25    -999.25  144.74340    -999.25    -999.25    -999.25  -18.39100  -48.39100    -999.25  -26.88430  115.62350
 12500.00000    -999.25    8.67220    8.67220   12.52980    -999.25    -999.25    -999.25    -999.25   79.80960    -999.25   52.59030   52.59030    -999.25   26.44000   26.44000   79.80960  101.24430  228.50190    -999.25    -999.25  101.24430    -999.25    -999.25    -999.25  -22.45410  -52.45410    -999.25  -30.51030  228.50190
 12550.00000    -999.25    8.47260    8.47260    8.42610    -999.25    -999.25    -999.25    -999.25  118.88620    -999.25   52.57240   52.57240    -999.25   26.17610   26.17610  118.88620  108.90570   96.20650    -999.25    -999.25  108.90570    -999.25    -999.25    -999.25  -13.35300  -43.35300    -999.25  -20.97420   96.20650
 12600.00000    -999.25    8.43720    8.43720    8.49860    -999.25    -999.25    -999.25    -999.25  117.66660    -999.25   53.67080   53.67080    -999.25   23.95320   23.95320  117.66660 1435.69530   96.77710    -999.25    -999.25 1435.69530    -999.25    -999.25    -999.25   -9.58050  -39.58050    -999.25  -16.76240   96.77710
 12650.00000    -999.25    8.38440    8.38440    8.47260    -999.25    -999.25    -999.25    -999.25  118.04100    -999.25   53.72570   53.72570    -999.25   29.30910   29.30910  118.04100  324.92990   84.16900    -999.25    -999.25  324.92990    -999.25    -999.25    -999.25  -14.27400  -44.27400    -999.25  -21.02100   84.16900
 12700.00000    -999.25    8.37130    8.37130   34.89170    -999.25    -999.25    -999.25    -999.25   28.66010    -999.25   55.86820   55.86820   31.89410   39.69520   39.69520   28.66010   32.90130   50.92610    -999.25    -999.25   32.90130    0.11740    0.11740    -999.25  -14.88250  -44.88250    -999.25  -21.19020   50.92610
 12750.00000    -999.25    8.43360    8.43360   45.98020    -999.25    -999.25    -999.25    -999.25   21.74850    -999.25   54.72370   54.72370   29.48930   34.10730   34.10730   21.74850   29.38980   72.98180    -999.25    -999.25   29.38980    0.11010    0.11010    -999.25  -17.65920  -47.65920    -999.25  -23.52970   72.98180
 12800.00000    -999.25    8.49650    8.49650   17.67600    -999.25    -999.25    -999.25    -999.25   56.57410    -999.25   55.55560   55.55560   33.96220   40.76510   40.76510   56.57410   83.96350  111.02740    -999.25    -999.25   83.96350    0.12070    0.12070    -999.25  -11.47040  -41.47040    -999.25  -16.90600  111.02740
 12850.00000    -999.25    8.78130    8.78130    1.02400    -999.25    -999.25    -999.25    -999.25  976.53200    -999.25   48.79190   48.79190   16.40410   20.58000   20.58000  976.53200 1858.05760 1354.85750    -999.25    -999.25 1858.05760    0.07010    0.07010    -999.25   -1.94080  -31.94080    -999.25   -6.93710 1354.85750
 12900.00000    8.70040    9.01620    9.01620    0.65800    -999.25    2.50600    0.11930    0.11930 1519.89030    -999.25   49.66800   49.66800   10.97090   24.80470   24.80470 1519.89030  356.54870 1381.53650 2397.12580 1986.46300  356.54870    0.00750    0.00750    2.49830   -8.68400   -8.55620    -999.25  -13.24530 1986.46300
 12950.00000    8.92100    6.87930    6.87930    0.05150    0.25000    2.43320    0.16190    0.16190 19427.09180    0.25000   47.57850   47.57850   11.52490   17.30420   17.30420    -999.25    -999.25    -999.25 19427.09180  713.64070    -999.25    0.00650    0.00650    2.43700  -36.75610    -999.25  -36.75610  -40.82160  713.64070
 13000.00000   10.23430    7.05090    7.05090    0.02700    0.19970    2.35550    0.20730    0.20730 37009.85940    0.22780   48.76450   48.76450   10.00380   11.61830   11.61830    -999.25    -999.25    -999.25 37009.85940 2000.00000    -999.25    0.01270    0.01270    2.35930  -74.14200    -999.25  -74.14200  -77.45610 2000.00000
 13050.00000    9.49900    7.10750    7.10750    4.85120    0.23180    2.35800    0.20590    0.20590  206.51350    0.22940   50.80950   50.80950   12.59890   14.65030   14.65030    -999.25    -999.25    -999.25  206.51350  293.44580    -999.25    0.06490    0.06490    2.35160  -89.35510    -999.25  -89.35510  -91.92160  293.44580
 13100.00000   10.41720    7.04560    7.04560    0.02740    0.23040    2.58240    0.07460    0.07460 36538.82810    0.20480   48.75780   48.75780    7.74690    9.25420    9.25420    -999.25    -999.25    -999.25 36538.82810 1979.87830    -999.25    0.00870    0.00870    2.52070 -104.40840    -999.25 -104.40840 -106.21980 1979.87830
 13150.00000    9.54380    6.95340    6.95340    1.27100    0.20990    2.43380    0.16150    0.16150  789.47470    0.22810   49.21620   49.21620    7.72950   10.40070   10.40070    -999.25    -999.25    -999.25  789.47470  471.21850    -999.25    0.00920    0.00920    2.42800 -128.28820    -999.25 -128.28820 -129.35200  471.21850
 13200.00000    6.71010    6.62410    6.62410    4.36570    0.08280    2.74830   -0.02240   -0.02240  229.06040    0.05500   47.94830   47.94830    8.15690   11.38240   11.38240    -999.25    -999.25    -999.25  229.06040  182.46760    -999.25    0.01810    0.01810    2.72260  -78.81120    -999.25  -78.81120  -79.11990  182.46760
 13250.00000    9.98640    7.07490    7.07490    0.02650    0.21230    2.43090    0.16320    0.16320 37694.60160    0.17220   49.38950   49.38950    7.61830   10.76550   10.76550    -999.25    -999.25    -999.25 37694.60160 1046.15110    -999.25    0.00130    0.00130    2.43910  -84.80590    -999.25  -84.80590  -84.36320 1046.15110
 13300.00000   10.76420    7.33820    7.33820    0.02760    0.15540    2.42390    0.16730    0.16730 36240.16800    0.16800   51.20610   51.20610   10.01460   11.96170   11.96170    -999.25    -999.25    -999.25 36240.16800  275.75360    -999.25    0.00040    0.00040    2.41480  -87.75760    -999.25  -87.75760  -86.56740  275.75360
 13350.00000   11.74400    7.64410    7.64410    1.01830    0.25000    2.31620    0.23030    0.23030  982.01340    0.25000   47.07890   47.07890   14.22990   16.64920   16.64920    -999.25    -999.25    -999.25  982.01340   85.26500    -999.25    0.02840    0.02840    2.32860  -72.09120    -999.25  -72.09120  -70.14580   85.26500
 13400.00000   10.37040    7.47310    7.47310    0.34260    0.25000    2.51950    0.11140    0.11140 8702.18450    0.25000   49.42580   49.42580   19.00680   22.94460   22.94460    -999.25    -999.25    -999.25 8702.18450 1033.97810    -999.25    0.02570    0.02570    2.51890  -77.03830    -999.25  -77.03830  -74.34520 1033.97810
 13450.00000    9.09470    7.10110    7.10110    2.91980    0.21350    2.40750    0.17690    0.17690  342.48930    0.21470   49.54400   49.54400   12.14480   13.01600   13.01600    -999.25    -999.25    -999.25  342.48930  474.47100    -999.25    0.04920    0.04920    2.40970  -88.40030    -999.25  -88.40030  -84.95220  474.47100
 13500.00000    6.92060    6.80650    6.80650    0.02700    0.04460    2.92000   -0.12280   -0.12280 36976.02340    0.02840   47.28280   47.28280    9.75470   13.82000   13.82000    -999.25    -999.25    -999.25 36976.02340 2000.00000    -999.25    0.00660    0.00660    2.91470  -86.07330    -999.25  -86.07330  -81.87380 2000.00000
 13550.00000    6.13180    6.70610    6.70610    1.53930    0.01080    2.82640   -0.06810   -0.06810  970.00460    0.01050   48.78320   48.78320   62.90340   50.78400   50.78400    -999.25    -999.25    -999.25  970.00460  283.07360    -999.25    0.03420    0.03420    2.81500  -40.64810    -999.25  -40.64810  -35.70100  283.07360
