~Version ---------------------------------------------------
VERS.      2.0 : CWLS log ASCII Standard -VERSION 2.0
WRAP.       NO : One line per depth step
CREA. 11/22/17 : LAS Creation Date
~Well ------------------------------------------------------
STRT.FT                       1150.0 : START DEPTH
STOP.FT                      11000.0 : STOP DEPTH
STEP.FT                     50.00000 : STEP LENGTH
NULL.                        -999.25 : NULL VALUE
COMP.         PACIFIC PETROLEUMS LTD : COMPANY
WELL. PACIFIC PAN AM TONY 10-9-63-21 : WELL
FLD .                                : FIELD
LOC .                                : LOCATION
CTRY.                         CANADA : COUNTRY
SRVC.             LANE-WELLS COMPANY : SERVICE COMPANY
DATE.                    20-Jan-1968 : LOGDATE
PROV.                        Alberta : PROVINCE
UWI .               100100906321W500 : UNIQUE WELL ID
SLAT.WGS84                  54.43786 : SURFACE LATITUDE
SLON.WGS84                 -117.1097 : SURFACE LONGITUDE
~Curve Information -----------------------------------------
DEPT  .FT    : Depth Curve
CALWS .IN    : CALIPER [MCALED]
CILDED.MMHO  : DEEP INDUCTION CONDUCTIVITY FROM RESISTIVITY LOG
CONDWS.MMHO  : CONDUCTIVITY [1000/DRESWS]
DRESWS.OHMM  : DEEP RESISTIVITY [1000/CILDED,IF ILDED<2,ILDED]
DTED  .US/F  : DELTA-T FROM SONIC LOG
DTWS  .US/F  : COMPRESSIONAL SONIC [DTED]
GRSED .GAPI  : GAMMA RAY FROM SONIC LOG
GRWS  .GAPI  : GAMMA RAY [GRSED]
ILDED .OHMM  : DEEP INDUCTION RESISTIVITY FROM RESISTIVITY LOG
MCALED.IN    : MICRO CALIPER  FROM MINI LOG
SNED  .OHMM  : 16 INCH  SHORT NORMAL FROM RESISTIVITY LOG
SPRED .MV    : SPONTANEOUS POTENTIAL FROM RESISTIVITY LOG
SPWS  .MV    : SPONTANEOUS POTENTIAL [BASELINE 0 MV,SPRED]
SRESWS.OHMM  : SHALLOW RESISTIVITY [SNED]
~Params ----------------------------------------------------
PD  .                     GL : PERMANENT DATUM
EPD .FT                 2637 : ELEVATION PERMANENT DATUM
LMF .                     KB : LOG MEASURED FROM
DAPD.FT                   15 : FEET ABOVE PERMANENT DATUM
DMF .                     KB : DRILLING MEASURED FROM
EKB .FT                 2652 : KELLY BUSHING
EGL .FT                 2637 : GROUND LEVEL
DATE.               01/20/68 : RUN DATE
RUN .                      1 : RUN NUMBER
DD  .FT                11040 : DEPTH DRILLER
DL  .FT                11036 : DEPTH LOGGER
BLI .FT                11032 : BOTTOM LOG INTERVAL
TLI .FT                 1126 : TOP LOG INTERVAL
CS  .IN               13.375 : CASING SIZE
CBD .FT                 1125 : CASING BOTTOM DRILLER
CBL .FT                 1126 : CASING BOTTOM LOGGER
BS  .IN                 8.75 : BIT SIZE
BSD .FT                11040 : BIT SIZE AT DEPTH
DFT .                MUD GEL : DRILLING FLUID TYPE
DFD .                    9.3 : DRILLING FLUID DENSITY
DFV .                     95 : DRILLING FLUID VISCOSITY
DFPH.                     10 : DRILLING FLUID PH
DFL .                      8 : DRILLING FLUID LOSS
MSS .                   CIRC : MUD SAMPLE SOURCE
RMS .OHMM                1.5 : RESISTIVITY MUD SAMPLE
MST .DEGF                 62 : MUD SAMPLE TEMPERATURE
RMF .OHMM                1.4 : RESISTIVITY MUD FILTRATE SAMPLE
MFST.DEGF                 62 : MUD FILTRATE SAMPLE TEMPERATURE
RMC .OHMM                1.6 : RESISTIVITY MUD CAKE
MCST.DEGF                 62 : MUD CAKE SAMPLE TEMPERATURE
MFSS.                   MEAS : MUD FILTRATE SAMPLE SOURCE
MCSS.                   MEAS : MUD CAKE SAMPLE SOURCE
RMB .OHMM                0.4 : RESISTIVITY MUD AT BHT
TCS .HRS                   4 : TIME CIRCULATED STOPPED
LUN .                   1255 : LOGGING UNIT NUMBER
LUL .                     RD : LOGGING UNIT LOCATION
ENGI.                DOMSTAD : RECORDING ENGINEER
WITN.                HEUSDEN : WITNESSED BY
CLNT.                A2DTECH : CLIENT CODE
ORIG.            2" 5" PRINT : ORIGIN OF DATA
UWI .       100100906321W500 : UNIQUE WELL ID
DICO. A2D Technologies, Inc. : DIGITIZING COMPANY
~Other -----------------------------------------------------
~ASCII -----------------------------------------------------
# ...
 3600.00000   13.41560  110.31210  103.01950    9.70690   96.08580   96.08580   69.30900   69.30900    9.70690   13.41560   12.57940  -93.54480   -5.25620   12.57940
 3650.00000   12.78740  118.43720  110.42400    9.05600   95.68380   95.68380   61.61880   61.61880    9.05600   12.78740   10.90860  -92.97970   -4.71950   10.90860
 3700.00000   12.19960  156.93850  146.54590    6.82380  104.09310  104.09310   68.05100   68.05100    6.82380   12.19960    8.00040  -93.19060   -4.95870    8.00040
 3750.00000   13.72230  131.89770  124.08180    8.05920   99.00420   99.00420   62.22610   62.22610    8.05920   13.72230    9.03100  -93.22130   -5.01770    9.03100
 3800.00000   12.18480  109.35460  103.16620    9.69310   95.35120   95.35120   55.73460   55.73460    9.69310   12.18480   11.75690  -96.64980   -8.47460   11.75690
 3850.00000   11.96800  126.55900  108.40230    9.22490   78.56120   78.56120   50.25370   50.25370    9.22490   11.96800   10.09080  -96.12830   -7.98140   10.09080
 3900.00000   12.51270  132.57400  121.35630    8.24020   75.72010   75.72010   55.45650   55.45650    8.24020   12.51270    9.84710  -92.60330   -4.48470    9.84710
 3950.00000   12.86240  163.27940  150.27880    6.65430   97.62580   97.62580   68.24750   68.24750    6.65430   12.86240    8.05270  -92.34420   -4.27150    8.05270
 4000.00000   12.80040  130.57320  122.59110    8.15720   96.36520   96.36520   60.66200   60.66200    8.15720   12.80040    8.95780  -93.60080   -5.70290    8.95780
 4050.00000   13.93580  132.82260  124.27300    8.04680   91.97980   91.97980   66.75890   66.75890    8.04680   13.93580    8.64020  -92.88040   -5.15730    8.64020
 4100.00000   11.35340   75.59400   69.74520   14.33790   85.89600   85.89600   57.12550   57.12550   14.33790   11.35340   17.26220 -100.28050  -12.73210   17.26220
 4150.00000   12.18380  107.91520   97.72690   10.23260   89.54170   89.54170   63.93290   63.93290   10.23260   12.18380   12.39850  -96.48430   -9.11070   12.39850
 4200.00000   12.97790   84.20900   76.77600   13.02490   89.91480   89.91480   58.46410   58.46410   13.02490   12.97790   15.24100  -96.88520   -9.68630   15.24100
 4250.00000   12.68840  118.47970  108.76780    9.19390   87.01310   87.01310   60.33190   60.33190    9.19390   12.68840   10.69680  -96.08900   -9.06490   10.69680
 4300.00000    -999.25  108.78520  101.69010    9.83380   90.98340   90.98340   60.78970   60.78970    9.83380    -999.25   11.66750  -94.89140   -8.04210   11.66750
 4350.00000    -999.25  145.19550  136.70540    7.31500   98.93660   98.93660   64.51200   64.51200    7.31500    -999.25    9.28260  -94.94740   -8.27280    9.28260
 4400.00000    -999.25  141.18240  133.05300    7.51580   95.67420   95.67420   66.01660   66.01660    7.51580    -999.25   10.05700  -93.16060   -6.66080   10.05700
 4450.00000    -999.25  140.78270  132.77210    7.53170   98.61780   98.61780   73.14610   73.14610    7.53170    -999.25    9.97490  -93.26100   -6.93600    9.97490
 4500.00000    -999.25  113.39230  107.80160    9.27630   95.88530   95.88530   76.81350   76.81350    9.27630    -999.25   12.46240  -93.96750   -7.81720   12.46240
 4550.00000    -999.25  119.11050  113.34400    8.82270  112.42850  112.42850   71.99780   71.99780    8.82270    -999.25   12.30940  -92.49630   -6.52080   12.30940
 4600.00000    -999.25   89.91920   88.20440   11.33730   99.64380   99.64380   86.16330   86.16330   11.33730    -999.25   17.19650  -92.77950   -6.97870   17.19650
 4650.00000    -999.25  125.83700  119.31890    8.38090   99.93650   99.93650   73.56240   73.56240    8.38090    -999.25   11.29410  -92.32060   -6.69460   11.29410
 4700.00000    -999.25   75.63300   70.62400   14.15950  104.25840  104.25840   93.73690   93.73690   14.15950    -999.25   23.87210  -91.52160   -6.07040   23.87210
 4750.00000    -999.25  123.43920  116.28580    8.59950  101.44970  101.44970   80.11530   80.11530    8.59950    -999.25   12.92910  -91.76670   -6.49020   12.92910
 4800.00000    -999.25  133.85200  123.73170    8.08200   93.25740   93.25740   64.47320   64.47320    8.08200    -999.25   11.02230  -94.00590   -8.90420   11.02230
 4850.00000    -999.25  122.61140  116.78700    8.56260   83.45710   83.45710   46.38550   46.38550    8.56260    -999.25   10.17430  -95.41290  -10.48600   10.17430
 4900.00000    -999.25  142.08450  130.35430    7.67140   85.13130   85.13130   59.83100   59.83100    7.67140    -999.25   10.16570  -94.44940   -9.69720   10.16570
 4950.00000    -999.25  147.05280  138.53870    7.21820   90.22440   90.22440   64.12790   64.12790    7.21820    -999.25    8.76070  -91.72340   -7.14600    8.76070
 5000.00000    -999.25  167.62070  156.38930    6.39430   90.49370   90.49370   59.30430   59.30430    6.39430    -999.25    8.39130  -91.81500   -7.41230    8.39130
 5050.00000   13.51190  159.99600  149.61320    6.68390   92.35920   92.35920   62.55420   62.55420    6.68390   13.51190    8.90030  -89.58760   -5.35970    8.90030
 5100.00000   13.37680  246.40020  222.32600    4.49790   96.91790   96.91790   62.51910   62.51910    4.49790   13.37680    5.82970  -89.13780   -5.08470    5.82970
 5150.00000   13.53270  168.54300  156.30130    6.39790   87.60820   87.60820   51.23950   51.23950    6.39790   13.53270    8.58040  -89.73510   -5.85670    8.58040
 5200.00000   13.31670  239.85900  216.90090    4.61040  105.51040  105.51040   61.11130   61.11130    4.61040   13.31670    6.17440  -88.89860   -5.19500    6.17440
 5250.00000   13.63550  232.99650  208.97330    4.78530   92.99950   92.99950  108.99200  108.99200    4.78530   13.63550    6.21880  -87.12520   -3.59640    6.21880
 5300.00000   13.93850  322.09500  248.47810    4.02450  104.74960  104.74960   96.27290   96.27290    4.02450   13.93850    4.45020  -86.84530   -3.49120    4.45020
 5350.00000   12.18140  246.14820  205.97750    4.85490   97.35080   97.35080   91.28130   91.28130    4.85490   12.18140    5.70760  -90.27190   -7.29460    5.70760
 5400.00000   11.90330  141.85970  127.76940    7.82660   80.28870   80.28870   82.98200   82.98200    7.82660   11.90330   10.81450 -116.05830  -33.54850   10.81450
 5450.00000   11.29150   93.42960   85.07450   11.75440   76.13450   76.13450   66.01400   66.01400   11.75440   11.29150   15.78330 -116.41570  -34.37340   15.78330
 5500.00000   11.18570  214.40220  187.08020    5.34530   83.93290   83.93290   74.71350   74.71350    5.34530   11.18570    6.03690 -119.90050  -38.32570    6.03690
 5550.00000    9.62060   98.93230   88.82730   11.25780   76.55980   76.55980   37.53440   37.53440   11.25780    9.62060   19.92880 -177.67970  -96.57230   19.92880
 5600.00000   11.01500   75.79460   69.99520   14.28670   84.23560   84.23560   83.17870   83.17870   14.28670   11.01500   17.30700 -123.43940  -42.79950   17.30700
 5650.00000   11.44810  106.44860   96.92080   10.31770   80.85860   80.85860   68.46810   68.46810   10.31770   11.44810   12.80090 -127.80000  -47.62760   12.80090
 5700.00000   11.59410  116.10660  108.28140    9.23520   76.72940   76.72940   70.71130   70.71130    9.23520   11.59410   13.09240 -122.36110  -42.65620   13.09240
 5750.00000   11.05050   89.39990   79.60010   12.56280   72.74540   72.74540   71.57190   71.57190   12.56280   11.05050   21.01180 -119.96590  -40.72850   21.01180
 5800.00000   11.41450   72.83900   63.54570   15.73670  106.80560  106.80560   56.42560   56.42560   15.73670   11.41450   21.71500 -112.14430  -33.37440   21.71500
 5850.00000   11.21530   64.13340   58.67440   17.04320   82.43740   82.43740   65.04250   65.04250   17.04320   11.21530   24.69620 -113.44410  -35.14170   24.69620
 5900.00000   11.52640   81.83250   74.59740   13.40530   74.80410   74.80410   60.54320   60.54320   13.40530   11.52640   22.70230 -107.98440  -30.14950   22.70230
 5950.00000   10.86340   93.32270   83.79000   11.93460   76.75950   76.75950   47.78570   47.78570   11.93460   10.86340   17.19940 -107.85620  -30.48880   17.19940
 6000.00000   10.86800   90.62670   82.99790   12.04850   75.24790   75.24790   55.01320   55.01320   12.04850   10.86800   15.61120  -93.05780  -16.15790   15.61120
