~Version ---------------------------------------------------
VERS.      2.0 : CWLS log ASCII Standard -VERSION 2.0
WRAP.       NO : One line per depth step
CREA. 11/17/17 : LAS Creation Date
~Well ------------------------------------------------------
STRT.FT                  300.0 : START DEPTH
STOP.FT                10400.0 : STOP DEPTH
STEP.FT               50.00000 : STEP LENGTH
NULL.                  -999.25 : NULL VALUE
COMP.    J M HUBER CORPORATION : COMPANY
WELL. HUBER ROSEVEAR 6-5-55-14 : WELL
FLD .                       WC : FIELD
LOC .                          : LOCATION
CTRY.                   CANADA : COUNTRY
SRVC.             Schlumberger : SERVICE COMPANY
DATE.              04-Sep-1976 : LOGDATE
PROV.                  Alberta : PROVINCE
UWI .         100060505514W500 : UNIQUE WELL ID
SLAT.WGS84            53.72293 : SURFACE LATITUDE
SLON.WGS84           -116.0453 : SURFACE LONGITUDE
~Curve Information -----------------------------------------
DEPT    .FT    : Depth Curve
CALDED  .IN    : CALIPER FROM DENSITY LOG [ADJ. TO RESISTIVITY LOG]
CALRED  .MV    : CALIPER FROM FROM DLL
CALSED  .IN    : CALIPER FROM SONIC LOG [ADJ. TO RESISTIVITY LOG]
CALWS   .IN    : CALIPER [CALSED]
CONDWS  .MMHO  : CONDUCTIVITY [1000/DRESWS]
DCORED  .G/C3  : DENSITY CORRECTION FROM DENSITY LOG [ADJ. TO RESISTIVITY LOG]
DCORWS  .G/C3  : DENSITY CORRECTION [DCORED]
DENWS   .G/C3  : FORMATION BULK DENSITY [RHOBED SPL. TO DPHISSED CONVERTED TO LIMESTONE MATRIX, M=2.71, F=1.00 (ASSUMED) FROM 5892'-5905']
DPHILSED.V/V   : DENSITY POROSITY LIMESTONE [M=2.71, F=1.00 (ASSUMED)] FROM DENSITY LOG [ADJ. TO RESISTIVITY LOG]
DPHISSED.V/V   : DENSITY POROSITY SANDSTONE [M=2.65, F=1.00 (ASSUMED)] FROM DENSITY LOG [ADJ. TO RESISTIVITY LOG]
DPOLSWS .V/V   : DENSITY POROSITY LIMESTONE [CALC. FROM DENWS, M=2.71, F=1.00 (ASSUMED)]
DRESWS  .OHMM  : DEEP RESISTIVITY [LLDED]
DTED    .US/F  : DELTA TIME FROM SONIC LOG [ADJ. TO RESISTIVITY LOG]
DTWS    .US/F  : COMPRESSIONAL SONIC [DTED]
GRDED   .GAPI  : GAMMA RAY FROM DENSITY LOG [ADJ. TO RESISTIVITY LOG]
GRSED   .GAPI  : GAMMA RAY FROM SONIC LOG [ADJ. TO RESISTIVITY LOG]
GRWS    .GAPI  : GAMMA RAY [GRSED]
LLDED   .OHMM  : DEEP LATEROLOG RESISTIVITY FROM RESISTIVITY LOG
LLSED   .OHMM  : SHALLOW LATEROLOG RESISTIVITY LOG
NPHILSED.V/V   : NEUTRON POROSITY LIMESTONE FROM DENSITY LOG [ADJ. TO RESISTIVITY LOG]
NPHISSED.V/V   : NEUTRON POROSITY SANDSTONE FROM DENSITY LOG [ADJ. TO RESISTIVITY LOG]
NPOLSWS .V/V   : NEUTRON POROSITY LIMESTONE [NPHISSED MATRIX (SCHLUMBERGER) CONVERSION FOR LIMESTONE, SPL.TO NPHILSED @ 7149']
RHOBED  .G/C3  : BULK DENSITY FROM DENSITY LOG [ADJ. TO RESISTIVITY LOG]
SPRED   .MV    : SPONTANEOUS POTENTIAL FROM RESISTIVITY LOG
SPWS    .MV    : SPONTANEOUS POTENTIAL [BASELINE 0 MV, SPRED*-1]
SRESWS  .OHMM  : SHALLOW RESISTIVITY [LLSED]
~Params ----------------------------------------------------
PD  .                     GL : PERMANENT DATUM
EPD .FT                 2650 : ELEVATION PERMANENT DATUM
LMF .                     KB : LOG MEASURED FROM
DAPD.FT                   16 : FEET ABOVE PERMANENT DATUM
EKB .FT                 2666 : KELLY BUSHING
EGL .FT                 2650 : GROUND LEVEL
DATE.               09/04/76 : RUN DATE
RUN .                      2 : RUN NUMBER
DD  .FT                10450 : DEPTH DRILLER
DL  .FT                10450 : DEPTH LOGGER
BLI .FT                10448 : BOTTOM LOG INTERVAL
TLI .FT                 8400 : TOP LOG INTERVAL
CBD .FT                 1105 : CASING BOTTOM DRILLER
BS  .IN                 8.75 : BIT SIZE
BSD .FT                10450 : BIT SIZE AT DEPTH
DFT .               GEL CHEM : DRILLING FLUID TYPE
DFD .                    9.6 : DRILLING FLUID DENSITY
DFV .                     82 : DRILLING FLUID VISCOSITY
DFPH.                     11 : DRILLING FLUID PH
DFL .                     15 : DRILLING FLUID LOSS
RMS .OHMM               0.28 : RESISTIVITY MUD SAMPLE
MST .DEGF                 62 : MUD SAMPLE TEMPERATURE
RMF .OHMM               0.23 : RESISTIVITY MUD FILTRATE SAMPLE
MFST.DEGF                 62 : MUD FILTRATE SAMPLE TEMPERATURE
RMB .OHMM               0.11 : RESISTIVITY MUD AT BHT
TCS .HRS                   1 : TIME CIRCULATED STOPPED
LUN .                   7730 : LOGGING UNIT NUMBER
LUL .                    EDM : LOGGING UNIT LOCATION
ENGI.         PIMM MACDONALD : RECORDING ENGINEER
WITN.                 TAYLOR : WITNESSED BY
CLNT.                A2DTECH : CLIENT CODE
ORIG.               5" PRINT : ORIGIN OF DATA
UWI .       100060505514W500 : UNIQUE WELL ID
DICO. A2D Technologies, Inc. : DIGITIZING COMPANY
~Other -----------------------------------------------------
DLL-CNFD-BHC TOOLS RUN
~ASCII -----------------------------------------------------
# ...
 8400.00000   11.84040    8.84970    9.77580    9.77580    4.64130    0.24940    0.24940    2.49930    0.15500    -999.25    0.12320  215.45610   51.05470   51.05470   22.38330   26.57400   26.57400  215.45610  185.74800    0.01690    -999.25    0.01690    2.49930    0.69410  -42.89980  185.74800
 8450.00000    8.91480    8.55140    9.14560    9.14560    5.09010    0.13580    0.13580    2.57610    0.07820    -999.25    0.07830  196.45880   48.00900   48.00900   19.48660   23.18220   23.18220  196.45880  218.30550    0.06200    -999.25    0.06200    2.57610    7.53150  -36.60290  218.30550
 8500.00000    9.08050    8.90800    9.29230    9.29230    0.85110    0.02840    0.02840    2.80230   -0.03170    -999.25   -0.05400 1174.89990   48.82020   48.82020   25.18910   29.95530   29.95530 1174.89990  869.62500    0.01330    -999.25    0.01330    2.80230   40.19510   -4.48000  869.62500
 8550.00000    9.03030    8.86610    9.19760    9.19760   47.23690    0.04490    0.04490    2.61710    0.05550    -999.25    0.05430   21.16990   62.33910   62.33910   87.75020   84.04690   84.04690   21.16990   10.13380    0.03430    -999.25    0.03430    2.61710   44.10310   -1.11260   10.13380
 8600.00000   10.21320    9.99960    9.67920    9.67920   18.10480    0.25000    0.25000    2.58910    0.07760    -999.25    0.07070   55.23400   48.29560   48.29560   45.41040   54.29440   54.29440   55.23400   63.00060    0.05320    -999.25    0.05320    2.58910   28.32010  -17.24150   63.00060
 8650.00000   11.13660    9.68080    9.51210    9.51210    6.69610    0.25500    0.25500    2.58220    0.08590    -999.25    0.07470  149.34040   50.62150   50.62150   40.56920   45.42470   45.42470  149.34040  120.61260    0.05670    -999.25    0.05670    2.58220   18.22210  -27.33950  120.61260
 8700.00000   10.85890   10.42470    9.59600    9.59600    5.89380    0.22390    0.22390    2.60410    0.05990    -999.25    0.06200  169.66900   49.43120   49.43120   34.43490   36.75770   36.75770  169.66900  124.62510    0.03280    -999.25    0.03280    2.60410   10.88160  -34.68000  124.62510
 8750.00000    9.02240    8.28980    9.07790    9.07790    9.65260    0.00080    0.00080    2.70650   -0.00570    -999.25    0.00200  103.59940   54.51820   54.51820   53.37380   55.15380   55.15380  103.59940  117.67830    0.03060    -999.25    0.03060    2.70650   -2.65590  -48.21750  117.67830
 8800.00000    9.05260    8.16650    9.06660    9.06660   21.36830    0.04010    0.04010    2.75660   -0.03390    -999.25   -0.02730   46.79830   55.40160   55.40160   71.93150   69.33960   69.33960   46.79830   58.32170    0.04710    -999.25    0.04710    2.75660   -8.57000  -54.13160   58.32170
 8850.00000    -999.25    -999.25   10.29680   10.29680   99.76360    -999.25    -999.25    -999.25    -999.25    -999.25    -999.25   10.02370   68.28730   68.28730    -999.25  113.60950  113.60950   10.02370   11.65820    -999.25    -999.25    -999.25    -999.25  -14.10980  -59.67140   11.65820
 8900.00000    -999.25    -999.25    9.98370    9.98370   97.76220    -999.25    -999.25    -999.25    -999.25    -999.25    -999.25   10.22890   70.57660   70.57660    -999.25  112.94540  112.94540   10.22890   11.82030    -999.25    -999.25    -999.25    -999.25  -15.82080  -61.38240   11.82030
 8950.00000    -999.25    -999.25   12.90570   12.90570  135.40410    -999.25    -999.25    -999.25    -999.25    -999.25    -999.25    7.38530   75.63800   75.63800    -999.25  118.66090  118.66090    7.38530    6.29910    -999.25    -999.25    -999.25    -999.25  -15.55860  -61.12020    6.29910
 9000.00000    -999.25    -999.25    9.69370    9.69370  109.18700    -999.25    -999.25    -999.25    -999.25    -999.25    -999.25    9.15860   71.94930   71.94930    -999.25  119.66040  119.66040    9.15860   11.27790    -999.25    -999.25    -999.25    -999.25   -4.87280  -50.43440   11.27790
 9050.00000    -999.25    -999.25    9.06240    9.06240   34.91160    -999.25    -999.25    -999.25    -999.25    -999.25    -999.25   28.64380   66.14000   66.14000    -999.25  116.45970  116.45970   28.64380   30.83400    -999.25    -999.25    -999.25    -999.25  -15.27460  -60.83620   30.83400
 9100.00000    -999.25    -999.25    9.18100    9.18100   64.82900    -999.25    -999.25    -999.25    -999.25    -999.25    -999.25   15.42520   63.93830   63.93830    -999.25   94.96020   94.96020   15.42520   18.20670    -999.25    -999.25    -999.25    -999.25  -19.05220  -64.61380   18.20670
 9150.00000    -999.25    -999.25   10.82190   10.82190  130.90890    -999.25    -999.25    -999.25    -999.25    -999.25    -999.25    7.63890   77.06310   77.06310    -999.25  127.79440  127.79440    7.63890    7.63890    -999.25    -999.25    -999.25    -999.25  -10.65230  -56.21390    7.63890
 9200.00000    -999.25    -999.25    9.21940    9.21940   50.64340    -999.25    -999.25    -999.25    -999.25    -999.25    -999.25   19.74590   62.75450   62.75450    -999.25   99.82830   99.82830   19.74590   24.77810    -999.25    -999.25    -999.25    -999.25  -18.63570  -64.19730   24.77810
 9250.00000    -999.25    -999.25    9.30900    9.30900   62.19720    -999.25    -999.25    -999.25    -999.25    -999.25    -999.25   16.07790   64.36460   64.36460    -999.25  112.53270  112.53270   16.07790   19.17040    -999.25    -999.25    -999.25    -999.25  -18.21970  -63.78130   19.17040
 9300.00000    -999.25    -999.25    9.28460    9.28460   65.67020    -999.25    -999.25    -999.25    -999.25    -999.25    -999.25   15.22760   65.75870   65.75870    -999.25  111.49780  111.49780   15.22760   17.75950    -999.25    -999.25    -999.25    -999.25  -19.19820  -64.75980   17.75950
 9350.00000    -999.25    -999.25    9.18780    9.18780   68.95550    -999.25    -999.25    -999.25    -999.25    -999.25    -999.25   14.50210   66.29310   66.29310    -999.25  121.71240  121.71240   14.50210   17.79220    -999.25    -999.25    -999.25    -999.25  -17.67640  -63.23800   17.79220
 9400.00000    -999.25    -999.25    9.30990    9.30990  102.65250    -999.25    -999.25    -999.25    -999.25    -999.25    -999.25    9.74160   71.00490   71.00490    -999.25  128.96430  128.96430    9.74160   11.57260    -999.25    -999.25    -999.25    -999.25  -17.60210  -63.16370   11.57260
 9450.00000    -999.25    -999.25    9.21560    9.21560   94.65570    -999.25    -999.25    -999.25    -999.25    -999.25    -999.25   10.56460   69.96070   69.96070    -999.25  137.06330  137.06330   10.56460   13.13540    -999.25    -999.25    -999.25    -999.25  -14.99390  -60.55550   13.13540
 9500.00000    -999.25    -999.25    9.49870    9.49870   73.41230    -999.25    -999.25    -999.25    -999.25    -999.25    -999.25   13.62170   67.90500   67.90500    -999.25  131.37870  131.37870   13.62170   17.24370    -999.25    -999.25    -999.25    -999.25  -17.31560  -62.87720   17.24370
 9550.00000    -999.25    -999.25    9.61340    9.61340   95.71300    -999.25    -999.25    -999.25    -999.25    -999.25    -999.25   10.44790   70.62850   70.62850    -999.25  134.11600  134.11600   10.44790   12.34330    -999.25    -999.25    -999.25    -999.25  -14.94720  -60.50880   12.34330
 9600.00000    -999.25    -999.25    9.48870    9.48870   78.30120    -999.25    -999.25    -999.25    -999.25    -999.25    -999.25   12.77120   67.02150   67.02150    -999.25  110.22900  110.22900   12.77120   15.34020    -999.25    -999.25    -999.25    -999.25  -14.42810  -59.98970   15.34020
 9650.00000    -999.25    -999.25    9.69710    9.69710   58.42110    -999.25    -999.25    -999.25    -999.25    -999.25    -999.25   17.11710   65.28320   65.28320    -999.25  120.50940  120.50940   17.11710   20.82720    -999.25    -999.25    -999.25    -999.25  -14.12830  -59.68990   20.82720
 9700.00000    -999.25    -999.25    9.45280    9.45280   41.14630    -999.25    -999.25    -999.25    -999.25    -999.25    -999.25   24.30350   60.79520   60.79520    -999.25   88.57080   88.57080   24.30350   30.44710    -999.25    -999.25    -999.25    -999.25  -16.31920  -61.88080   30.44710
