~Version ---------------------------------------------------
VERS.      2.0 : CWLS log ASCII Standard -VERSION 2.0
WRAP.       NO : One line per depth step
CREA. 09/23/17 : LAS Creation Date
~Well ------------------------------------------------------
STRT.FT                          900.0 : START DEPTH
STOP.FT                         9150.0 : STOP DEPTH
STEP.FT                       50.00000 : STEP LENGTH
NULL.                          -999.25 : NULL VALUE
COMP.    UNO-TEX PETROLEUM CORPORATION : COMPANY
WELL. UNO-TEX ET AL BOULDER 4-31-70-19 : WELL
FLD .                                  : FIELD
LOC .                                  : LOCATION
CTRY.                           CANADA : COUNTRY
SRVC.                     Schlumberger : SERVICE COMPANY
DATE.                      14-Sep-1974 : LOGDATE
PROV.                          Alberta : PROVINCE
UWI .                 100043107019W500 : UNIQUE WELL ID
SLAT.WGS84               55.1008449393 : SURFACE LATITUDE
SLON.WGS84             -116.8929272887 : SURFACE LONGITUDE
~Curve Information -----------------------------------------
DEPT  .FT    : Depth Curve
CALSED.IN    : CALIPER FROM SONIC LOG
CALWS .IN    : CALIPER (CALSED)
CILDED.MMHO  : CONDUCTIVITY FROM LOG
CONDWS.MMHO  : CONDUCTIVITY (1000/DRESWS)
DRESWS.OHMM  : DEEP RESISTIVITY (ILDED)
DTED  .US/F  : DELTA TIME
DTWS  .US/F  : DELTA TIME (DTED)
GRSED .GAPI  : GAMMA RAY FROM SONIC LOG
GRWS  .GAPI  : GAMMA RAY (GRSED)
ILDED .OHMM  : DEEP INDUCTION RESISTIVITY
ILMED .OHMM  : MEDIUM INDUCTION RESISTIVITY
LL8ED .OHMM  : LATEROLOG-8 RESISTIVITY
MRESWS.OHMM  : MEDIUM RESISTIVITY (ILMED)
SPRED .MV    : Spontaneous Potential from Resistivity Log
SPWS  .MV    : SPONTANEOUS POTENTIAL BASELINE 0 MV (SPRED)
SRESWS.OHMM  : SHALLOW RESISTIVITY (LL8ED)
~Params ----------------------------------------------------
PD  .                     GL : PERMANENT DATUM
EPD .FT                 2502 : ELEVATION PERMANENT DATUM
LMF .                     KB : LOG MEASURED FROM
DAPD.FT                   15 : FEET ABOVE PERMANENT DATUM
EKB .FT                 2517 : KELLY BUSHING
EGL .FT                 2502 : GROUND LEVEL
DATE.               09/14/74 : RUN DATE
RUN .                      1 : RUN NUMBER
DD  .FT                 9141 : DEPTH DRILLER
DL  .FT                 9155 : DEPTH LOGGER
BLI .FT                 9149 : BOTTOM LOG INTERVAL
TLI .FT                  912 : TOP LOG INTERVAL
CBD .FT                  912 : CASING BOTTOM DRILLER
CBL .FT                  912 : CASING BOTTOM LOGGER
BS  .IN                7.875 : BIT SIZE
BSD .FT                 9141 : BIT SIZE AT DEPTH
DFT .                    GEL : DRILLING FLUID TYPE
DFD .                    9.2 : DRILLING FLUID DENSITY
DFV .                    104 : DRILLING FLUID VISCOSITY
DFPH.                    9.5 : DRILLING FLUID PH
DFL .                    7.0 : DRILLING FLUID LOSS
MSS .             CIRCULATED : MUD SAMPLE SOURCE
RMS .OHMM               1.32 : RESISTIVITY MUD SAMPLE
MST .DEGF                 60 : MUD SAMPLE TEMPERATURE
RMF .OHMM               2.14 : RESISTIVITY MUD FILTRATE SAMPLE
MFST.DEGF                 71 : MUD FILTRATE SAMPLE TEMPERATURE
RMB .OHMM               0.97 : RESISTIVITY MUD AT BHT
TCS .HRS                   9 : TIME CIRCULATED STOPPED
LUN .                   7670 : LOGGING UNIT NUMBER
LUL .                    FDM : LOGGING UNIT LOCATION
ENGI.                   WOON : RECORDING ENGINEER
WITN.                 HARRIS : WITNESSED BY
CLNT.                A2DTECH : CLIENT CODE
ORIG.            2" 5" PRINT : ORIGIN OF DATA
UWI .       100043107019W500 : UNIQUE WELL ID
DICO. A2D Technologies, Inc. : DIGITIZING COMPANY
~Other -----------------------------------------------------
~ASCII -----------------------------------------------------
# ...
 5200.00000    8.54930    8.54930    -999.25  102.76750    9.73070   59.25610   59.25610   17.80580   17.80580    9.73070   15.89480   28.05150   15.89480    6.16980   32.25910   28.05150
 5250.00000    8.91520    8.91520    -999.25  327.26190    3.06360   61.57160   61.57160   23.71640   23.71640    3.06360    4.72080   22.51340    4.72080  -87.45760  -70.43190   22.51340
 5300.00000    8.81730    8.81730    -999.25   75.49340   13.24620   60.27530   60.27530   43.77790   43.77790   13.24620   23.97360   75.84810   23.97360  -81.90330  -73.94120   75.84810
 5350.00000    9.28250    9.28250    -999.25  119.49530    8.37010   69.41800   69.41800   70.37820   70.37820    8.37010   10.31930   11.08390   10.31930   -6.87290   -8.06560   11.08390
 5400.00000    8.76290    8.76290    -999.25   46.71300   21.40730   57.51160   57.51160   28.66490   28.66490   21.40730   31.49120   37.99270   31.49120  -58.70730  -64.61590   37.99270
 5450.00000    8.79850    8.79850    -999.25  264.65530    3.77850   57.73470   57.73470   36.43950   36.43950    3.77850    4.61520   45.51780    4.61520  -94.17310 -101.71100   45.51780
 5500.00000    9.02810    9.02810    -999.25  158.37340    6.33420   60.16320   60.16320   25.58500   25.58500    6.33420    7.56350   21.71180    7.56350  -61.81950  -70.96240   21.71180
 5550.00000    9.10850    9.10850    -999.25  221.05800    4.52370   61.16500   61.16500   43.49120   43.49120    4.52370    5.78290   11.77170    5.78290  -65.02070  -75.76870   11.77170
 5600.00000    8.84390    8.84390    -999.25   95.35490   10.53400   58.59100   58.59100   14.20990   14.20990   10.53400   23.03040   53.12110   23.03040   -4.12350  -16.49270   53.12110
 5650.00000    9.40200    9.40200    -999.25  225.37750    4.43700   59.96100   59.96100   25.26530   25.26530    4.43700    7.53710   70.29520    7.53710  -59.22480  -73.19900   70.29520
 5700.00000    9.02060    9.02060    -999.25  125.02030    7.99870   58.35650   58.35650   17.72030   17.72030    7.99870   16.06370   94.11490   16.06370  -68.18790  -83.79140   94.11490
 5750.00000    9.35590    9.35590    -999.25  161.38880    6.19640   58.13100   58.13100   17.47390   17.47390    6.19640   12.91260  116.86180   12.91260 -112.98650 -130.19500  116.86180
 5800.00000    9.08720    9.08720    -999.25   87.13760   11.47610   58.53650   58.53650   12.41340   12.41340   11.47610   19.75240   86.83690   19.75240 -142.95290 -161.76650   86.83690
 5850.00000    9.74950    9.74950    -999.25  238.92160    4.18890   63.84180   63.84180   64.53090   64.53090    4.18890    5.00620    8.79690    5.00620 -114.60100 -135.03580    8.79690
 5900.00000    9.63120    9.63120    -999.25  272.47960    3.67000   69.96990   69.96990   67.69710   67.69710    3.67000    4.21250    7.60160    4.21250 -135.75270 -157.79260    7.60160
 5950.00000    9.39840    9.39840    -999.25  112.33810    8.90170   60.15770   60.15770   68.71320   68.71320    8.90170   11.82070   13.58650   11.82070  -97.69940 -121.36860   13.58650
 6000.00000    8.89510    8.89510    -999.25   53.56910   18.70180   59.68250   59.68250    8.80190    8.80190   18.70180   24.49040   18.45730   24.49040  -66.91570  -92.19000   18.45730
 6050.00000    9.13830    9.13830    -999.25   48.44440   20.64220   58.23490   58.23490   23.17900   23.17900   20.64220   26.64720   23.31070   26.64720  -32.93520  -59.81450   23.31070
 6100.00000    8.50360    8.50360    -999.25  127.47690    7.85520   60.70180   60.70180   15.94590   15.94590    7.85520   16.71410   82.67990   16.71410 -174.49690 -202.99730   82.67990
 6150.00000    8.81170    8.81170    -999.25   34.03770   29.37920   52.99420   52.99420   56.32110   56.32110   29.37920   55.44840  175.75360   55.44840  -62.22760  -92.33320  175.75360
 6200.00000    8.52760    8.52760    -999.25   50.94370   19.62950   59.58910   59.58910   35.54570   35.54570   19.62950   28.18540   26.86270   28.18540  -56.83030  -88.56510   26.86270
 6250.00000    8.56320    8.56320    -999.25   40.44560   24.72580   57.39900   57.39900   29.17350   29.17350   24.72580   34.22070   36.92780   34.22070  -98.05380 -131.39370   36.92780
 6300.00000    9.14360    9.14360    -999.25  101.42910    9.85910   68.32860   68.32860   69.01250   69.01250    9.85910   12.74260   13.53490   12.74260 -112.77080 -147.71580   13.53490
 6350.00000    8.75260    8.75260    -999.25   58.70490   17.03450   62.50830   62.50830   42.24110   42.24110   17.03450   23.25790   20.07400   23.25790 -107.83830 -144.40440   20.07400
 6400.00000    8.84920    8.84920    -999.25   71.62610   13.96140   63.36810   63.36810   45.37500   45.37500   13.96140   19.04000   20.33460   19.04000  -77.34060 -115.51180   20.33460
 6450.00000    8.82480    8.82480    -999.25   62.83420   15.91490   64.33170   64.33170   50.26580   50.26580   15.91490   22.42570   21.25190   22.42570   -0.79600  -40.59650   21.25190
 6500.00000    9.24840    9.24840    -999.25  128.88890    7.77200   66.39380   66.39380   72.73120   72.73120    7.77200    9.43880   10.40860    9.43880   20.01410  -21.39140   10.40860
 6550.00000    8.85710    8.85710    -999.25    4.79310  208.63220   51.83000   51.83000   11.05960   11.05960  208.63220  285.82830  216.25620  285.82830  -94.60720 -135.99590  216.25620
 6600.00000    8.99860    8.99860    -999.25    1.12870  943.61180   50.25920   50.25920   16.19440   16.19440  943.61180  337.38750  247.62880  337.38750 -183.53150 -224.07170  247.62880
 6650.00000    9.08460    9.08460    -999.25    1.98080  504.84870   50.11460   50.11460   16.08790   16.08790  504.84870  274.53000  188.12400  274.53000 -123.12190 -162.82200  188.12400
 6700.00000    9.26430    9.26430    -999.25    2.15020  465.07110   49.53940   49.53940   12.46810   12.46810  465.07110  304.46040  252.17830  304.46040  -72.14840 -110.99580  252.17830
 6750.00000    8.96670    8.96670    -999.25    0.72470 1393.28970   48.83320   48.83320   12.49090   12.49090 1393.28970  552.50050  279.56150  552.50050  -46.91840  -84.92580  279.56150
 6800.00000    9.16970    9.16970    -999.25    1.81070  552.27920   49.94630   49.94630   12.67440   12.67440  552.27920  309.05740  242.33820  309.05740  -54.04650  -91.21370  242.33820
 6850.00000    9.36910    9.36910    -999.25   21.16500   47.24860   51.98410   51.98410   11.09670   11.09670   47.24860   83.83690  224.34920   83.83690 -140.20070 -176.51930  224.34920
 6900.00000    9.21110    9.21110    -999.25   20.14490   49.64030   52.79240   52.79240   14.44540   14.44540   49.64030   82.06110  242.91890   82.06110 -119.66890 -155.14750  242.91890
 6950.00000    9.04820    9.04820    -999.25   16.27870   61.43010   51.08540   51.08540   12.54550   12.54550   61.43010   71.11470  106.52460   71.11470 -106.95490 -141.58080  106.52460
 7000.00000    9.13080    9.13080    -999.25    0.58490 1709.66090   48.57370   48.57370   12.08170   12.08170 1709.66090 1460.51370 1557.34900 1460.51370  -39.32540  -73.11120 1557.34900
 7050.00000    8.98380    8.98380    -999.25    0.66260 1509.21200   49.58570   49.58570   12.44220   12.44220 1509.21200 1199.69230 1169.08810 1199.69230  -53.14510  -86.09080 1169.08810
 7100.00000    8.92870    8.92870    -999.25    0.59920 1668.87330   48.88110   48.88110   11.53940   11.53940 1668.87330 1499.79430 1574.38620 1499.79430  -26.66730  -58.76450 1574.38620
 7150.00000    8.95620    8.95620    -999.25    0.58610 1706.11940   47.81840   47.81840   12.42280   12.42280 1706.11940 1538.93770 1596.33240 1538.93770  -12.57380  -43.83090 1596.33240
 7200.00000    8.73580    8.73580    -999.25    0.59700 1675.02100   48.48020   48.48020    9.26480    9.26480 1675.02100 1381.08190 1065.95780 1381.08190  -70.77020 -101.17460 1065.95780
 7250.00000    8.59880    8.59880    -999.25   38.93200   25.68620   51.64330   51.64330    9.04610    9.04610   25.68620   35.59230  125.20520   35.59230 -165.50600 -195.07040  125.20520
 7300.00000    8.26620    8.26620    -999.25   80.09930   12.48450   55.09930   55.09930   12.13560   12.13560   12.48450   30.42140  103.35500   30.42140 -134.60030 -163.32460  103.35500
