~Version ---------------------------------------------------
VERS.      2.0 : CWLS log ASCII Standard -VERSION 2.0
WRAP.       NO : One line per depth step
CREA. 12/01/17 : LAS Creation Date
~Well ------------------------------------------------------
STRT.FT                        300.0 : START DEPTH
STOP.FT                      17800.0 : STOP DEPTH
STEP.FT                     50.00000 : STEP LENGTH
NULL.                        -999.25 : NULL VALUE
COMP.           BPOG OPERATIONS LTD. : COMPANY
WELL. BP MOBIL CREE ROUGH 4-21-38-12 : WELL
FLD .                                : FIELD
LOC .                                : LOCATION
CTRY.                         CANADA : COUNTRY
SRVC.                   Schlumberger : SERVICE COMPANY
DATE.                    26-Oct-1973 : LOGDATE
PROV.                        Alberta : PROVINCE
UWI .               100042103812W500 : UNIQUE WELL ID
SLAT.WGS84                  52.27739 : SURFACE LATITUDE
SLON.WGS84                 -115.6641 : SURFACE LONGITUDE
~Curve Information -----------------------------------------
DEPT  .FT    : Depth Curve
CALSED.IN    : CALIPER FROM SONIC LOG [ADJ. TO RESISTIVITY LOG]
CALWS .IN    : CALIPER [CALSED]
CILDED.MMHO  : CONDUCTIVITY FROM RESISTIVITY LOG
CONDWS.MMHO  : CONDUCTIVITY [1000/DRESWS]
DRESWS.OHMM  : DEEP RESISTIVITY [ILDED]
DTED  .US/F  : DELTA-T FROM SONIC LOG [ADJ. TO RESISTIVITY LOG]
DTWS  .US/F  : COMPRESSIONAL SONIC [DTED]
GRNED .CU    : GAMMA RAY FROM GRN LOG [ADJ. TO RESISTIVITY LOG]
GRSED .CU    : GAMMA RAY FROM SONIC LOG [ADJ. TO RESISTIVITY LOG]
GRWS  .GAPI  : GAMMA RAY [GRSED] GRWS IN CSG. @ 13195'-13297' @ 10API ADDED
ILDED .OHMM  : DEEP INDUCTION RESISTIVITY FROM RESISTIVITY LOG
ILMED .OHMM  : MEDIUM INDUCTION RESISTIVITY FROM RESISTIVITY LOG
LL8ED .OHMM  : LATEROLOG 8 FROM RESISTIVITY LOG
MRESWS.OHMM  : MEDIUM RESISTIVITY [ILMED]
NEUTED.CU    : NEUTRON FROM GRN LOG [ADJ. TO RESISTIVITY LOG]
NEUTWS.CU    : NEUTRON [NEUTED]
SNED  .OHMM  : SHORT NORMAL RESISTIVITY 16" FROM RESISTIVITY LOG
SPRED .MV    : SPONTANEOUS POTENTIAL FROM RESISTIVITY LOG
SPWS  .MV    : SPONTANEOUS POTENTIAL [BASELINE 0 MV,SPRED]
SRESWS.OHMM  : SHALLOW RESISTIVITY [LL8ED SPL. TO SNED @ 2008']
~Params ----------------------------------------------------
PD  .                     GL : PERMANENT DATUM
EPD .FT                 5371 : ELEVATION PERMANENT DATUM
LMF .                     KB : LOG MEASURED FROM
DAPD.FT                   24 : FEET ABOVE PERMANENT DATUM
EKB .FT                 5395 : KELLY BUSHING
EGL .FT                 5371 : GROUND LEVEL
DATE.               10/26/73 : RUN DATE
RUN .                      2 : RUN NUMBER
DD  .FT                17815 : DEPTH DRILLER
DL  .FT                17792 : DEPTH LOGGER
BLI .FT                17791 : BOTTOM LOG INTERVAL
TLI .FT                13299 : TOP LOG INTERVAL
CBD .FT                13265 : CASING BOTTOM DRILLER
CBL .FT                13299 : CASING BOTTOM LOGGER
BS  .IN                 8.25 : BIT SIZE
BSD .FT                17815 : BIT SIZE AT DEPTH
DFT .               GEL CHEM : DRILLING FLUID TYPE
DFD .                    8.9 : DRILLING FLUID DENSITY
DFV .                     41 : DRILLING FLUID VISCOSITY
DFPH.                    9.5 : DRILLING FLUID PH
DFL .                   11.9 : DRILLING FLUID LOSS
RMS .OHMM               1.05 : RESISTIVITY MUD SAMPLE
MST .DEGF                 72 : MUD SAMPLE TEMPERATURE
RMF .OHMM               0.76 : RESISTIVITY MUD FILTRATE SAMPLE
MFST.DEGF                 70 : MUD FILTRATE SAMPLE TEMPERATURE
RMB .OHMM               0.31 : RESISTIVITY MUD AT BHT
TCS .HRS                   5 : TIME CIRCULATED STOPPED
LUN .                   7640 : LOGGING UNIT NUMBER
LUL .                     RD : LOGGING UNIT LOCATION
ENGI.           NIXON KOVACS : RECORDING ENGINEER
WITN.      WILLIAMS COSTELLO : WITNESSED BY
CLNT.                A2DTECH : CLIENT CODE
ORIG.            2" 5" PRINT : ORIGIN OF DATA
UWI .       100042103812W500 : UNIQUE WELL ID
DICO. A2D Technologies, Inc. : DIGITIZING COMPANY
~Other -----------------------------------------------------
DIL-IEL-BHC-GRN LOG RUN.
SNED MISSING IN SEVERAL DEPTH AS PER PRINT.
~ASCII -----------------------------------------------------
# ...
 10800.00000   12.42750   12.42750   87.50910   88.62180   11.28390   75.94040   75.94040    -999.25   77.81500   77.81500   11.28390    -999.25    -999.25    -999.25    -999.25    -999.25    -999.25    -999.25    -999.25    -999.25
 10850.00000   12.39610   12.39610  133.55300  139.22920    7.18240   78.79220   78.79220    -999.25   78.63000   78.63000    7.18240    -999.25    -999.25    -999.25    -999.25    -999.25    -999.25    -999.25    -999.25    -999.25
 10900.00000   12.36610   12.36610  112.08330  114.85670    8.70650   76.09670   76.09670    -999.25   76.41120   76.41120    8.70650    -999.25    -999.25    -999.25    -999.25    -999.25    -999.25    -999.25    -999.25    -999.25
 10950.00000   12.44400   12.44400  137.94290  143.85900    6.95150   78.35150   78.35150    -999.25   75.54990   75.54990    6.95150    -999.25    -999.25    -999.25    -999.25    -999.25    -999.25    -999.25    -999.25    -999.25
 11000.00000   12.36550   12.36550  150.93490  150.78640    6.63190   78.91800   78.91800    -999.25   74.89970   74.89970    6.63190    -999.25    -999.25    -999.25    -999.25    -999.25    -999.25    -999.25    -999.25    -999.25
 11050.00000   12.33810   12.33810  133.91180  139.35150    7.17610   75.15450   75.15450    -999.25   74.73000   74.73000    7.17610    -999.25    -999.25    -999.25    -999.25    -999.25    -999.25    -999.25    -999.25    -999.25
 11100.00000   12.42220   12.42220  165.38720  171.76520    5.82190   79.69970   79.69970    -999.25   74.39660   74.39660    5.82190    -999.25    -999.25    -999.25    -999.25    -999.25    -999.25    -999.25    -999.25    -999.25
 11150.00000   12.21670   12.21670  122.85670  128.09510    7.80670   73.99300   73.99300    -999.25   68.21650   68.21650    7.80670    -999.25    -999.25    -999.25    -999.25    -999.25    -999.25    -999.25    -999.25    -999.25
 11200.00000   12.22930   12.22930  130.27360  135.86480    7.36040   75.43610   75.43610    -999.25   72.22060   72.22060    7.36040    -999.25    -999.25    -999.25    -999.25    -999.25    -999.25    -999.25    -999.25    -999.25
 11250.00000   12.13510   12.13510  132.45500  139.58880    7.16390   75.62390   75.62390    -999.25   73.83800   73.83800    7.16390    -999.25    -999.25    -999.25    -999.25    -999.25    -999.25    -999.25    -999.25    -999.25
 11300.00000   12.11640   12.11640  109.51200  109.32790    9.14680   73.21630   73.21630    -999.25   77.24050   77.24050    9.14680    -999.25    -999.25    -999.25    -999.25    -999.25    -999.25    -999.25    -999.25    -999.25
 11350.00000   12.11620   12.11620  120.27510  125.35570    7.97730   76.60920   76.60920    -999.25   81.72600   81.72600    7.97730    -999.25    -999.25    -999.25    -999.25    -999.25    -999.25    -999.25    -999.25    -999.25
 11400.00000   12.19170   12.19170  157.53180  163.00180    6.13490   82.31760   82.31760    -999.25   84.34300   84.34300    6.13490    -999.25    -999.25    -999.25    -999.25    -999.25    -999.25    -999.25    -999.25    -999.25
 11450.00000   12.20090   12.20090  152.98870  161.18180    6.20460   81.57800   81.57800    -999.25   87.13790   87.13790    6.20460    -999.25    -999.25    -999.25    -999.25    -999.25    -999.25    -999.25    -999.25    -999.25
 11500.00000   12.14190   12.14190   84.17910   84.97840   11.76770   69.40680   69.40680    -999.25   64.32840   64.32840   11.76770    -999.25    -999.25    -999.25    -999.25    -999.25    -999.25    -999.25    -999.25    -999.25
 11550.00000   12.20550   12.20550  112.93350  120.09270    8.32690   72.68570   72.68570    -999.25   70.43020   70.43020    8.32690    -999.25    -999.25    -999.25    -999.25    -999.25    -999.25    -999.25    -999.25    -999.25
 11600.00000   12.22630   12.22630  145.91460  152.98940    6.53640   75.91720   75.91720   48.04050   78.13440   78.13440    6.53640    -999.25    -999.25    -999.25  420.11380  420.11380    -999.25    -999.25    -999.25    -999.25
 11650.00000   12.63840   12.63840   69.39390   73.06900   13.68570   64.45100   64.45100   47.78150   74.04150   74.04150   13.68570    -999.25    -999.25    -999.25  530.17270  530.17270    -999.25    -999.25    -999.25    -999.25
 11700.00000   12.51260   12.51260   78.42310   79.70520   12.55090   69.22120   69.22120   31.56860   55.10000   55.10000   12.55090    -999.25    -999.25    -999.25  595.44350  595.44350    -999.25    -999.25    -999.25    -999.25
 11750.00000   12.57550   12.57550  101.35420  104.23830    9.59340   73.30930   73.30930    -999.25   81.10930   81.10930    9.59340    -999.25    -999.25    -999.25    -999.25    -999.25    -999.25    -999.25    -999.25    -999.25
 11800.00000   12.59310   12.59310  119.83680  119.46290    8.37080   70.93770   70.93770    -999.25   71.44340   71.44340    8.37080    -999.25    -999.25    -999.25    -999.25    -999.25    -999.25    -999.25    -999.25    -999.25
 11850.00000   12.61960   12.61960  135.34740  137.54970    7.27010   77.07750   77.07750    -999.25   80.46820   80.46820    7.27010    -999.25    -999.25    -999.25    -999.25    -999.25    -999.25    -999.25    -999.25    -999.25
 11900.00000   12.56860   12.56860  134.39150  139.94630    7.14560   81.26530   81.26530    -999.25   86.87300   86.87300    7.14560    -999.25    -999.25    -999.25    -999.25    -999.25    -999.25    -999.25    -999.25    -999.25
 11950.00000   12.53130   12.53130  150.85320  151.37430    6.60610   84.36600   84.36600    -999.25   87.89600   87.89600    6.60610    -999.25    -999.25    -999.25    -999.25    -999.25    -999.25    -999.25    -999.25    -999.25
 12000.00000   12.53900   12.53900  119.20270  124.30540    8.04470   80.73920   80.73920    -999.25   84.78810   84.78810    8.04470    -999.25    -999.25    -999.25    -999.25    -999.25    -999.25    -999.25    -999.25    -999.25
 12050.00000   12.64020   12.64020   85.13260   86.94670   11.50130   72.77880   72.77880    -999.25   87.70050   87.70050   11.50130    -999.25    -999.25    -999.25    -999.25    -999.25    -999.25    -999.25    -999.25    -999.25
 12100.00000   12.71060   12.71060  101.33120  106.77030    9.36590   81.19120   81.19120    -999.25   82.00040   82.00040    9.36590    -999.25    -999.25    -999.25    -999.25    -999.25    -999.25    -999.25    -999.25    -999.25
 12150.00000   12.54020   12.54020   92.41330   93.74970   10.66670   78.80310   78.80310    -999.25   71.74030   71.74030   10.66670    -999.25    -999.25    -999.25    -999.25    -999.25    -999.25    -999.25    -999.25    -999.25
 12200.00000   12.42580   12.42580   88.58720   87.53890   11.43110   83.81190   83.81190    -999.25   81.72120   81.72120   11.43110    -999.25    -999.25    -999.25    -999.25    -999.25    -999.25    -999.25    -999.25    -999.25
 12250.00000   12.52280   12.52280   85.09600   87.84490   11.38370   84.44750   84.44750    -999.25   81.61940   81.61940   11.38370    -999.25    -999.25    -999.25    -999.25    -999.25    -999.25    -999.25    -999.25    -999.25
 12300.00000   12.68780   12.68780   79.02570   79.71050   12.54540   82.96730   82.96730    -999.25   88.74250   88.74250   12.54540    -999.25    -999.25    -999.25    -999.25    -999.25    -999.25    -999.25    -999.25    -999.25
 12350.00000   12.58580   12.58580  106.44720  107.50380    9.30200   75.02480   75.02480    -999.25   71.15470   71.15470    9.30200    -999.25    -999.25    -999.25    -999.25    -999.25    -999.25    -999.25    -999.25    -999.25
 12400.00000   12.20310   12.20310  144.24220  153.24730    6.52540   83.40220   83.40220    -999.25   82.19190   82.19190    6.52540    -999.25    -999.25    -999.25    -999.25    -999.25    -999.25    -999.25    -999.25    -999.25
 12450.00000   12.03140   12.03140   75.24460   77.66530   12.87630   81.79980   81.79980    -999.25   96.37400   96.37400   12.87630    -999.25    -999.25    -999.25    -999.25    -999.25    -999.25    -999.25    -999.25    -999.25
 12500.00000   12.13250   12.13250   85.29980   86.69120   11.53520   87.89060   87.89060    -999.25  105.97020  105.97020   11.53520    -999.25    -999.25    -999.25    -999.25    -999.25    -999.25    -999.25    -999.25    -999.25
