~Version ---------------------------------------------------
VERS.      2.0 : CWLS log ASCII Standard -VERSION 2.0
WRAP.       NO : One line per depth step
CREA. 12/18/14 : LAS Creation Date
~Well ------------------------------------------------------
STRT.M                       300.0 : START DEPTH
STOP.M                      4700.0 : STOP DEPTH
STEP.M                    50.00000 : STEP LENGTH
NULL.                      -999.25 : NULL VALUE
COMP.       DOME PETROLEUM LIMITED : COMPANY
WELL. DOME ET AL HANLAN 10-7-47-17 : WELL
FLD .                              : FIELD
LOC .                              : LOCATION
CTRY.                       CANADA : COUNTRY
SRVC.                 Schlumberger : SERVICE COMPANY
DATE.                  28-Dec-1979 : LOGDATE
PROV.                      Alberta : PROVINCE
UWI .             100100704717W500 : UNIQUE WELL ID
SLAT.WGS84                53.04215 : SURFACE LATITUDE
SLON.WGS84                -116.471 : SURFACE LONGITUDE
~Curve Information -----------------------------------------
DEPT    .M      : DEPTH METER
CALDED  .MM     : CALIPER FROM DENSITY LOG
CALSED  .MM     : CALIPER FROM SONIC LOG
CALWS   .MM     : CALIPER [CALSED]
CONDWS  .MMHO   : CONDUCTIVITY [1000/DRESWS]
DCORWS  .KG/M3  : DENSITY CORRECTION [DRHOED]
DENWS   .KG/M3  : FORMATION BULK DENSITY [CALC. FROM DPOLSWS, M=2710, F=1000]
DPHILSED.V/V    : DENSITY POROSITY LIMESTONE [M=2710, F=1000] FROM DENSITY LOG
DPHISSED.V/V    : DENSITY POROSITY SANDSTONE [M=2650, F=1000] FROM DENSITY LOG
DPOLSWS .V/V    : DENSITY POROSITY LIMESTONE [DPHISSED MATRIX CONVERTED TO LIMESTONE(M=2710, F=1000) & SPL. TO DPHILSED @3594M]
DRESWS  .OHMM   : DEEP RESISTIVITY [ILDED]
DRHOED  .KG/M3  : DENSITY CORRECTION FROM DENSITY LOG
DTED    .US/M   : DELTA TIME FROM SONIC LOG
DTWS    .US/M   : COMPRESSIONAL SONIC [DTED]
GRDED   .GAPI   : GAMMA RAY FROM DENSITY LOG
GRSED   .GAPI   : GAMMA RAY FROM SONIC LOG
GRWS    .GAPI   : GAMMA RAY [GRSED]
ILDED   .OHMM   : DEEP INDUCTION RESISTIVITY FROM RESISTIVITY LOG
ILMED   .OHMM   : MEDIUM INDUCTION RESISTIVITY FROM RESISTIVITY LOG
MRESWS  .OHMM   : MEDIUM RESISTIVITY [ILMED]
NPHILSED.V/V    : NEUTRON POROSITY  LIMESTONE FROM DENSITY LOG
NPHISSED.V/V    : NEUTRON POROSITY SANDSTONE FROM DENSITY LOG
NPOLSWS .V/V    : NEUTRON POROSITY LIMESTONE [NPHISSED MATRIX CONVERTED TO LIMESTONE(SLB-CNL) & SPL. TO NPHILSED @3599 M]
RHOBED  .KG/M3  : BULK DENSITY FROM DENSITY LOG
SFLED   .OHMM   : SHALLOW FOCUSED RESISTIVITY FROM RESISTIVITY LOG
SPRED   .MV     : SPONTANEOUS POTENTIAL FROM RESISTIVITY LOG
SPWS    .MV     : SPONTANEOUS POTENTIAL [BASELINE 0MV, SPRED]
SRESWS  .OHMM   : SHALLOW RESISTIVITY [SFLED]
~Params ----------------------------------------------------
PD  .                         GL : PERMANENT DATUM
EPD .M                   1240.25 : ELEVATION PERMANENT DATUM
LMF .                         KB : LOG MEASURED FROM
DAPD.M                      6.45 : FEET ABOVE PERMANENT DATUM
DMF .                         KB : DRILLING MEASURED FROM
EKB .M                    1246.7 : KELLY BUSHING
EGL .M                   1240.25 : GROUND LEVEL
DATE.                   12/28/79 : RUN DATE
RUN .                          3 : RUN NUMBER
DD  .M                      4708 : DEPTH DRILLER
DL  .M                      4701 : DEPTH LOGGER
BLI .M                      4700 : BOTTOM LOG INTERVAL
TLI .M                      3750 : TOP LOG INTERVAL
CS  .MM                      244 : CASING SIZE
CBD .M                      3180 : CASING BOTTOM DRILLER
CBL .M                      3173 : CASING BOTTOM LOGGER
BS  .MM                      216 : BIT SIZE
BSD .M                      4708 : BIT SIZE AT DEPTH
DFT .                    GEL MUD : DRILLING FLUID TYPE
DFD .                       1080 : DRILLING FLUID DENSITY
DFV .                         95 : DRILLING FLUID VISCOSITY
DFPH.                         11 : DRILLING FLUID PH
MSS .                   FLOWLINE : MUD SAMPLE SOURCE
RMS .OHMM                   0.65 : RESISTIVITY MUD SAMPLE
MST .DEGC                   14.5 : MUD SAMPLE TEMPERATURE
RMF .OHMM                    0.7 : RESISTIVITY MUD FILTRATE SAMPLE
MFST.DEGC                     17 : MUD FILTRATE SAMPLE TEMPERATURE
RMC .OHMM                   0.96 : RESISTIVITY MUD CAKE
MCST.DEGC                     15 : MUD CAKE SAMPLE TEMPERATURE
MFSS.                      PRESS : MUD FILTRATE SAMPLE SOURCE
RMB .OHMM                   0.29 : RESISTIVITY MUD AT BHT
TCS .HRS                     145 : TIME CIRCULATED STOPPED
TLAB.HRS                    1600 : TIME LOGGER AT BOTTOM
LUN .                       8105 : LOGGING UNIT NUMBER
LUL .                      EDSON : LOGGING UNIT LOCATION
ENGI.                     GILLIS : RECORDING ENGINEER
WITN.           ALTAMIRANO TOBIN : WITNESSED BY
CLNT.                    A2DTECH : CLIENT CODE
ORIG. 6.5"/100M 16.5"/100M PRINT : ORIGIN OF DATA
UWI .           100100704717W500 : UNIQUE WELL ID
DICO.     A2D Technologies, Inc. : DIGITIZING COMPANY
~Other -----------------------------------------------------
~ASCII -----------------------------------------------------
# ...
 1600.00000  352.81270  336.86320  202.32900  113.91210  164.48330 2334.02500    -999.25    0.19150    0.21990    8.77870  164.48330  271.41400  271.41400   90.57200   85.05500   85.05500    8.77870    7.87920    7.87920    -999.25    0.30310    0.25910 2347.36300    7.57170 -261.37500   -8.89210    7.57170
 1650.00000  304.92500  347.68240  215.85300   78.59040    6.87500 2252.84500    -999.25    0.24070    0.26730   12.72420    6.87500  286.10400  286.10400   64.25100   68.69200   68.69200   12.72420   12.24700   12.24700    -999.25    0.43570    0.39360 2264.64310    9.88770 -265.63000  -14.38390    9.88770
 1700.00000  340.93750  339.38800  205.48500   96.68750   56.50830 2033.56000    -999.25    0.37360    0.39560   10.34260   56.50830  261.48900  261.48900   67.12200   72.92800   72.92800   10.34260    9.98750    9.98750    -999.25    0.42220    0.37980 2037.41300    9.50630 -264.38000  -14.37070    9.50630
 1750.00000  358.50420  350.25280  219.06600   22.47860   71.13330 2162.42500    -999.25    0.29550    0.32020   44.48670   71.13330  199.53800  199.53800   51.18000   54.85200   54.85200   44.48670   49.69400   49.69400    -999.25    0.21470    0.17110 2156.85210   71.19230 -259.74000  -10.96750   71.19230
 1800.00000  375.19170  340.73840  207.17300   80.56910   35.50040 2012.93500    -999.25    0.38610    0.40760   12.41170   35.50040  276.97100  276.97100   95.38460   96.63100   96.63100   12.41170   11.50550   11.50550    -999.25    0.38520    0.34210 2004.22800   10.74290 -261.62500  -14.08930   10.74290
 1850.00000  396.09580  352.79600  222.24500   53.52660   60.17500 2078.77000    -999.25    0.34620    0.36910   18.68230   60.17500  222.29800  222.29800   77.09700   78.10100   78.10100   18.68230   19.12680   19.12680    -999.25    0.27230    0.22830 2097.23510   24.66600 -259.07000  -12.77120   24.66600
 1900.00000  371.56250  374.28160  249.10200   89.90220   44.53300 2309.77000    -999.25    0.20620    0.23410   11.12320   44.53300  247.36300  247.36300   72.08400   83.19600   83.19600   11.12320   10.86060   10.86060    -999.25    0.31330    0.26940 2319.56910   10.53020 -261.54000  -16.47800   10.53020
 1950.00000  364.00000  372.30640  246.63300   19.86870   39.01670 2416.19500    -999.25    0.14170    0.17180   50.33040   39.01670  244.04600  244.04600   42.34900   45.79900   45.79900   50.33040   39.68820   39.68820    -999.25    0.19630    0.15290 2430.43410   39.97880 -284.25500  -40.42980   39.97880
 2000.00000  487.16070  355.63520  225.79400  110.91020  101.91670 2063.59000    -999.25    0.35540    0.37800    9.01630  101.91670  246.53300  246.53300   76.20000   71.57500   71.57500    9.01630    9.04680    9.04680    -999.25    0.38950    0.34640 1991.43300    7.37930 -256.38000  -13.79160    7.37930
 2050.00000  532.33030  386.71120  264.63900   57.99220   -7.78380 1531.96000    -999.25    0.67760    0.68890   17.24370   -7.78380  283.98400  283.98400   47.84890   44.27500   44.27500   17.24370    9.74450    9.74450    -999.25    0.39110    0.34810 1510.24400   13.76290 -257.37510  -16.02350   13.76290
 2100.00000  352.57940  356.08800  226.36000   27.25020    5.23330 2472.46000    -999.25    0.10760    0.13890   36.69700    5.23330  221.17700  221.17700   39.90200   32.16700   32.16700   36.69700   41.48600   41.48600    -999.25    0.18550    0.14230 2459.75490   39.61440 -256.75490  -16.64010   39.61440
 2150.00000  455.52900  376.56160  251.95200   71.47760  -42.59940 1456.39000    -999.25    0.72340    0.73310   13.99040  -42.59940  254.41000  254.41000   62.70630   57.89800   57.89800   13.99040   12.11310   12.11310    -999.25    0.37810    0.33480 1455.52700   10.76030 -250.24500  -11.36700   10.76030
 2200.00000  573.26110  363.13760  235.17200  119.06180  -23.90000 1893.47500    -999.25    0.45850    0.47750    8.39900  -23.90000  287.39500  287.39500   58.98780   53.47000   53.47000    8.39900    8.35680    8.35680    -999.25    0.41490    0.37230 1940.14000    9.76240 -245.68980   -8.04860    9.76240
 2250.00000  637.62500  400.64480  282.05600   85.46130  -25.44200 1631.12500    -999.25    0.61750    0.63090   11.70120  -25.44200  315.84200  315.84200   45.92220   50.49700   50.49700   11.70120    7.89970    7.89970    -999.25    0.52210    0.48340 1648.51200    9.30830 -256.92990  -20.52550    9.30830
 2300.00000  581.53440  386.72320  264.65400  119.06180  -10.48420 1637.06500    -999.25    0.61390    0.62740    8.39900  -10.48420  253.35000  253.35000   47.27920   51.87200   51.87200    8.39900    7.58710    7.58710    -999.25    0.56960    0.53360 1632.54800    9.98690 -235.18990   -0.02230    9.98690
 2350.00000  604.48690  394.61520  274.51900   84.44450    2.54950 1699.10500    -999.25    0.57630    0.59120   11.84210    2.54950  263.87100  263.87100   80.72700   83.31700   83.31700   11.84210   10.84540   10.84540    -999.25    0.38930    0.34620 1720.34590   11.06830 -246.03010  -12.54710   11.06830
 2400.00000  512.55810  358.60160  229.50200   64.29380   41.12610 1850.41000    -999.25    0.48460    0.50270   15.55360   41.12610  231.94600  231.94600   86.30220   84.03300   84.03300   15.55360   15.13020   15.13020    -999.25    0.26470    0.22070 1863.64700   15.52640 -246.20990  -14.50710   15.52640
 2450.00000  463.46670  353.66400  223.33000   63.70440  152.13330 2196.74500    -999.25    0.27470    0.30010   15.69750  152.13330  248.96300  248.96300  101.95200   90.14500   90.14500   15.69750   15.72650   15.72650    -999.25    0.23750    0.19370 2213.19190   18.10760 -241.26990  -11.34730   18.10760
 2500.00000  468.57080  364.61040  237.01300   68.76540  102.48390 2234.53000    -999.25    0.25180    0.27810   14.54220  102.48390  268.79700  268.79700   90.44220   75.31000   75.31000   14.54220   14.96350   14.96350    -999.25    0.31680    0.27290 2242.37600   18.15440 -237.52990   -9.38750   18.15440
 2550.00000  456.85430  369.23920  242.79900   96.24360   30.29400 1923.67000    -999.25    0.44020    0.45980   10.39030   30.29400  268.99700  268.99700   89.67970   92.27800   92.27800   10.39030   10.33310   10.33310    -999.25    0.34450    0.30080 1923.36690   11.26790 -234.31990   -7.95770   11.26790
 2600.00000  465.98860  388.55120  266.93900  137.83790  -18.44880 1665.61000    -999.25    0.59660    0.61080    7.25490  -18.44880  272.50200  272.50200   76.78530   78.78600   78.78600    7.25490    6.80950    6.80950    -999.25    0.43800    0.39600 1646.86900    7.21900 -230.53990   -5.95790    7.21900
 2650.00000  464.06670  360.48240  231.85300   99.57980   -8.27500 1648.78000    -999.25    0.60680    0.62060   10.04220   -8.27500  248.11100  248.11100   88.60680   87.57900   87.57900   10.04220   10.26680   10.26680    -999.25    0.31270    0.26880 1648.15080   10.64790 -230.36510   -7.56330   10.64790
 2700.00000  590.33720  386.42160  264.27700  113.80710  -49.02500 1467.28000    -999.25    0.71680    0.72670    8.78680  -49.02500  265.54500  265.54500   78.33800   85.10700   85.10700    8.78680    8.20800    8.20800    -999.25    0.46920    0.42810 1468.91500    8.71030 -231.52490  -10.50330    8.71030
 2750.00000  565.93990  365.79280  238.49100   77.87010  -11.10780 1655.87500    -999.25    0.60250    0.61640   12.84190  -11.10780  233.90200  233.90200   87.06200   84.52400   84.52400   12.84190   13.03570   13.03570    -999.25    0.35040    0.30680 1664.61500   13.95830 -228.43500   -9.19360   13.95830
 2800.00000  357.30420  339.48400  205.60500   36.62440  186.29900 2434.67500    -999.25    0.13050    0.16100   27.30420  186.29900  213.05200  213.05200   68.70600   68.90300   68.90300   27.30420   27.58120   27.58120    -999.25    0.14670    0.10420 2426.75070   31.30590 -227.39490   -9.93370   31.30590
 2850.00000  430.40000  350.86400  219.83000   93.10470   52.34170 1886.05000    -999.25    0.46300    0.48180   10.74060   52.34170  253.78400  253.78400   87.21250   79.16600   79.16600   10.74060   11.35120   11.35120    -999.25    0.36090    0.31740 1879.47300   12.79580 -221.70980   -6.96400   12.79580
