~Version ---------------------------------------------------
VERS.      2.0 : CWLS log ASCII Standard -VERSION 2.0
WRAP.       NO : One line per depth step
CREA. 12/18/17 : LAS Creation Date
~Well ------------------------------------------------------
STRT.FT                          1000.0 : START DEPTH
STOP.FT                          9650.0 : STOP DEPTH
STEP.FT                        50.00000 : STEP LENGTH
NULL.                           -999.25 : NULL VALUE
COMP.            FRONTIER PRODUCING INC : COMPANY
WELL. FRONT ET AL SAKWATAMAU 9-22-63-15 : WELL
FLD .                                   : FIELD
LOC .                                   : LOCATION
CTRY.                            CANADA : COUNTRY
SRVC.                      Schlumberger : SERVICE COMPANY
DATE.                       22-Dec-1965 : LOGDATE
PROV.                           Alberta : PROVINCE
UWI .                  100092206315W500 : UNIQUE WELL ID
SLAT.WGS84                      54.4662 : SURFACE LATITUDE
SLON.WGS84                    -116.1714 : SURFACE LONGITUDE
~Curve Information -----------------------------------------
DEPT  .FT    : Depth Curve
CALSED.IN    : CALIPER FROM SONIC LOG [ADJ. TO RESISTIVITY LOG]
CALWS .IN    : CALIPER [CALSED]
CILDED.MMHO  : CONDUCTIVITY FROM RESISTIVITY LOG
CONDWS.MMHO  : CONDUCTIVITY [1000/DRESWS]
DRESWS.OHMM  : DEEP RESISTIVITY [1000/CILDED IF ILDED<2, ILDED]
DTED  .US/F  : DELTA TIME FROM SONIC LOG [ADJ. TO RESISTIVITY LOG]
DTWS  .US/F  : COMPRESSIONAL SONIC [DTED]
GRSED .GAPI  : GAMMA RAY FROM SONIC LOG [ADJ. TO RESISTIVITY LOG]
GRWS  .GAPI  : GAMMA RAY [GRSED]
ILDED .OHMM  : DEEP INDUCTION FROM RESISTIVITY LOG
SNED  .OHMM  : 16 INCH SHORT NORMAL RESISTIVITY FROM RESISTIVITY LOG
SPRED .MV    : SPONTANEOUS POTENTIAL FROM RESISTIVITY LOG
SPWS  .MV    : SPONTANEOUS POTENTIAL [BASELINE 0 MV, SPRED]
SRESWS.OHMM  : SHALLOW RESISTIVITY [SNED]
~Params ----------------------------------------------------
PD  .                     GL : PERMANENT DATUM
EPD .FT                 3111 : ELEVATION PERMANENT DATUM
LMF .                     KB : LOG MEASURED FROM
DAPD.FT                   13 : FEET ABOVE PERMANENT DATUM
EKB .FT                 3124 : KELLY BUSHING
EGL .FT                 3111 : GROUND LEVEL
DATE.               12/22/65 : RUN DATE
RUN .                      1 : RUN NUMBER
DD  .FT                 9705 : DEPTH DRILLER
DL  .FT                 9697 : DEPTH LOGGER
BLI .FT                 9696 : BOTTOM LOG INTERVAL
TLI .FT                  996 : TOP LOG INTERVAL
CBD .FT                  997 : CASING BOTTOM DRILLER
CBL .FT                  996 : CASING BOTTOM LOGGER
BS  .IN                7.875 : BIT SIZE
BSD .FT                 9705 : BIT SIZE AT DEPTH
DFT .                    GEL : DRILLING FLUID TYPE
DFD .                    9.5 : DRILLING FLUID DENSITY
DFV .                    135 : DRILLING FLUID VISCOSITY
DFPH.                     11 : DRILLING FLUID PH
DFL .                    8.3 : DRILLING FLUID LOSS
RMS .OHMM               2.53 : RESISTIVITY MUD SAMPLE
MST .DEGF                 62 : MUD SAMPLE TEMPERATURE
RMF .OHMM               1.89 : RESISTIVITY MUD FILTRATE SAMPLE
MFST.DEGF                 72 : MUD FILTRATE SAMPLE TEMPERATURE
RMC .OHMM               2.36 : RESISTIVITY MUD CAKE
MCST.DEGF                 72 : MUD CAKE SAMPLE TEMPERATURE
TCS .HRS                 2.5 : TIME CIRCULATED STOPPED
LUN .                   3718 : LOGGING UNIT NUMBER
LUL .                     DV : LOGGING UNIT LOCATION
ENGI.               WILLIAMS : RECORDING ENGINEER
WITN.           HESKETH YONT : WITNESSED BY
CLNT.                A2DTECH : CLIENT CODE
ORIG.            2" 5" PRINT : ORIGIN OF DATA
UWI .       100092206315W500 : UNIQUE WELL ID
DICO. A2D Technologies, Inc. : DIGITIZING COMPANY
~Other -----------------------------------------------------
IEL-BCS LOG RUN
ALL CURVES HAVE BEEN VERIFIED FROM SMALL SECTION @TOP-4490'
~ASCII -----------------------------------------------------
# ...
 8350.00000    8.25770    8.25770  114.39550  120.15910    8.32230   66.79930   66.79930   60.00410   60.00410    8.32230   14.45550  -41.25300   -3.19110   14.45550
 8400.00000    8.57200    8.57200   54.09720   54.25170   18.43260   73.32320   73.32320   80.87340   80.87340   18.43260   26.61200  -41.82870   -3.74030   26.61200
 8450.00000    8.69440    8.69440   82.97320   86.16530   11.60560   61.31210   61.31210   41.37680   41.37680   11.60560   18.57960  -41.32170   -3.20670   18.57960
 8500.00000    8.47880    8.47880  128.16960  126.34560    7.91480   69.99240   69.99240   56.85020   56.85020    7.91480   12.79750  -44.26130   -6.11970   12.79750
 8550.00000   10.38170   10.38170  175.73280  173.77310    5.75620   77.32000   77.32000   62.30610   62.30610    5.75620    9.19150  -48.44780  -10.27970    9.19150
 8600.00000   10.22780   10.22780  131.83260  133.39560    7.49650   74.13820   74.13820   74.39340   74.39340    7.49650   10.76010  -52.72900  -14.53430   10.76010
 8650.00000    8.86400    8.86400  107.75150  110.15280    9.07830   66.57040   66.57040   68.27280   68.27280    9.07830   15.55710  -45.29150   -7.07020   15.55710
 8700.00000    9.14310    9.14310  121.15530  120.54580    8.29560   70.62570   70.62570   79.38080   79.38080    8.29560   12.68090  -49.79370  -11.54580   12.68090
 8750.00000    8.92980    8.92980  114.98260  119.03060    8.40120   69.75490   69.75490   71.01530   71.01530    8.40120   13.93610  -46.98600   -8.71160   13.93610
 8800.00000    9.94060    9.94060  178.16940  169.16460    5.91220   74.37330   74.37330   76.69000   76.69000    5.91220    9.74320  -55.64100  -17.34010    9.74320
 8850.00000    9.45830    9.45830  158.05790  155.21200    6.44280   73.98170   73.98170   85.39240   85.39240    6.44280   10.21130  -56.41030  -18.08270   10.21130
 8900.00000    9.15640    9.15640  129.45050  126.09550    7.93050   75.28230   75.28230   83.42350   83.42350    7.93050   12.02930  -51.33030  -12.97620   12.02930
 8950.00000    9.39470    9.39470  146.45480  150.41440    6.64830   74.33010   74.33010   77.05530   77.05530    6.64830   11.27080  -49.79350  -11.41270   11.27080
 9000.00000    8.93810    8.93810  160.44360  151.43940    6.60330   73.80700   73.80700   78.71210   78.71210    6.60330   10.92800  -49.27200  -10.86470   10.92800
 9050.00000    8.10690    8.10690    2.83310    2.75350  363.27450   68.89140   68.89140   83.85690   83.85690  363.27450  216.21540  -51.46650  -13.03270  216.21540
 9100.00000    8.00250    8.00250    1.92750    4.10730  243.46950   66.00600   66.00600  113.25370  113.25370  243.46950  130.62660  -40.90480   -2.44430  130.62660
 9150.00000    8.15840    8.15840   21.69700   22.33860   44.76560   59.15870   59.15870   45.61290   45.61290   44.76560   52.05620  -39.90080   -1.41380   52.05620
 9200.00000    9.63760    9.63760  146.81330  139.13820    7.18710   74.75830   74.75830   88.76150   88.76150    7.18710   14.03770  -48.39530   -9.88160   14.03770
 9250.00000    8.04220    8.04220   28.82490   29.99570   33.33810   61.43250   61.43250   52.91020   52.91020   33.33810   53.17910  -41.16840   -2.62820   53.17910
 9300.00000    8.19330    8.19330   34.83700   36.00820   27.77230   57.05020   57.05020   46.23540   46.23540   27.77230   38.39610  -48.56160   -9.99490   38.39610
 9350.00000    7.98160    7.98160   54.18500   57.23610   17.47150   60.62550   60.62550   51.53350   51.53350   17.47150   29.86230  -52.54530  -13.95190   29.86230
 9400.00000    7.92780    7.92780    7.94370    9.35600  106.88290   54.32990   54.32990   36.57160   36.57160  106.88290   94.54650  -55.88440  -17.26450   94.54650
 9450.00000    7.96730    7.96730    1.17380    1.96450  509.04060   52.69790   52.69790   25.53620   25.53620  509.04060  547.54400 -102.80380  -64.15720  547.54400
 9500.00000    7.95670    7.95670    3.41790    1.96710  508.35020   50.04880   50.04880   19.67930   19.67930  508.35020  302.20750 -117.32370  -78.65060  302.20750
 9550.00000    8.04170    8.04170    2.51140    1.96660  508.48270   50.26050   50.26050   14.85410   14.85410  508.48270  522.83340 -142.15140 -103.45180  522.83340
 9600.00000    7.94740    7.94740    2.38590    1.97170  507.18750   51.01500   51.01500   27.07610   27.07610  507.18750  201.17500 -123.76520  -85.03890  201.17500
 9650.00000    6.74070    6.74070  238.33880  221.20470    4.52070   62.97630   62.97630   65.24470   65.24470    4.52070   57.47790 -128.29370  -89.54090   57.47790
