~Version ---------------------------------------------------
VERS.      2.0 : CWLS log ASCII Standard -VERSION 2.0
WRAP.       NO : One line per depth step
CREA. 11/28/17 : LAS Creation Date
~Well ------------------------------------------------------
STRT.FT                            850.0 : START DEPTH
STOP.FT                           7900.0 : STOP DEPTH
STEP.FT                         50.00000 : STEP LENGTH
NULL.                            -999.25 : NULL VALUE
COMP.    MICHIGAN WISCONSIN PIPE LINE CO : COMPANY
WELL. MICH WIS PAN AM IOE TIMEU 7-6-65-4 : WELL
FLD .                                    : FIELD
LOC .                                    : LOCATION
CTRY.                             CANADA : COUNTRY
SRVC.                       Schlumberger : SERVICE COMPANY
DATE.                        24-Aug-1968 : LOGDATE
PROV.                            Alberta : PROVINCE
UWI .                   100070606504W500 : UNIQUE WELL ID
SLAT.WGS84                      54.59319 : SURFACE LATITUDE
SLON.WGS84                     -114.5883 : SURFACE LONGITUDE
~Curve Information -----------------------------------------
DEPT  .FT    : Depth Curve
CALSED.IN    : CALIPER FROM SONIC LOG
CALWS .IN    : CALIPER [CALSED]
CILDED.MMHO  : DEEP INDUCTION CONDUCTIVITY FROM RESISTIVITY LOG
CONDWS.MMHO  : CONDUCTIVITY [1000/DRESWS]
DRESWS.OHMM  : DEEP RESISTIVITY [1000/CILDED,IF ILDED<5,ILDED]
DTED  .US/F  : DELTA-T FROM SONIC LOG
DTWS  .US/F  : COMPRESSIONAL SONIC [DTED]
GRSED .GAPI  : GAMMA RAY FROM SONIC LOG
GRWS  .GAPI  : GAMMA RAY [GRSED]
ILDED .OHMM  : DEEP INDUCTION RESISTIVITY FROM RESISTIVITY LOG
SNED  .OHMM  : SHORT NORMAL RESISTIVITY FROM RESISTIVITY LOG
SPRED .MV    : SPONTANEOUS POTENTIAL FROM RESISTIVITY LOG
SPWS  .MV    : SPONTANEOUS POTENTIAL [BASELINE 0MV, SPRED]
SRESWS.OHMM  : SHALLOW RESISTIVITY [SNED]
~Params ----------------------------------------------------
PD  .                     GL : PERMANENT DATUM
EPD .FT                 2288 : ELEVATION PERMANENT DATUM
LMF .                     KB : LOG MEASURED FROM
DAPD.FT                   12 : FEET ABOVE PERMANENT DATUM
EKB .FT                 2300 : KELLY BUSHING
EGL .FT                 2288 : GROUND LEVEL
DATE.               08/24/68 : RUN DATE
RUN .                      1 : RUN NUMBER
DD  .FT                 7910 : DEPTH DRILLER
DL  .FT                 7911 : DEPTH LOGGER
BLI .FT                 7910 : BOTTOM LOG INTERVAL
TLI .FT                  820 : TOP LOG INTERVAL
CBD .FT                  820 : CASING BOTTOM DRILLER
CBL .FT                  820 : CASING BOTTOM LOGGER
BS  .IN                7.875 : BIT SIZE
BSD .FT                 7910 : BIT SIZE AT DEPTH
DFT .                    GEL : DRILLING FLUID TYPE
DFD .                    9.5 : DRILLING FLUID DENSITY
DFV .                     80 : DRILLING FLUID VISCOSITY
DFPH.                   10.5 : DRILLING FLUID PH
DFL .                    9.2 : DRILLING FLUID LOSS
RMS .OHMM               0.88 : RESISTIVITY MUD SAMPLE
MST .DEGF                 70 : MUD SAMPLE TEMPERATURE
RMF .OHMM                0.7 : RESISTIVITY MUD FILTRATE SAMPLE
MFST.DEGF                 70 : MUD FILTRATE SAMPLE TEMPERATURE
RMC .OHMM               1.26 : RESISTIVITY MUD CAKE
MCST.DEGF                 75 : MUD CAKE SAMPLE TEMPERATURE
RMB .OHMM               0.42 : RESISTIVITY MUD AT BHT
TCS .HRS                   3 : TIME CIRCULATED STOPPED
LUN .                   7501 : LOGGING UNIT NUMBER
LUL .                    EDM : LOGGING UNIT LOCATION
ENGI.               STUEHMER : RECORDING ENGINEER
WITN.                   PEEL : WITNESSED BY
CLNT.                A2DTECH : CLIENT CODE
ORIG.            2" 5" PRINT : ORIGIN OF DATA
UWI .       100070606504W500 : UNIQUE WELL ID
DICO. A2D Technologies, Inc. : DIGITIZING COMPANY
~Other -----------------------------------------------------
IEL-BHC LOG RUN
DATA VERIFY FROM SMALL SCALE @ TOP-2318',3912'-6362'
~ASCII -----------------------------------------------------
# ...
 5750.00000   13.32050   13.32050  196.20410  196.20410    5.09670   80.54210   80.54210   63.62060   63.62060    4.91680    5.90480 -113.99530  -13.21390    5.90480
 5800.00000   13.74160   13.74160  204.64530  197.56990    5.06150   81.50190   81.50190   70.04520   70.04520    5.06150    6.30550 -111.12430  -11.62420    6.30550
 5850.00000    9.06570    9.06570   16.10170   16.04770   66.22730   57.51690   57.51690   26.45420   26.45420   66.22730   49.68040 -107.46990   -9.15600   49.68040
 5900.00000   13.91820   13.91820  137.66560  145.14210    6.88980   77.42800   77.42800   54.32860   54.32860    6.88980    7.63950 -108.79830  -11.22320    7.63950
 5950.00000   14.18930   14.18930  151.23030  147.04820    6.80570   69.68650   69.68650   50.90150   50.90150    6.80570    7.81540 -101.27450   -4.44300    7.81540
 6000.00000   10.68360   10.68360   52.05960   52.44690   19.06690   57.44380   57.44380   38.22520   38.22520   19.06690   21.08410  -98.14670   -2.05400   21.08410
 6050.00000   10.20020   10.20020   15.50620   16.87220   59.26900   54.17990   54.17990   25.61610   25.61610   59.26900   50.06740 -103.70270   -8.34880   50.06740
 6100.00000   10.01990   10.01990    8.67500    6.21840  162.94660   54.57070   54.57070   23.35190   23.35190  162.94660   51.52560 -105.15860  -10.54830   51.52560
 6150.00000   10.97060   10.97060   47.62360   47.11490   21.22470   61.54590   61.54590   40.38360   40.38360   21.22470   21.52050  -96.83140   -3.77820   21.52050
 6200.00000    9.41810    9.41810    4.04430    4.10580  244.52470   53.94450   53.94450   16.70070   16.70070  244.52470   75.39980 -108.35270  -18.12990   75.39980
 6250.00000   11.85190   11.85190  116.29580  112.22710    8.91050   75.59750   75.59750   70.08460   70.08460    8.91050   11.01720 -103.94000  -16.52910   11.01720
 6300.00000   10.88740   10.88740   73.88740   75.28420   13.28300   65.78310   65.78310   61.37110   61.37110   13.28300   16.12400  -94.17850   -9.57950   16.12400
 6350.00000    9.40670    9.40670   19.60620   18.58680   53.87100   58.42060   58.42060   28.31530   28.31530   53.87100   49.57070  -98.38730  -16.61870   49.57070
 6400.00000   10.27620   10.27620   50.19900   51.12740   19.55900   66.67260   66.67260   47.08790   47.08790   19.55900   25.85670  -86.87260   -7.91590   25.85670
 6450.00000    9.86460    9.86460   74.24120   76.48450   13.08710   63.74780   63.74780   73.86690   73.86690   13.08710   21.14740  -80.60430   -4.47800   21.14740
 6500.00000    9.80060    9.80060  188.43290  188.43290    5.30690   69.01930   69.01930  154.43840  154.43840    4.94630    8.08510  -91.33470  -21.11720    8.08510
 6550.00000   10.82270   10.82270  177.36070  189.65620    5.27270   75.01250   75.01250   90.00470   90.00470    5.27270   10.30620  -83.72360  -19.65640   10.30620
 6600.00000    9.91040    9.91040   92.17950   92.17810   10.91380   59.35040   59.35040   59.88990   59.88990   10.91380   18.92720  -65.14140   -7.26510   18.92720
 6650.00000   10.45940   10.45940  180.21170  180.20940    5.54910   66.54100   66.54100   63.93850   63.93850    5.54910   12.66760  -70.60770  -18.88170   12.66760
 6700.00000   10.12920   10.12920  149.09810  156.34390    6.39890   66.54450   66.54450   71.26110   71.26110    6.39890   10.69490  -60.44070  -14.90560   10.69490
 6750.00000   12.39590   12.39590  222.62410  222.62410    4.49190   76.34670   76.34670  118.90480  118.90480    4.49180    5.72170  -67.66510  -17.57180    5.72170
 6800.00000   11.27860   11.27860  194.60300  194.60300    5.13870   73.64490   73.64490  102.25980  102.25980    4.91650    6.82210  -63.27370   -3.10180    6.82210
 6850.00000    9.61750    9.61750    6.56310    2.00000  500.00000   50.22500   50.22500   21.79770   21.79770  500.00000  118.79890 -107.32640  -36.80230  118.79890
 6900.00000    9.50960    9.50960  215.62220  215.62220    4.63770   63.91710   63.91710   84.48900   84.48900    4.63560   10.61180  -89.60420  -22.26510   10.61180
 6950.00000    8.99020    8.99020   40.74410   40.96070   24.42300   48.61900   48.61900   26.00740   26.00740   24.42300   27.32790 -111.62620  -43.10520   27.32790
 7000.00000    8.83900    8.83900   58.60010   57.79010   17.30400   52.23230   52.23230   36.58060   36.58060   17.30400   18.79480  -80.79060  -10.15620   18.79480
 7050.00000    9.08970    9.08970  135.25490  133.85630    7.47070   58.48670   58.48670   70.40550   70.40550    7.47070   10.18800  -81.92920   -9.18130   10.18800
 7100.00000    9.26240    9.26240   52.91810   52.92220   19.05530   53.84270   53.84270   56.15900   56.15900   19.05530   21.00530 -122.11660  -52.12940   21.00530
 7150.00000    9.48780    9.48780  131.08120  131.06850    7.62960   58.12600   58.12600   94.64200   94.64200    7.62960   10.45110 -143.91620  -81.22030   10.45110
 7200.00000    9.29930    9.29930  144.74520  145.14050    6.90250   69.72920   69.72920  100.65540  100.65540    6.90250   10.49800 -165.92950 -110.57290   10.49800
 7250.00000    9.31260    9.31260  140.04540  140.04820    7.14040   72.21820   72.21820  132.43590  132.43590    7.14040   10.62730 -178.45300 -130.38770   10.62730
 7300.00000   12.96090   12.96090  305.98830  305.98830    3.26810   74.73940   74.73940  117.95340  117.95340    3.26520    5.22430 -164.01590 -123.24200    5.22430
 7350.00000   10.11040   10.11040  137.94270  137.90000    7.25920   72.61620   72.61620  139.03680  139.03680    7.25920    9.42800 -110.17010  -76.73550    9.42800
 7400.00000    9.63320    9.63320   75.12620   75.12750   13.31070   70.73400   70.73400   70.28420   70.28420   13.31070   17.12480  -68.70650  -42.56320   17.12480
 7450.00000   13.55010   13.55010  146.64540  149.01690    6.71060   78.30280   78.30280   96.99580   96.99580    6.71060    7.80790  -57.12480  -38.32080    7.80790
 7500.00000   14.50480   14.50480  154.35890  154.35430    6.47860   80.26420   80.26420   96.10120   96.10120    6.47860    7.78250  -25.04060  -13.52800    7.78250
 7550.00000   11.57950   11.57950  108.77880  108.77490    9.19330   76.50570   76.50570  128.90380  128.90380    9.19330   13.68530  -12.06770   -7.84640   13.68530
 7600.00000    8.99760    8.99760   98.20820   98.21830   10.18200   67.81270   67.81270  144.90160  144.90160   10.18200   15.20630  -14.21890  -16.06960   15.20630
 7650.00000    9.54630    9.54630  152.72790  155.22170    6.44240   70.48300   70.48300  137.35180  137.35180    6.44240    9.72010  -10.51220  -17.30500    9.72010
 7700.00000    8.87850    8.87850  143.82630  141.27020    7.08690   67.08750   67.08750  113.34380  113.34380    7.08690   12.89540  -15.24960  -25.16380   12.89540
 7750.00000    8.70510    8.70510  149.74400  149.72970    6.67870   69.94920   69.94920  141.07660  141.07660    6.67870   11.06410  -50.50130  -60.41550   11.06410
 7800.00000    8.70620    8.70620  213.57520  213.57520    4.68220   63.71260   63.71260   43.59080   43.59080    4.68110   13.46080 -101.32620 -111.24040   13.46080
 7850.00000    8.70010    8.70010  404.22300  404.22300    2.47620   66.32050   66.32050   47.74870   47.74870    2.88930   16.30550 -146.71260 -156.62680   16.30550
 7900.00000    8.74070    8.74070   86.51420   85.44310   11.70370   58.68640   58.68640    -999.25    -999.25   11.70370   10.75260  -98.07780 -107.99200   10.75260
