~Version ---------------------------------------------------
VERS.      2.0 : CWLS log ASCII Standard -VERSION 2.0
WRAP.       NO : One line per depth step
CREA. 11/17/17 : LAS Creation Date
~Well ------------------------------------------------------
STRT.FT                        950.0 : START DEPTH
STOP.FT                       9050.0 : STOP DEPTH
STEP.FT                     50.00000 : STEP LENGTH
NULL.                        -999.25 : NULL VALUE
COMP.    SAMEDAN OIL OF CANADA, INC. : COMPANY
WELL. SAMEDAN ET AL SUNSET 1-1-70-20 : WELL
FLD .                                : FIELD
LOC .                                : LOCATION
CTRY.                         CANADA : COUNTRY
SRVC.                   Schlumberger : SERVICE COMPANY
DATE.                    01-Apr-1971 : LOGDATE
PROV.                        Alberta : PROVINCE
UWI .               100010107020W500 : UNIQUE WELL ID
SLAT.WGS84                  55.02795 : SURFACE LATITUDE
SLON.WGS84                 -116.9023 : SURFACE LONGITUDE
~Curve Information -----------------------------------------
DEPT  .FT    : Depth Curve
CALSED.IN    : CALIPER FROM SONIC LOG
CALWS .IN    : CALIPER [CALSED]
CONDWS.MMHO  : CONDUCTIVITY [1000/DRESWS]
DRESWS.OHMM  : DEEP RESISTIVITY [ILDED]
DTED  .US/F  : DELTA TIME FROM SONIC LOG
DTWS  .US/F  : COMPRESSIONAL SONIC [DTED]
GRSED .GAPI  : GAMMA RAY FROM SONIC LOG
GRWS  .GAPI  : GAMMA RAY [GRSED]
ILDED .OHMM  : DEEP INDUCTION FROM RESISTIVITY LOG
ILMED .OHMM  : MEDIUM INDUCTION FROM RESISTIVITY LOG
LL8ED .OHMM  : 8 INCH LATEROLOG RESISTIVITY FROM RESISTIVITY LOG
MRESWS.OHMM  : MEDIUM RESISTIVITY [ILMED]
SPRED .MV    : SPONTANEOUS POTENTIAL FROM RESISTIVITY LOG
SPWS  .MV    : SPONTANEOUS POTENTIAL [BASELINE 0 MV, SPRED]
SRESWS.OHMM  : SHALLOW RESISTIVITY [LL8ED]
~Params ----------------------------------------------------
PD  .                     GL : PERMANENT DATUM
EPD .FT               2286.6 : ELEVATION PERMANENT DATUM
LMF .                     KB : LOG MEASURED FROM
DAPD.FT                 13.5 : FEET ABOVE PERMANENT DATUM
EKB .FT               2300.1 : KELLY BUSHING
EGL .FT               2286.6 : GROUND LEVEL
DATE.               04/01/71 : RUN DATE
RUN .                      1 : RUN NUMBER
DD  .FT                 9080 : DEPTH DRILLER
DL  .FT                 9075 : DEPTH LOGGER
BLI .FT                 9069 : BOTTOM LOG INTERVAL
TLI .FT                  902 : TOP LOG INTERVAL
CBD .FT                  902 : CASING BOTTOM DRILLER
CBL .FT                  902 : CASING BOTTOM LOGGER
BS  .IN                7.875 : BIT SIZE
BSD .FT                 9080 : BIT SIZE AT DEPTH
DFT .               GEL CHEM : DRILLING FLUID TYPE
DFD .                    9.4 : DRILLING FLUID DENSITY
DFV .                     93 : DRILLING FLUID VISCOSITY
DFPH.                      9 : DRILLING FLUID PH
DFL .                    8.6 : DRILLING FLUID LOSS
RMS .OHMM               2.92 : RESISTIVITY MUD SAMPLE
MST .DEGF                 61 : MUD SAMPLE TEMPERATURE
RMF .OHMM               2.52 : RESISTIVITY MUD FILTRATE SAMPLE
MFST.DEGF                 60 : MUD FILTRATE SAMPLE TEMPERATURE
RMC .OHMM               2.91 : RESISTIVITY MUD CAKE
MCST.DEGF                 60 : MUD CAKE SAMPLE TEMPERATURE
RMB .OHMM                1.0 : RESISTIVITY MUD AT BHT
TCS .HRS                   3 : TIME CIRCULATED STOPPED
LUN .                   7004 : LOGGING UNIT NUMBER
LUL .                    EDM : LOGGING UNIT LOCATION
ENGI.                 BUFTON : RECORDING ENGINEER
WITN.             MASON GOSS : WITNESSED BY
CLNT.                A2DTECH : CLIENT CODE
ORIG.            2" 5" PRINT : ORIGIN OF DATA
UWI .       100010107020W500 : UNIQUE WELL ID
DICO. A2D Technologies, Inc. : DIGITIZING COMPANY
~Other -----------------------------------------------------
DIL-BCS LOG RUN
ALL CURVES HAVE BEEN VERIFIED FROM 2" SECTION @TOP-2990'
~ASCII -----------------------------------------------------
# ...
 7850.00000    7.81780    7.81780  203.94010    4.90340   78.67490   78.67490   83.95030   83.95030    4.90340    5.08550    6.07200    5.08550  -84.57760  -37.09500    6.07200
 7900.00000    7.73400    7.73400  202.68350    4.93380   78.60170   78.60170   78.20210   78.20210    4.93380    5.24900    6.10090    5.24900  -78.90080  -32.84710    6.10090
 7950.00000    7.92520    7.92520  250.38980    3.99380   82.98010   82.98010   90.73970   90.73970    3.99380    4.17190    5.03840    4.17190  -71.72320  -27.10560    5.03840
 8000.00000    7.69810    7.69810  243.64690    4.10430   82.24470   82.24470   87.51260   87.51260    4.10430    4.25710    5.32620    4.25710  -79.78200  -36.58610    5.32620
 8050.00000    8.23090    8.23090  278.82340    3.58650   85.66400   85.66400   99.13020   99.13020    3.58650    3.73760    4.77030    3.73760  -73.24350  -31.47650    4.77030
 8100.00000    7.66520    7.66520  101.20230    9.88120   66.64460   66.64460   68.91160   68.91160    9.88120   10.85710   14.40800   10.85710  -61.03190  -20.69380   14.40800
 8150.00000    7.64630    7.64630   97.18080   10.29010   66.77270   66.77270   74.76600   74.76600   10.29010   11.35140   13.55280   11.35140  -59.87260  -20.96340   13.55280
 8200.00000    7.63240    7.63240  132.42140    7.55460   68.57430   68.57430   68.01680   68.01680    7.55460    8.35820   10.37760    8.35820  -65.72490  -28.25170   10.37760
 8250.00000    7.79550    7.79550  134.24800    7.44890   71.76920   71.76920   85.85050   85.85050    7.44890    8.30730   10.24820    8.30730  -63.42330  -27.37190   10.24820
 8300.00000    7.67630    7.67630  103.63660    9.64910   67.01840   67.01840   69.69110   69.69110    9.64910   10.37100   12.00630   10.37100  -58.79870  -24.17620   12.00630
 8350.00000    7.61120    7.61120  140.32130    7.12650   68.44760   68.44760   65.53590   65.53590    7.12650    8.17370   11.18340    8.17370  -54.62670  -21.43310   11.18340
 8400.00000    7.64430    7.64430  132.26460    7.56060   69.83560   69.83560   76.61940   76.61940    7.56060    8.60220   10.99400    8.60220  -54.17850  -22.41380   10.99400
 8450.00000    7.48270    7.48270  137.20180    7.29090   68.99120   68.99120   73.15940   73.15940    7.29090    7.98500   10.81330    7.98500  -49.68450  -19.35590   10.81330
 8500.00000    7.81320    7.81320  143.78770    6.95470   70.29530   70.29530   91.13740   91.13740    6.95470    7.86940   11.06470    7.86940  -53.37400  -24.46710   11.06470
 8550.00000    7.69620    7.69620   20.76170   48.16570   83.43200   83.43200  147.28630  147.28630   48.16570   72.00260  125.88810   72.00260  -34.16100   -7.94030  125.88810
 8600.00000    7.95250    7.95250   43.36420   23.06050   87.13840   87.13840  118.95360  118.95360   23.06050   29.60190   47.81950   29.60190  -35.06770  -18.65740   47.81950
 8650.00000    7.68870    7.68870   93.50160   10.69500   69.21600   69.21600   71.55130   71.55130   10.69500   11.59020   13.95690   11.59020  -19.51700  -12.91720   13.95690
 8700.00000    7.50970    7.50970    1.38510  722.59780   49.92860   49.92860   12.66870   12.66870  722.59780 1625.74470  474.63770 1625.74470  -52.40900  -45.80920  474.63770
 8750.00000    7.55050    7.55050    0.90970 1099.23430   49.64350   49.64350   12.24050   12.24050 1099.23430  320.64440  677.51780  320.64440  -99.01840  -92.41860  677.51780
 8800.00000    7.54660    7.54660   44.21550   22.61650   52.67280   52.67280   14.04310   14.04310   22.61650   40.16490  115.67400   40.16490 -140.39500 -133.79520  115.67400
 8850.00000    7.52270    7.52270  153.09010    6.53210   52.78840   52.78840   11.95230   11.95230    6.53210    7.57530   55.30460    7.57530 -159.28570 -152.68590   55.30460
 8900.00000    7.52410    7.52410   27.57520   36.26450   50.92180   50.92180   11.03480   11.03480   36.26450   47.26040   58.08340   47.26040 -132.09090 -125.49110   58.08340
 8950.00000    7.52670    7.52670    0.64770 1543.97280   50.32920   50.32920   11.64100   11.64100 1543.97280 1698.36270 1629.47280 1698.36270 -131.12940 -124.52960 1629.47280
 9000.00000    7.51200    7.51200    3.45330  289.57810   49.84080   49.84080   17.40820   17.40820  289.57810  771.52470 1582.04300  771.52470  -94.94580  -88.34600 1582.04300
 9050.00000    7.55230    7.55230  350.59430    2.85230   62.37760   62.37760    -999.25    -999.25    2.85230    3.56910   11.19290    3.56910  -81.89640  -75.29660   11.19290
