~Version ---------------------------------------------------
VERS.      2.0 : CWLS log ASCII Standard -VERSION 2.0
WRAP.       NO : One line per depth step
CREA. 11/20/17 : LAS Creation Date
~Well ------------------------------------------------------
STRT.FT                         1000.0 : START DEPTH
STOP.FT                         9950.0 : STOP DEPTH
STEP.FT                       50.00000 : STEP LENGTH
NULL.                          -999.25 : NULL VALUE
COMP. SOCONY MOBIL OIL OF CANADA, LTD. : COMPANY
WELL.      MOBIL CS MCLEOD 12-29-55-13 : WELL
FLD .                                  : FIELD
LOC .                                  : LOCATION
CTRY.                           CANADA : COUNTRY
SRVC.                     Schlumberger : SERVICE COMPANY
DATE.                      23-Jan-1964 : LOGDATE
PROV.                          Alberta : PROVINCE
UWI .                 100122905513W500 : UNIQUE WELL ID
SLAT.WGS84                    53.78322 : SURFACE LATITUDE
SLON.WGS84                   -115.9046 : SURFACE LONGITUDE
~Curve Information -----------------------------------------
DEPT    .FT    : Depth Curve
CALWS   .IN    : CALIPER [MCALED]
CILDED  .MMHO  : DEEP INDUCTION CONDUCTIVITY FROM RESISTIVITY LOG
CONDWS  .MMHO  : CONDUCTIVITY [1000/DRESWS]
DRESWS  .OHMM  : DEEP RESISTIVITY [1000/CILDED, IF ILDED < 2, ILDED]
DTED    .US/F  : DELTA-TIME (SPAN 3'-1') FROM SONIC LOG
DTWS    .US/F  : COMPRESSIONAL SONIC [DTED]
GRSED   .GAPI  : GAMMA RAY FROM SONIC LOG
GRWS    .GAPI  : GAMMA RAY [GRSED]
ILDED   .OHMM  : DEEP INDUCTION LOG RESISTIVITY FROM RESISTIVITY LOG
MCALED  .IN    : MLT (MICROLOG) CALIPER FROM MICROLOG
SNED    .OHMM  : 16 INCH SHORT NORMAL RESISTIVITY FROM RESISTIVITY LOG
SPHILSED.V/V   : SONIC POROSITY LIMESTONE [DTM=47.6, DTF= 189] FROM SONIC LOG
SPOLSWS .V/V   : SONIC POROSITY LIMESTONE [SPHILSED]
SPRED   .MV    : SPONTANEOUS POTENTIAL FROM RESISTIVITY LOG
SPWS    .MV    : SPONTANEOUS POTENTIAL [BASELINE 0 MV] [SPRED]
SRESWS  .OHMM  : SHALLOW RESISTIVITY [SNED]
~Params ----------------------------------------------------
PD  .                     GL : PERMANENT DATUM
EPD .FT                 2602 : ELEVATION PERMANENT DATUM
LMF .                     KB : LOG MEASURED FROM
DAPD.FT                   13 : FEET ABOVE PERMANENT DATUM
EKB .FT                 2615 : KELLY BUSHING
EGL .FT                 2602 : GROUND LEVEL
DATE.               01/23/64 : RUN DATE
RUN .                      2 : RUN NUMBER
DD  .FT                 9957 : DEPTH DRILLER
DL  .FT                 9957 : DEPTH LOGGER
BLI .FT                 9956 : BOTTOM LOG INTERVAL
TLI .FT                 4000 : TOP LOG INTERVAL
CBD .FT                 1006 : CASING BOTTOM DRILLER
CBL .FT                 1004 : CASING BOTTOM LOGGER
BS  .IN                    9 : BIT SIZE
BSD .FT                 9957 : BIT SIZE AT DEPTH
DFT .              LIME BASE : DRILLING FLUID TYPE
DFD .                   10.3 : DRILLING FLUID DENSITY
DFV .                    189 : DRILLING FLUID VISCOSITY
DFPH.                   13.5 : DRILLING FLUID PH
DFL .                    4.4 : DRILLING FLUID LOSS
RMS .OHMM               0.59 : RESISTIVITY MUD SAMPLE
MST .DEGF                 62 : MUD SAMPLE TEMPERATURE
RMF .OHMM               0.32 : RESISTIVITY MUD FILTRATE SAMPLE
MFST.DEGF                 61 : MUD FILTRATE SAMPLE TEMPERATURE
RMC .OHMM               0.87 : RESISTIVITY MUD CAKE
MCST.DEGF                 66 : MUD CAKE SAMPLE TEMPERATURE
RMB .OHMM               0.24 : RESISTIVITY MUD AT BHT
TCS .HRS                   2 : TIME CIRCULATED STOPPED
LUN .                   1576 : LOGGING UNIT NUMBER
LUL .                     DV : LOGGING UNIT LOCATION
ENGI.          WILLIAMS HALE : RECORDING ENGINEER
WITN.          WHEELER CLARK : WITNESSED BY
CLNT.                A2DTECH : CLIENT CODE
ORIG.            2" 5" PRINT : ORIGIN OF DATA
UWI .       100122905513W500 : UNIQUE WELL ID
DICO. A2D Technologies, Inc. : DIGITIZING COMPANY
~Other -----------------------------------------------------
~ASCII -----------------------------------------------------
# ...
 7450.00000   10.39020    1.50400    1.85000  540.54660   50.97000   50.97000   27.23280   27.23280  540.54660   10.39020  100.00000    0.00930    0.00930  -55.57680  -23.05860  100.00000
 7500.00000    8.94260    1.22330    2.25390  443.67660   50.72050   50.72050   23.42820   23.42820  443.67660    8.94260   93.72620    0.00950    0.00950  -63.24300  -30.78720   93.72620
 7550.00000    9.82710    1.31170    1.59200  628.15300   51.06580   51.06580   28.84880   28.84880  628.15300    9.82710   99.48080    0.00840    0.00840  -74.91020  -42.51690   99.48080
 7600.00000   10.96900    6.39560    6.74320  148.29790   50.22500   50.22500   23.33830   23.33830  148.29790   10.96900   65.64010    0.00130    0.00130  -83.48950  -51.15900   65.64010
 7650.00000   13.62160    1.46250    1.58770  629.82300   50.99980   50.99980   30.49290   30.49290  629.82300   13.62160  117.81900    0.00950    0.00950  -85.16950  -52.90140  117.81900
 7700.00000    9.32920    4.50350    5.40890  184.88000   51.12630   51.12630   19.96910   19.96910  184.88000    9.32920   69.15190    0.01450    0.01450  -88.15010  -55.94490   69.15190
 7750.00000    8.32300   86.15350   87.54650   11.42250   54.15970   54.15970   21.01750   21.01750   11.42250    8.32300   41.77380    0.04420    0.04420  -97.75380  -65.61100   41.77380
 7800.00000   10.49930    4.17870    4.60310  217.74930   50.45530   50.45530   23.32380   23.32380  217.74930   10.49930   65.77700    0.00420    0.00420  -88.05370  -55.97330   65.77700
 7850.00000   11.52380    0.74980    1.58440  631.14750   49.61320   49.61320   25.50310   25.50310  631.14750   11.52380   88.55190   -0.00260   -0.00260  -83.79890  -51.78140   88.55190
 7900.00000   10.71850    6.92870    7.26560  137.63580   51.61480   51.61480   19.94350   19.94350  137.63580   10.71850   55.98220    0.01590    0.01590  -89.29810  -57.34300   55.98220
 7950.00000   12.71540    3.88810    5.12530  195.11110   53.88330   53.88330   23.40380   23.40380  195.11110   12.71540   69.42160    0.03450    0.03450  -91.20020  -59.30790   69.42160
 8000.00000    8.90950   10.96160   12.02740   83.14340   50.70200   50.70200   27.24230   27.24230   83.14340    8.90950   60.58510    0.00600    0.00600  -99.80390  -67.97410   60.58510
 8050.00000    9.02460    2.69820    3.29680  303.71840   48.75480   48.75480   20.77120   20.77120  303.71840    9.02460   75.36960   -0.00900   -0.00900  -87.44870  -55.68130   75.36960
 8100.00000    8.96320   93.94780   94.11140   10.62570   57.58980   57.58980   55.47960   55.47960   10.62570    8.96320   14.60580    0.07280    0.07280  -72.16060  -40.45600   14.60580
 8150.00000   10.36130    5.35850    5.60720  178.34280   50.39800   50.39800   45.46690   45.46690  178.34280   10.36130   63.87290    0.00700    0.00700  -83.46020  -51.81810   63.87290
 8200.00000    9.97440   11.82180   11.92130   83.88350   52.09230   52.09230   44.15990   44.15990   83.88350    9.97440   40.17400    0.02170    0.02170  -75.10130  -43.52200   40.17400
 8250.00000   10.07090   18.04900   20.14550   49.63890   52.56170   52.56170   31.09050   31.09050   49.63890   10.07090   35.12580    0.02410    0.02410  -73.10250  -41.58560   35.12580
 8300.00000    9.22450   16.24110   17.30100   57.81450   56.08990   56.08990   51.49600   51.49600   57.81450    9.22450   39.25850    0.05850    0.05850  -43.54290  -12.08850   39.25850
 8350.00000    9.24590    -999.25   30.62970   32.64810   58.97620   58.97620   65.61070   65.61070   32.64810    9.24590   24.68100    0.08650    0.08650  -41.70220  -10.31060   24.68100
 8400.00000    9.47480   52.26530   55.89430   17.89090   62.22400   62.22400   64.82920   64.82920   17.89090    9.47480   16.65640    0.11960    0.11960  -38.98180   -7.65260   16.65640
 8450.00000    9.84540   79.31300   80.74740   12.38430   63.91800   63.91800   75.17940   75.17940   12.38430    9.84540   11.14710    0.13700    0.13700  -38.30880   -7.04250   11.14710
 8500.00000   14.48940  176.88160  177.49060    5.63410   83.18730   83.18730  100.60020  100.60020    5.63410   14.48940    5.23510    0.30000    0.30000  -35.40780   -4.20390    5.23510
 8550.00000   13.64880  139.67220  140.10630    7.13880   71.40390   71.40390   88.11680   88.11680    7.13880   13.64880    6.85950    0.21320    0.21320  -33.50150   -2.36000    6.85950
 8600.00000    9.03030   32.80780   31.88760   31.36020   56.27330   56.27330   37.42220   37.42220   31.36020    9.03030   24.15320    0.06230    0.06230  -40.83130   -9.75270   24.15320
 8650.00000    9.52610   99.17280  100.49140    9.95110   69.89300   69.89300   87.07180   87.07180    9.95110    9.52610   10.73890    0.19600    0.19600  -29.59380    1.42240   10.73890
 8700.00000   11.55700  175.46250  158.85120    6.29520   81.41300   81.41300   96.37010   96.37010    6.29520   11.55700    5.75380    0.30000    0.30000  -27.90670    3.04660    5.75380
 8750.00000    9.20450   59.38820   65.84280   15.18770   67.63300   67.63300   90.29240   90.29240   15.18770    9.20450   17.55430    0.16900    0.16900  -30.02410    0.86680   17.55430
 8800.00000    9.88890   90.09520   92.97320   10.75590   68.69110   68.69110   93.43600   93.43600   10.75590    9.88890    9.77540    0.18450    0.18450  -29.34710    1.48140    9.77540
 8850.00000    9.13700   82.07020   84.04420   11.89850   67.72350   67.72350   93.85010   93.85010   11.89850    9.13700   12.93490    0.17470    0.17470  -38.16630   -7.40070   12.93490
 8900.00000   10.15200  111.40790  106.96450    9.34890   68.77080   68.77080  101.08560  101.08560    9.34890   10.15200    9.74680    0.18760    0.18760  -41.26620  -10.56300    9.74680
 8950.00000    9.13710   60.30190   68.50580   14.59730   67.08320   67.08320   74.12800   74.12800   14.59730    9.13710   14.43660    0.16360    0.16360  -45.08470  -14.44430   14.43660
 9000.00000   11.54590  124.34960  126.97450    7.87560   75.87750   75.87750  100.16890  100.16890    7.87560   11.54590    8.17910    0.25210    0.25210  -43.55690  -12.97900    8.17910
 9050.00000   12.18600   99.63680  100.75160    9.92540   73.56820   73.56820   96.38990   96.38990    9.92540   12.18600    9.26960    0.23450    0.23450  -39.84920   -9.33370    9.26960
 9100.00000    9.72760  118.90660  116.41850    8.58970   68.49500   68.49500   87.47500   87.47500    8.58970    9.72760   10.60930    0.18010    0.18010  -34.00570   -3.55300   10.60930
 9150.00000   10.74000  106.95080  114.10310    8.76400   74.21080   74.21080   92.92710   92.92710    8.76400   10.74000    9.56380    0.24330    0.24330  -31.09610   -0.70590    9.56380
 9200.00000    9.70420  101.32430  101.93160    9.81050   69.99400   69.99400   93.80360   93.80360    9.81050    9.70420   10.25120    0.19880    0.19880  -30.60810   -0.28070   10.25120
 9250.00000   10.53440  113.90500  120.36300    8.30820   71.04350   71.04350   90.55890   90.55890    8.30820   10.53440    9.21010    0.21440    0.21440  -37.73140   -7.46640    9.21010
 9300.00000    9.35080  116.49160  116.00930    8.62000   73.36650   73.36650   90.07360   90.07360    8.62000    9.35080    9.63100    0.23970    0.23970  -38.61290   -8.41040    9.63100
 9350.00000    9.14270   13.89420   15.43690   64.78000   72.50820   72.50820   95.61910   95.61910   64.78000    9.14270   40.72490    0.22340    0.22340  -36.63880   -6.49910   40.72490
 9400.00000    8.96120    5.82640    6.07520  164.60440   52.73580   52.73580   28.34610   28.34610  164.60440    8.96120   40.05840    0.02830    0.02830  -38.56240   -8.48510   40.05840
 9450.00000   10.95340  172.19500  156.75210    6.37950   81.69730   81.69730  113.71740  113.71740    6.37950   10.95340    8.80680    0.30020    0.30020  -40.92370  -10.90930    8.80680
 9500.00000   11.58580  161.58250  146.54380    6.82390   76.27000   76.27000  102.71230  102.71230    6.82390   11.58580    7.76330    0.25670    0.25670  -39.72050   -9.76850    7.76330
 9550.00000    9.21600   20.68630   22.91680   43.77920   54.09270   54.09270   30.99040   30.99040   43.77920    9.21600   37.37230    0.04390    0.04390  -36.13280   -6.24320   37.37230
