~Version ---------------------------------------------------
VERS.      2.0 : CWLS log ASCII Standard -VERSION 2.0
WRAP.       NO : One line per depth step
CREA. 08/01/17 : LAS Creation Date
~Well ------------------------------------------------------
STRT.FT           1100.0 : START DEPTH
STOP.FT          11400.0 : STOP DEPTH
STEP.FT         50.00000 : STEP LENGTH
NULL.            -999.25 : NULL VALUE
COMP.    SUN OIL COMPANY : COMPANY
WELL. SUN TONY 2-2-63-22 : WELL
FLD .                 WC : FIELD
LOC .                    : LOCATION
CTRY.             CANADA : COUNTRY
SRVC.       Schlumberger : SERVICE COMPANY
DATE.        01-Apr-1963 : LOGDATE
PROV.            Alberta : PROVINCE
UWI .   100020206322W500 : UNIQUE WELL ID
SLAT.WGS84      54.41639 : SURFACE LATITUDE
SLON.WGS84     -117.2104 : SURFACE LONGITUDE
~Curve Information -----------------------------------------
DEPT  .FT    : Depth Curve
CALSED.IN    : CALIPER FROM SL-GR-CAL LOG
CALWS .IN    : CALIPER [CALSED]
CILDED.MMHO  : DEEP INDUCTION CONDUCTIVITY FROM EL LOG
CONDWS.MMHO  : CONDUCTIVITY [CILDED]
DRESWS.OHMM  : DEEP RESISTIVITY [CALCULATED FROM 1000/CILDED, IF ILDED<1, ILDED]
DTED  .US/F  : DELTA-T (INTERVAL TRANSIT TIME) FROM EL LOG
DTWS  .US/F  : COMPRESSIONAL  SONIC [DTED]
GRSED .GAPI  : GAMMA RAY FROM SL-GR-CAL LOG
GRWS  .GAPI  : GAMMA RAY [GRSED]
ILDED .OHMM  : DEEP INDUCTION RESISTIVITY FROM EL LOG
SNED  .OHMM  : SHORT NORMAL RESISTIVITY FROM EL LOG
SPRED .MV    : SPONTANEOUS POTENTIAL FROM RESISTIVITY LOG
SPWS  .MV    : SPONTANEOUS POTENTIAL [BASELINE 0 MV, SPRED]
SRESWS.OHMM  : SHALLOW RESISTIVITY [SNED]
~Params ----------------------------------------------------
PD  .                     GL : PERMANENT DATUM
EPD .FT                 2843 : ELEVATION PERMANENT DATUM
LMF .                     KB : LOG MEASURED FROM
DAPD.FT                   13 : FEET ABOVE PERMANENT DATUM
EKB .FT                 2856 : KELLY BUSHING
EGL .FT                 2843 : GROUND LEVEL
DATE.               04/01/63 : RUN DATE
RUN .                      1 : RUN NUMBER
DD  .FT                11440 : DEPTH DRILLER
DL  .FT                11443 : DEPTH LOGGER
BLI .FT                11442 : BOTTOM LOG INTERVAL
TLI .FT                 1189 : TOP LOG INTERVAL
CBD .FT                 1189 : CASING BOTTOM DRILLER
CBL .FT                 1189 : CASING BOTTOM LOGGER
BS  .IN                 8.75 : BIT SIZE
BSD .FT                11440 : BIT SIZE AT DEPTH
DFT .                    GEL : DRILLING FLUID TYPE
DFD .                    9.8 : DRILLING FLUID DENSITY
DFV .                    135 : DRILLING FLUID VISCOSITY
DFPH.                    9.5 : DRILLING FLUID PH
DFL .                    9.2 : DRILLING FLUID LOSS
RMS .OHMM               2.04 : RESISTIVITY MUD SAMPLE
MST .DEGF                 64 : MUD SAMPLE TEMPERATURE
RMF .OHMM               1.36 : RESISTIVITY MUD FILTRATE SAMPLE
MFST.DEGF                 74 : MUD FILTRATE SAMPLE TEMPERATURE
RMC .OHMM               2.43 : RESISTIVITY MUD CAKE
MCST.DEGF                 74 : MUD CAKE SAMPLE TEMPERATURE
RMB .OHMM                0.7 : RESISTIVITY MUD AT BHT
TCS .HRS                   3 : TIME CIRCULATED STOPPED
LUN .                   1534 : LOGGING UNIT NUMBER
LUL .                     VV : LOGGING UNIT LOCATION
ENGI.                  KEOWN : RECORDING ENGINEER
WITN.                 FENTON : WITNESSED BY
CLNT.                A2DTECH : CLIENT CODE
ORIG.            2" 5" PRINT : ORIGIN OF DATA
UWI .       100020206322W500 : UNIQUE WELL ID
DICO. A2D Technologies, Inc. : DIGITIZING COMPANY
~Other -----------------------------------------------------
ALL CURVES HAVE BEEN TAKEN IN 1"SECTION @CSG. TO 6980'.
~ASCII -----------------------------------------------------
# ...
 6000.00000   10.66230   10.66230   71.79070   71.79070   13.27680   74.40290   74.40290   84.61080   84.61080   13.27680   14.47690 -104.29870  -16.67450   14.47690
 6050.00000   11.23740   11.23740   48.31440   48.31440   19.30100   72.78320   72.78320   73.04230   73.04230   19.30100   18.20570 -101.82140  -16.46920   18.20570
 6100.00000   11.02720   11.02720   73.10570   73.10570   13.38460   81.23420   81.23420   78.32110   78.32110   13.38460   18.54490  -95.88230  -12.80210   18.54490
 6150.00000   11.35860   11.35860   61.95900   61.95900   15.78150   78.04750   78.04750   82.50070   82.50070   15.78150   18.35580  -97.97030  -17.16210   18.35580
 6200.00000   11.71180   11.71180   67.65050   67.65050   14.76540   93.76650   93.76650   87.34040   87.34040   14.76540   18.30020  -97.28050  -18.74430   18.30020
 6250.00000   11.47220   11.47220   60.78890   60.78890   15.88410   69.86680   69.86680   84.45400   84.45400   15.88410   18.37840  -94.24920  -18.02230   18.37840
 6300.00000   12.00820   12.00820   56.45040   56.45040   17.00760   78.48340   78.48340   99.24320   99.24320   17.00760   17.42290  -90.72010  -16.89410   17.42290
 6350.00000   10.86110   10.86110   62.49520   62.49520   15.09010   75.42000   75.42000   82.37630   82.37630   15.09010   20.40360 -109.53130  -38.10610   20.40360
 6400.00000   11.41060   11.41060   65.60150   65.60150   15.17110   73.82660   73.82660   84.91640   84.91640   15.17110   17.00020  -83.55180  -14.52750   17.00020
 6450.00000   11.49040   11.49040   69.54490   69.54490   14.13620   73.76760   73.76760   67.47890   67.47890   14.13620   19.82250  -93.53470  -26.91120   19.82250
 6500.00000    9.59150    9.59150   43.38090   43.38090   22.64540   70.56390   70.56390   53.24960   53.24960   22.64540   25.75210 -131.60380  -67.38120   25.75210
 6550.00000   10.94890   10.94890   65.65520   65.65520   14.14240   73.27500   73.27500   66.40930   66.40930   14.14240   14.92810  -86.57890  -23.90140   14.92810
 6600.00000   11.20020   11.20020   53.66150   53.66150   17.88600   72.38150   72.38150   95.33060   95.33060   17.88600   20.17510  -77.67820  -16.50070   20.17510
 6650.00000   11.29580   11.29580  123.67470  123.67470    8.02870   87.50720   87.50720  102.65920  102.65920    8.02870   10.59950  -77.36120  -17.68380   10.59950
 6700.00000   10.66710   10.66710   25.25500   25.25500   36.08120   69.99370   69.99370   66.78220   66.78220   36.08120   33.41040  -84.43290  -26.25560   33.41040
 6750.00000   10.31570   10.31570   23.81280   23.81280   36.17920   68.96880   68.96880   73.48260   73.48260   36.17920   32.53310  -79.35120  -22.67390   32.53310
 6800.00000   10.45330   10.45330   38.76630   38.76630   24.70970   74.00810   74.00810  106.87070  106.87070   24.70970   26.93540  -76.08950  -20.91230   26.93540
 6850.00000   10.38110   10.38110   26.47020   26.47020   37.02000   66.30480   66.30480   76.46530   76.46530   37.02000   32.89370  -78.57490  -24.89780   32.89370
 6900.00000   10.56010   10.56010   29.25400   29.25400   30.30410   83.64620   83.64620   89.39260   89.39260   30.30410   37.59130  -58.89370   -6.71670   37.59130
 6950.00000   10.82970   10.82970   57.00210   57.00210   16.46440   67.64370   67.64370   88.20420   88.20420   16.46440   18.60380  -63.13350  -12.45650   18.60380
 7000.00000   10.84280   10.84280  102.21930  102.21930   10.09520   62.93330   62.93330   98.60850   98.60850   10.09520   11.66520  -74.44900  -25.27210   11.66520
 7050.00000    8.19300    8.19300   98.29670   98.29670   10.62900   76.01940   76.01940   37.04290   37.04290   10.62900   27.72090 -158.07580 -110.39900   27.72090
 7100.00000    9.22230    9.22230   51.89290   51.89290   20.32920   69.15310   69.15310   73.51110   73.51110   20.32920   31.91090 -118.09280  -71.91600   31.91090
 7150.00000    9.97780    9.97780  211.12660  211.12660    5.29610  121.47650  121.47650   81.44530   81.44530    5.29610    8.58990  -97.12740  -52.45070    8.58990
 7200.00000    9.67470    9.67470    8.91220    8.91220  163.06760   88.89750   88.89750  190.16850  190.16850  163.06760  151.29220  -71.31080  -28.13420  151.29220
 7250.00000    9.57530    9.57530    7.25880    7.25880  240.55460   74.38910   74.38910  240.00000  240.00000  240.55460  163.07950  -90.12980  -48.45320  163.07950
 7300.00000    9.70310    9.70310   44.40360   44.40360   24.69460   64.38920   64.38920   62.02910   62.02910   24.69460   28.93010  -85.13720  -44.96070   28.93010
 7350.00000    9.98430    9.98430   47.50010   47.50010   23.41590   63.08400   63.08400   76.43690   76.43690   23.41590   27.03950  -76.31680  -37.64040   27.03950
 7400.00000    9.55470    9.55470   26.86870   26.86870   41.55500   59.45470   59.45470   83.25940   83.25940   41.55500   38.21260  -57.91980  -20.74340   38.21260
 7450.00000    9.61010    9.61010   31.93440   31.93440   35.32730   61.76400   61.76400   90.21590   90.21590   35.32730   31.72330  -60.61880  -24.94250   31.72330
 7500.00000    9.51030    9.51030   23.25860   23.25860   47.09240   59.31980   59.31980   84.18150   84.18150   47.09240   44.05800  -47.29670  -13.12050   44.05800
 7550.00000    9.35000    9.35000   25.56730   25.56730   43.15190   58.64180   58.64180   96.81310   96.81310   43.15190   46.98680  -46.63410  -13.16190   46.98680
 7600.00000    7.80910    7.80910   47.89590   47.89590   22.56700   55.15050   55.15050   34.84440   34.84440   22.56700   61.08400 -191.38030 -158.38760   61.08400
 7650.00000    9.25050    9.25050   13.52720   13.52720   96.86880   47.90920   47.90920   27.92600   27.92600   96.86880   92.23670 -142.18380 -109.67060   92.23670
 7700.00000   10.63300   10.63300   21.68300   21.68300   51.94330   57.87340   57.87340   33.11720   33.11720   51.94330   73.24790 -132.11370 -100.08000   73.24790
 7750.00000    9.47330    9.47330   74.81150   74.81150   14.32580   52.29170   52.29170   32.86720   32.86720   14.32580   63.08210 -183.45080 -151.89660   63.08210
 7800.00000    8.98940    8.98940   30.93300   30.93300   37.61120   57.58980   57.58980   75.97230   75.97230   37.61120   63.01590  -85.42310  -54.34840   63.01590
 7850.00000    9.10050    9.10050   24.35990   24.35990   47.34880   59.31100   59.31100   76.34360   76.34360   47.34880   57.83960  -53.05960  -22.46440   57.83960
 7900.00000    9.04250    9.04250    7.93840    7.93840  259.24780   52.10500   52.10500   30.30170   30.30170  259.24780  110.54290 -100.72880  -70.61310  110.54290
 7950.00000    9.35340    9.35340   17.41540   17.41540   85.65820   51.09700   51.09700   34.38160   34.38160   85.65820   51.97350 -113.49280  -83.85660   51.97350
 8000.00000    8.62780    8.62780   42.48590   42.48590   27.69370   53.34450   53.34450   40.56960   40.56960   27.69370   46.00220 -110.02950  -80.87280   46.00220
 8050.00000    9.06300    9.06300    8.44680    8.44680  188.68070   53.49500   53.49500   50.25880   50.25880  188.68070  114.58340  -86.49630  -57.81910  114.58340
 8100.00000    8.80240    8.80240   14.60470   14.60470   84.56060   52.42780   52.42780   22.80570   22.80570   84.56060  125.76110 -153.46300 -125.26530  125.76110
 8150.00000    9.24930    9.24930   20.35470   20.35470   61.60420   48.39680   48.39680   24.10040   24.10040   61.60420  110.98380 -170.16240 -142.44420  110.98380
 8200.00000    9.02840    9.02840    8.01790    8.01790  220.94400   47.91360   47.91360   21.24160   21.24160  220.94400  147.12730 -127.20160  -99.96290  147.12730
 8250.00000    9.08570    9.08570  178.06570  178.06570    6.27140   64.25110   64.25110   75.87320   75.87320    6.27140   12.36630  -67.51620  -40.75700   12.36630
 8300.00000    9.18230    9.18230   88.05960   88.05960   13.04400   62.69990   62.69990   80.63090   80.63090   13.04400   19.08730  -60.39290  -34.11320   19.08730
 8350.00000    9.65720    9.65720   92.22910   92.22910   11.39350   66.19210   66.19210   66.97770   66.97770   11.39350   18.27200  -37.52430  -11.72410   18.27200
 8400.00000    9.46800    9.46800   28.79130   28.79130   39.57890   59.77330   59.77330   64.48570   64.48570   39.57890   51.41060  -32.36210   -7.04140   51.41060
