~Version ---------------------------------------------------
VERS. 2.0 : CWLS log ASCII Standard -VERSION 2.0
WRAP.  NO : ONE LINE PER DEPTH STEP
~Well ------------------------------------------------------
STRT.F                              1350.0 : START DEPTH
STOP.F                             12000.0 : STOP DEPTH
STEP.F                            50.00000 : STEP LENGTH
NULL.                              -999.25 : NULL VALUE
COMP.                 CHEVRON STANDARD LTD : COMPANY
WELL. CHEVRON AMOCO WASKAHIGAN 10-17-64-24 : WELL
FLD .                                      : FIELD
LOC .                                      : LOCATION
CTRY.                               CANADA : COUNTRY
SRVC.                         Schlumberger : SERVICE COMPANY
DATE.                          17-Sep-1977 : LOGDATE
PROV.                              Alberta : PROVINCE
UWI .                     100101706424W500 : UNIQUE WELL ID
SLAT.WGS84                        54.54045 : SURFACE LATITUDE
SLON.WGS84                       -117.5875 : SURFACE LONGITUDE
~Curve Information -----------------------------------------
DEPT   .F                 : 
SPR    .MV   99 010 00 00 : SELF POTENTIAL
ILD    .OHMM 06 121 12 00 : INDUCTION LOG RESISTIVITY
ILM    .OHMM 07 120 44 00 : INDUCTION LOG MEDIUM RESISTIVITY
DFL    .OHMM 07 220 01 00 : DIGITAL FOCUSED LATEROLOG
GRS    .GAPI              : GAMMA RAY FROM SONIC LOG
CALS   .IN                : CALIPER FROM SONIC LOG
TENS   .LB   60 635 01 00 : TENSION FROM SONIC LOG
DRHO   .G/C3 00 000 00 01 : DENSITY CORRECTION
RHOB   .G/C3 45 350 01 00 : BULK DENSITY
CALD   .IN   70 280 01 00 : CALIPER FROM DENSITY LOG
GRD    .GAPI              : GAMMA RAY FROM DENSITY LOG
TEND   .LB                : TENSION FROM DENSITY LOG
DPHI_SS.DEC  45 890 12 00 : DENSITY POROSITY SANDSTONE
NPHI_SS.DEC               : NEUTRON POROSITY SANDSTONE
NPHI_LS.DEC               : NEUTRON POROSITY IN SELECTED LITHOLOGY SANDSTONE
DPHI_LS.DEC  45 890 00 00 : DENSITY POROSITY
DT     .US/F 60 520 00 00 : DELTA TIME FROM SONIC LOG
~Params ----------------------------------------------------
PD  .                     GL : PERMANENT DATUM
EPD .FT               2874.1 : ELEVATION PERMANENT DATUM
LMF .                     KB : LOG MEASURED FROM
DAPD.FT                 18.5 : FEET ABOVE PERMANENT DATUM
EKB .FT               2892.6 : KELLY BUSHING
EGL .FT               2874.1 : GROUND LEVEL
DATE.               09/17/77 : RUN DATE
RUN .                      1 : RUN NUMBER
DD  .FT                11989 : DEPTH DRILLER
DL  .FT                11985 : DEPTH LOGGER
BLI .FT                11979 : BOTTOM LOG INTERVAL
TLI .FT                 1516 : TOP LOG INTERVAL
CBD .FT              1516.87 : CASING BOTTOM DRILLER
CBL .FT                 1516 : CASING BOTTOM LOGGER
BS  .IN                 8.75 : BIT SIZE
BSD .FT                11989 : BIT SIZE AT DEPTH
DFT .                    GEL : DRILLING FLUID TYPE
DFD .                      9 : DRILLING FLUID DENSITY
DFV .                     90 : DRILLING FLUID VISCOSITY
DFPH.                    9.5 : DRILLING FLUID PH
DFL .                    8.4 : DRILLING FLUID LOSS
MSS .               FLOWLINE : MUD SAMPLE SOURCE
RMS .OHMM               1.53 : RESISTIVITY MUD SAMPLE
MST .DEGF                 68 : MUD SAMPLE TEMPERATURE
RMF .OHMM               1.36 : RESISTIVITY MUD FILTRATE SAMPLE
MFST.DEGF                 62 : MUD FILTRATE SAMPLE TEMPERATURE
RMC .OHMM               1.37 : RESISTIVITY MUD CAKE
MCST.DEGF                 62 : MUD CAKE SAMPLE TEMPERATURE
TCS .HRS                   5 : TIME CIRCULATED STOPPED
LUN .                   7772 : LOGGING UNIT NUMBER
LUL .                    EDM : LOGGING UNIT LOCATION
ENGI.         BERNISKY TRACY : RECORDING ENGINEER
WITN.             RICHARDSON : WITNESSED BY
CLNT.                A2DTECH : CLIENT CODE
ORIG.            2" 5" PRINT : ORIGIN OF DATA
UWI .       100101706424W500 : UNIQUE WELL ID
DICO. A2D Technologies, Inc. : DIGITIZING COMPANY
~Other -----------------------------------------------------
~ASCII -----------------------------------------------------
# ...
 3400.00000  -73.10820   17.37740   18.21650   19.22370   38.19210    8.84340 4348.93410    0.02950    2.38330    9.12340   44.28120 3481.46530    0.18970    0.34020    -999.25    -999.25   82.41730
 3450.00000  -65.41830    6.29870    5.85170    5.49520   69.39300    9.14260 4408.03660    0.12580    2.43740   10.77180   73.56310 3586.74560    0.14790    0.37130    -999.25    -999.25   88.09240
 3500.00000  -64.45780    4.57800    4.90770    4.24130   70.99860    9.57040 4351.63960    0.08470    2.45070   12.29630   79.10340 3475.23290    0.12630    0.37980    -999.25    -999.25   93.23800
 3550.00000  -65.35090    6.98140    6.85640    6.40140   71.45040    9.62220 4175.64650    -999.25    -999.25    -999.25    -999.25    -999.25    -999.25    -999.25    -999.25    -999.25   85.40260
 3600.00000  -66.66670    8.14380    7.27420    7.05980   90.77110    9.96530 4190.08540    -999.25    -999.25    -999.25    -999.25    -999.25    -999.25    -999.25    -999.25    -999.25   84.81480
 3650.00000  -68.17250   10.06080    9.39900    8.83990   94.65130    9.78090 4160.91210    -999.25    -999.25    -999.25    -999.25    -999.25    -999.25    -999.25    -999.25    -999.25   85.95720
 3700.00000  -66.34540    8.72040    8.32060    9.18730  119.81420    9.83750 4120.50050    -999.25    -999.25    -999.25    -999.25    -999.25    -999.25    -999.25    -999.25    -999.25   92.74240
 3750.00000  -66.99480   11.32410   11.87540   13.28490  125.13770    9.56870 4191.40230    -999.25    -999.25    -999.25    -999.25    -999.25    -999.25    -999.25    -999.25    -999.25   90.27100
 3800.00000  -65.68010   10.30920   10.90910   11.94040  114.48740   10.27660 4038.58060    -999.25    -999.25    -999.25    -999.25    -999.25    -999.25    -999.25    -999.25    -999.25   89.94430
 3850.00000  -66.24830    8.88430    9.48420   10.03160  112.31780   10.24710 3954.84200    -999.25    -999.25    -999.25    -999.25    -999.25    -999.25    -999.25    -999.25    -999.25   88.24870
 3900.00000  -66.58330    5.79370    5.97680    6.54730  111.54990   10.03830 3994.08400    -999.25    -999.25    -999.25    -999.25    -999.25    -999.25    -999.25    -999.25    -999.25   89.60190
 3950.00000  -67.33860    7.86970    7.47070    7.08520  104.77070    9.19460 3831.24120    -999.25    -999.25    -999.25    -999.25    -999.25    -999.25    -999.25    -999.25    -999.25   86.53690
 4000.00000  -67.53670    9.02740    8.78680    8.18370  109.61680    8.95660 3754.64260    -999.25    -999.25    -999.25    -999.25    -999.25    -999.25    -999.25    -999.25    -999.25   87.39040
 4050.00000  -67.15200    8.42060    7.56570    7.31360  108.13960    8.65080 3708.35210    -999.25    -999.25    -999.25    -999.25    -999.25    -999.25    -999.25    -999.25    -999.25   88.86680
 4100.00000  -67.23540    7.47560    7.23940    7.04080  115.81880    9.50200 3603.95040    -999.25    -999.25    -999.25    -999.25    -999.25    -999.25    -999.25    -999.25    -999.25   84.73560
 4150.00000  -66.00930    9.46220    9.18660    8.45230  111.65620   10.22090 3510.54540    -999.25    -999.25    -999.25    -999.25    -999.25    -999.25    -999.25    -999.25    -999.25   89.43730
 4200.00000  -66.47310    8.20190    7.39100    7.07960  110.49540   10.13250 3503.88230    -999.25    -999.25    -999.25    -999.25    -999.25    -999.25    -999.25    -999.25    -999.25   89.50680
 4250.00000  -66.60660    9.99920    9.15730    8.89950  110.60680   10.44220 3555.04130    -999.25    -999.25    -999.25    -999.25    -999.25    -999.25    -999.25    -999.25    -999.25   83.33880
 4300.00000  -69.19170   15.28540   14.88490   13.94000   98.24110    9.34170 3402.80930    -999.25    -999.25    -999.25    -999.25    -999.25    -999.25    -999.25    -999.25    -999.25   77.20930
 4350.00000  -66.16270    9.48960    8.96360    8.69070  107.67300    8.92190 3363.96240    -999.25    -999.25    -999.25    -999.25    -999.25    -999.25    -999.25    -999.25    -999.25   84.45520
 4400.00000  -65.26910   10.82500   10.48450   10.04570  108.25110    9.23160 3283.66850    -999.25    -999.25    -999.25    -999.25    -999.25    -999.25    -999.25    -999.25    -999.25   81.94330
 4450.00000  -65.11390   10.54280    9.85580    9.20310  103.21510    9.60840 4387.54830    -999.25    -999.25    -999.25    -999.25    -999.25    -999.25    -999.25    -999.25    -999.25   83.16600
 4500.00000  -64.69990    9.77190    9.51520    8.93700  109.49970    9.62980 4480.87260    -999.25    -999.25    -999.25    -999.25    -999.25    -999.25    -999.25    -999.25    -999.25   80.59250
 4550.00000  -63.66510    8.19920    8.01950    7.45200  108.55970    9.41710 4346.11910    -999.25    -999.25    -999.25    -999.25    -999.25    -999.25    -999.25    -999.25    -999.25   84.99300
 4600.00000  -63.08580    7.34640    7.88460    8.32740  114.07450    9.25530 4245.13870    -999.25    -999.25    -999.25    -999.25    -999.25    -999.25    -999.25    -999.25    -999.25   88.08100
 4650.00000  -63.11050    7.46590    8.04900    8.68380  123.75670    9.33460 4219.86230    -999.25    -999.25    -999.25    -999.25    -999.25    -999.25    -999.25    -999.25    -999.25   91.00440
 4700.00000  -62.48330    8.88290    9.31440   10.17160  121.61880    9.40150 4069.18040    -999.25    -999.25    -999.25    -999.25    -999.25    -999.25    -999.25    -999.25    -999.25   89.29630
 4750.00000  -62.66530    8.81720    9.25070   10.00030  120.01720    9.50840 4069.21780    -999.25    -999.25    -999.25    -999.25    -999.25    -999.25    -999.25    -999.25    -999.25   87.74140
 4800.00000  -63.07170    9.95640   10.26620   11.26460  118.30540    9.61480 3937.94950    -999.25    -999.25    -999.25    -999.25    -999.25    -999.25    -999.25    -999.25    -999.25   88.11340
 4850.00000  -62.59380    8.83440    9.54750   10.83430  106.55950   10.35880 3893.73930    -999.25    -999.25    -999.25    -999.25    -999.25    -999.25    -999.25    -999.25    -999.25   87.87580
 4900.00000  -62.35530    9.42560   10.01360   10.71650  119.81030   10.18420 3984.12650    -999.25    -999.25    -999.25    -999.25    -999.25    -999.25    -999.25    -999.25    -999.25   88.49550
 4950.00000  -61.62270   11.29630   11.64470   14.83230  149.23140    9.28240 3789.09640    -999.25    -999.25    -999.25    -999.25    -999.25    -999.25    -999.25    -999.25    -999.25   98.59190
 5000.00000  -60.78270    7.95940    8.20390    9.46990  120.56820    9.76440 3528.68970    -999.25    -999.25    -999.25    -999.25    -999.25    -999.25    -999.25    -999.25    -999.25   92.98850
 5050.00000  -60.14710   10.73260   11.06510   15.02820  165.37900    9.31790 3687.23800    -999.25    -999.25    -999.25    -999.25    -999.25    -999.25    -999.25    -999.25    -999.25  100.27000
 5100.00000  -62.08080    7.31580    7.51490    8.11700  104.22120    9.81810 3400.04250    0.07640    2.55390   11.79600  121.36680 4261.65770    0.05890    0.33700    -999.25    -999.25   83.14760
 5150.00000  -60.55030    9.17700    9.46500   10.01520   98.69610   10.39400 3668.62840    0.01210    2.52170   10.46410   97.81470 4210.08150    0.07240    0.27460    -999.25    -999.25   78.89330
 5200.00000  -59.16280    6.20140    6.61070    6.94160  114.26360   10.19340 3631.60990    0.06310    2.52810   10.37360  119.81810 4088.31490    0.08350    0.37770    -999.25    -999.25   87.68330
 5250.00000  -72.59210   10.86240   11.19170   10.73890   81.60370    8.99700 3344.76760    0.06960    2.55130    9.65840   90.88290 3991.77590    0.07530    0.29170    -999.25    -999.25   75.89960
 5300.00000  -58.01350    7.26220    7.62690    8.70980  115.01210    9.74150 3353.56100    0.04030    2.56340   10.19280  119.45490 3947.90920    0.06610    0.32450    -999.25    -999.25   81.31540
 5350.00000  -64.34100   14.55870   15.66250   15.83340   69.26740    8.89740 4499.09230    0.04910    2.55960    9.84130   90.96640 3975.72750    0.03250    0.18500    -999.25    -999.25   63.76320
 5400.00000  -49.50280    5.97880    6.26000    7.80920  111.96760    9.81330 4707.68210    0.08030    2.57060   10.17880  115.97710 3920.24850    0.05280    0.34710    -999.25    -999.25   85.51740
