~Version ---------------------------------------------------
VERS.      2.0 : CWLS log ASCII Standard -VERSION 2.0
WRAP.       NO : One line per depth step
CREA. 12/18/17 : LAS Creation Date
~Well ------------------------------------------------------
STRT.FT                             1350.0 : START DEPTH
STOP.FT                            11950.0 : STOP DEPTH
STEP.FT                           50.00000 : STEP LENGTH
NULL.                              -999.25 : NULL VALUE
COMP.                 CHEVRON STANDARD LTD : COMPANY
WELL. CHEVRON AMOCO WASKAHIGAN 10-17-64-24 : WELL
FLD .                                      : FIELD
LOC .                                      : LOCATION
CTRY.                               CANADA : COUNTRY
SRVC.                         Schlumberger : SERVICE COMPANY
DATE.                          17-Sep-1977 : LOGDATE
PROV.                              Alberta : PROVINCE
UWI .                     100101706424W500 : UNIQUE WELL ID
SLAT.WGS84                        54.54045 : SURFACE LATITUDE
SLON.WGS84                       -117.5875 : SURFACE LONGITUDE
~Curve Information -----------------------------------------
DEPT    .FT    : Depth Curve
CALDED  .IN    : CALIPER FROM DENSITY LOG [ADJ. TO RESISTIVITY LOG]
CALSED  .IN    : CALIPER FROM SONIC LOG  [ADJ. TO RESISTIVITY LOG]
CALWS   .IN    : CALIPER [CALSED]
CONDWS  .MMHO  : CONDUCTIVITY [1000/DRESWS]
DCORWS  .G/C3  : DENSITY CORRECTION [DRHOED]
DENWS   .G/C3  : FORMATION BULK DENSITY [RHOBED SPL. TO CALC, FROM DPHILSED M=2.71, F=1.00 FROM 11478'-11488']
DPHILSED.V/V   : DENSITY POROSITY LIMESTONE [M=2.71, F=1.00] FROM DENSITY LOG  [ADJ. TO RESISTIVITY LOG]
DPHISSED.V/V   : DENSITY POROSITY SANDSTONE [M=2.65, F=1.00] FROM DENSITY LOG  [ADJ. TO RESISTIVITY LOG]
DPOLSWS .V/V   : DENSITY POROSITY SANDSTONE [CALC. FROM DENWS  [M=2.71, F=1.00]
DRESWS  .OHMM  : DEEP RESISTIVITY [ILDED]
DRHOED  .G/C3  : DENSITY CORRECTION FROM DENSITY LOG [ [ADJ. TO RESISTIVITY / DPHISSED & DPHILSED]
DTED    .US/F  : DELTA TIME FROM SONIC LOG  [ADJ. TO RESISTIVITY LOG]
DTWS    .US/F  : COMPRSSIONAL SONIC[ DTED]
GRDED   .GAPI  : GAMMA RAY FROM DENSITY LOG  [ADJ. TO RESISTIVITY LOG]
GRSED   .GAPI  : GAMMA RAY FROM SONIC LOG  [ADJ. TO RESISTIVITY LOG]
GRWS    .GAPI  : GAMMA RAY [GRSED SPL. TO GRDED @ 11900']
ILDED   .OHMM  : DEEP INDUCTION LOG RESISTIVITY FROM RESISTIVITY LOG
ILMED   .OHMM  : MEDIUM INDUCTION LOG RESISTIVITY FROM RESISTIVITY LOG
LL8ED   .OHMM  : LATEROLOG FROM RESISTIVITY LOG
MRESWS  .OHMM  : MEDIUM RESISTIVITY [ILMED]
NPHILSED.V/V   : NEUTRON POROSITY LIMESTONE FROM DENSITY LOG  [ADJ. TO RESISTIVITY LOG]
NPHISSED.V/V   : NEUTRON POROSITY SANDSTONE FROM DENSITY LOG  [ADJ. TO RESISTIVITY LOG]
NPOLSWS .V/V   : NEUTRON POROSITY LIMESTONE[NPHISSED MATRIX CONVERSION FOR LIMESTONE SPL. TO NPHILSED @ 9050'
RHOBED  .G/C3  : BULK DENSITY FROM DENSITY LOG [ [ADJ. TO RESISTIVITY/ DPHISSED & DPHILSED]
SPRED   .MV    : SPONTANEOUS POTENTIAL FROM RESISTIVITY LOG
SPWS    .MV    : SPONTANEOUS POTENTIAL [BASELINE 0 MV,SPRED]
SRESWS  .OHMM  : SHALLOW RESISTIVITY [LL8ED]
TENDED  .LBF   : TENSION FROM DENSITY LOG  [ADJ. TO RESISTIVITY LOG]
TENSED  .LBF   : TENSION FROM SONIC LOG  [ADJ. TO RESISTIVITY LOG]
~Params ----------------------------------------------------
PD  .                     GL : PERMANENT DATUM
EPD .FT               2874.1 : ELEVATION PERMANENT DATUM
LMF .                     KB : LOG MEASURED FROM
DAPD.FT                 18.5 : FEET ABOVE PERMANENT DATUM
EKB .FT               2892.6 : KELLY BUSHING
EGL .FT               2874.1 : GROUND LEVEL
DATE.               09/17/77 : RUN DATE
RUN .                      1 : RUN NUMBER
DD  .FT                11989 : DEPTH DRILLER
DL  .FT                11985 : DEPTH LOGGER
BLI .FT                11979 : BOTTOM LOG INTERVAL
TLI .FT                 1516 : TOP LOG INTERVAL
CBD .FT              1516.87 : CASING BOTTOM DRILLER
CBL .FT                 1516 : CASING BOTTOM LOGGER
BS  .IN                 8.75 : BIT SIZE
BSD .FT                11989 : BIT SIZE AT DEPTH
DFT .                    GEL : DRILLING FLUID TYPE
DFD .                      9 : DRILLING FLUID DENSITY
DFV .                     90 : DRILLING FLUID VISCOSITY
DFPH.                    9.5 : DRILLING FLUID PH
DFL .                    8.4 : DRILLING FLUID LOSS
MSS .               FLOWLINE : MUD SAMPLE SOURCE
RMS .OHMM               1.53 : RESISTIVITY MUD SAMPLE
MST .DEGF                 68 : MUD SAMPLE TEMPERATURE
RMF .OHMM               1.36 : RESISTIVITY MUD FILTRATE SAMPLE
MFST.DEGF                 62 : MUD FILTRATE SAMPLE TEMPERATURE
RMC .OHMM               1.37 : RESISTIVITY MUD CAKE
MCST.DEGF                 62 : MUD CAKE SAMPLE TEMPERATURE
TCS .HRS                   5 : TIME CIRCULATED STOPPED
LUN .                   7772 : LOGGING UNIT NUMBER
LUL .                    EDM : LOGGING UNIT LOCATION
ENGI.         BERNISKY TRACY : RECORDING ENGINEER
WITN.             RICHARDSON : WITNESSED BY
CLNT.                A2DTECH : CLIENT CODE
ORIG.            2" 5" PRINT : ORIGIN OF DATA
UWI .       100101706424W500 : UNIQUE WELL ID
DICO. A2D Technologies, Inc. : DIGITIZING COMPANY
~Other -----------------------------------------------------
DIL-CNFD-SONIC LOG RUN
SONIC 2' DEEP TO DIL. GAP IN GRDED FROM 6074'-6090'& 6110' -6132' & GAP IN NPHISSED FROM 6087'-6102' & 6124'-6138' DUE TO REMOVE INVALID VALUE
~ASCII -----------------------------------------------------
# ...
 11350.00000    -999.25    8.21240    8.21240  136.99190    -999.25    -999.25    -999.25    -999.25    -999.25    7.29970    -999.25   73.43050   73.43050    -999.25   99.48980   99.48980    7.29970    7.98320    8.49510    7.98320    -999.25    -999.25    -999.25    -999.25   42.04360  -20.27070    8.49510    -999.25 3486.44330
 11400.00000    -999.25    9.39720    9.39720  224.63330    -999.25    -999.25    -999.25    -999.25    -999.25    4.45170    -999.25   81.18560   81.18560    -999.25  119.51890  119.51890    4.45170    4.57660    5.78210    4.57660    -999.25    -999.25    -999.25    -999.25   44.95400  -16.40790    5.78210    -999.25 3383.46920
 11450.00000    -999.25    9.06790    9.06790  125.88430    -999.25    -999.25    -999.25    -999.25    -999.25    7.94380    -999.25   81.72310   81.72310    -999.25  125.53560  125.53560    7.94380    8.50210   15.36700    8.50210    -999.25    -999.25    -999.25    -999.25   54.95960   -5.45050   15.36700    -999.25 3344.95150
 11500.00000    8.73270    8.36990    8.36990   21.50010    0.00830    2.50950    0.12270    -999.25    0.11730   46.51140    0.00830   78.74440   78.74440  178.65420  162.65840  162.65840   46.51140   57.92880   71.96410   57.92880    0.19870    -999.25    0.19870    2.50950   46.09350  -13.37270   71.96410 3368.48630 3393.66130
 11550.00000    9.02650    8.52130    8.52130   34.41390    0.08210    2.72590   -0.00610    -999.25   -0.00930   29.07280    0.08210   60.49410   60.49410   73.01780   69.18450   69.18450   29.07280   37.48080   40.96930   37.48080    0.12000    -999.25    0.12000    2.72590   40.07870  -18.44830   40.96930 3384.80800 3395.28340
 11600.00000   10.11760    8.99510    8.99510   56.35360    0.23200    2.48920    0.08610    -999.25    0.12910   17.74510    0.23200   55.02980   55.02980   11.85360   12.36700   12.36700   17.74510   27.13300  109.54870   27.13300    0.11380    -999.25    0.11380    2.48920   33.21820  -24.36020  109.54870 3337.25280 3471.89760
 11650.00000   10.19660    8.93250    8.93250    0.64930    0.24560    2.63480    0.05270    -999.25    0.04400 1540.09810    0.24560   47.89250   47.89250   13.14640    8.94800    8.94800 1540.09810 1574.06510 1456.77360 1574.06510    0.00710    -999.25    0.00710    2.63480  -17.36940  -74.00390 1456.77360 3315.40850 3334.96650
 11700.00000   11.85040    9.19590    9.19590    0.65170    0.17880    2.52510    0.11800    -999.25    0.10810 1534.56590    0.17880   49.34960   49.34960   15.36110   11.15780   11.15780 1534.56590 1467.04710 1444.86010 1467.04710    0.00500    -999.25    0.00500    2.52510 -110.38910 -166.07980 1444.86010 3319.84360 3281.03640
 11750.00000    9.14240    8.58340    8.58340   17.43560    0.04490    2.67070    0.00400    -999.25    0.02300   57.35400    0.04490   50.40460   50.40460    8.69220    8.26530    8.26530   57.35400   65.18850   98.59840   65.18850    0.01910    -999.25    0.01910    2.67070  -94.65300 -149.39980   98.59840 3270.21560 3178.61330
 11800.00000   12.25630    9.62150    9.62150    0.64790    0.10990    2.43910    0.15800    -999.25    0.15840 1543.36860    0.10990   50.10640   50.10640   12.43470    8.41290    8.41290 1543.36860 1409.00890 1450.05500 1409.00890    0.02030    -999.25    0.02030    2.43910 -102.43520 -156.24280 1450.05500 3272.36430 3046.04850
 11850.00000   14.14610   10.16350   10.16350    0.63160    0.15750    2.31450    0.23520    -999.25    0.23130 1583.36710    0.15750   51.08150   51.08150   20.01870   13.52100   13.52100 1583.36710  537.94740  488.61150  537.94740    0.05850    -999.25    0.05850    2.31450 -123.33640 -176.19540  488.61150 3263.72300 3017.13950
 11900.00000    9.57540    8.47740    8.47740   21.13180    0.24750    2.49860    0.13820    -999.25    0.12360   47.32210    0.24750   60.27650   60.27650  135.18530  129.18650  135.18530   47.32210   63.11760   61.75460   63.11760    0.06130    -999.25    0.06130    2.49860   -8.18800  -60.10310   61.75460 3216.49100 2952.63480
 11950.00000    9.37510    8.55310    8.55310   22.39200    0.01360    2.64720    0.03140    -999.25    0.03670   44.65880    0.01360   65.88680   65.88680  225.56590  145.64560  225.56590   44.65880   60.82940   88.70940   60.82940    0.16870    -999.25    0.16870    2.64720   49.38350   -1.58770   88.70940 3250.73520 2915.12550
