~Version ---------------------------------------------------
VERS.      2.0 : CWLS log ASCII Standard -VERSION 2.0
WRAP.       NO : One line per depth step
CREA. 06/26/13 : LAS Creation Date
~Well ------------------------------------------------------
STRT.FT                       1050.0 : START DEPTH
STOP.FT                      11200.0 : STOP DEPTH
STEP.FT                     50.00000 : STEP LENGTH
NULL.                        -999.25 : NULL VALUE
COMP.         CALIFORNIA STANDARD CO : COMPANY
WELL. CALSTAN B.A. KAYBOB 2-18-62-18 : WELL
FLD .                             WC : FIELD
LOC .                                : LOCATION
CTRY.                         CANADA : COUNTRY
SRVC.                   Schlumberger : SERVICE COMPANY
DATE.                    31-Mar-1959 : LOGDATE
PROV.                        Alberta : PROVINCE
UWI .               100021806218W500 : UNIQUE WELL ID
SLAT.WGS84                  54.35781 : SURFACE LATITUDE
SLON.WGS84                 -116.6847 : SURFACE LONGITUDE
~Curve Information -----------------------------------------
DEPT.FT            : DEPTH FEET
CILD.MMHO          : CONDUCTIVITY FROM RESISTIVITY LOG
DT  .US/F          : SONIC FROM SONIC LOG
DT1 .US/F          : SONIC FROM SONIC LOG
GRS .UG_RA-EQ/TON  : GAMMA RAY FROM SONIC LOG
ILD .OHMM          : INDUCTION DEEP FROM RESISTIVITY LOG
MCAL.IN            : CALIPER FROM MICROLOG
SN  .OHMM          : SHORT NORMAL FROM RESISTIVITY LOG
SPR .MV            : SPONTANEOUS POTENTIAL FROM RESISTIVITY LOG
~Params ----------------------------------------------------
LMF .                     KB : LOG MEASURED FROM
DMF .                     KB : DRILLING MEASURED FROM
EKB .FT                 2888 : KELLY BUSHING
EGL .FT                 2876 : GROUND LEVEL
DATE.               03/31/59 : RUN DATE
RUN .                      2 : RUN NUMBER
DD  .FT                11256 : DEPTH DRILLER
DL  .FT                11246 : DEPTH LOGGER
BLI .FT                11241 : BOTTOM LOG INTERVAL
TLI .FT                 2250 : TOP LOG INTERVAL
BS  .IN                    9 : BIT SIZE
BSD .FT                11256 : BIT SIZE AT DEPTH
DFT .               OIL EMUL : DRILLING FLUID TYPE
DFD .                   10.6 : DRILLING FLUID DENSITY
DFV .                    112 : DRILLING FLUID VISCOSITY
DFPH.                    9.5 : DRILLING FLUID PH
DFL .                    5.4 : DRILLING FLUID LOSS
RMS .OHMM                  3 : RESISTIVITY MUD SAMPLE
MST .DEGF                 64 : MUD SAMPLE TEMPERATURE
RMF .OHMM                  2 : RESISTIVITY MUD FILTRATE SAMPLE
MFST.DEGF                 77 : MUD FILTRATE SAMPLE TEMPERATURE
RMC .OHMM                3.3 : RESISTIVITY MUD CAKE
MCST.DEGF                 77 : MUD CAKE SAMPLE TEMPERATURE
RMB .OHMM               0.96 : RESISTIVITY MUD AT BHT
TCS .HRS                 7.5 : TIME CIRCULATED STOPPED
LUN .                   1573 : LOGGING UNIT NUMBER
LUL .                    W C : LOGGING UNIT LOCATION
ENGI.               SHERRIFF : RECORDING ENGINEER
WITN.                  SMITH : WITNESSED BY
CLNT.                A2DTECH : CLIENT CODE
ORIG.            2" 5" PRINT : ORIGIN OF DATA
UWI .       100021806218W500 : UNIQUE WELL ID
DICO. A2D Technologies, Inc. : DIGITIZING COMPANY
~Other -----------------------------------------------------
~ASCII -----------------------------------------------------
# ...
 5050.00000   67.87790   83.29460    -999.25    8.29150   13.72340   12.40500   15.90690  -80.39170
 5100.00000  132.84450   91.09100    -999.25    8.48440    7.04750   14.12830    9.04010  -78.22210
 5150.00000  197.02490   92.47020    -999.25    8.72630    4.37880    -999.25    6.21320  -76.76750
 5200.00000  149.76560   94.21480    -999.25    9.87310    5.95030    -999.25    8.15230  -74.76420
 5250.00000  348.07590  114.69570    -999.25   15.10210    1.91550    -999.25    3.78780  -72.61460
 5300.00000  314.12300  107.02970    -999.25    9.54670    2.25880    -999.25    3.75540  -71.45160
 5350.00000  193.80940   95.58740    -999.25    8.69220    4.47500    -999.25    6.20310  -70.99940
 5400.00000  177.21780   92.12300    -999.25    8.89970    5.04160   12.17570    7.17830  -70.23440
 5450.00000   57.40410   75.44450    -999.25    5.93070   17.14270   10.49800   25.33270  -75.26430
 5500.00000  437.82440    -999.25    -999.25    8.29710    1.42570   13.33320    3.32850  -69.49640
 5550.00000   68.48550   95.37420    -999.25    7.83430   14.45870    9.67830   25.54860  -74.16210
 5600.00000   65.26600   77.13700    -999.25    6.55200   14.82170    9.76530   22.89730  -71.86630
 5650.00000   84.69350   78.13940    -999.25    7.80640   12.06980   10.12530   16.75920  -69.25340
 5700.00000   92.84110   80.41150    -999.25    5.94540   10.20050    9.87830   13.59370  -78.34490
 5750.00000   73.18710   95.97230    -999.25    7.77440   13.10420   10.57830   20.96260  -64.77110
 5800.00000  124.69350   74.60500    -999.25    6.76780    7.53120   10.14480    9.83330  -65.98550
 5850.00000   57.01580   73.30420    -999.25    8.03390   16.96900    9.90130   23.54170  -59.28420
 5900.00000   38.33050   96.18710    -999.25    6.26750   24.86560   10.08940   39.79110  -54.64600
 5950.00000   57.85480   79.25700    -999.25    8.33080   15.76950   10.53550   21.57800  -58.22390
 6000.00000   49.87430   78.68050    -999.25    6.92240   18.96900   11.09790   30.58890  -54.31030
 6050.00000   71.87320   78.30940    -999.25    4.71930   13.10510   10.40600   18.47180  -55.49850
 6100.00000   58.52260   78.68980    -999.25    8.31630   16.27490   10.35500   21.14020  -49.04670
 6150.00000  137.69170   79.22320    -999.25    8.04900    6.81690   10.20570   10.21900  -50.85610
 6200.00000   95.57060   86.51860    -999.25    6.85330   10.04240   10.21040   14.28550  -48.54900
 6250.00000   42.66400   70.68240    -999.25    8.27830   22.67320    9.96260   30.29610  -46.20140
 6300.00000   10.89960   61.08000    -999.25    5.32450  107.08580    9.67570   81.45920  -60.02210
 6350.00000   55.55200   91.00640    -999.25    6.53720   16.69300   10.60710   24.82380  -53.54520
 6400.00000  104.43280   76.94390    -999.25    4.87140    9.79670    9.75570   15.64530  -75.13940
 6450.00000  279.75880  122.38860    -999.25    8.07720    2.65820   14.50540    4.69990  -51.07520
 6500.00000  217.21390   92.09470    -999.25    7.53130    3.78030   14.15420    5.86710  -48.36160
 6550.00000   13.20990   82.78910    -999.25   13.14750  108.96980    9.27980  101.32290  -40.25060
 6600.00000   63.59860  100.40620    -999.25    8.25880   18.16180    9.30000   36.22970  -40.69320
 6650.00000    7.64350   80.15050   79.89560   20.00020  209.06830    9.32850  111.16210  -53.63020
 6700.00000   47.19040   64.26930   64.42160    7.32700   20.07680    9.34170   27.43830  -51.70980
 6750.00000   60.71020   68.61250   68.97240    8.15690   15.57770    9.18740   21.13640  -64.80770
 6800.00000  107.19500   53.76780   53.81790    4.73880    8.78050    8.27230   21.58550 -131.85610
 6850.00000   44.40490   76.14030   76.50940    4.63500   22.12090    8.75990   37.88850 -102.54630
 6900.00000   94.23990   54.14370   54.51030    4.60570   10.77940    9.37900   23.02270  -61.81510
 6950.00000   38.74220   60.97900   61.09710    8.23300   32.87790    9.87340   61.14940  -12.06570
 7000.00000  127.06410   59.43380   59.43050    5.60160    7.46750    8.45300   31.36020 -138.18720
 7050.00000   58.00600   59.06750   59.31560    5.52670   19.00320    9.25760   37.32750  -65.85470
 7100.00000  117.74560   65.49750   65.34910    5.69660    8.69440    9.34750   25.20720  -97.99750
 7150.00000    9.80980   51.73180   51.89540    4.47650  315.66450    9.65720  202.32530 -123.05580
 7200.00000   41.73320   52.20170   52.22540    4.57970   27.62140    8.54790   85.53370    -999.25
 7250.00000   18.14050   53.32970   53.36700    4.75760   92.52620    8.90680  133.81090 -170.29390
 7300.00000  217.50170   69.06920   69.31490    9.20920    4.22280    9.30490   11.89590 -104.46920
 7350.00000   56.65260   62.41050   62.53960    8.85190   19.99830    9.09070   30.96140  -35.48920
 7400.00000  115.78190   68.18450   68.59570    8.10980    8.61410    9.25950   14.92140  -20.59520
 7450.00000   22.56770   55.69320   55.76540    6.06470   55.45850    9.28240   63.29870  -16.26380
 7500.00000   46.42930   59.59550   59.77130    5.78100   49.51490    9.46820   64.00490  -55.84840
 7550.00000   38.32990   58.05080   58.16780    5.18950   30.94070    9.19750   60.95090  -94.22220
 7600.00000   35.32680   58.88980   59.11870    7.44510   34.47150    9.05950   43.17900  -12.25490
 7650.00000   20.58760   57.01720   57.20000    6.98570   67.01000    9.19250   71.71820  -10.59780
 7700.00000   14.61220   56.25570   56.48200    6.84880  130.88460    9.27510   99.66990   -0.85070
 7750.00000    9.70770   55.75680   55.88670    6.53250  299.26390    9.10040  170.28240  -12.55020
 7800.00000    9.73190   53.73220   53.82600    6.14010    -999.25    9.20210  140.19740   -6.10700
 7850.00000    9.16980   61.12100   61.34440    7.61710    -999.25    9.07990  151.86060   -7.44730
 7900.00000   69.22560   83.83030   80.02670   14.89800   23.46910    9.21130   53.56340  -24.62890
 7950.00000    8.96090   51.34620   51.44700    5.75770  499.04020    9.65760  199.56750  -69.59810
 8000.00000    7.34240   52.60420   52.71050    5.66670  499.74010   10.16120  176.98390  -96.26630
 8050.00000    7.67210   53.99800   54.06950    6.29490  490.96970   10.62330  203.57820 -105.49840
 8100.00000    7.64720   52.80450   52.88810    5.93280  492.60610   11.73100  158.44720 -124.05230
 8150.00000    8.92350   53.57750   53.73230    6.53640  462.55160   11.66740  146.33250 -124.19150
 8200.00000    8.47570   54.31900   54.64160    6.06090  419.27010   13.55260  185.24470 -145.61440
 8250.00000    8.25280   52.37400   52.53900    6.06090  295.68770   11.48510  156.41040 -137.58240
 8300.00000    7.88180   52.32480   52.13030    6.19410  333.24910   11.77060  174.56150 -138.93720
 8350.00000    6.87860   49.47550   49.90390    6.50450  499.10710   11.54180  166.27920 -122.87940
 8400.00000    7.41760   58.83500   59.69600    6.71070  437.15870   11.18210  221.82710 -105.49860
 8450.00000    6.69100   49.74800   49.98690    6.56890  492.40620   11.05770  176.44640 -128.10930
 8500.00000   10.77260   50.59170   50.57660    6.35530  179.60040   10.30900  130.07840 -118.59670
 8550.00000    9.19390   54.34730   54.52420    6.33630  295.75140   11.75270  132.86510 -109.25460
 8600.00000   21.70840   51.36630   51.45150    6.42270   61.51980    9.62210   90.17940  -95.81360
 8650.00000   11.77780   50.22200   50.29620    6.17410  136.92300    9.47010  120.25420  -84.18750
 8700.00000    9.85640   49.95580   50.09060    7.12970  216.50190    9.40520  169.00100 -110.80030
 8750.00000   15.35710   49.69530   49.82140    6.86890  117.51600   10.75940  100.45890 -118.97240
 8800.00000   10.94320   49.73530   49.69600    7.33530  158.66530   10.35930   81.08360 -102.49760
 8850.00000   12.66490   51.44020   51.55900    7.09440  116.99550    9.19510  123.18680  -34.86790
 8900.00000   14.06960   56.74220   56.67020    8.06570  111.55700    9.28690  102.70270  -34.91330
 8950.00000    9.73630   54.93250   54.81090    7.52690  202.48430    9.23230  163.17000  -40.71050
 9000.00000   10.23420   54.69450   54.78540    7.36730  177.76500    9.26750  126.84660  -46.48580
