~Version ---------------------------------------------------
VERS.      2.0 : CWLS log ASCII Standard -VERSION 2.0
WRAP.       NO : One line per depth step
CREA. 01/05/18 : LAS Creation Date
~Well ------------------------------------------------------
STRT.FT                              1700.0 : START DEPTH
STOP.FT                             14300.0 : STOP DEPTH
STEP.FT                            50.00000 : STEP LENGTH
NULL.                               -999.25 : NULL VALUE
COMP. CANADA CITIES SERVICE PETROLEUM CORP. : COMPANY
WELL.                 CS BRAZ R 11-22-43-13 : WELL
FLD .                                    WC : FIELD
LOC .                                       : LOCATION
CTRY.                                CANADA : COUNTRY
SRVC.                Schlumberger of Canada : SERVICE COMPANY
DATE.                           10-Oct-1970 : LOGDATE
PROV.                               Alberta : PROVINCE
UWI .                      100112204313W500 : UNIQUE WELL ID
SLAT.WGS84                         52.72078 : SURFACE LATITUDE
SLON.WGS84                        -115.8058 : SURFACE LONGITUDE
~Curve Information -----------------------------------------
DEPT    .FT       : Depth Curve
CALDED  .IN       : CALIPER FROM DENSITY LOG [ADJ. TO RESISTIVITY LOG]
CALNED  .IN       : CALIPER FROM SNP LOG [ADJ. TO RESISTIVITY LOG]
CALSED  .IN       : CALIPER FROM SONIC LOG
CALWS   .IN       : CALIPER [CALSED SPL. TO CALDED @ 10242']
CILDED  .MMHO     : CONDUCTIVITY FROM IEL LOG
CONDWS  .MMHO     : CONDUCTIVITY [1000/DRESWS]
DCORWS  .G/C3     : DENSITY CORRECTION [DRHOED]
DENWS   .G/C3     : FORMATION BULK DENSITY [RHOBED]
DPHIDMED.V/V      : DENSITY POROSITY DOLOMITE [M=2.87 F=1.00] FROM DENSITY LOG [ADJ. TO RESISTIVITY LOG]
DPHILSED.V/V      : DENSITY POROSITY LIMESTONE [M=2.71 F=1.00] FROM DENSITY LOG [ADJ. TO RESISTIVITY LOG]
DPHISSED.V/V      : DENSITY POROSITY SANDSTONE [M=2.65 F=1.00] FROM DENSITY LOG [ADJ. TO RESISTIVITY LOG]
DPOLSWS .V/V      : DENSITY POROSITY LIMESTONE [CALC. FROM DENWS, M=2.71 F=1.00]
DRESWS  .OHMM     : DEEP RESISTIVITY [1000/CILDED, IF ILDED< 2.5, ILDED SPL. TO ILDED @ 11263']
DRHOED  .G/C3     : DENSITY CORRECTIONFROM DENSITY LOG [ADJ. TO RESISTIVITY LOG]
DTED    .US/F     : DELTA TIME FROM SONIC LOG
DTWS    .US/F     : COMPRESSIONAL SONIC [DTED]
GRDED   .CU       : GAMMA RAY (GRD SPL @ 10670'-11252' TO GRD_1) FROM DENSITY LOG [ADJ. TO RESISTIVITY LOG]
GRN1ED  .GAPI     : GAMMA RAY FROM SNP LOG [ADJ. TO RESISTIVITY LOG]
GRNED   .Unknown  : GAMMA RAY FROM GRN LOG
GRSED   .GAPI     : GAMMA RAY (GRS SPL @10670'-10750' TO GRS_1) FROM SONIC LOG
GRWS    .GAPI     : GAMMA RAY [GRSED SPL @ 14288' TO GRDED]
ILDED   .OHMM     : DEEP INDUCTION LOG FROM DIL LOG
ILMED   .OHMM     : MEDIUM INDUCTION LOG FROM DIL LOG
LL8ED   .OHMM     : LATEROLOG 8 RESISTIVITY FROM DIL LOG
MRESWS  .OHMM     : MEDIUM RESISTIVITY [ILMED]
NEUTED  .NAPI     : NEUTRON FROM GRN LOG [ADJ. TO RESISTIVITY LOG]
NEUTWS  .NAPI     : NEUTRON [NEUTED]
NPOLSWS .V/V      : NEUTRON POROSITY LIMESTONE [SNPLSED]
RHOBED  .G/C3     : BULK DENSITYFROM DENSITY LOG [ADJ. TO RESISTIVITY LOG]
SNED    .OHMM     : SHORT NORMAL FROM IEL LOG
SNPLSED .V/V      : SIDEWALL NEUTRON POROSITY LIMESTONE FROM SNP LOG [ADJ. TO RESISTIVITY LOG]
SPHILSED.V/V      : SONIC POROSITY LIMESTONE [DTM=47.6, DTF=189] FROM SNP LOG
SPOLSWS .V/V      : SONIC POROSITY LIMESTONE [SPHILSED]
SPRED   .MV       : SPONTANEOUS POTENTIAL FROM IEL LOG <11250'> FROM DIL LOG
SPWS    .MV       : SPONTANEOUS POTENTIAL [BASELINE 0 MV, SPRED]
SRESWS  .OHMM     : SHALLOW RESISTIVITY [SNED SPL. TO LL8ED @ 12244']
~Params ----------------------------------------------------
PD  .                     GL : PERMANENT DATUM
EPD .FT                 3657 : ELEVATION PERMANENT DATUM
LMF .                     KB : LOG MEASURED FROM
DAPD.FT                 14.5 : FEET ABOVE PERMANENT DATUM
EKB .FT               3671.5 : KELLY BUSHING
EGL .FT                 3657 : GROUND LEVEL
DATE.               10/10/70 : RUN DATE
RUN .                      1 : RUN NUMBER
DD  .FT                14316 : DEPTH DRILLER
DL  .FT                14316 : DEPTH LOGGER
BLI .FT                14312 : BOTTOM LOG INTERVAL
TLI .FT                11258 : TOP LOG INTERVAL
CBD .FT                11258 : CASING BOTTOM DRILLER
CBL .FT                11258 : CASING BOTTOM LOGGER
BS  .IN                    6 : BIT SIZE
BSD .FT                14316 : BIT SIZE AT DEPTH
DFT .               GEL CHEM : DRILLING FLUID TYPE
DFD .                    9.2 : DRILLING FLUID DENSITY
DFV .                     51 : DRILLING FLUID VISCOSITY
DFPH.                   10.5 : DRILLING FLUID PH
DFL .                    8.8 : DRILLING FLUID LOSS
MSS .               FLOWLINE : MUD SAMPLE SOURCE
RMS .OHMM               1.22 : RESISTIVITY MUD SAMPLE
MST .DEGF                 98 : MUD SAMPLE TEMPERATURE
RMF .OHMM               1.23 : RESISTIVITY MUD FILTRATE SAMPLE
MFST.DEGF                 79 : MUD FILTRATE SAMPLE TEMPERATURE
RMB .OHMM                0.3 : RESISTIVITY MUD AT BHT
TCS .HRS                 3.5 : TIME CIRCULATED STOPPED
LUN .                   7004 : LOGGING UNIT NUMBER
LUL .                     RD : LOGGING UNIT LOCATION
ENGI.                  PERRY : RECORDING ENGINEER
WITN.       SHIER MENEGHETTI : WITNESSED BY
CLNT.                A2DTECH : CLIENT CODE
ORIG.            2" 5" PRINT : ORIGIN OF DATA
UWI .       100112204313W500 : UNIQUE WELL ID
DICO. A2D Technologies, Inc. : DIGITIZING COMPANY
~Other -----------------------------------------------------
~ASCII -----------------------------------------------------
# ...
 11700.00000    6.53460    6.68150    6.21060    6.53460    -999.25   11.27360    0.11990    2.78740    -999.25   -0.04890    -999.25   -0.04520   88.74660    0.11990   55.21020   55.21020    -999.25   62.72670    -999.25   30.31600   30.31600   88.74660  118.30070  251.04270  118.30070    -999.25    -999.25    0.02740    2.78740    -999.25    0.02740    0.05570    0.05570  -85.64070 -112.90510  251.04270
 11750.00000    6.59720    6.67210    6.22590    6.59720    -999.25   33.81300    0.17670    2.84430    -999.25   -0.09680    -999.25   -0.07850   29.57440    0.17670   55.40200   55.40200    -999.25  113.95810    -999.25   83.50410   83.50410   29.57440   26.87870   37.28840   26.87870    -999.25    -999.25    0.03810    2.84430    -999.25    0.03810    0.05730    0.05730  -76.30370 -110.86620   37.28840
 11800.00000    8.22350    8.28160    6.44940    8.22350    -999.25    1.34950    -999.25    2.66400    -999.25    0.02320    -999.25    0.02690  740.99880    -999.25   49.43010   49.43010    -999.25   39.12030    -999.25   14.15330   14.15330  740.99880 1613.37670 1548.31100 1613.37670    -999.25    -999.25    0.02010    2.66400    -999.25    0.02010    0.01340    0.01340  -65.34680 -107.24410 1548.31100
 11850.00000    9.49480    9.55610    6.67850    9.49480    -999.25    3.99090    -999.25    2.73950    -999.25   -0.02650    -999.25   -0.01730  250.56710    -999.25   50.28120   50.28120    -999.25   33.69040    -999.25    7.64290    7.64290  250.56710  160.97900 1073.59590  160.97900    -999.25    -999.25    0.02750    2.73950    -999.25    0.02750    0.01750    0.01750 -117.39500 -166.62720 1073.59590
 11900.00000    9.66900    9.08740    6.60390    9.66900    -999.25   22.88490    0.24050    2.54770    -999.25    0.08660    -999.25    0.09490   43.69690    0.24050   58.38470   58.38470    -999.25   43.68440    -999.25   10.81450   10.81450   43.69690   89.34320   92.32190   89.34320    -999.25    -999.25    0.06800    2.54770    -999.25    0.06800    0.08410    0.08410  -36.23130  -92.79830   92.32190
 11950.00000    9.52490    9.48030    6.36450    9.52490    -999.25    7.01290    -999.25    2.52190    -999.25    0.07560    -999.25    0.11000  142.60620    -999.25   50.27970   50.27970    -999.25   32.38430    -999.25    8.13230    8.13230  142.60620  118.98760  360.31000  118.98760    -999.25    -999.25    0.04970    2.52190    -999.25    0.04970    0.02340    0.02340  -62.34450 -126.28300  360.31000
 12000.00000    6.87030    6.95100    6.38940    6.87030    -999.25    0.57190    0.11820    3.05270    -999.25   -0.10000    -999.25   -0.20040 1748.65990    0.11820   48.73050   48.73050    -999.25   29.76070    -999.25    5.81880    5.81880 1748.65990 1879.00710 1619.58510 1879.00710    -999.25    -999.25    0.00770    3.05270    -999.25    0.00770    0.01030    0.01030  -55.34690 -126.58350 1619.58510
 12050.00000    9.15360    8.96790    6.52290    9.15360    -999.25    2.02390    -999.25    2.70130    -999.25    0.00940    -999.25    0.00510  494.08960    -999.25   49.95730   49.95730    -999.25   24.93710    -999.25    8.00410    8.00410  494.08960   91.03170  112.18220   91.03170    -999.25    -999.25    0.12360    2.70130    -999.25    0.12360    0.01490    0.01490  -26.85490 -105.42640  112.18220
 12100.00000    8.62130    8.80640    6.16030    8.62130    -999.25    5.01810    0.24890    2.70000    -999.25    0.03060    -999.25    0.00580  199.27760    0.24890   48.44420   48.44420    -999.25   27.00680    -999.25    6.42230    6.42230  199.27760  237.37960  592.53910  237.37960    -999.25    -999.25    0.07740    2.70000    -999.25    0.07740    0.00660    0.00660  -43.29870 -129.20500  592.53910
 12150.00000    6.77610    6.93310    6.23520    6.77610    -999.25   15.46180    0.12560    2.84490    -999.25   -0.07810    -999.25   -0.07890   64.67560    0.12560   49.60170   49.60170  163.04980   24.13720    -999.25    5.30320    5.30320   64.67560   72.80660  265.53480   72.80660    -999.25    -999.25    0.06600    2.84490    -999.25    0.06600    0.01610    0.01610  -53.06470 -146.30580  265.53480
 12200.00000    6.90550    6.90730    6.13950    6.90550    -999.25   12.03750    0.22810    2.89180    -999.25   -0.10000    -999.25   -0.10630   83.07480    0.22810   47.58690   47.58690  141.00690   19.27080    -999.25    5.11430    5.11430   83.07480  103.85160  647.73050  103.85160    -999.25    -999.25    0.04450    2.89180    -999.25    0.04450    0.00240    0.00240   34.01630  -66.59630  647.73050
 12250.00000    6.56060    6.57370    6.18280    6.56060    -999.25   17.27350    0.11980    2.83730    -999.25   -0.08150    -999.25   -0.07440   57.89230    0.11980   48.03940   48.03940  132.04590   16.74710    -999.25    4.03880    4.03880   57.89230  105.67540 1557.71830  105.67540    -999.25    -999.25    0.05020    2.83730    -999.25    0.05020    0.00370    0.00370  -32.76190 -140.67260 1557.71830
 12300.00000    6.66840    6.98220    6.34720    6.66840    -999.25   13.08750    0.20570    2.78570    -999.25   -0.04940    -999.25   -0.04430   76.40850    0.20570   47.78960   47.78960  138.38260   21.70310    -999.25    8.19840    8.19840   76.40850 1688.19080  543.70610 1688.19080    -999.25    -999.25    0.06020    2.78570    -999.25    0.06020    0.00280    0.00280 -100.39320 -215.63880  543.70610
 12350.00000    7.44840    7.90980    6.34180    7.44840    -999.25    3.48840    0.25050    2.55850    -999.25    0.08470    -999.25    0.08860  286.66570    0.25050   47.07070   47.07070  134.45850   23.68760    -999.25    9.79190    9.79190  286.66570 2046.77100  393.44020 2046.77100    -999.25    -999.25    0.05580    2.55850    -999.25    0.05580   -0.00250   -0.00250 -105.08780 -227.66820  393.44020
 12400.00000    9.16660    9.11170    6.46800    9.16660    -999.25    3.94220    0.24980    2.49760    -999.25    0.11850    -999.25    0.12420  253.66530    0.24980   47.24120   47.24120  127.15680   17.45630    -999.25    9.02380    9.02380  253.66530 1862.94490 1504.02540 1862.94490    -999.25    -999.25    0.06420    2.49760    -999.25    0.06420    0.00470    0.00470 -114.53280 -244.44800 1504.02540
 12450.00000    7.05580    7.04570    6.39920    7.05580    -999.25    0.55080    0.15570    2.90630    -999.25   -0.10000    -999.25   -0.11480 1818.23040    0.15570   48.58270   48.58270  116.84110   14.59620    -999.25   10.74390   10.74390 1818.23040 1789.72520 1513.52010 1789.72520    -999.25    -999.25    0.01680    2.90630    -999.25    0.01680    0.00910    0.00910 -158.11920 -295.40590 1513.52010
 12500.00000    9.20990    9.72430    6.31760    9.20990    -999.25    5.05580    0.25060    2.50160    -999.25    0.12510    -999.25    0.12190  197.79190    0.25060   47.97400   47.97400  103.47660   17.75970    -999.25   12.64480   12.64480  197.79190   84.62260 1485.35470   84.62260    -999.25    -999.25    0.11830    2.50160    -999.25    0.11830    0.00580    0.00580 -173.30950 -317.89440 1485.35470
 12550.00000    6.51480    6.79540    6.27760    6.51480    -999.25    3.58440    0.07430    3.00730    -999.25   -0.10000    -999.25   -0.17390  278.98690    0.07430   47.94410   47.94410  108.81210   19.77570    -999.25   12.80060   12.80060  278.98690  550.63530 1560.34840  550.63530    -999.25    -999.25    0.00140    3.00730    -999.25    0.00140    0.00360    0.00360  -93.71020 -245.62990 1560.34840
 12600.00000    6.46700    6.78530    6.22710    6.46700    -999.25    6.60210    0.06640    2.94400    -999.25   -0.10000    -999.25   -0.13680  151.46800    0.06640   48.14520   48.14520  105.80180   22.45110    -999.25   14.36600   14.36600  151.46800 1734.01460 1276.46950 1734.01460    -999.25    -999.25    0.02930    2.94400    -999.25    0.02930   -0.01050   -0.01050  -28.44340 -187.69790 1276.46950
 12650.00000    7.00030    7.37880    6.17330    7.00030    -999.25    6.66220    0.25070    2.72280    -999.25   -0.01120    -999.25   -0.00750  150.10010    0.25070   45.90030   45.90030   95.52680   24.40110    -999.25   20.71230   20.71230  150.10010  123.92530 1523.24580  123.92530    -999.25    -999.25    0.05300    2.72280    -999.25    0.05300   -0.01060   -0.01060  -91.61930 -258.20860 1523.24580
