~Version ---------------------------------------------------
VERS. 2.0 : CWLS log ASCII Standard -VERSION 2.0
WRAP.  NO : ONE LINE PER DEPTH STEP
~Well ------------------------------------------------------
STRT.F                         1200.0 : START DEPTH
STOP.F                        12200.0 : STOP DEPTH
STEP.F                       50.00000 : STEP LENGTH
NULL.                         -999.25 : NULL VALUE
COMP.                SULPETRO LIMITED : COMPANY
WELL. CAN DELHI ET AL WOLF 6-10-52-16 : WELL
FLD .                                 : FIELD
LOC .                                 : LOCATION
CTRY.                          CANADA : COUNTRY
SRVC.                    Schlumberger : SERVICE COMPANY
DATE.                     19-Apr-1969 : LOGDATE
PROV.                         Alberta : PROVINCE
UWI .                100061005216W500 : UNIQUE WELL ID
SLAT.WGS84              53.4730048794 : SURFACE LATITUDE
SLON.WGS84            -116.2792429971 : SURFACE LONGITUDE
~Curve Information -----------------------------------------
DEPT.F    0   1   0  0 : 1 MEASURED DEPTH
LL8 .OHMM 07 220 08 00 : LATEROLOG 8
SPR .MV   07 010 01 00 : SPONTANEOUS POTENTIAL FROM RESISTIVITY LOG
ILD .OHMM 07 120 46 00 : INDUCTION DEEP RESISTIVITY
ILM .OHMM 07 120 44 00 : INDUCTION MEDIUM RESISTIVITY
GRS .GAPI 60 310 01 00 : GAMMA RAY FROM SONIC LOG
DT  .US/F 60 500 00 00 : DELTA-T (INTERVAL TRANSIT TIME)
CALS.IN   60 280 50 00 : CALIPER FROM SONIC LOG
~Params ----------------------------------------------------
PD  .                     GL : PERMANENT DATUM
EPD .FT                 3113 : ELEVATION PERMANENT DATUM
LMF .                     KB : LOG MEASURED FROM
DAPD.FT                   14 : FEET ABOVE PERMANENT DATUM
EKB .FT                 3127 : KELLY BUSHING
EGL .FT                 3113 : GROUND LEVEL
DATE.               04/19/69 : RUN DATE
RUN .                      1 : RUN NUMBER
DD  .FT                12226 : DEPTH DRILLER
DL  .FT                12210 : DEPTH LOGGER
BLI .FT                12206 : BOTTOM LOG INTERVAL
TLI .FT                 1240 : TOP LOG INTERVAL
CBD .FT                 1240 : CASING BOTTOM DRILLER
CBL .FT                 1240 : CASING BOTTOM LOGGER
BS  .IN                 8.75 : BIT SIZE
BSD .FT                12226 : BIT SIZE AT DEPTH
DFT .                    GEL : DRILLING FLUID TYPE
DFD .                    9.3 : DRILLING FLUID DENSITY
DFV .                    118 : DRILLING FLUID VISCOSITY
DFPH.                     11 : DRILLING FLUID PH
DFL .                    6.2 : DRILLING FLUID LOSS
MSS .    CIRCULATED FLOWLINE : MUD SAMPLE SOURCE
RMS .OHMM               1.35 : RESISTIVITY MUD SAMPLE
MST .DEGF                 59 : MUD SAMPLE TEMPERATURE
RMF .OHMM               0.95 : RESISTIVITY MUD FILTRATE SAMPLE
MFST.DEGF                 61 : MUD FILTRATE SAMPLE TEMPERATURE
RMC .OHMM               1.16 : RESISTIVITY MUD CAKE
MCST.DEGF                 61 : MUD CAKE SAMPLE TEMPERATURE
TCS .HRS                 330 : TIME CIRCULATED STOPPED
LUN .                   7501 : LOGGING UNIT NUMBER
LUL .                    EDM : LOGGING UNIT LOCATION
ENGI.               CHADDOCK : RECORDING ENGINEER
WITN.                   HALL : WITNESSED BY
CLNT.                A2DTECH : CLIENT CODE
ORIG.            2" 5" PRINT : ORIGIN OF DATA
UWI .       100061005216W500 : UNIQUE WELL ID
DICO. A2D Technologies, Inc. : DIGITIZING COMPANY
~Other -----------------------------------------------------
~ASCII -----------------------------------------------------
# ...
 5700.00000   20.62470  -52.85880   16.85170   17.86030   98.98660   80.71700   10.56490
 5750.00000   14.62390  -52.95330   13.00860   13.54810   86.60120   79.63250    9.58580
 5800.00000   11.81440  -53.85090   11.21300   11.57270   95.22860   94.53330    9.12130
 5850.00000    7.80860  -54.53760    8.79450    8.46340   95.20080   80.95750    9.29280
 5900.00000    8.10880  -54.47100    9.56020    9.02370   88.89010   80.09630    8.97510
 5950.00000   10.23710  -54.04790   11.45300   10.87440   93.79860   76.11090   10.24730
 6000.00000    8.63360  -53.56290   10.02060    9.39840   84.86080  150.07460   12.10380
 6050.00000    9.27960  -52.93940   11.03470   10.49720   85.73070   79.67410   10.16690
 6100.00000   10.61450  -51.64970    9.84790   10.34950   95.46580   82.40890   10.12970
 6150.00000    9.60780  -52.15010    8.85010    9.29490   99.84450   80.15640    9.30200
 6200.00000    8.97130  -50.91390    8.84190    8.91040   91.83840   78.99830   11.14760
 6250.00000    9.88680  -50.38310   11.07240   10.43290   93.85210   77.95790    9.07700
 6300.00000   12.16170  -50.11080   13.27010   12.61690   86.29550   76.10610   11.55450
 6350.00000   21.63420  -51.24500   19.26300   19.65160   66.17900   69.90490    9.46770
 6400.00000   22.08640  -50.03050   17.92700   20.21930   79.48980   69.84660   10.04880
 6450.00000   13.12270  -49.49660   14.60640   14.16790   94.07500   75.91890    9.57780
 6500.00000   13.29000  -49.13830   14.11330   13.72100   94.95110   77.35200   11.10430
 6550.00000   10.25480  -48.84330   11.34240   10.96800  103.83960   79.00030   11.00500
 6600.00000   13.05630  -48.44610   13.77680   14.00220   87.95610   80.23980   11.26010
 6650.00000   11.25110  -47.85140   11.90780   12.29370   99.54290   79.68360   10.69720
 6700.00000   10.26010  -47.63210   10.71430   11.06720  101.87050   86.70580   13.08820
 6750.00000   23.10120  -47.95010   18.37770   21.88830  104.80780   80.65850   10.06320
 6800.00000   15.42820  -47.55170   13.98080   14.62130  108.11690  108.89340    9.81540
 6850.00000   18.53170  -47.77940   14.15000   15.99240  104.65940  113.16530   10.01670
 6900.00000   19.68990  -47.11450   15.21370   16.84890  107.63060   84.18630    9.70900
 6950.00000   21.26060  -46.21760   15.41430   17.65970  104.61140   85.83730    9.30720
 7000.00000   22.19450  -45.96850   16.78170   17.52100   90.47290   82.12080    9.24890
 7050.00000   25.23890  -45.81310   15.85670   21.97240   81.56470   75.34130    9.72330
 7100.00000   17.53310  -45.13370   18.20360   20.94540  103.95920   93.91570   11.95890
 7150.00000   12.65120  -46.75190    9.95860   11.12530   79.78500   93.08960   11.12200
 7200.00000   12.35890  -46.59440   11.22810   10.83860  100.96620   85.52960    9.87290
 7250.00000    8.46050  -45.41800    8.08100    8.50970   91.69310   89.05890   11.87650
 7300.00000   11.72850  -46.77520   10.34140   10.76900   88.17010   88.15150   12.03340
 7350.00000    9.66640  -94.00850    8.84550    9.33650   99.78830   81.88500   11.12760
 7400.00000    8.04510  -93.12030    7.16910    7.43670  101.62840   82.64920   12.50220
 7450.00000    4.70590  -91.91350    5.19740    5.06720   77.27760   91.01900   12.53450
 7500.00000    5.33880  -93.98210    5.15800    4.75550   87.25440   92.13730   12.44530
 7550.00000    9.75290  -94.84140    8.84830    8.34820   77.82460   82.38080   11.31920
 7600.00000   21.25600  -95.56880   18.93920   20.65270   83.26940   70.97230    9.76060
 7650.00000    8.79280  -96.98660    8.17430    8.35430   58.53500   66.38430   10.16500
 7700.00000    9.79080  -92.94690   11.01600    9.07810   77.87170   78.65540    9.76040
 7750.00000   21.88420  -98.98210   20.52320   27.21820   56.18440   68.12160    9.58170
 7800.00000   18.29760  -94.95760   21.62550   16.23810   76.19510   77.32290   10.33470
 7850.00000   43.66210  -93.91070   19.76270   27.65390   62.95130   64.64600    9.00310
 7900.00000    7.90960  -94.87730    9.58910    6.56360   73.62580  100.15420   10.57710
 7950.00000   17.32410  -99.38390   15.29390   16.36670   57.65130   67.19720    8.82210
 8000.00000   23.87090  -97.40800   20.10960   21.75010   65.27040   66.10760    9.36570
 8050.00000   33.20990  -97.98150   25.47170   27.19920   48.02700   62.81730    9.31890
 8100.00000   21.48710  -86.29990   18.14650   19.92810   70.38860   69.68780    9.37530
 8150.00000   88.70440  -99.64830   50.23610   78.82060   46.74170   64.55100    8.74630
 8200.00000   25.49190  -85.25410   18.49890   17.12980   66.82300   72.02380    8.94150
 8250.00000   23.24020  -85.51900   17.55860   20.03900   77.93240  138.55150    9.49730
 8300.00000   18.43250  -78.97160   12.18990   12.88230   70.05350   82.74370   10.96450
 8350.00000   27.89110  -81.70880   16.85290   23.95960   70.30910   69.33830   10.02540
 8400.00000   25.06790  -93.93780   20.39600   25.65640   70.29640   66.35030    9.89930
 8450.00000   37.58460 -100.68460   28.22220   30.15720   87.48600   66.56640    8.94330
 8500.00000   56.13060 -104.34010   30.04830   34.69260   70.26820   69.25740    9.50780
 8550.00000   29.39730 -104.82210   22.85790   23.72340   51.21950   71.97260    9.33070
 8600.00000   32.69920  -98.38010   19.18330   26.70150   67.38900   79.33170    9.56660
 8650.00000  771.84080 -164.24180   56.72600   84.12260   20.48360   56.04340    8.68150
 8700.00000  317.62100 -175.02440  118.77330  110.83980   14.02380   55.60840    8.75890
 8750.00000 1124.94800 -144.88810  112.60130  137.34270   45.10030   57.86060    8.59280
 8800.00000   60.49490 -192.12300   16.15830   26.04600   34.59370   56.92060    8.70520
 8850.00000   58.64820 -130.15420   40.01820   34.78530   26.25790   53.66230    9.44880
 8900.00000  205.84210 -128.93540   68.44790   87.52710   26.20980   52.29590    8.96380
 8950.00000 1158.82410 -130.69610   51.26500   72.86260    7.83620   51.47260    9.42370
 9000.00000 1145.49540 -173.33400  189.90420  157.12270    7.54100   48.45630    9.51640
 9050.00000 1121.95920 -180.19060  324.78040  303.23450   14.10830   50.28120    9.02130
 9100.00000  128.22260 -128.52560   53.53320   70.43770   61.76110   53.87640    8.98530
 9150.00000  150.57890 -125.54020   65.69040   88.07470   61.77700   51.70430    8.67080
 9200.00000   41.30180  -86.14450   13.57560   34.96240   57.94020   62.90400    8.95580
 9250.00000   89.36580  -91.87040   49.27100   55.02020   55.23380   56.97970    9.35880
 9300.00000 1157.20870 -113.60430  118.94310  243.34010   11.54680   51.67750    9.07770
 9350.00000  180.01340 -103.68820   64.68850   75.03140   20.89800   53.53310    8.91760
 9400.00000   74.83060  -89.18710   45.19780   53.47040   43.12700   56.68520    8.82690
 9450.00000   88.07450  -91.10480   45.95170   55.25270   40.05290   56.67900    8.85050
 9500.00000  110.81160  -69.04480   58.34570   76.41240   46.90570   56.66670    8.76930
 9550.00000   49.90900  -78.58050   32.29220   35.13520   52.96760   60.16480    9.11860
 9600.00000 1135.96410 -100.40290  166.08300  344.60140   73.09370   58.90580    8.75360
 9650.00000 1147.58630 -123.01350  183.40430  291.36730   28.05610   49.67310    9.17100
 9700.00000 1119.61000 -148.70180  265.12150  642.32390   11.17260   49.98990    9.46400
 9750.00000 1119.27080 -186.41170  318.95580  677.50250   13.97930   50.47690    9.36140
 9800.00000 1078.88930 -194.65290  491.50440 1806.37660    6.51920   48.96510    9.47530
 9850.00000   88.64970 -201.16860   10.78470   13.77120    7.45980   52.07290    8.80500
 9900.00000 1118.45630    -999.25  366.27780  894.60840   11.11220   51.35500    9.39790
 9950.00000 1135.25520 -184.96270  303.81240  809.88600   12.43120   49.83300    9.33830
 10000.00000  257.01650 -163.17970  118.86010  106.44570    6.53230   50.10190    9.04200
 10050.00000 1127.93420 -163.37140  121.15230  366.13020   10.09470   50.86040    9.48080
 10100.00000 1156.46510 -161.16660  123.03860  122.66940   12.91460   51.15490    9.65590
 10150.00000 1073.88010 -128.09410  115.67410  331.89660   13.40200   50.97440   10.12090
