~Version ---------------------------------------------------
VERS. 2.0 : CWLS log ASCII Standard -VERSION 2.0
WRAP.  NO : ONE LINE PER DEPTH STEP
~Well ------------------------------------------------------
STRT.M                               380.5 : START DEPTH
STOP.M                              2549.3 : STOP DEPTH
STEP.M                             0.20000 : STEP LENGTH
NULL.                              -999.25 : NULL VALUE
COMP.                DEVON ARL CORPORATION : COMPANY
WELL. DEVON ARL ETAL 7D GVILLEE 7-25-76-23 : WELL
FLD .                                      : FIELD
LOC .                                      : LOCATION
CTRY.                               CANADA : COUNTRY
SRVC.                         Schlumberger : SERVICE COMPANY
DATE.                          06-Mar-2003 : LOGDATE
PROV.                              Alberta : PROVINCE
UWI .                     100072507623W500 : UNIQUE WELL ID
SLAT.WGS84                        55.61368 : SURFACE LATITUDE
SLON.WGS84                       -117.4224 : SURFACE LONGITUDE
~Curve Information -----------------------------------------
DEPT    .M    0   1   0  0 : 1 MEASURED DEPTH
GRS     .GAPI 60 310 01 00 : GAMMA RAY FROM SONIC LOG
HDS     .MM   60 280 00 00 : HOLE DIAMETER FROM SONIC
DT      .US/M 60 500 00 00 : DELTA-T (INTERVAL TRANSIT TIME)
HCALS   .MM   60 280 50 00 : HRCC CALIPER CALIBRATED FROM SONIC LOG
TENS    .N    60 635 00 00 : TENSION FROM SONIC LOG
GRR     .GAPI 06 310 01 00 : GAMMA RAY FROM RESISTIVITY LOG
RXOZ    .OHMM 06 270 04 00 : INVADED FORMATION RESISTIVITY FILTERED AT 18 INCHES
TENR    .N    06 635 00 00 : TENSION FROM RESISTIVITY LOG
SPR     .MV   06 010 01 00 : SPONTANEOUS POTENTIAL FROM RESISTIVITY LOG
AHF30   .OHMM 06 120 30 00 : ARRAY INDUCTION FOUR FOOT RESISTIVITY A30
AHF20   .OHMM 06 120 20 00 : ARRAY INDUCTION FOUR FOOT RESISTIVITY A20
AHF60   .OHMM 06 120 60 00 : ARRAY INDUCTION FOUR FOOT RESISTIVITY A60
GRD     .GAPI 45 310 01 00 : GAMMA RAY FROM DENSITY LOG
NPOR_SAN.DEC  42 890 03 00 : ENHANCED THERMAL NEUTRON POROSITY (SANDSTONE)
HDD     .MM   45 280 60 00 : HOLE DIAMETER
HCALD   .MM   45 280 60 00 : HRCC CALIPER CALIBRATED FROM DENSITY LOG
DPHI_SAN.DEC  45 890 12 00 : DENSITY POROSITY (MATRIX SANDSTONE)
HDRA    .K/M3 45 356 01 00 : HRDD SPINE AND RIBS DENSITY CORRECTION
PEFZ    .B/E  45 358 01 00 : HRDD STANDARD RESOLUTION FORMATION PHOTOELECTRIC FACTOR
TEND    .N    45 635 00 00 : TENSION FROM DENSITY LOG
NPOR_LS .DEC  42 890 01 00 : NEUTRON POROSITY LIMESTONE
DPHI_LS .DEC  45 890 10 00 : DENSITY POROSITY LIMESTONE
RHOZ    .K/M3 45 350 01 00 : HRDD STANDARD RESOLUTION FORMATION DENSITY
~Params ----------------------------------------------------
PD  .                                  GL : PERMANENT DATUM
EPD .M                              551.9 : ELEVATION PERMANENT DATUM
LMF .                                  KB : LOG MEASURED FROM
DAPD.M                                4.7 : FEET ABOVE PERMANENT DATUM
DMF .                                  KB : DRILLING MEASURED FROM
EKB .M                              556.6 : KELLY BUSHING
EDF .M                              556.3 : DRILLING FLOOR
EGL .M                              551.9 : GROUND LEVEL
DATE.                            03/06/03 : RUN DATE
RUN .                                   1 : RUN NUMBER
DD  .M                               2545 : DEPTH DRILLER
DL  .M                               2544 : DEPTH LOGGER
BLI .M                             2538.3 : BOTTOM LOG INTERVAL
TLI .M                                421 : TOP LOG INTERVAL
CS  .MM                             219.1 : CASING SIZE
CBD .M                                421 : CASING BOTTOM DRILLER
CBL .M                              420.5 : CASING BOTTOM LOGGER
BS  .MM                               200 : BIT SIZE
BSD .M                               2545 : BIT SIZE AT DEPTH
DFT .                            GEL CHEM : DRILLING FLUID TYPE
DFD .                                1050 : DRILLING FLUID DENSITY
DFV .                                  83 : DRILLING FLUID VISCOSITY
DFPH.                                10.5 : DRILLING FLUID PH
DFL .                                   7 : DRILLING FLUID LOSS
MSS .                            FLOWLINE : MUD SAMPLE SOURCE
RMS .OHMM                            1.27 : RESISTIVITY MUD SAMPLE
MST .DEGC                              17 : MUD SAMPLE TEMPERATURE
RMF .OHMM                            0.98 : RESISTIVITY MUD FILTRATE SAMPLE
MFST.DEGC                              18 : MUD FILTRATE SAMPLE TEMPERATURE
RMC .OHMM                            1.55 : RESISTIVITY MUD CAKE
MCST.DEGC                              18 : MUD CAKE SAMPLE TEMPERATURE
MFSS.                            MEASURED : MUD FILTRATE SAMPLE SOURCE
MCSS.                             MEAURED : MUD CAKE SAMPLE SOURCE
RMB .OHMM                           0.566 : RESISTIVITY MUD AT BHT
TCS .HRS                              640 : TIME CIRCULATED STOPPED
TLAB.HRS                             1645 : TIME LOGGER AT BOTTOM
LUN .                                2133 : LOGGING UNIT NUMBER
LUL .                      GRANDE PRAIRIE : LOGGING UNIT LOCATION
ENGI.                            STIRLING : RECORDING ENGINEER
WITN.                              MCLEAY : WITNESSED BY
CLNT.                             A2DTECH : CLIENT CODE
ORIG. 6.5"/100M 16.5"/100M 33"/100M PRINT : ORIGIN OF DATA
UWI .                    100072507623W500 : UNIQUE WELL ID
DICO.              A2D Technologies, Inc. : DIGITIZING COMPANY
~Other -----------------------------------------------------
~ASCII -----------------------------------------------------
# ...
 2396.50000  130.38320  211.76950  264.99490  222.99500 20120.57230  130.31910    6.61350 20261.66600  -51.83510    8.31210    8.49750    8.17960  129.88420    -999.25  212.39010  222.81320    -999.25  137.65040    3.63000 20148.04300    0.26020    0.05490 2592.13110
 2396.70000  131.96090  206.42540  261.49390  213.95520 20127.20510  131.71930    8.17790 20265.16020  -49.89190    8.36340    8.54760    8.20410  131.84780    -999.25  208.12990  212.90350    -999.25  118.95900    3.75830 20192.34960    0.24490    0.04150 2616.72340
 2396.90000  134.64540  205.95420  260.94780  215.81620 20133.83790  134.38820   10.42970 20265.96880  -47.87980    8.40530    8.59040    8.20420  134.01630    -999.25  204.46700  214.87190    -999.25  109.51140    3.87640 20191.22850    0.24130    0.03880 2644.38960
 2397.10000  134.87150  209.48540  262.00850  219.47900 20140.46880  135.13590    8.50170 20265.83980  -45.39880    8.44740    8.63340    8.20420  134.06770    -999.25  206.32000  215.31930    -999.25  105.06300    3.90530 20192.17190    0.26420    0.05240 2647.40410
 2397.30000  133.32670  213.83330  262.84040  223.59650 20147.10160  133.16820    7.61610 20265.71290  -43.84630    8.48970    8.67670    8.20420  133.20830    -999.25  210.71460  220.67280    -999.25   96.66130    3.82630 20198.33400    0.28700    0.07510 2614.04710
 2397.50000  130.09360  213.23030  261.79360  223.72830 20153.73440  130.39320    6.43490 20265.58590  -42.57210    8.53230    8.73390    8.27400  130.04400    -999.25  213.14430  224.44010    -999.25   84.97380    3.79970 20240.27540    0.29160    0.08380 2572.57840
 2397.70000  130.46300  204.87830  258.83440  217.07940 20160.36520  130.28960    6.58150 20265.45700  -40.26330    9.14600    9.74170    8.92590  130.19000    -999.25  211.34820  221.04440    -999.25   78.35760    3.85920 20257.00980    0.26120    0.06700 2569.23680
 2397.90000  125.75460  198.39060  251.35150  205.29540 20167.68750  126.40580    9.01460 20265.33010  -35.93950   11.43770   11.92920   10.90650  126.89640    -999.25  203.05080  209.38030    -999.25   78.39350    4.00070 20267.26370    0.22630    0.03900 2607.79420
 2398.10000  108.12760  196.17380  234.73570  200.48460 20190.65430  108.50520   12.80440 20265.20310  -32.83330   14.54070   15.37690   13.60900  108.69410    -999.25  197.33210  202.80910    -999.25   74.35480    4.11040 20277.51950    0.18830    0.02030 2649.90040
 2398.30000   88.93720  195.92250  213.87400  200.10790 20213.62110   87.09130   18.27330 20265.07620  -30.51190   18.05340   18.99230   16.98120   89.05830    -999.25  195.43000  202.43650    -999.25   53.35860    4.15010 20287.77340    0.11100    0.01070 2682.99830
 2398.50000   74.86360  195.97740  200.44480  200.06740 20236.58980   74.19420   33.35430 20264.94730  -29.06700   21.59800   22.70020   20.37310   74.88490    -999.25  195.21420  199.57820    -999.25   10.17010    4.19040 20298.02730    0.09580    0.00370 2693.67550
 2398.70000   68.67200  196.02250  199.83780  200.02680 20259.55660   68.76110   59.11560 20301.25000  -27.74600   23.38600   23.79460   22.28640   68.34790    -999.25  195.35890  198.98470    -999.25   -1.02950    4.25020 20372.07420    0.11080    0.00160 2707.66850
 2398.90000   70.07990  195.91340  204.85870  199.98630 20291.24610   71.16050   44.89930 20567.01950  -26.58580   22.49620   23.10110   21.77600   70.67770    -999.25  195.40110  198.99470    -999.25    0.72840    4.17620 20496.26170    0.12840    0.00470 2704.86520
 2399.10000   76.03490  195.94860  209.29560  199.82610 20386.82420   76.79830   35.39470 20566.48440  -25.42450   21.49480   22.08630   20.61010   75.90960    -999.25  195.44080  199.25950    -999.25   -0.10710    4.09610 20531.43750    0.14010    0.00720 2699.56960
 2399.30000   79.55550  196.37410  212.52320  199.59670 20264.60550   80.45810   30.51310 20565.94730  -24.42380   20.53800   21.10360   19.50670   79.84670    -999.25  195.65060  199.55950    -999.25   -1.32070    4.03130 20465.01760    0.14150    0.01060 2697.41580
 2399.50000   82.22700  196.86200  213.81580  199.48980 20341.76370   82.64310   27.34240 20565.41020  -24.45010   20.00990   20.44900   19.14910   82.79680    -999.25  196.23780  199.85940    -999.25   -1.52920    4.03010 20285.17190    0.13960    0.01000 2686.97170
 2399.70000   84.53460  197.25040  212.88330  199.44920 20366.34960   84.26320   29.92550 20564.87500  -23.87540   20.54400   21.31050   20.20140   84.41990    -999.25  196.66930  199.99130    -999.25    4.89030    4.03250 20339.61910    0.12770    0.00140 2692.11870
 2399.90000   81.98150  197.63870  208.36120  199.53390 20333.26760   81.31760   28.20920 20566.69340  -23.09680   22.29870   23.13480   21.46820   81.42200    -999.25  196.77080  200.00130    -999.25   11.72250    4.15210 20409.52340    0.11740   -0.00530 2715.14750
 2400.10000   77.46670  198.02710  205.01370  199.71280 20426.27150   75.84100   32.58950 20583.11910  -23.99270   24.20330   25.11510   22.81450   77.13620    -999.25  197.30870  199.99380    -999.25   12.94190    4.17440 20498.67190    0.10880   -0.00790 2725.16110
 2400.30000   76.23120  199.21650  204.13400  200.33230 20499.88670   76.99760   47.59160 20599.54300  -24.72700   25.24040   25.81820   23.96240   75.01380    -999.25  198.51890  199.97960    -999.25   -1.46900    4.17690 20567.77150    0.11740   -0.00960 2724.82300
 2400.50000   82.11910  199.88150  207.72930  201.08410 20530.33790   82.76220   45.76610 20615.96880  -25.07820   23.72450   24.81270   23.21780   81.49970    -999.25  199.17550  199.96530    -999.25   -1.38960    4.19180 20584.44730    0.13720   -0.00960 2730.18070
 2400.70000   89.60900  199.86020  212.99780  201.46660 20560.78910   89.58710   41.76480 20632.39260  -25.60060   20.86680   22.09370   20.00760   88.87820    -999.25  199.39670  199.94810    -999.25   -1.31010    4.13000 20513.03910    0.15540   -0.00520 2725.33010
 2400.90000   95.70190  200.13270  218.54070  201.17340 20580.38480   95.38730   31.60860 20642.32230  -26.11760   18.08680   19.14860   17.47920   95.13540    -999.25  199.61800  199.92680    -999.25   10.07960    4.04050 20669.02150    0.16440    0.00180 2713.97000
 2401.10000   99.38420  201.99900  223.81320  202.61330 20557.43950   99.74250   27.50190 20636.83590  -27.47830   16.27890   16.95090   15.75790   98.81900    -999.25  199.83920  200.20650    -999.25   41.53470    3.94230 20675.82620    0.17650    0.01530 2699.19630
 2401.30000  105.06000  205.99050  229.76490  209.16970 20429.50200  104.01640   18.11710 20631.34960  -29.55230   14.90670   15.45050   14.22930  104.14220    -999.25  200.78310  201.87280    -999.25   90.54480    3.90070 20622.85350    0.20690    0.02190 2674.47270
 2401.50000  111.49270  207.74670  234.25380  214.62870 20417.33980  110.03830   11.02530 20625.86130  -29.92750   14.04150   14.48230   13.55540  110.51600    -999.25  206.41650  213.64990    -999.25  145.23430    3.87950 20531.58010    0.20520    0.01600 2670.43990
 2401.70000  115.41700  206.96410  236.18510  214.13320 20444.67580  115.38930    8.62890 20620.37500  -30.03850   13.22660   13.64190   12.91340  115.37370    -999.25  207.51820  219.61560    -999.25  168.03770    3.85250 20440.30660    0.18560    0.00890 2693.65550
 2401.90000  114.63780  205.75550  235.69310  207.92250 20520.39840  115.34950   11.22710 20614.88870  -30.33600   12.81170   13.22210   12.31730  115.20910    -999.25  205.87850  210.42150    -999.25  179.42870    3.85780 20453.45700    0.19290    0.01440 2699.45170
 2402.10000  112.12130  207.82700  234.55410  211.73290 20522.62300  111.70990   12.71360 20609.40230  -30.74200   12.46390   13.02520   12.16080  111.10890    -999.25  206.19900  207.84310    -999.25  198.26730    3.86460 20598.57230    0.20480    0.02330 2679.06230
 2402.30000  108.66720  209.92140  234.68500  214.38560 20478.81250  108.92210   10.92210 20603.91410  -31.14800   12.29040   12.84320   12.00630  108.15110    -999.25  208.06880  214.44860    -999.25  218.04500    3.86660 20606.81450    0.19570    0.02490 2669.49560
