~Version ---------------------------------------------------
VERS. 2.0 : CWLS log ASCII Standard -VERSION 2.0
WRAP.  NO : ONE LINE PER DEPTH STEP
~Well ------------------------------------------------------
STRT.F                        1050.0 : START DEPTH
STOP.F                       11000.0 : STOP DEPTH
STEP.F                      50.00000 : STEP LENGTH
NULL.                        -999.25 : NULL VALUE
COMP.           PETROFINA CANADA LTD : COMPANY
WELL. FINA AMOCO HB GROAT 10-9-58-16 : WELL
FLD .                             WC : FIELD
LOC .                                : LOCATION
CTRY.                         CANADA : COUNTRY
SRVC.         Schlumberger of Canada : SERVICE COMPANY
DATE.                    08-Apr-1977 : LOGDATE
PROV.                        Alberta : PROVINCE
UWI .               100100905816W500 : UNIQUE WELL ID
SLAT.WGS84                  54.00097 : SURFACE LATITUDE
SLON.WGS84                 -116.3132 : SURFACE LONGITUDE
~Curve Information -----------------------------------------
DEPT   .F                 : 
GRS    .GAPI 60 310 01 00 : GAMMA RAY FROM SONIC LOG
DT     .US/F 60 500 00 00 : DELTA-T (INTERVAL TRANSIT TIME)
CALS   .IN   60 280 50 00 : CALIPER FROM SONIC LOG
SPR    .MV   07 010 01 00 : SPONTANEOUS POTENTIAL FROM RESISTIVITY LOG
ILD    .OHMM 07 120 46 00 : INDUCTION DEEP RESISTIVITY
ILM    .OHMM 07 120 44 00 : INDUCTION MEDIUM RESISTIVITY
LL8    .OHMM 07 220 08 00 : LATEROLOG 8
CALD   .IN   45 280 60 00 : CALIPER FROM DENSITY LOG
DCOR   .G/C3 45 356 01 00 : DENSITY CORRECTION
GRD    .GAPI 45 310 01 00 : GAMMA RAY FROM DENSITY LOG
RHOB   .G/C3 45 350 01 00 : BULK DENSITY
NPHI_SS.DEC  42 890 03 00 : NEUTRON POROSITY SANDSTONE
DPHI_SS.DEC  45 890 12 00 : DENSITY POROSITY SANDSTONE
NPHI_LS.DEC  42 890 01 00 : NEUTRON POROSITY LIMESTONE
DPHI_LS.DEC  45 890 10 00 : DENSITY POROSITY LIMESTONE
~Params ----------------------------------------------------
PD  .                     GL : PERMANENT DATUM
EPD .FT               3310.2 : ELEVATION PERMANENT DATUM
LMF .                     KB : LOG MEASURED FROM
DAPD.FT                 13.5 : FEET ABOVE PERMANENT DATUM
EKB .FT                 3324 : KELLY BUSHING
EGL .FT               3310.2 : GROUND LEVEL
DATE.               04/08/77 : RUN DATE
RUN .                      1 : RUN NUMBER
DD  .FT                11000 : DEPTH DRILLER
DL  .FT                11005 : DEPTH LOGGER
BLI .FT                10999 : BOTTOM LOG INTERVAL
TLI .FT                 1159 : TOP LOG INTERVAL
CBD .FT                 1159 : CASING BOTTOM DRILLER
CBL .FT                 1159 : CASING BOTTOM LOGGER
BS  .IN                 8.75 : BIT SIZE
BSD .FT                11000 : BIT SIZE AT DEPTH
DFT .                    GEL : DRILLING FLUID TYPE
DFD .                    9.2 : DRILLING FLUID DENSITY
DFV .                    245 : DRILLING FLUID VISCOSITY
DFPH.                     10 : DRILLING FLUID PH
DFL .                    7.2 : DRILLING FLUID LOSS
MSS .               FLOWLINE : MUD SAMPLE SOURCE
RMS .OHMM               2.52 : RESISTIVITY MUD SAMPLE
MST .DEGF                 56 : MUD SAMPLE TEMPERATURE
RMF .OHMM               2.35 : RESISTIVITY MUD FILTRATE SAMPLE
MFST.DEGF                 50 : MUD FILTRATE SAMPLE TEMPERATURE
TCS .HRS                 3.5 : TIME CIRCULATED STOPPED
LUN .                   7809 : LOGGING UNIT NUMBER
LUL .                    EDM : LOGGING UNIT LOCATION
ENGI.               BERNISKY : RECORDING ENGINEER
WITN.                 HALKOW : WITNESSED BY
CLNT.                A2DTECH : CLIENT CODE
ORIG.            2" 5" PRINT : ORIGIN OF DATA
UWI .       100100905816W500 : UNIQUE WELL ID
DICO. A2D Technologies, Inc. : DIGITIZING COMPANY
~Other -----------------------------------------------------
~ASCII -----------------------------------------------------
# ...
 3350.00000   78.23240  103.08840   10.00290  -69.03120    4.02470    3.93710    4.74960   10.32620    0.13910   81.57490    2.36080    0.36840    0.16920    -999.25    -999.25
 3400.00000   49.60610   86.07300   10.03770  -77.19430   12.29540   12.93340   11.59720   10.13300    0.03440   48.86030    2.39220    0.33570    0.17620    -999.25    -999.25
 3450.00000   70.18950   82.57720   10.17180  -66.64440    4.99790    4.97010    5.69770   10.07230    0.06400   71.10260    2.46490    0.42180    0.13190    -999.25    -999.25
 3500.00000   74.29690   80.89550   10.47950  -70.09450    8.37780    9.32350   10.17090   11.11220    0.11190   67.67700    2.35600    0.36380    0.12910    -999.25    -999.25
 3550.00000   68.06250  105.63540   10.54980  -68.67550    5.03110    5.37750    5.09460   11.09550    0.11000   54.89770    2.28520    0.37430    0.21240    -999.25    -999.25
 3600.00000   54.79640   81.12580   10.15790  -71.75150    8.31550    9.09250    8.90530   10.02540    0.00880   44.93010    2.48910    0.29780    0.12230    -999.25    -999.25
 3650.00000   44.45840   68.84360    9.82440  -75.99200   14.34880   14.98300   14.22510    9.79030    0.07190   52.98360    2.46320    0.38530    0.10280    -999.25    -999.25
 3700.00000   44.46370   84.88050    9.39710  -75.30700    8.60790    9.28180    8.89040    9.62560    0.15490   49.61170    2.28070    0.39360    0.24880    -999.25    -999.25
 3750.00000   56.99370   91.40300   10.62530  -70.44360    7.49610    7.88000    7.58960   10.27680    0.13450   51.96510    2.49080    0.36630    0.13320    -999.25    -999.25
 3800.00000   68.11280   84.81640   10.29730  -70.63300    7.39160    8.21150    7.54680   10.32130    0.13300   56.07770    2.42170    0.35680    0.13930    -999.25    -999.25
 3850.00000   56.66290   96.28120    9.42240  -68.25360    3.76200    3.98300    3.95350    9.95420    0.21620   67.75910    2.11980    0.43930    0.29400    -999.25    -999.25
 3900.00000   32.41470   73.28260    8.77140  -84.55720   43.26920   47.29290   42.16380    8.71490    0.14680   27.98970    2.44710    0.25250    0.10850    -999.25    -999.25
 3950.00000   30.81040   60.46360    8.92920  -88.44140   33.92350   42.99790   49.31930    8.70170    0.11990   36.61950    2.43810    0.23200    0.10650    -999.25    -999.25
 4000.00000   47.91860   69.45200    9.52560  -69.15390    8.27390    8.59360    7.91470    9.35770    0.07670   54.75580    2.47590    0.34530    0.13670    -999.25    -999.25
 4050.00000   74.92150   83.63690    9.64480  -65.87080    5.02800    5.20240    5.26680    9.64920    0.20530   64.36750    2.44050    0.43400    0.13880    -999.25    -999.25
 4100.00000   50.79460   80.57030    9.54910  -80.29650   10.14800   10.69970   11.15360    9.81280    0.06150   45.73580    2.38950    0.34460    0.16780    -999.25    -999.25
 4150.00000   51.79740   83.86460    9.61060  -71.23860    8.22320    8.92900   10.05470    9.69210    0.03550   46.65350    2.46720    0.31550    0.14110    -999.25    -999.25
 4200.00000   50.64440   73.48830    9.59160  -68.34210   10.91660   11.42020   11.66190   10.03900    0.07160   59.65000    2.49690    0.31230    0.09900    -999.25    -999.25
 4250.00000   73.55410   88.31980   10.04260  -65.69890    4.93790    5.12200    5.53720   11.65690    0.25700   64.20960    2.17310    0.42920    0.30070    -999.25    -999.25
 4300.00000   80.42060   90.58270   10.43010  -67.01150    5.65640    5.85260    6.51520   12.74610    0.24710   74.84750    2.09090    0.40890    0.32960    -999.25    -999.25
 4350.00000   95.52070   84.59840    9.98090  -68.05250    6.57360    6.80820    7.20510   12.30300    0.15020   92.89950    2.15880    0.37670    0.33600    -999.25    -999.25
 4400.00000   94.61530   81.71390   10.55260  -69.16530    7.06780    7.31300    7.32780   12.22800    0.21510   87.97330    2.14610    0.41250    0.32120    -999.25    -999.25
 4450.00000  104.13690   80.53540    9.90630  -68.06570    7.83320    8.11130    8.69060   11.91630    0.24420   99.59000    2.00760    0.41760    0.33750    -999.25    -999.25
 4500.00000  111.40130   91.29680   10.00600  -64.85900    6.62820    6.88310    8.02770   11.82270    0.21190   99.40670    1.99690    0.41290    0.37620    -999.25    -999.25
 4550.00000  139.07140   94.63430    9.77030  -64.59990    9.49410    9.82550   12.46720   11.48140    0.26320  130.65870    2.24470    0.42470    0.24400    -999.25    -999.25
 4600.00000  104.23720   87.20720    9.67360  -63.93990    7.98510    8.26210    9.40380   11.00600    0.26340  103.36940    2.12960    0.41040    0.33780    -999.25    -999.25
 4650.00000  102.48220   90.30960    9.69760  -63.68590    6.73720    6.97360    7.82760    9.97600    0.26030  103.07890    2.35570    0.38430    0.19110    -999.25    -999.25
 4700.00000   99.09890   89.63170    9.88520  -67.89260    5.47190    5.66180    5.97000   10.42560    0.23590   94.88820    2.15010    0.44420    0.30710    -999.25    -999.25
 4750.00000  102.97180   85.00700    9.85960  -65.88180    6.05570    6.30660    6.57100   10.71860    0.25960   97.00240    2.04930    0.43700    0.37010    -999.25    -999.25
 4800.00000   96.53160   86.62860    9.56640  -66.11090    6.75670    6.99170    7.13920   10.13330    0.26230   95.41700    2.14910    0.36520    0.29190    -999.25    -999.25
 4850.00000   97.54110   84.98470    9.40940  -67.83130    7.60720    7.87140    8.16740    8.98970    0.22560  103.88000    2.32790    0.35730    0.19860    -999.25    -999.25
 4900.00000  103.74730   86.63070    9.51040  -65.82600    6.77260    7.01250    7.17250   11.14740    0.26110   99.27160    2.12000    0.35790    0.34460    -999.25    -999.25
 4950.00000   99.61750   85.81660    9.60230  -65.59810    6.40910    6.63200    7.26120   10.84280    0.26320  105.06200    2.03970    0.33510    0.35980    -999.25    -999.25
 5000.00000   98.82690   84.81580    9.48720  -32.65610    6.25350    6.51030    6.68560   11.75690    0.21540  103.67680    1.95060    0.38520    0.40740    -999.25    -999.25
 5050.00000   90.40990   81.33850    9.70720  -32.35720    7.33510    7.59270    7.61590   10.19740    0.26480   96.71090    2.07810    0.34840    0.37660    -999.25    -999.25
 5100.00000   84.29100   81.34110   10.06020  -32.72810    9.90300   10.24750   11.52200   10.62700    0.23170   90.31520    2.15940    0.27810    0.27430    -999.25    -999.25
 5150.00000  100.96240   81.71510    9.51900  -30.22800    7.89820    8.17580    8.24780   10.51400    0.26280  102.66060    2.12290    0.33920    0.34260    -999.25    -999.25
 5200.00000   90.96070   75.88300    8.96770  -31.59090    9.22010    9.55480    9.64980   11.07060    -999.25   99.45710    2.22770    0.28420    0.23220    -999.25    -999.25
 5250.00000  106.19810   82.84130    9.90680  -65.30100    7.19870    7.45140    8.16530   11.32960    0.23570   99.89110    2.26070    0.36240    0.21840    -999.25    -999.25
 5300.00000  107.84830   84.71490    9.97390  -64.44020    6.63040    6.86040    7.59400   11.50100    0.26120   99.71010    2.13870    0.37580    0.36860    -999.25    -999.25
 5350.00000  107.06690   84.88540   10.36160  -63.16720    6.06970    6.28110    7.24770   12.14900    0.25990   99.45380    2.02670    0.40750    0.37300    -999.25    -999.25
 5400.00000  115.22690   98.52740   10.16660  -61.24690    6.74820    6.99180    8.24550   12.09080    0.24370  105.09150    2.03010    0.42590    0.36260    -999.25    -999.25
 5450.00000  120.87180   88.01870    9.83180  -63.92350    7.91480    8.19810    9.49360   10.73620    -999.25  115.17800    2.17990    0.36930    0.30080    -999.25    -999.25
 5500.00000  115.50890   90.25280    9.89330  -62.78910    7.27920    7.56210    9.24830   10.98760    -999.25  114.65270    2.11610    0.37480    0.27090    -999.25    -999.25
 5550.00000  121.95920   86.25920    9.58680  -62.35510    9.64200   10.12350   11.88560   10.33850    0.17450  128.52980    2.42670    0.39430    0.19910    -999.25    -999.25
 5600.00000  117.76260   88.89390    9.42780  -63.89320   10.82990   11.36280   13.21460   10.51250    0.22810  121.95860    2.44980    0.36420    0.11130    -999.25    -999.25
