~Version ---------------------------------------------------
VERS.      2.0 : CWLS log ASCII Standard -VERSION 2.0
WRAP.       NO : One line per depth step
CREA. 09/06/13 : LAS Creation Date
~Well ------------------------------------------------------
STRT.M                           350.0 : START DEPTH
STOP.M                          4000.0 : STOP DEPTH
STEP.M                        50.00000 : STEP LENGTH
NULL.                          -999.25 : NULL VALUE
COMP. CHEVRON CANADA RESOURCES LIMITED : COMPANY
WELL.     CHEVRON SIMONETTE 11-6-64-26 : WELL
FLD .                                  : FIELD
LOC .                                  : LOCATION
CTRY.                           CANADA : COUNTRY
SRVC.                          Unknown : SERVICE COMPANY
DATE.                      18-Feb-1991 : LOGDATE
PROV.                          Alberta : PROVINCE
UWI .                 100110606426W500 : UNIQUE WELL ID
SLAT.WGS84                    54.51141 : SURFACE LATITUDE
SLON.WGS84                   -117.9251 : SURFACE LONGITUDE
~Curve Information -----------------------------------------
DEPT    .M      : DEPTH METER
C1ED    .MM     : CALIPER 1 FROM CNL-LDT LOG [ADJ. TO PISFL LOG]
C2ED    .MM     : CALIPER 2 FROM CNL-LDT LOG [ADJ. TO PISFL LOG]
CALSED  .MM     : CALIPER FROM BCS LOG [ADJ. TO PISFL LOG]
CALWS   .MM     : CALIPER [C1ED]
CONDWS  .MMHO   : CONDUCTIVITY [1000/DRESWS]
DCORWS  .KG/M3  : DENSITY CORRECTION [DRHOED]
DENWS   .KG/M3  : FORMATION BULK DENSITY [RHOBED SPL. TO CALC DPHILSED,M=2710,F=1000,@3678-3704.3M]
DPHILSED.V/V    : DENSITY POROSITY LIMESTONE [M=2710,F=1000] FROM CNL-LDT LOG [ADJ. TO PISFL LOG]
DPHISSED.V/V    : DENSITY POROSITY SANDSTONE [M=2650,F=1000] FROM CNL-LDT LOG [ADJ. TO PISFL LOG]
DPOLSWS .V/V    : DENSITY POROSITY LIMESTONE [CALC FROM DENWS,M=2710,F=1000]
DRESWS  .OHMM   : DEEP RESISTIVITY [IDPHED]
DRHOED  .KG/M3  : BULK DENSITY CORRECTION FROM CNL-LDT LOG [ADJ. TO PISFL LOG]
DT1ED   .US/M   : DELTA-T FROM ARRAY SONIC-STC-VDL LOG
DTCOED  .US/M   : DELTA TIME COMPRESSIONAL FROM ARRAY SONIC-STC-VDL LOG [ADJ. TO PISFL LOG]
DTED    .US/M   : DELTA TIME FROM BCS LOG [ADJ. TO RESISTIVITY LOG]
DTLED   .US/M   : DELTA-T LONG SPACING FROM ARRAY SONIC-STC-VDL LOG [ADJ. TO PISFL LOG]
DTLFED  .US/M   : DELTA TIME LONG SPACING FAR DETECTOR FROM ARRAY SONIC-STC-VDL LOG [ADJ. TO PISFL LOG]
DTLNED  .US/M   : DELTA TIME LONG SPACING NEAR DETECTOR FROM ARRAY SONIC-STC-VDL LOG [ADJ. TO PISFL LOG]
DTSMED  .US/M   : DELTA TIME SHEAR WAVE FROM ARRAY SONIC-STC-VDL LOG [ADJ. TO PISFL LOG]
DTSWS   .US/M   : SHEAR SONIC [DTSMED]
DTWS    .US/M   : COMPRESSIONAL SONIC [DTED SPL @3686.7-3724.5M TO DT1ED]
GRR1ED  .GAPI   : GAMMA RAY FROM DLL LOG [ADJ. TO PISFL LOG]
GRRED   .GAPI   : GAMMA RAY FROM PISFL LOG
GRSED   .GAPI   : GAMMA RAY [GRS SPL. TO GRS_1@3668M] FROM BCS-ARRAY SONIC-STC-VDL LOG [ADJ. TO PISFL LOG]
GRWS    .GAPI   : GAMMA RAY [GRRED SPL. TO GRSED @ 4031M]
HDSED   .MM     : HOLE DIAMETER FROM SONIC LOG [ADJ. TO PISFL LOG]
IDPHED  .OHMM   : DEEP INDUCTION RESISTIVITY FROM PISFL LOG
IMPHED  .OHMM   : MEDIUM INDUCTION RESISTIVITY FROM PISFL LOG
LLDED   .OHMM   : SHALLOW RESISTIVITY FROM DLL LOG [ADJ. TO PISFL LOG]
LLSED   .OHMM   : DEEP RESISTIVITY FROM DLL LOG [ADJ. TO PISFL LOG]
MRESWS  .OHMM   : MEDIUM RESISTIVITY [IMPHED]
NPHILSED.V/V    : NEUTRON POROSITY LIMESTONE FROM CNL-LDT LOG [ADJ. TO PISFL LOG]
NPHISSED.V/V    : NEUTRON POROSITY SANDSTONE FROM CNL-LDT LOG [ADJ. TO PISFL LOG]
NPOLSWS .V/V    : NEUTRON POROSITY LIMESTONE [NPHISSED CONVERTED TO LIMESTONE MATRIX,SPL. TO NPHILSED @2696M]
PEFED   .B/E    : PHOTOELECTRIC FACTOR FROM CNL-LDT LOG [ADJ. TO PISFL LOG]
PEFWS   .B/E    : PHOTOELECTRIC FACTOR [PEFED]
RHOBED  .KG/M3  : BULK DENSITY FROM CNL-LDT LOG [ADJ. TO PISFL LOG]
SFLUED  .OHMM   : SHALLOW FOCUS RESISTIVITY FROM PISFL LOG
SGRDDED .GAPI   : GAMMA RAY COMBINED FROM CNL-LDT LOG [ADJ. TO PISFL LOG]
SPR1ED  .MV     : SPONTANEOUS POTENTIAL  FROM DLL LOG [ADJ. TO PISFL LOG]
SPRED   .MV     : SPONTANEOUS POTENTIAL FROM PISFL LOG
SPWS    .MV     : SPONTANEOUS POTENTIAL [BASELINE 0 MV, SPRED]
SRESWS  .OHMM   : SHALLOW RESISTIVITY [SFLUED]
TENDED  .N      : TENSION FROM CNL-LDT LOG [ADJ. TO PISFL LOG]
TENRED  .N      : TENSION FROM PISFL-DLL LOG
TENSED  .N      : TENSION [TENS SPL. TO TENS_1@3724M] FROM BCS-ARRAY SONIC-STC-VDL LOG [ADJ. TO PISFL LOG]
~Params ----------------------------------------------------
PD  .                         GL : PERMANENT DATUM
EPD .M                     916.7 : ELEVATION PERMANENT DATUM
LMF .                         KB : LOG MEASURED FROM
DAPD.M                       6.7 : FEET ABOVE PERMANENT DATUM
DMF .                         KB : DRILLING MEASURED FROM
EKB .M                     923.4 : KELLY BUSHING
EDF .M                       923 : DRILLING FLOOR
EGL .M                     916.7 : GROUND LEVEL
DATE.                   02/18/91 : RUN DATE
RUN .                          1 : RUN NUMBER
DD  .M                      3725 : DEPTH DRILLER
DL  .M                    3705.6 : DEPTH LOGGER
BLI .M                    3704.8 : BOTTOM LOG INTERVAL
TLI .M                     450.4 : TOP LOG INTERVAL
CS  .MM                    244.5 : CASING SIZE
CBD .M                       451 : CASING BOTTOM DRILLER
CBL .M                     450.4 : CASING BOTTOM LOGGER
BS  .MM                      222 : BIT SIZE
BSD .M                      3725 : BIT SIZE AT DEPTH
DFT .                   GEL CHEM : DRILLING FLUID TYPE
DFD .                       1160 : DRILLING FLUID DENSITY
DFV .                         83 : DRILLING FLUID VISCOSITY
DFPH.                        9.5 : DRILLING FLUID PH
DFL .                          7 : DRILLING FLUID LOSS
MSS .                   MEASURED : MUD SAMPLE SOURCE
RMS .OHMM                   1.54 : RESISTIVITY MUD SAMPLE
MST .DEGC                     20 : MUD SAMPLE TEMPERATURE
RMF .OHMM                   1.15 : RESISTIVITY MUD FILTRATE SAMPLE
MFST.DEGC                     16 : MUD FILTRATE SAMPLE TEMPERATURE
RMC .OHMM                   0.86 : RESISTIVITY MUD CAKE
MCST.DEGC                      9 : MUD CAKE SAMPLE TEMPERATURE
MFSS.                   MEASURED : MUD FILTRATE SAMPLE SOURCE
MCSS.                   MEASURED : MUD CAKE SAMPLE SOURCE
RMB .OHMM                  0.602 : RESISTIVITY MUD AT BHT
TCS .HRS                     400 : TIME CIRCULATED STOPPED
TLAB.HRS                    1638 : TIME LOGGER AT BOTTOM
LUN .                       8204 : LOGGING UNIT NUMBER
LUL .              GRANE PRAIRIE : LOGGING UNIT LOCATION
ENGI.                     HAYDEN : RECORDING ENGINEER
WITN.                      CROWE : WITNESSED BY
CLNT.                    A2DTECH : CLIENT CODE
ORIG. 6.5"/100M 16.5"/100M PRINT : ORIGIN OF DATA
UWI .           100110606426W500 : UNIQUE WELL ID
DICO.     A2D Technologies, Inc. : DIGITIZING COMPANY
~Other -----------------------------------------------------
PI-SFL-DLL-CNL-LDT-STC-VDL-BCS TOOL RUN
~ASCII -----------------------------------------------------
# ...
 1950.00000  364.30080  309.25370  321.34320  364.30080  203.28510   47.76670 2103.34790    -999.25    0.31360    0.35480    4.91920   47.76670    -999.25    -999.25  288.12960    -999.25    -999.25    -999.25    -999.25    -999.25  288.12960    -999.25   78.21130   77.62300   78.21130    -999.25    4.91920    4.80250    -999.25    -999.25    4.80250    -999.25    0.39470    0.35170    3.95330    3.95330 2103.34790    5.14100   84.83050    -999.25  -15.11550   -3.50800    5.14100 17822.69340    -999.25 14436.90820
 2000.00000  362.92190  282.43920  298.75770  362.92190  115.69390   71.87400 2078.85620    -999.25    0.33740    0.36910    8.64350   71.87400    -999.25    -999.25  238.15430    -999.25    -999.25    -999.25    -999.25    -999.25  238.15430    -999.25   66.28950   66.56220   66.28950    -999.25    8.64350    8.97000    -999.25    -999.25    8.97000    -999.25    0.29150    0.24750    4.48470    4.48470 2078.85620    7.68220   72.61120    -999.25  -16.12930   -3.97850    7.68220 18448.11720    -999.25 14904.91020
 2050.00000  317.08460  294.84370  303.08280  317.08460   74.55290  225.44100 2505.65940    -999.25    0.08570    0.11950   13.41330  225.44100    -999.25    -999.25  227.51530    -999.25    -999.25    -999.25    -999.25    -999.25  227.51530    -999.25   53.84800   52.89930   53.84800    -999.25   13.41330   13.09970    -999.25    -999.25   13.09970    -999.25    0.24770    0.20380    6.26490    6.26490 2505.65940   11.79800   54.95880    -999.25  -20.36170  -13.56510   11.79800 18909.01560    -999.25 14740.21680
 2100.00000  335.07180  285.35080  289.35110  335.07180   48.39360  206.78890 2470.90380    -999.25    0.11450    0.13980   20.66390  206.78890    -999.25    -999.25  232.08390    -999.25    -999.25    -999.25    -999.25    -999.25  232.08390    -999.25   70.11630   69.56380   70.11630    -999.25   20.66390   19.96770    -999.25    -999.25   19.96770    -999.25    0.22960    0.18580    6.54690    6.54690 2470.90380   18.86350   74.00900    -999.25  -43.04800  -30.82520   18.86350 18782.73830    -999.25 14989.12890
 2150.00000  545.35790  394.20760  388.67530  545.35790   53.63630  -42.38500 1242.87500    -999.25    0.85290    0.85800   18.64410  -42.38500    -999.25    -999.25  478.60190    -999.25    -999.25    -999.25    -999.25    -999.25  478.60190    -999.25   26.63640   26.14280   26.63640    -999.25   18.64410    4.91980    -999.25    -999.25    4.91980    -999.25    0.57250    0.53080    9.25600    9.25600 1242.87500   60.86330   32.32650    -999.25  -45.08360  -30.42460   60.86330 18718.74610    -999.25 15533.41110
 2200.00000  286.48780  290.24040  281.17740  286.48780   37.04600   -6.87030 2627.93120    -999.25    0.01430    0.04800   26.99350   -6.87030    -999.25    -999.25  217.04680    -999.25    -999.25    -999.25    -999.25    -999.25  217.04680    -999.25   52.79600   52.97110   52.79600    -999.25   26.99350   26.54650    -999.25    -999.25   26.54650    -999.25    0.18550    0.14230    3.53440    3.53440 2627.93120   25.73960   54.65000    -999.25  -65.35800  -49.64410   25.73960 19102.46090    -999.25 15626.87600
 2250.00000  305.24200  279.93100  278.22260  305.24200   52.43590  187.04670 2586.69900    -999.25    0.03330    0.07210   19.07090  187.04670    -999.25    -999.25  226.71620    -999.25    -999.25    -999.25    -999.25    -999.25  226.71620    -999.25   64.74210   64.73440   64.74210    -999.25   19.07090   19.64370    -999.25    -999.25   19.64370    -999.25    0.23650    0.19270    5.88450    5.88450 2586.69900   20.70940   71.00900    -999.25  -33.14090  -16.37220   20.70940 19311.13090    -999.25 15840.36910
 2300.00000  366.27570  308.60890  316.20360  366.27570   36.59340   45.40570 2269.65630    -999.25    0.27810    0.25750   27.32730   45.40570    -999.25    -999.25  244.81650    -999.25    -999.25    -999.25    -999.25    -999.25  244.81650    -999.25   47.31080   46.96100   47.31080    -999.25   27.32730  261.09570    -999.25    -999.25  261.09570    -999.25    0.21340    0.16980    6.01700    6.01700 2269.65630  181.50020   50.87680    -999.25  -41.00010  -23.17650  181.50020 19290.13280    -999.25 15906.61040
 2350.00000  382.66870  365.00640  305.02180  382.66870   42.07110   18.48880 1768.23680    -999.25    0.53380    0.55070   23.76930   18.48880    -999.25    -999.25  280.43550    -999.25    -999.25    -999.25    -999.25    -999.25  280.43550    -999.25   73.45460   73.43760   73.45460    -999.25   23.76930   17.90920    -999.25    -999.25   17.90920    -999.25    0.31140    0.26750    7.83080    7.83080 1768.23680   27.27860   82.47730    -999.25  -56.21590  -37.33750   27.27860 20114.47460    -999.25 16237.92480
 2400.00000  318.05810  256.06430  262.84600  318.05810   15.39370  128.40700 2530.42820    -999.25    0.07300    0.10500   64.96180  128.40700    -999.25    -999.25  201.66720    -999.25    -999.25    -999.25    -999.25    -999.25  201.66720    -999.25   20.07320   20.28500   20.07320    -999.25   64.96180   82.02750    -999.25    -999.25   82.02750    -999.25    0.12560    0.08330    4.73950    4.73950 2530.42820   88.92400   22.98890    -999.25  -52.45030  -36.97060   88.92400 19904.47460    -999.25 16814.05860
 2450.00000  375.29300  302.88170  310.30490  375.29300  139.09950   -1.74210 1733.27490    -999.25    0.55650    0.57120    7.18910   -1.74210    -999.25    -999.25  268.50070    -999.25    -999.25    -999.25    -999.25    -999.25  268.50070    -999.25   67.97670   67.99220   67.97670    -999.25    7.18910    6.86690    -999.25    -999.25    6.86690    -999.25    0.41870    0.37620    9.70660    9.70660 1733.27490    7.78240   74.89080    -999.25  -19.69430   -4.23180    7.78240 20959.72660    -999.25 16485.53320
 2500.00000  252.58850  275.88970  259.66620  252.58850   25.66350  -10.12360 2662.53590    -999.25   -0.00730    0.02780   38.96590  -10.12360    -999.25    -999.25  188.26890    -999.25    -999.25    -999.25    -999.25    -999.25  188.26890    -999.25   69.01430   69.15580   69.01430    -999.25   38.96590   48.04670    -999.25    -999.25   48.04670    -999.25    0.10470    0.06310    3.36030    3.36030 2662.53590   63.82400   72.73650    -999.25  -58.24600  -40.22000   63.82400 19120.90230    -999.25 16613.40630
 2550.00000  249.41280  277.50590  255.44810  249.41280   21.39200  -10.62780 2682.28130    -999.25   -0.02090    0.01620   46.74640  -10.62780    -999.25    -999.25  199.12360    -999.25    -999.25    -999.25    -999.25    -999.25  199.12360    -999.25   74.12480   74.60110   74.12480    -999.25   46.74640   49.07090    -999.25    -999.25   49.07090    -999.25    0.11690    0.07480    3.48950    3.48950 2682.28130   50.39100   83.28610    -999.25  -49.49320  -29.24130   50.39100 20476.69920    -999.25 17224.77730
 2600.00000  249.63330  268.59950  253.28070  249.63330   33.44270   -9.95880 2640.88620    -999.25    0.00500    0.04040   29.90190   -9.95880    -999.25    -999.25  197.42840    -999.25    -999.25    -999.25    -999.25    -999.25  197.42840    -999.25   63.73770   63.83500   63.73770    -999.25   29.90190   30.42990    -999.25    -999.25   30.42990    -999.25    0.08950    0.04900    3.07880    3.07880 2640.88620   31.51170   65.38640    -999.25  -58.04850  -35.57060   31.51170 20944.58010    -999.25 17500.25590
 2650.00000  258.96460  272.55940  268.24900  258.96460   16.57680  -12.93060 2694.44530   -0.00260   -0.02670    0.00910   60.32520  -12.93060    -999.25    -999.25  203.53770    -999.25    -999.25    -999.25    -999.25    -999.25  203.53770    -999.25   88.24490   88.27770   88.24490    -999.25   60.32520   56.78800    -999.25    -999.25   56.78800    0.11050    0.14880    0.10630    3.79410    3.79410 2694.44530   67.26040   96.83730    -999.25  -44.57840  -20.47750   67.26040 20897.61910    -999.25 17681.44530
 2700.00000  502.22490  396.47060  309.01220  502.22490    0.52730  -43.32820 1401.53710    0.74800    0.75760    0.76520 1896.41590  -43.32820    -999.25    -999.25  172.63310    -999.25    -999.25    -999.25    -999.25    -999.25  172.63310    -999.25   16.22160   16.39530   16.22160    -999.25 1896.41590   41.53710    -999.25    -999.25   41.53710    0.22980    0.04890    0.22980   16.42690   16.42690 1401.53710   75.33290   22.05370    -999.25 -108.37790  -84.44330   75.33290 21433.28910    -999.25 17566.58400
