~Version ---------------------------------------------------
VERS. 2.0 : CWLS log ASCII Standard -VERSION 2.0
WRAP.  NO : ONE LINE PER DEPTH STEP
~Well ------------------------------------------------------
STRT.M                            300.0 : START DEPTH
STOP.M                           2850.0 : STOP DEPTH
STEP.M                         50.00000 : STEP LENGTH
NULL.                           -999.25 : NULL VALUE
COMP. PLACER C.E.G.O. PETROLEUM LIMITED : COMPANY
WELL.     CEGO ET AL MAHASKA 6-27-57-13 : WELL
FLD .                                   : FIELD
LOC .                                   : LOCATION
CTRY.                            CANADA : COUNTRY
SRVC.                      Schlumberger : SERVICE COMPANY
DATE.                       16-Apr-1979 : LOGDATE
PROV.                           Alberta : PROVINCE
UWI .                  100062705713W500 : UNIQUE WELL ID
SLAT.WGS84                     53.95296 : SURFACE LATITUDE
SLON.WGS84                    -115.8507 : SURFACE LONGITUDE
~Curve Information -----------------------------------------
DEPT   .M     0   1   0  0 : 1 MEASURED DEPTH
SPR    .MV    07 010 01 00 : SPONTANEOUS POTENTIAL FROM RESISTIVITY LOG
SFL    .OHMM  07 220 01 00 : SPHERICALLY FOCUSED LOG
ILD    .OHMM  07 120 46 00 : INDUCTION DEEP RESISTIVITY
ILM    .OHMM  07 120 44 00 : INDUCTION MEDIUM RESISTIVITY
GRS    .GAPI  60 310 01 00 : GAMMA RAY FROM SONIC LOG
CALS   .MM    60 280 50 00 : CALIPER FROM SONIC LOG
TENS   .LB    60 635 00 00 : TENSION FROM SONIC LOG
DT     .US/M  60 500 00 00 : DELTA-T (INTERVAL TRANSIT TIME)
GRD    .GAPI  45 310 01 00 : GAMMA RAY FROM DENSITY LOG
CALD   .MM    45 280 60 00 : CALIPER FROM DENSITY LOG
DRHO   .KG/M3 45 356 01 00 : BULK DENSITY CORRECTION
RHOB   .KG/M3 45 350 01 00 : BULK DENSITY
TEND   .LB    45 635 00 00 : TENSION FROM DENSITY LOG
NPHI_SS.DEC   42 890 03 00 : NEUTRON POROSITY SANDSTONE
DPHI_SS.DEC   45 890 12 00 : DENSITY POROSITY SANDSTONE
NPHI_LS.DEC   42 890 01 00 : NEUTRON POROSITY LIMESTONE
DPHI_LS.DEC   45 890 10 00 : DENSITY POROSITY LIMESTONE
~Params ----------------------------------------------------
PD  .                         GL : PERMANENT DATUM
EPD .M                    759.63 : ELEVATION PERMANENT DATUM
LMF .                         KB : LOG MEASURED FROM
DAPD.M                      4.51 : FEET ABOVE PERMANENT DATUM
DMF .                         KB : DRILLING MEASURED FROM
EKB .M                    764.14 : KELLY BUSHING
EGL .M                    759.63 : GROUND LEVEL
DATE.                   04/16/79 : RUN DATE
RUN .                          1 : RUN NUMBER
DD  .M                      2892 : DEPTH DRILLER
DL  .M                    2893.5 : DEPTH LOGGER
BLI .M                    2892.5 : BOTTOM LOG INTERVAL
TLI .M                     311.3 : TOP LOG INTERVAL
CS  .MM                      245 : CASING SIZE
CBD .M                    311.76 : CASING BOTTOM DRILLER
CBL .M                     311.3 : CASING BOTTOM LOGGER
BS  .MM                      222 : BIT SIZE
BSD .M                      2892 : BIT SIZE AT DEPTH
DFT .                   GEL CHEM : DRILLING FLUID TYPE
DFD .                        115 : DRILLING FLUID DENSITY
DFV .                       2130 : DRILLING FLUID VISCOSITY
DFPH.                         11 : DRILLING FLUID PH
DFL .                          9 : DRILLING FLUID LOSS
MSS .                CIRCULATION : MUD SAMPLE SOURCE
RMS .OHMM                   1.59 : RESISTIVITY MUD SAMPLE
MST .DEGC                   13.8 : MUD SAMPLE TEMPERATURE
RMF .OHMM                   1.28 : RESISTIVITY MUD FILTRATE SAMPLE
MFST.DEGC                   12.7 : MUD FILTRATE SAMPLE TEMPERATURE
RMC .OHMM                   1.98 : RESISTIVITY MUD CAKE
MCST.DEGC                   11.6 : MUD CAKE SAMPLE TEMPERATURE
MFSS.                       CIRC : MUD FILTRATE SAMPLE SOURCE
TCS .HRS                    2330 : TIME CIRCULATED STOPPED
LUN .                       7809 : LOGGING UNIT NUMBER
LUL .                        EDM : LOGGING UNIT LOCATION
ENGI.                GRAY BOUTIN : RECORDING ENGINEER
WITN.                    SPRAGUE : WITNESSED BY
CLNT.                    A2DTECH : CLIENT CODE
ORIG. 6.5"/100M 16.5"/100M PRINT : ORIGIN OF DATA
UWI .           100062705713W500 : UNIQUE WELL ID
DICO.     A2D Technologies, Inc. : DIGITIZING COMPANY
~Other -----------------------------------------------------
~ASCII -----------------------------------------------------
  300.00000    -999.25    -999.25    -999.25    -999.25   50.49080    -999.25    -999.25    -999.25   43.75750    -999.25    -999.25    -999.25    -999.25    0.55700    -999.25    -999.25    -999.25
  350.00000  -85.82720    3.97450    6.13350    5.20430   94.93470  274.37050 3877.84860  323.40350   85.70730  232.05030   53.00280 2496.45090 4029.82350    0.39340    0.10520    -999.25    -999.25
  400.00000  -83.54720    4.99580    5.59070    5.38540  105.02590  285.82640 4037.40550  329.48620   97.64920  249.91880  158.74480 2062.03490 4121.30080    0.42370    0.30250    -999.25    -999.25
  450.00000  -82.41810    3.60040    4.36840    3.88490   91.01780  299.50620 4101.36130  338.27040   90.77310  307.56510  164.09930 1986.86430 4393.75490    0.48930    0.38980    -999.25    -999.25
  500.00000  -82.67470    4.97270    6.35230    5.56240  100.56960  309.41660 4235.80220  328.12660   89.84910  276.49810  224.47600 2119.45530 4354.88090    0.40520    0.40380    -999.25    -999.25
  550.00000  -81.09190    4.33110    5.45850    4.98590  105.14750  271.65110 4364.51660  308.45450   93.13320  264.09090  156.97040 2068.06350 4517.70410    0.37680    0.36360    -999.25    -999.25
  600.00000  -82.31690    4.22780    5.60090    4.92870  107.20730  310.50120 4556.58150  340.47430   87.72960  366.35970  131.81700 1858.25760 4940.87990    0.45030    0.39530    -999.25    -999.25
  650.00000  -79.27460    2.17410    2.53640    2.30580   86.89290  368.99800 4789.23190  396.14700   74.93140  363.43550   97.32420 1629.81690 4865.83400    0.53100    0.58130    -999.25    -999.25
  700.00000  -80.34570    2.66290    3.45030    3.17260   64.19230  291.78410 4824.54050  289.83910   60.19220  230.78920   58.59250 2256.79910 3402.45240    0.34930    0.15610    -999.25    -999.25
  750.00000  -77.20360    3.40940    3.92480    3.52520   70.37710  362.10290 4901.46040  453.28810   58.58280  329.86100  107.35890 1609.83010 3811.27120    0.50960    0.56830    -999.25    -999.25
  800.00000  -89.71160    7.61720    9.26050    8.33710   57.35530  265.87700 4723.89990  288.48760   53.94280  229.14300  110.24570 2495.13110 3692.81320    0.36440    0.10420    -999.25    -999.25
  850.00000 -100.57650   15.49480   16.51020   15.80810   55.16000  262.87230 5228.74410  262.76430   45.11300  235.40530  154.76470 2516.29220 3723.59300    0.28210    0.06250    -999.25    -999.25
  900.00000  -84.54450    3.59920    4.83850    4.14360   77.96690  267.11960 5164.51420  304.88410   64.65950  261.51670  189.68290 2189.88040 4009.13480    0.43050    0.30670    -999.25    -999.25
  950.00000  -86.94030    6.69760    7.20500    6.87030   79.05710  277.83640 5482.11670  288.32200   69.56640  223.76810  110.12490 2588.96530 4181.70650    0.38700    0.02310    -999.25    -999.25
 1000.00000  -86.73600    6.38250    7.22330    6.87880  111.71570  314.09680 5272.98630  258.22250   93.07290  321.87890  154.44400 2381.28880 4184.81010    0.33550    0.09340    -999.25    -999.25
 1050.00000  -85.22000    7.63340    8.20040    7.17590  131.14710  327.17630 5534.04440  306.23320  122.56610  262.51300  171.48470 2159.15310 4196.28420    0.39830    0.29520    -999.25    -999.25
 1100.00000  -86.14800    7.57290    7.72760    6.99690  115.83350  366.27850 5775.33300  280.58990  111.30030  263.87990  219.90250 2372.28640 4478.47610    0.38920    0.17150    -999.25    -999.25
 1150.00000  -84.69070    6.64410    7.18500    6.81970  124.21120  368.46190 5874.33840  279.94980  114.82580  291.09990  252.35550 2222.70950 4764.92090    0.34830    0.26200    -999.25    -999.25
 1200.00000  -83.92810    8.46470    9.32850    8.91060  112.43860  315.10010 5948.30080  279.25850  108.63780  274.09720  140.68950 2522.66890 4881.28370    0.32050    0.07430    -999.25    -999.25
 1250.00000  -84.28970    9.00740    8.46380    8.16180  115.15300    -999.25 6026.78170  277.63900  111.98550  299.17540  218.07940 2136.15450 4866.60350    0.39590    0.28440    -999.25    -999.25
 1300.00000  -80.02130    6.92650    6.66300    6.19640  116.19830  296.10320 6235.29100  271.22530  114.26770  297.09340  266.17240 2270.40650 5078.23190    0.38400    0.19950    -999.25    -999.25
 1350.00000  -77.99720    9.90360    8.60270    8.08480  146.23910  316.41300 4215.56740  301.09420  127.29650  302.66530  253.09800 2368.56760 5027.77100    0.39220    0.17920    -999.25    -999.25
 1400.00000  -78.69690    5.78620    6.01080    5.34300  112.41130  356.24860 4436.98050  280.50510  100.44570  343.13030  236.38580 2118.42750 5602.28960    0.41870    0.32850    -999.25    -999.25
 1450.00000  -76.08690    6.75440    6.27190    6.05500  118.68960    -999.25 4370.89840  291.50230  108.18900  370.19530  232.08220 2075.60450 5284.22170    0.43780    0.37860    -999.25    -999.25
 1500.00000  -73.82010    3.11320    2.84350    2.63440   86.69850  385.01960 4397.07130  316.82640   83.25750  502.59220   53.59600 1506.75880 5482.18360    0.59930    0.60060    -999.25    -999.25
 1550.00000 -106.54840   25.09630   13.11030   16.20100   41.13960  230.94260 4587.72800  236.98880   39.27500  223.34160   75.85480 2490.79980 5600.86040    0.16800    0.09380    -999.25    -999.25
 1600.00000  -78.23540   14.68320   15.31810   14.13710   80.92250  334.95160 4932.91890  232.28610   78.37090  289.12520   63.10150 2539.98220 5853.98050    0.25100    0.05430    -999.25    -999.25
 1650.00000  -79.91000   16.43850   13.04420   12.40140   88.72500  333.80590 5034.85600  227.40850   67.80760  272.37460   37.27390 2548.60110 5941.49020    0.25770    0.03360    -999.25    -999.25
 1700.00000 -101.23650   13.68460    6.28380    8.16130   63.42990  306.21950 5113.69730  233.06810   57.65840  268.92630   37.52950 2549.71360 5992.12700    0.20460    0.06120    -999.25    -999.25
 1750.00000  -57.43040   12.20510    8.75300    6.64100   86.04010  279.90320 5299.00630  232.77880   85.32980  269.51670   30.11670 2531.81880 6131.08790    0.23000    0.04080    -999.25    -999.25
 1800.00000  -80.77200   14.02850   10.57200   11.11170   72.51630  270.21900 5383.34720  240.34970   46.91810  261.81920   16.59010 2511.79300 6244.01170    0.18580    0.10490    0.12490    0.10480
 1850.00000 -100.32390  440.52570  216.71530  165.47390  140.07560  233.88480 3467.35230  205.30630   75.30460  234.37880   38.40380 2609.92530 6366.73190    -999.25    -999.25    0.10910    0.04590
 1900.00000 -111.57870    7.55030    4.50240    4.79210   61.89890  248.03630 3630.74410  209.21030   58.03610  246.46960   41.94270 2659.09670 6535.00340    -999.25    -999.25    0.15840    0.03150
 1950.00000  -68.05210   59.04120   40.27890   41.84530   56.79260  244.34790 3829.62260  184.38020   49.10260  239.83940   25.42800 2710.97850 6713.04540    -999.25    -999.25    0.04180   -0.00550
 2000.00000  -62.67460   33.10400   25.20040   26.16640   32.48430  237.30400 3922.96000  176.93770   43.72280  237.86340   34.04520 2729.55130 6825.99220    -999.25    -999.25    0.03710   -0.00780
 2050.00000  -53.86340   66.24700   46.24520   48.36450   72.76580  239.63570 4074.78490  194.76480   62.98120  237.73240   39.02240 2715.93750 6967.88530    -999.25    -999.25    0.06320   -0.02480
 2100.00000 -129.83790  189.02270  122.90700   93.84350   20.00190  243.19050 4310.47170  165.09770   15.06830  245.68640   40.88950 2733.90110 7019.46090    -999.25    -999.25    0.01520   -0.02530
 2150.00000 -149.51160 1383.14810  599.64110  694.31040   19.75880  241.75750 4461.85210  159.05420   17.78290  250.60720   89.61480 2685.76590 7167.62940    -999.25    -999.25    0.00300   -0.01740
 2200.00000 -173.06610  292.45140  218.38670   99.66840   17.73710  248.88460 4507.36910  162.74960   12.42830  256.11150  111.75790 2739.84080 7295.14060    -999.25    -999.25    0.00180   -0.01670
 2250.00000    -999.25  188.51910   56.38980   72.51890   21.35470  237.83840 4681.30520  156.97900   13.57510  230.15140   47.76350 2744.83840 7440.05710    -999.25    -999.25    0.00680   -0.04200
 2300.00000 -172.37430  143.85430   53.19920   73.85360   26.20540  224.53420 4929.68160  156.70320   19.68590  229.97510   44.11570 2847.30440 7687.12890    -999.25    -999.25    0.03260   -0.09500
