~Version ---------------------------------------------------
VERS.      2.0 : CWLS log ASCII Standard -VERSION 2.0
WRAP.       NO : One line per depth step
CREA. 08/21/13 : LAS Creation Date
~Well ------------------------------------------------------
STRT.m                      450.0 : START DEPTH
STOP.m                     3300.0 : STOP DEPTH
STEP.m                   50.00000 : STEP LENGTH
NULL.                     -999.25 : NULL VALUE
COMP.   GULF CANADA RESOURCES INC : COMPANY
WELL. GULF AEC STURLS 14-20-68-25 : WELL
FLD .                             : FIELD
LOC .                             : LOCATION
CTRY.                      CANADA : COUNTRY
SRVC.                     Unknown : SERVICE COMPANY
DATE.                 26-Sep-1985 : LOGDATE
PROV.                     Alberta : PROVINCE
UWI .            100142006825W500 : UNIQUE WELL ID
SLAT.WGS84               54.90528 : SURFACE LATITUDE
SLON.WGS84              -117.7801 : SURFACE LONGITUDE
~Curve Information -----------------------------------------
DEPT     .m      : Depth Curve
C2ED     .MM     : CALIPER 2 CNLD (ADJ TO RES.)
CALDED   .MM     : CALIPER  CNLD (ADJ TO RES.)
CALSED   .MM     : CALIPER  SONIC (ADJ TO RES.)
CALWS    .MM     : CALIPER (CALDED)
CONDWS   .MMHO   : CONDUCTIVITY (1000/DRESWS)
DCORWS   .KG/M3  : DENSITY CORRECTION (DRHOED)
DENWS    .KG/M3  : BULK DENSITY  (RHOBED)
DPHI_LSED.V/V    : DENSITY POROSITY LIMESTONE  (ADJ TO RES.)
DPHI_SSED.V/V    : DENSITY POROSITY SANDSTONE  (ADJ TO RES.)
DPOLSWS  .V/V    : DENSITY POROSITY (M=2710 F=1000 FROM DENWS)
DRESWS   .OHMM   : DEEP RESISTIVITY (ILDED)
DRHOED   .KG/M3  : DENSITY CORRECTION (ADJ TO RES.)
DTED     .US/M   : DELTA TIME  (ADJ TO RES.)
DTWS     .US/M   : DELTA TIME  (DTED)
GRDED    .GAPI   : GAMMA RAY  CNLD (ADJ TO RES.)
GRRED    .GAPI   : GAMMA RAY  DIL
GRSED    .GAPI   : GAMMA RAY  SONIC (ADJ TO RES.)
GRWS     .GAPI   : GAMMA RAY (GRRED/GRDED @ 451.5) ADJUSTED IN CASING
ILDED    .OHMM   : INDUCTION DEEP RESISTIVITY
ILMED    .OHMM   : INDUCTION MEDIUM RESISTIVITY
MRESWS   .OHMM   : MEDIUM RESISTIVITY (ILMED)
NPHI_LSED.V/V    : NEUTRON POROSITY LIMESTONE (ADJ TO RES.)
NPHI_SSED.V/V    : NEUTRON POROSITY SANDSTONE (ADJ TO RES.)
NPOLSWS  .V/V    : NEUTRON POROSITY LIMESTONE (NPHI_SSED CONVERTED TO LS/NPHI_LSED)
RHOBED   .KG/M3  : BULK DENSITY (ADJ TO RES.)
SFLUED   .OHMM   : SHALLOW FOCUSED RESISTIVITY (UNAVERAGED)
SPRED    .MV     : SPONTANEOUS POTENTIAL DIL
SPWS     .MV     : SPONTANEOUS POTENTIAL (SPRED) BASELINE 0 MV (PARTIALLY REVERSED)
SRESWS   .OHMM   : SHALLOW RESISTIVITY (SFLUED)
TENDED   .N      : TENSION  CNLD (ADJ TO RES.)
TENRED   .N      : TENSION  DIL
TENSED   .N      : TENSION  SONIC (ADJ TO RES.)
~Params ----------------------------------------------------
PD  .                         GL : PERMANENT DATUM
EPD .M                     681.5 : ELEVATION PERMANENT DATUM
LMF .                         KB : LOG MEASURED FROM
DAPD.M                       6.8 : FEET ABOVE PERMANENT DATUM
DMF .                         KB : DRILLING MEASURED FROM
EKB .M                     688.3 : KELLY BUSHING
EDF .M                     687.9 : DRILLING FLOOR
EGL .M                     681.5 : GROUND LEVEL
DATE.                   09/26/85 : RUN DATE
RUN .                          1 : RUN NUMBER
DD  .M                      3321 : DEPTH DRILLER
DL  .M                      3322 : DEPTH LOGGER
BLI .M                      3320 : BOTTOM LOG INTERVAL
TLI .M                       454 : TOP LOG INTERVAL
CS  .MM                    244.5 : CASING SIZE
CBD .M                       455 : CASING BOTTOM DRILLER
CBL .M                       454 : CASING BOTTOM LOGGER
BS  .MM                      222 : BIT SIZE
BSD .M                      3321 : BIT SIZE AT DEPTH
DFT .                   GEL CHEM : DRILLING FLUID TYPE
DFV .                         66 : DRILLING FLUID VISCOSITY
DFPH.                       10.5 : DRILLING FLUID PH
DFL .                         10 : DRILLING FLUID LOSS
MSS .                   FLOWLINE : MUD SAMPLE SOURCE
RMS .OHMM                   1.35 : RESISTIVITY MUD SAMPLE
MST .DEGC                     21 : MUD SAMPLE TEMPERATURE
RMF .OHMM                   1.01 : RESISTIVITY MUD FILTRATE SAMPLE
MFST.DEGC                     23 : MUD FILTRATE SAMPLE TEMPERATURE
RMC .OHMM                  0.376 : RESISTIVITY MUD CAKE
MCST.DEGC                     98 : MUD CAKE SAMPLE TEMPERATURE
MFSS.                       MEAS : MUD FILTRATE SAMPLE SOURCE
RMB .OHMM                  0.481 : RESISTIVITY MUD AT BHT
TCS .HRS                     100 : TIME CIRCULATED STOPPED
TLAB.HRS                     730 : TIME LOGGER AT BOTTOM
LUN .                       8204 : LOGGING UNIT NUMBER
LUL .                         GP : LOGGING UNIT LOCATION
ENGI.                       BELL : RECORDING ENGINEER
WITN.                     WAGNER : WITNESSED BY
CLNT.                    A2DTECH : CLIENT CODE
ORIG. 6.5"/100M 16.5"/100M PRINT : ORIGIN OF DATA
UWI .           100142006825W500 : UNIQUE WELL ID
DICO.     A2D Technologies, Inc. : DIGITIZING COMPANY
~Other -----------------------------------------------------
~ASCII -----------------------------------------------------
# ...
 2650.00000  249.69480  215.58930  229.15280  215.58930    0.54470  -14.94470 2673.72880    0.02030    -999.25    0.02120 1835.85960  -14.94470  160.00530  160.00530    8.54530    6.24670    6.32560    8.54530 1835.85960  764.10820  764.10820    0.00220    -999.25    0.00220 2673.72880  705.41930  -75.91550  -79.13670  705.41930 19828.18920 18175.38330 18054.26920
 2700.00000  345.93730  217.70000  237.36660  217.70000    0.55080    0.43400 2712.68360   -0.00200    -999.25   -0.00160 1815.61960    0.43400  162.49070  162.49070   14.26040   10.45400   10.43720   14.26040 1815.61960  382.66880  382.66880    0.00570    -999.25    0.00570 2712.68360 2012.13810 -126.03730 -100.86010 2012.13810 20009.79070 18294.22030 18294.57040
 2750.00000  353.47790  217.85700  236.26280  217.85700    0.51990   -8.61110 2683.23560    0.01390    -999.25    0.01570 1923.33840   -8.61110  164.14070  164.14070   13.76560   13.32010   13.33050   13.76560 1923.33840 1794.96400 1794.96400    0.00660    -999.25    0.00660 2683.23560 1982.26550  -59.41710  -72.55120 1982.26550 20332.44620 18693.86870 18647.58430
 2800.00000  244.95570  215.87620  221.86390  215.87620   34.66500    4.74040 2709.99370   -0.00460    -999.25    0.00000   28.84750    4.74040  161.06700  161.06700   12.80570   12.78390   12.81520   12.80570   28.84750   39.93430   39.93430    0.08790    -999.25    0.08790 2709.99370  129.50930  -50.70080  -69.05830  129.50930 20803.16830 18921.60560 18895.77680
 2850.00000  338.20360  220.19090  238.24740  220.19090    0.49320   -7.14840 2707.75050   -0.00110    -999.25    0.00130 2027.49650   -7.14840  163.08910  163.08910   17.32610   17.62100   17.70970   17.32610 2027.49650  690.89150  690.89150    0.00700    -999.25    0.00700 2707.75050 1974.72000 -182.93570 -125.97310 1974.72000 20897.33670 19067.52760 19076.76350
 2900.00000  250.35240  223.80330  228.43820  223.80330    0.50580  -16.77200 2668.23680    0.02260    -999.25    0.02440 1976.95670  -16.77200   49.81220   49.81220   26.42430   27.14500   27.28290   26.42430 1976.95670  304.78590  304.78590    0.01060    -999.25    0.01060 2668.23680 1008.60360  -86.27530  -84.78990 1008.60360 21387.17390 19302.84790 19218.51170
 2950.00000  256.28810  227.50430  237.84620  227.50430    3.07890  -11.28850 2664.01000    0.02630    -999.25    0.02690  324.79230  -11.28850  174.10350  174.10350   26.54850   26.30430   26.11680   26.54850  324.79230  266.95470  266.95470    0.01470    -999.25    0.01470 2664.01000  414.80060    1.54520  -47.39520  414.80060 21421.53540 19702.32280 19748.71710
 3000.00000  269.20010  248.10570  248.53040  248.10570  131.20430  -19.55060 2631.20510    0.04370    -999.25    0.04610    7.62170  -19.55060  221.80890  221.80890   57.76430   60.55620   60.63600   57.76430    7.62170    8.44440    8.44440    0.13810    -999.25    0.13810 2631.20510   12.09940  101.58120   -4.85620   12.09940 21981.76880 19930.19400 19995.43470
 3050.00000  264.68370  250.51690  252.70960  250.51690  150.95930   20.94070 2592.82350    0.06210    -999.25    0.06850    6.62430   20.94070  218.07810  218.07810   63.06770   60.60750   60.42570   63.06770    6.62430    7.04990    7.04990    0.13980    -999.25    0.13980 2592.82350    8.04740   81.21740  -14.52580    8.04740 22050.83210 20190.42430 20265.70310
 3100.00000  316.26770  267.18310  278.15100  267.18310  253.19660   90.92320 2545.72780    0.10540    -999.25    0.09610    3.94950   90.92320  253.06240  253.06240   82.04760   84.28600   84.43370   82.04760    3.94950    4.22580    4.22580    0.21800    -999.25    0.21800 2545.72780    4.94430   91.93770  -10.87370    4.94430 22622.27540 20402.18910 20467.54650
 3150.00000  239.90380  222.26340  224.50910  222.26340   13.08990  -11.65670 2418.15670    0.16810    -999.25    0.17070   76.39460  -11.65670  232.03100  232.03100  152.41260  156.34160  153.67300  152.41260   76.39460   82.68200   82.68200    0.19270    -999.25    0.19270 2418.15670  168.86700   98.15490   -9.15140  168.86700 22762.53700 20718.30060 20758.88740
 3200.00000  237.89830  227.83040  229.46590  227.83040    6.43090  -12.70880 2679.37840    0.01560    -999.25    0.01790  155.49970  -12.70880  166.10510  166.10510   18.73540   20.03370   20.13070   18.73540  155.49970  153.13510  153.13510    0.01010    -999.25    0.01010 2679.37840  240.84610   79.89730  -17.91840  240.84610 22994.20240 21056.11320 21374.06730
 3250.00000  246.57580  220.61150  225.87740  220.61150   17.66490  -24.18400 2678.15670    0.01650    -999.25    0.01860   56.60930  -24.18400  176.66980  176.66980   46.86360   38.66590   37.87080   46.86360   56.60930   59.94690   59.94690    0.04680    -999.25    0.04680 2678.15670   83.63220   95.84660  -12.02520   83.63220 23429.01850 21340.76690 21481.76890
 3300.00000  243.79960  222.92480  222.45960  222.92480  311.89570  -25.07440 2523.26860    0.10340    -999.25    0.10920    3.20620  -25.07440  203.74500  203.74500   17.18040   15.60580   15.68080   17.18040    3.20620    3.35390    3.35390    0.06060    -999.25    0.06060 2523.26860    5.55310   35.17700  -38.92350    5.55310 23156.71820 21621.64990 21739.93970
