~Version ---------------------------------------------------
VERS.      2.0 : CWLS log ASCII Standard -VERSION 2.0
WRAP.       NO : One line per depth step
CREA. 10/03/17 : LAS Creation Date
~Well ------------------------------------------------------
STRT.FT                               950.0 : START DEPTH
STOP.FT                              8800.0 : STOP DEPTH
STEP.FT                            50.00000 : STEP LENGTH
NULL.                               -999.25 : NULL VALUE
COMP. CANADA CITIES SERVICE PETROLEUM CORP. : COMPANY
WELL.          CS CPOG KNOB HILL 10-25-46-2 : WELL
FLD .                                       : FIELD
LOC .                                       : LOCATION
CTRY.                                CANADA : COUNTRY
SRVC.                               Unknown : SERVICE COMPANY
DATE.                           04-Jul-1966 : LOGDATE
PROV.                               Alberta : PROVINCE
UWI .                      100102504602W500 : UNIQUE WELL ID
SLAT.WGS84                         52.99806 : SURFACE LATITUDE
SLON.WGS84                        -114.1551 : SURFACE LONGITUDE
~Curve Information -----------------------------------------
DEPT  .FT    : Depth Curve
CALSED.IN    : CALIPER FROM SONIC LOG
CALWS .IN    : CALIPER [CALSED]
CILDED.MMHO  : CONDUCTIVITY FROM RESISTIVITY LOG
CONDWS.MMHO  : CONDUCTIVITY [1000/DRESWS]
DRESWS.OHMM  : DEEP RESISTIVITY [1000/CILDED, IF ILDED<5, ILDED]
DTED  .US/F  : DELTA TIME FROM SONIC LOG
DTWS  .US/F  : COMPRESSIONAL SONIC [DTED]
GRSED .GAPI  : GAMMA RAY FROM SONIC LOG
GRWS  .GAPI  : GAMMA RAY [GRSED]
ILDED .OHMM  : INDUCTION LOG DEEP RESISTIVITY FROM RESISTIVITY LOG
SNED  .OHMM  : 16 INCH SHORT NORMAL RESISTIVITY FROM RESISTIVITY LOG
SPRED .MV    : SPONTANEOUS POTENTIAL FROM RESISTIVITY LOG
SPWS  .MV    : SPONTANEOUS POTENTIAL [BASELINE 0 MV, SPRED]
SRESWS.OHMM  : SHALLOW RESISTIVITY [SNED]
~Params ----------------------------------------------------
PD  .                     GL : PERMANENT DATUM
EPD .FT                 3004 : ELEVATION PERMANENT DATUM
LMF .                     KB : LOG MEASURED FROM
DAPD.FT                   12 : FEET ABOVE PERMANENT DATUM
EKB .FT                 3016 : KELLY BUSHING
EGL .FT                 3004 : GROUND LEVEL
DATE.               07/30/66 : RUN DATE
RUN .                      2 : RUN NUMBER
DD  .FT                 8828 : DEPTH DRILLER
DL  .FT                 8829 : DEPTH LOGGER
BLI .FT                 8828 : BOTTOM LOG INTERVAL
TLI .FT                 5750 : TOP LOG INTERVAL
CBD .FT                  911 : CASING BOTTOM DRILLER
CBL .FT                  913 : CASING BOTTOM LOGGER
BS  .IN                7.875 : BIT SIZE
BSD .FT                 8828 : BIT SIZE AT DEPTH
DFT .                    GEL : DRILLING FLUID TYPE
DFD .                    9.6 : DRILLING FLUID DENSITY
DFV .                     98 : DRILLING FLUID VISCOSITY
DFPH.                    0.5 : DRILLING FLUID PH
DFL .                    8.0 : DRILLING FLUID LOSS
RMS .OHMM               1.02 : RESISTIVITY MUD SAMPLE
MST .DEGF                 76 : MUD SAMPLE TEMPERATURE
RMF .OHMM               0.71 : RESISTIVITY MUD FILTRATE SAMPLE
MFST.DEGF                 72 : MUD FILTRATE SAMPLE TEMPERATURE
RMC .OHMM               1.27 : RESISTIVITY MUD CAKE
MCST.DEGF                 76 : MUD CAKE SAMPLE TEMPERATURE
RMB .OHMM               0.52 : RESISTIVITY MUD AT BHT
TCS .HRS                   2 : TIME CIRCULATED STOPPED
LUN .                   3534 : LOGGING UNIT NUMBER
LUL .                     SL : LOGGING UNIT LOCATION
ENGI.                  DUFFY : RECORDING ENGINEER
WITN.      DEGEMHARDT MOONEY : WITNESSED BY
CLNT.                A2DTECH : CLIENT CODE
ORIG.       2" 5" 2.5" PRINT : ORIGIN OF DATA
UWI .       100102504602W500 : UNIQUE WELL ID
DICO. A2D Technologies, Inc. : DIGITIZING COMPANY
~Other -----------------------------------------------------
IEL-BHC SONIC TOOL RUN
~ASCII -----------------------------------------------------
  950.00000    8.15200    8.15200  160.22610  156.92110    6.37270  107.10850  107.10850   87.93500   87.93500    6.37270    5.95290  -37.62810   -4.13860    5.95290
 1000.00000    8.55480    8.55480  317.80360  317.80360    3.14660  129.58880  129.58880  101.98300  101.98300    3.59360    2.66920  -37.15940   -3.78660    2.66920
 1050.00000    8.35190    8.35190  219.92040  219.92040    4.54710  122.66040  122.66040   73.63450   73.63450    4.82620    6.60800  -36.72350   -3.46740    6.60800
 1100.00000    8.47850    8.47850  160.97890  160.97890    6.21200  113.22150  113.22150   88.43180   88.43180    6.43840    6.11400  -37.71880   -4.58020    6.11400
 1150.00000    8.00910    8.00910  144.67110  140.07170    7.13920  104.22270  104.22270   75.86940   75.86940    7.13920    6.08230  -42.10310   -9.08120    6.08230
 1200.00000    8.04800    8.04800  204.20920  197.83820    5.07390  109.28020  109.28020   81.31510   81.31510    5.17850    4.55390  -39.95270   -7.04830    4.55390
 1250.00000    8.08390    8.08390  147.36680  148.85600    6.71790   98.05720   98.05720   76.05250   76.05250    6.71790    6.00230  -40.56660   -7.77890    6.00230
 1300.00000    7.85900    7.85900   76.86750   79.85310   12.52300   79.70370   79.70370   57.90560   57.90560   12.52300   11.51530  -44.92200  -12.25100   11.51530
 1350.00000    7.93960    7.93960  186.74480  182.92240    5.46680  102.45290  102.45290   76.55230   76.55230    5.46680    5.08520  -39.67590   -7.12240    5.08520
 1400.00000    8.53580    8.53580  216.26400  196.33640    5.09330  121.12290  121.12290   70.05070   70.05070    5.09330    4.82530  -39.63910   -7.20230    4.82530
 1450.00000    8.26510    8.26510  222.78150  222.78150    4.48970  108.85540  108.85540   73.04310   73.04310    4.64790    5.04600  -39.08340   -6.76410    5.04600
 1500.00000    8.17520    8.17520  143.53050  145.05580    6.89390  104.24160  104.24160   91.50080   91.50080    6.89390    7.34350  -38.75770   -6.55510    7.34350
 1550.00000    8.21140    8.21140  269.68040  269.68040    3.70810  109.70580  109.70580   80.37790   80.37790    4.02660    3.80410  -38.75810   -6.67220    3.80410
 1600.00000    8.15490    8.15490  213.46250  213.46250    4.68470   96.59310   96.59310   83.98110   83.98110    4.89240    4.73170  -38.12480   -6.15640    4.73170
 1650.00000    8.15190    8.15190  195.52160  194.98120    5.12870  109.26520  109.26520   79.57290   79.57290    5.12870    4.68890  -39.39980   -7.54810    4.68890
 1700.00000    8.33960    8.33960  153.45690  154.44410    6.48590  101.57980  101.57980   79.71510   79.71510    6.48590    6.40920  -40.05280   -8.31860    6.40920
 1750.00000    8.11320    8.11320  102.90490  101.15210    9.88610   87.81210   87.81210   56.44780   56.44780    9.88610    9.66040  -40.16990   -8.55240    9.66040
 1800.00000    8.23980    8.23980  275.39830  275.39830    3.63110  110.93960  110.93960   87.08510   87.08510    3.85740    4.87280  -39.70340   -8.20260    4.87280
 1850.00000    8.20770    8.20770  126.33030  125.45950    7.97070   97.69960   97.69960   86.22140   86.22140    7.97070    9.61910  -42.62930  -11.24600    9.61910
 1900.00000    8.28050    8.28050  225.74070  225.74070    4.42990  103.43640  103.43640   84.11860   84.11860    4.63030    4.73990  -40.46190   -9.19530    4.73990
 1950.00000    8.14850    8.14850  162.24470  159.17340    6.28260   91.40990   91.40990   76.06040   76.06040    6.28260    5.61990  -39.75530   -8.60620    5.61990
 2000.00000    8.17770    8.17770  169.29240  167.07600    5.98530   92.40800   92.40800   74.55430   74.55430    5.98530    5.85810  -41.00090   -9.96850    5.85810
 2050.00000    8.13090    8.13090   94.08810   95.74600   10.44430   87.79490   87.79490   56.39000   56.39000   10.44430   12.38870  -45.60770  -14.69200   12.38870
 2100.00000    8.01350    8.01350   78.04760   80.13530   12.47890   89.33950   89.33950   82.72100   82.72100   12.47890   12.74460  -44.98300  -14.18480   12.74460
 2150.00000    8.27020    8.27020  153.16430  156.13530    6.40470   91.34610   91.34610   73.98430   73.98430    6.40470    6.26230  -40.51820   -9.83670    6.26230
 2200.00000    8.25690    8.25690  198.15550  198.15550    5.04680  110.40720  110.40720   84.77720   84.77720    4.93370    7.22530  -39.43350   -8.86950    7.22530
 2250.00000    8.40920    8.40920  274.46400  274.46400    3.64350   98.83950   98.83950   87.55960   87.55960    3.55590    3.76300  -38.37360   -7.92630    3.76300
 2300.00000    8.27710    8.27710  171.65050  175.97890    5.68250   95.13690   95.13690   77.50040   77.50040    5.68250    6.26290  -39.65170   -9.32110    6.26290
 2350.00000    8.01580    8.01580  147.22000  153.44950    6.51680   89.38900   89.38900   76.24270   76.24270    6.51680    5.86320  -41.88960  -11.67650    5.86320
 2400.00000    7.88660    7.88660  113.49630  114.92540    8.70130   88.68230   88.68230   54.05180   54.05180    8.70130    9.58340  -44.39910  -14.30270    9.58340
 2450.00000    8.69640    8.69640  225.91090  225.91090    4.42870   96.97230   96.97230   83.38340   83.38340    4.40500    4.86210  -41.12550  -11.14660    4.86210
 2500.00000    8.09340    8.09340  245.46740  245.46740    4.07390   92.70870   92.70870   88.13930   88.13930    4.04500    4.72190  -41.54620  -11.68400    4.72190
 2550.00000    7.72900    7.72900   90.52770   89.25300   11.20410   88.59140   88.59140   72.71120   72.71120   11.20410   11.59260  -45.16620  -15.42080   11.59260
 2600.00000    8.47880    8.47880  179.51170  188.97160    5.29180   97.69020   97.69020   60.35860   60.35860    5.29180    5.15390  -38.62160   -8.99360    5.15390
 2650.00000    7.27350    7.27350   54.00410   57.32100   17.44560   89.42830   89.42830   44.65470   44.65470   17.44560   23.91890  -77.66190  -48.15060   23.91890
 2700.00000    7.77320    7.77320   75.06170   75.33100   13.29750   88.71080   88.71080   57.48720   57.48720   13.29750   14.03390  -54.01380  -24.62000   14.03390
 2750.00000    8.47560    8.47560  185.85570  182.40520    5.48230   94.11740   94.11740   60.82220   60.82220    5.48230    6.18410  -35.75940   -6.48230    6.18410
 2800.00000    7.82710    7.82710   42.85970   43.95010   22.75310   75.24610   75.24610   51.39610   51.39610   22.75310   25.17650  -40.11650  -10.95620   25.17650
 2850.00000    8.15560    8.15560  204.02290  204.02290    4.90140   81.50360   81.50360   72.23710   72.23710    4.81530    5.30870  -31.93430   -2.89140    5.30870
 2900.00000    8.34370    8.34370  182.51910  195.22480    5.12230   97.62690   97.62690   63.76680   63.76680    5.12230    5.50740  -31.31590   -2.38980    5.50740
 2950.00000    9.22380    9.22380  182.21410  178.19930    5.61190   97.69910   97.69910   52.56350   52.56350    5.61190    5.47250  -30.61450   -1.74080    5.47250
 3000.00000    8.77210    8.77210  163.53350  165.07100    6.05800   95.55240   95.55240   60.19330   60.19330    6.05800    6.20340  -31.36340   -2.24020    6.20340
 3050.00000    8.65580    8.65580  197.50130  198.70050    5.03270   91.63660   91.63660   53.21790   53.21790    5.03270    6.35250  -32.84090   -3.46820    6.35250
 3100.00000    8.75210    8.75210  147.49460  151.59550    6.59650  109.01420  109.01420   46.39320   46.39320    6.59650    7.70200  -36.10790   -6.48410    7.70200
 3150.00000   10.84270   10.84270  244.21560  244.21560    4.09470  119.02740  119.02740   55.58010   55.58010    4.19920    5.56240  -35.07580   -5.20250    5.56240
 3200.00000    8.22830    8.22830  143.53600  149.39350    6.69380   89.36000   89.36000   51.94270   51.94270    6.69380    7.14930  -34.28130   -4.15690    7.14930
 3250.00000    7.61870    7.61870   51.46950   52.78100   18.94620   84.41220   84.41220   35.24550   35.24550   18.94620   44.99590  -89.96950  -59.59570   44.99590
 3300.00000    7.94450    7.94450  128.79690  129.61760    7.71500   93.32990   93.32990   50.26070   50.26070    7.71500    9.64430  -38.74500   -8.12170    9.64430
 3350.00000    8.51230    8.51230  186.96750  192.41130    5.19720   92.92400   92.92400   43.66660   43.66660    5.19720    5.94200  -39.99170   -9.11730    5.94200
