~Version ---------------------------------------------------
VERS.      2.0 : CWLS log ASCII Standard -VERSION 2.0
WRAP.       NO : One line per depth step
CREA. 12/13/17 : LAS Creation Date
~Well ------------------------------------------------------
STRT.FT                   900.0 : START DEPTH
STOP.FT                  9200.0 : STOP DEPTH
STEP.FT                50.00000 : STEP LENGTH
NULL.                   -999.25 : NULL VALUE
COMP.     TEXACO CANADA LIMITED : COMPANY
WELL. TEXACO SUNSET 16-17-69-19 : WELL
FLD .                           : FIELD
LOC .                           : LOCATION
CTRY.                    CANADA : COUNTRY
SRVC.                   Unknown : SERVICE COMPANY
DATE.               16-Oct-1970 : LOGDATE
PROV.                   Alberta : PROVINCE
UWI .          100161706919W500 : UNIQUE WELL ID
SLAT.WGS84               54.979 : SURFACE LATITUDE
SLON.WGS84            -116.8515 : SURFACE LONGITUDE
~Curve Information -----------------------------------------
DEPT  .FT    : Depth Curve
ACED  .US/F  : DELTA TIME FROM SONIC LOG [ADJ. TO RESISTIVITY LOG]
CALSED.IN    : CALIPER FROM SONIC LOG [ADJ. TO RESISTIVITY LOG]
CALWS .IN    : CALIPER [MCALED SPL. TO CALSED @ 4782']
CONDWS.MMHO  : CONDUCTIVITY [1000/DRESWS]
DRESWS.OHMM  : DEEP RESISTIVITY [ILDED]
DTWS  .US/F  : COMPRESSIONAL SONIC [ACED]
GRSED .GAPI  : GAMMA RAY FROM SONIC LOG [ADJ. TO RESISTIVITY LOG]
GRWS  .GAPI  : GAMMA RAY [GRSED]
ILDED .OHMM  : DEEP INDUCTION RESISTIVITY FROM RESISTIVITY LOG
ILMED .OHMM  : MEDIUM INDUCTION RESISTIVITY FROM RESISTIVITY LOG
MCALED.IN    : MICRO CALIPER FROM ML LOG
MRESWS.OHMM  : MEDIUM RESISTIVITY [ILMED]
SFLED .OHMM  : SPHERICALLY FOCUSED RESISTIVITY FROM RESISTIVITY LOG
SPRED .MV    : SPONTANEOUS POTENTIAL FROM RESISTIVITY LOG
SPWS  .MV    : SPONTANEOUS POTENTIAL [BASELINE 0 MV, SPRED]
SRESWS.OHMM  : SHALLOW RESISTIVITY [SFLED]
~Params ----------------------------------------------------
PD  .                     GL : PERMANENT DATUM
EPD .FT               2413.8 : ELEVATION PERMANENT DATUM
LMF .                     KB : LOG MEASURED FROM
DAPD.FT                    2 : FEET ABOVE PERMANENT DATUM
DMF .                     KB : DRILLING MEASURED FROM
EKB .FT                 2428 : KELLY BUSHING
EGL .FT               2413.8 : GROUND LEVEL
DATE.               10/16/70 : RUN DATE
RUN .                      1 : RUN NUMBER
DD  .FT                 9205 : DEPTH DRILLER
DL  .FT                 9205 : DEPTH LOGGER
BLI .FT                 9204 : BOTTOM LOG INTERVAL
TLI .FT                  929 : TOP LOG INTERVAL
CS  .IN                8.625 : CASING SIZE
CBD .FT                  929 : CASING BOTTOM DRILLER
CBL .FT                  929 : CASING BOTTOM LOGGER
BS  .IN                7.875 : BIT SIZE
BSD .FT                 9205 : BIT SIZE AT DEPTH
DFT .                MUD GEL : DRILLING FLUID TYPE
DFD .                    9.4 : DRILLING FLUID DENSITY
DFV .                     75 : DRILLING FLUID VISCOSITY
DFPH.                    9.5 : DRILLING FLUID PH
DFL .                    8.4 : DRILLING FLUID LOSS
MSS .                   CIRC : MUD SAMPLE SOURCE
RMS .OHMM                0.9 : RESISTIVITY MUD SAMPLE
MST .DEGF                 65 : MUD SAMPLE TEMPERATURE
RMF .OHMM                0.8 : RESISTIVITY MUD FILTRATE SAMPLE
MFST.DEGF                 65 : MUD FILTRATE SAMPLE TEMPERATURE
RMC .OHMM                1.4 : RESISTIVITY MUD CAKE
MCST.DEGF                 65 : MUD CAKE SAMPLE TEMPERATURE
MFSS.                   MEAS : MUD FILTRATE SAMPLE SOURCE
MCSS.                   MEAS : MUD CAKE SAMPLE SOURCE
RMB .OHMM                0.3 : RESISTIVITY MUD AT BHT
TCS .HRS                   3 : TIME CIRCULATED STOPPED
LUN .                   6090 : LOGGING UNIT NUMBER
LUL .                    V V : LOGGING UNIT LOCATION
ENGI.                 OFFORD : RECORDING ENGINEER
WITN.        PATTERSON IRVIN : WITNESSED BY
CLNT.                A2DTECH : CLIENT CODE
ORIG.            2" 5" PRINT : ORIGIN OF DATA
UWI .       100161706919W500 : UNIQUE WELL ID
DICO. A2D Technologies, Inc. : DIGITIZING COMPANY
~Other -----------------------------------------------------
~ASCII -----------------------------------------------------
  900.00000    -999.25    -999.25    -999.25    -999.25    -999.25    -999.25   36.81620   36.81620    -999.25    -999.25    -999.25    -999.25    -999.25    -999.25    -999.25    -999.25
  950.00000  173.78630    -999.25   15.82560  247.76830    4.03940  173.78630   49.89900   49.89900    4.03940    4.31460   15.82560    4.31460    5.03730 -111.19930   -5.09860    5.03730
 1000.00000  134.38600    -999.25    9.59210  235.29410    4.25000  134.38600   67.07650   67.07650    4.25000    4.71820    9.59210    4.71820    5.96660 -109.52750   -4.21950    5.96660
 1050.00000  139.95270    -999.25   15.93710  284.71370    3.51230  139.95270   50.60230   50.60230    3.51230    3.87580   15.93710    3.87580    5.07940 -108.62660   -4.11140    5.07940
 1100.00000  122.04860    -999.25   15.58700  196.81940    5.08080  122.04860   59.69490   59.69490    5.08080    5.40500   15.58700    5.40500    6.44030 -107.20700   -3.48970    6.44030
 1150.00000  119.90850    -999.25    8.30980  129.71180    7.70940  119.90850   59.27740   59.27740    7.70940    9.04770    8.30980    9.04770    9.65410 -116.01340  -13.08890    9.65410
 1200.00000  132.87930    -999.25   14.26940  216.45130    4.62010  132.87930   55.67280   55.67280    4.62010    5.01410   14.26940    5.01410    5.79100 -107.71850   -5.59200    5.79100
 1250.00000  124.82160    -999.25   10.31690  152.42740    6.56050  124.82160   56.60070   56.60070    6.56050    7.11320   10.31690    7.11320    8.17930 -112.56240  -10.93110    8.17930
 1300.00000   98.01550    -999.25    8.52950   43.35290   23.06650   98.01550   53.37540   53.37540   23.06650   27.63930    8.52950   27.63930   20.48200 -115.45790  -13.65700   20.48200
 1350.00000  114.94520    -999.25   10.42640  106.93240    9.35170  114.94520   59.15930   59.15930    9.35170   10.53360   10.42640   10.53360    8.81180 -118.34510  -16.37350    8.81180
 1400.00000  118.33910    -999.25   13.18120  196.23620    5.09590  118.33910   67.42420   67.42420    5.09590    6.39500   13.18120    6.39500    7.29350 -111.89160   -9.75040    7.29350
 1450.00000  118.65280    -999.25   15.52070  210.93550    4.74140  118.65280   69.11410   69.11410    4.74140    5.49480   15.52070    5.49480    6.72260 -113.49380  -11.18190    6.72260
 1500.00000  126.23600    -999.25   15.90790  205.21240    4.87300  126.23600   63.88390   63.88390    4.87300    5.46670   15.90790    5.46670    6.23210 -114.31060  -11.82910    6.23210
 1550.00000  125.81050    -999.25   15.93390  223.98420    4.46460  125.81050   62.19840   62.19840    4.46460    4.99590   15.93390    4.99590    6.30190 -117.29970  -14.64860    6.30190
 1600.00000  109.97740    -999.25   15.21660  162.42200    6.15680  109.97740   60.07300   60.07300    6.15680    7.28670   15.21660    7.28670    8.52010 -120.11530  -17.29350    8.52010
 1650.00000  113.63510    -999.25   15.35720  177.75880    5.62560  113.63510   65.28980   65.28980    5.62560    6.19970   15.35720    6.19970    6.61050 -119.92740  -16.93610    6.61050
 1700.00000  121.38840    -999.25   14.12640  205.96020    4.85560  121.38840   63.40700   63.40700    4.85560    5.36410   14.12640    5.36410    6.40570 -116.66230  -13.50030    6.40570
 1750.00000  108.65360    -999.25   11.22700  143.00420    6.99280  108.65360   70.83020   70.83020    6.99280    7.57770   11.22700    7.57770    8.48600 -119.58820  -16.25660    8.48600
 1800.00000  143.60750    -999.25   16.05770  130.60630    7.65660  143.60750   61.58120   61.58120    7.65660    8.07140   16.05770    8.07140    9.03020 -120.36660  -16.86540    9.03020
 1850.00000  179.03800    -999.25   16.02120  192.31510    5.19980  179.03800   72.19790   72.19790    5.19980    5.94830   16.02120    5.94830    7.45660 -121.08800  -17.41610    7.45660
 1900.00000  114.22830    -999.25   15.34070  164.86420    6.06560  114.22830  132.28590  132.28590    6.06560    6.65320   15.34070    6.65320    8.76820 -119.62680  -15.78530    8.76820
 1950.00000  114.25300    -999.25   12.29030  122.56500    8.16180  114.25300  169.16730  169.16730    8.16180    9.38660   12.29030    9.38660   11.12250 -122.14600  -18.13380   11.12250
 2000.00000  111.21040    -999.25   13.42800  145.58370    6.86890  111.21040  123.15700  123.15700    6.86890    7.37270   13.42800    7.37270    9.64490 -122.63580  -18.45400    9.64490
 2050.00000  104.70490    -999.25   15.59960   96.82140   10.32830  104.70490   93.61430   93.61430   10.32830   11.19470   15.59960   11.19470   12.09110 -129.43860  -25.08720   12.09110
 2100.00000  108.21480    -999.25   15.64160   96.01630   10.41490  108.21480   99.74640   99.74640   10.41490   11.47640   15.64160   11.47640   12.02150 -127.04270  -22.52060   12.02150
 2150.00000  109.36430    -999.25   14.90400  124.06180    8.06050  109.36430  107.25700  107.25700    8.06050    8.95150   14.90400    8.95150   10.15430 -128.84940  -24.15780   10.15430
 2200.00000  110.91430    -999.25   15.83310  104.46640    9.57350  110.91430  106.44460  106.44460    9.57350   10.38800   15.83310   10.38800   11.11690 -129.14560  -24.28330   11.11690
 2250.00000  110.82460    -999.25   13.70930  128.50000    7.78210  110.82460  103.82030  103.82030    7.78210    9.41520   13.70930    9.41520   10.11760 -128.88260  -23.85070   10.11760
 2300.00000  149.62160    -999.25   15.91700   96.63330   10.34840  149.62160   79.10070   79.10070   10.34840   10.78580   15.91700   10.78580   11.25760 -127.40430  -22.20280   11.25760
 2350.00000  130.61370    -999.25   10.84750   75.50650   13.24390  130.61370   94.49110   94.49110   13.24390   11.60800   10.84750   11.60800    9.39260 -127.70650  -22.33430    9.39260
 2400.00000  113.16610    -999.25   15.97530   99.34730   10.06570  113.16610   78.95730   78.95730   10.06570    9.02600   15.97530    9.02600    8.17470 -122.95430  -17.41250    8.17470
 2450.00000   80.80640    -999.25   15.53530   70.61340   14.16200   80.80640   86.83030   86.83030   14.16200   10.96090   15.53530   10.96090    9.08470 -123.31130  -17.59880    9.08470
 2500.00000  114.64870    -999.25   15.92950  109.82980    9.10500  114.64870   94.57120   94.57120    9.10500    8.25990   15.92950    8.25990    6.81050 -122.61250  -16.73040    6.81050
 2550.00000  115.88770    -999.25   14.12510  111.66320    8.95550  115.88770  114.56390  114.56390    8.95550    8.06270   14.12510    8.06270    7.51520 -121.12330  -15.07160    7.51520
 2600.00000  106.92910    -999.25   15.29490  102.92620    9.71570  106.92910  119.09130  119.09130    9.71570    8.86380   15.29490    8.86380    8.15790 -120.90330  -14.68090    8.15790
 2650.00000  111.14590    -999.25   14.46610  107.24320    9.32460  111.14590  111.42940  111.42940    9.32460    8.59530   14.46610    8.59530    7.82940 -120.14810  -13.75620    7.82940
 2700.00000  111.89240    -999.25   11.84370   87.68120   11.40760  111.89240  137.81040  137.81040   11.40760   10.00270   11.84370   10.00270    9.22150 -121.88040  -15.31780    9.22150
 2750.00000   96.51020    -999.25   11.23000   95.41350   10.48070   96.51020  121.61900  121.61900   10.48070    9.44030   11.23000    9.44030    9.85450 -123.16820  -16.43600    9.85450
 2800.00000  123.31980    -999.25   15.21060  146.52230    6.82490  123.31980   88.98980   88.98980    6.82490    6.22940   15.21060    6.22940    5.64060 -118.35970  -11.45790    5.64060
 2850.00000  100.80230    -999.25   14.08920  126.98250    7.87510  100.80230  105.18920  105.18920    7.87510    7.03850   14.08920    7.03850    6.70400 -118.40190  -11.32940    6.70400
 2900.00000  100.39590    -999.25   12.69620  120.25740    8.31550  100.39590  108.92640  108.92640    8.31550    7.68910   12.69620    7.68910    7.42360 -118.17140  -10.92930    7.42360
 2950.00000   94.18400    -999.25   12.30340  113.75420    8.79100   94.18400  103.92250  103.92250    8.79100    8.19360   12.30340    8.19360    8.39880 -119.07490  -11.66210    8.39880
 3000.00000  102.03580    -999.25   14.35510  187.92750    5.32120  102.03580  107.02060  107.02060    5.32120    6.02190   14.35510    6.02190    6.52360 -115.93330   -8.35090    6.52360
