~Version ---------------------------------------------------
VERS.      2.0 : CWLS log ASCII Standard -VERSION 2.0
WRAP.       NO : One line per depth step
CREA. 09/16/14 : LAS Creation Date
~Well ------------------------------------------------------
STRT.FT                      1000.0 : START DEPTH
STOP.FT                      9200.0 : STOP DEPTH
STEP.FT                    50.00000 : STEP LENGTH
NULL.                       -999.25 : NULL VALUE
COMP. AMOCO CANADA PETROLEUM CO LTD : COMPANY
WELL.    AMOCO HB SAKWA 11-26-62-14 : WELL
FLD .                               : FIELD
LOC .                               : LOCATION
CTRY.                        CANADA : COUNTRY
SRVC.                       Unknown : SERVICE COMPANY
DATE.                   15-Jan-1977 : LOGDATE
PROV.                       Alberta : PROVINCE
UWI .              100112606214W500 : UNIQUE WELL ID
SLAT.WGS84                 54.39502 : SURFACE LATITUDE
SLON.WGS84                 -115.993 : SURFACE LONGITUDE
~Curve Information -----------------------------------------
DEPT   .FT    : Depth Curve
CALD   .IN    : CALIPER FROM DENSITY LOG
CALS   .IN    : CALIPER FROM SONIC LOG
DPHI_LS.DEC   : DENSITY POROSITY LIMESTONE [M=2.71,F=1.0] FROM DENSITY LOG
DPHI_SS.DEC   : DENSITY POROSITY SANDSTONE [M=2.65,F=1.0] FROM DENSITY LOG
DRHO   .G/C3  : DENSITY CORRECTION FROM DENSITY LOG
DT     .US/F  : DELTA-T FROM SONIC LOG
GRD    .GAPI  : GAMMA RAY FROM DENSITY LOG
GRS    .GAPI  : GAMMA RAY FROM SONIC LOG
ILD    .OHMM  : DEEP INDUCTION RESISTIVITY FROM RESISTIVITY LOG
ILM    .OHMM  : MEDIUM INDUCTION RESISTIVITY FROM RESISTIVITY LOG
LL8    .OHMM  : LATEROLOG 8 FROM RESISTIVITY LOG
NPHI_LS.DEC   : NEUTRON POROSITY LIMESTONE FROM DENSITY LOG
NPHI_SS.DEC   : NEUTRON POROSITY SANDSTONE FROM DENSITY LOG
RHOB   .G/C3  : BULK DENSITY FROM DENSITY LOG
SPR    .MV    : SPONTANEOUS POTENTIAL FROM RESISTIVITY LOG
~Params ----------------------------------------------------
PD  .                     GL : PERMANENT DATUM
EPD .FT                 2835 : ELEVATION PERMANENT DATUM
LMF .                     KB : LOG MEASURED FROM
DAPD.FT                 14.6 : FEET ABOVE PERMANENT DATUM
EKB .FT               2849.6 : KELLY BUSHING
EGL .FT               2835.0 : GROUND LEVEL
DATE.               01/15/77 : RUN DATE
RUN .                      1 : RUN NUMBER
DD  .FT                 9200 : DEPTH DRILLER
DL  .FT                 9205 : DEPTH LOGGER
BLI .FT                 9204 : BOTTOM LOG INTERVAL
TLI .FT                 1012 : TOP LOG INTERVAL
CBD .FT                 1015 : CASING BOTTOM DRILLER
CBL .FT                 1012 : CASING BOTTOM LOGGER
BS  .IN                 8.25 : BIT SIZE
BSD .FT                 9200 : BIT SIZE AT DEPTH
DFT .                    GEL : DRILLING FLUID TYPE
DFD .                    9.1 : DRILLING FLUID DENSITY
DFV .                    105 : DRILLING FLUID VISCOSITY
DFPH.                    9.5 : DRILLING FLUID PH
RMS .OHMM               3.85 : RESISTIVITY MUD SAMPLE
MST .DEGF                 48 : MUD SAMPLE TEMPERATURE
RMF .OHMM               3.25 : RESISTIVITY MUD FILTRATE SAMPLE
MFST.DEGF                 62 : MUD FILTRATE SAMPLE TEMPERATURE
TCS .HRS                   8 : TIME CIRCULATED STOPPED
LUN .                   7802 : LOGGING UNIT NUMBER
LUL .                    EDM : LOGGING UNIT LOCATION
ENGI.                   PIHM : RECORDING ENGINEER
WITN.            PHILLIPCHUK : WITNESSED BY
CLNT.                A2DTECH : CLIENT CODE
ORIG.            2" 5" PRINT : ORIGIN OF DATA
UWI .       100112606214W500 : UNIQUE WELL ID
DICO. A2D Technologies, Inc. : DIGITIZING COMPANY
~Other -----------------------------------------------------
~ASCII -----------------------------------------------------
# ...
 3300.00000   12.99480    9.92600    -999.25    0.17930    0.08070   88.17360  104.20310  117.83130    6.93810    6.30390    6.99580    -999.25    0.33560    2.36580  -66.31500
 3350.00000   13.03890   10.04990    -999.25    0.16000    0.10470   87.55600  102.01100  137.03480    6.51980    6.01640    6.64580    -999.25    0.29900    2.40140  -65.80200
 3400.00000   11.65460    9.72760    -999.25    0.14680    0.13720   96.69570  113.45260  125.78370    7.94860    7.46690    8.32800    -999.25    0.34470    2.41930  -66.31350
 3450.00000   12.93330    9.59380    -999.25    0.18710    0.07580   94.84930  112.15760  125.47750    7.54560    6.84020    6.39310    -999.25    0.31460    2.35600  -67.25180
 3500.00000   12.02870    9.79810    -999.25    0.19220    0.08390   89.61490  105.13520  127.42630    7.27930    6.45960    6.88970    -999.25    0.33400    2.34780  -66.64700
 3550.00000   11.31330    9.74690    -999.25    0.18970    0.07650   95.34980  104.77830  117.51610    8.21080    7.57580    8.07900    -999.25    0.30720    2.36670  -64.26750
 3600.00000   12.18890    9.72870    -999.25    0.18320    0.08100   93.33820   91.35520  119.77460    8.09810    7.62300    9.84910    -999.25    0.29630    2.33740  -64.53110
 3650.00000   10.93490   10.09110    -999.25    0.23440    0.17690   86.13840  100.61080  130.98810    7.96600    6.27360    8.11450    -999.25    0.37580    2.28460  -65.19250
 3700.00000   12.01630    9.39120    -999.25    0.19400    0.17630   95.80280  115.05910  149.46280    6.78360    6.15420    6.11730    -999.25    0.38850    2.43380  -63.64630
 3750.00000   12.40670    9.91230    -999.25    0.15000    0.11920   88.06020   98.86610  130.35010    7.24130    6.73500    7.86630    -999.25    0.31830    2.42040  -60.89050
 3800.00000   10.17110    9.47880    -999.25    0.15810    0.06300   96.05290  117.79870  133.43990    6.27250    5.91850    6.65800    -999.25    0.35780    2.42040  -58.66480
 3850.00000    9.74360    9.98140    -999.25    0.15350    0.16870   99.73640  115.87610  138.48400    6.09720    5.72290    6.72340    -999.25    0.41400    2.40920  -57.58640
 3900.00000    9.32350   10.11090    -999.25    0.10740    0.05720   99.61160  128.62270  149.74570    7.16770    6.61050    8.16590    -999.25    0.44680    2.45740  -56.08250
 3950.00000    9.45940    9.53620    -999.25    0.16220    0.01710   99.76650  130.38050  157.61000    7.30170    6.76320    8.29950    -999.25    0.40550    2.37360  -54.86080
 4000.00000    9.79620    9.45210    -999.25    0.12000    0.02680  100.24250  135.21740  176.72540    9.95920    9.27410   11.04200    -999.25    0.37380    2.44730  -53.24610
 4050.00000   12.87560   10.96290    -999.25    0.30540    0.22650   99.71880  115.83490  135.49730    5.78410    5.41960    6.46680    -999.25    0.42250    2.16800  -53.82540
 4100.00000   11.60540   10.59240    -999.25    0.10430    0.16500   93.03890   98.26610  128.15440    6.57700    6.01490    6.19140    -999.25    0.32270    2.53350  -55.31130
 4150.00000   11.32840   10.16590    -999.25    0.16520    0.13330   85.31230  108.19170  120.49750    5.17320    4.75120    5.64260    -999.25    0.36990    2.42030  -52.62460
 4200.00000   12.03180   10.85690    -999.25    0.29470    0.25100   88.91620   99.40420  122.82270    5.79460    5.50920    6.24590    -999.25    0.36230    2.20040  -53.06480
 4250.00000   12.58120   11.05700    -999.25    0.11250    0.14360   85.89240  105.80070   93.80770    4.95220    4.59740    5.48130    -999.25    0.34530    2.42540  -52.35900
 4300.00000   12.82750   11.82820    -999.25    0.20030    0.09220   90.75040  112.54980  123.09880    4.49270    4.16120    4.94490    -999.25    0.40370    2.34160  -52.04600
 4350.00000   13.21060   10.59500    -999.25    0.14820    0.16320   78.33880   96.64640  107.66420    4.96200    4.65730    5.61100    -999.25    0.37730    2.38590  -52.11430
 4400.00000   13.73740   11.55220    -999.25    0.21200    0.24970   94.56580  117.06360  127.27160    5.70990    5.43710    6.48830    -999.25    0.40800    2.32860  -50.73110
 4450.00000   13.99030   11.23840    -999.25    0.30630    0.20370  106.97180  212.00000  211.85140    3.04110    2.70370    3.61270    -999.25    0.41690    2.19880  -45.76910
 4500.00000   12.56540   10.80450    -999.25    0.21570    0.09380   98.22590  110.32680  123.03390    1.99750    1.90130    2.58180    -999.25    0.42070    2.31140  -44.43110
 4550.00000   13.85790   11.53100    -999.25    0.26180    0.16060   97.84650   98.08740   72.58670    4.23640    3.99870    5.10670    -999.25    0.34620    2.25310  -44.26690
 4600.00000   13.77720   10.76240    -999.25    0.27420    0.25130   89.14600  108.24340  122.00010    5.38900    5.19430    6.01200    -999.25    0.35340    2.24820  -43.72930
 4650.00000    8.63390   10.67520    -999.25    0.21330    0.07760   80.65990   48.70400   48.89890    8.44200   10.50990   12.92760    -999.25    0.25970    2.29130  -89.19340
 4700.00000   11.88910   11.31100    -999.25    0.27020    0.06580   84.57070   92.48580  111.07980    1.70690    1.58100    2.33240    -999.25    0.48000    2.22840  -41.15090
 4750.00000   11.42780   10.25400    -999.25    0.21590    0.05470   78.59340   74.97270   99.00150    7.62840    7.28250   14.12290    -999.25    0.31510    2.37810  -44.39350
 4800.00000   10.68090   11.01610    -999.25    0.30990    0.02500   71.93120   58.12310   64.86690   10.58290   11.70070   16.75070    -999.25    0.29260    2.13650  -70.90720
 4850.00000   12.01040    9.70300    -999.25    0.40460    0.07960   79.43380   86.38620   80.14020    8.48010    8.03940   11.06040    -999.25    0.36130    2.01280  -39.92120
 4900.00000   10.77810   10.77730    -999.25    0.16200    0.05010   87.83660   73.77910  100.86220   11.40890   10.46460   14.20980    -999.25    0.29220    2.39840  -39.21850
 4950.00000   12.37480   12.56500    -999.25    0.15290    0.02240  122.99320   57.83160   49.71820   10.20780    9.83770   11.67860    -999.25    0.31960    2.30610  -37.07300
 5000.00000   10.86470   11.35680    -999.25    0.09630    0.02000   78.79690   81.22500   86.48920    8.57580    8.03660    9.97760    -999.25    0.30700    2.50960  -39.67780
 5050.00000   11.01190   10.91340    -999.25    0.10740    0.02510   76.06990   56.96100   78.16470    7.61280    8.21460   16.20260    -999.25    0.23360    2.44300  -57.83800
 5100.00000   11.89880   11.85390    -999.25    0.11900    0.03040   75.18020   62.23130   67.09770    8.10880    7.68350    7.49230    -999.25    0.23440    2.47120  -35.20150
 5150.00000   12.36360   11.34710    -999.25    0.19720    0.05800   80.63600   81.66210   77.54520    4.57780    4.44030    5.91300    -999.25    0.33990    2.34500  -36.96550
 5200.00000   10.85880   11.24010    -999.25    0.10420    0.02740   79.71020   77.61570  107.08190    6.54460    6.27380    7.59520    -999.25    0.27180    2.46920  -38.37530
 5250.00000   10.71750   11.95400    -999.25    0.04840    0.05050   87.16390   70.36040   90.15050    8.59460    8.21110    9.96730    -999.25    0.32640    2.59100  -38.20900
 5300.00000   13.93880   11.09950    -999.25    0.30330    0.21180   78.88760   75.66830   98.34160    7.12330    6.43580    6.98130    -999.25    0.32530    2.30720  -31.35880
 5350.00000   10.57530   11.10140    -999.25    0.08790    0.04510   85.39370   69.24410  113.86720   14.79530   13.83340   16.63920    -999.25    0.22470    2.52770  -32.94560
 5400.00000   12.27280   10.63840    -999.25    0.29900    0.21200   77.56780   88.01870  102.44770    9.24150    8.21110   11.82230    -999.25    0.40650    2.27090  -27.34030
 5450.00000    9.38820   12.36050    -999.25    0.21500    0.09080  106.24270   52.43360  127.98090    7.72740   12.22980   34.40130    -999.25    0.22540    2.26870  -52.90180
 5500.00000   15.06360   11.70430    -999.25    0.23540    -999.25   82.68060  100.73810  102.07620    6.31960    6.00220    6.63980    -999.25    0.28500    2.27950  -23.93470
 5550.00000   15.24620   11.57230    -999.25    0.39480    0.20410   85.71620   93.17620  103.67610    5.76470    5.41340    6.70790    -999.25    0.40870    2.04570  -24.33000
