~Version ---------------------------------------------------
VERS.      2.0 : CWLS log ASCII Standard -VERSION 2.0
WRAP.       NO : One line per depth step
CREA. 08/01/17 : LAS Creation Date
~Well ------------------------------------------------------
STRT.FT                      1150.0 : START DEPTH
STOP.FT                     11500.0 : STOP DEPTH
STEP.FT                    50.00000 : STEP LENGTH
NULL.                       -999.25 : NULL VALUE
COMP.     ATLANTIC REFINING COMPANY : COMPANY
WELL. ATLANTIC ANTE CREEK 4-7-65-23 : WELL
FLD .                               : FIELD
LOC .                               : LOCATION
CTRY.                        CANADA : COUNTRY
SRVC.                  Schlumberger : SERVICE COMPANY
DATE.                   12-Oct-1962 : LOGDATE
PROV.                       Alberta : PROVINCE
UWI .              100040706523W500 : UNIQUE WELL ID
SLAT.WGS84                 54.60509 : SURFACE LATITUDE
SLON.WGS84                -117.4756 : SURFACE LONGITUDE
~Curve Information -----------------------------------------
DEPT  .FT    : Depth Curve
CALWS .IN    : CALIPER [MCALED]
CILDED.MMHO  : CONDUCTIVITY FROM IEL LOG
CONDWS.MMHO  : CONDUCTIVITY [1000/DRESWS]
DRESWS.OHMM  : DEEP RESISTIVITY [ILDED]
DTED  .US/F  : DELTA-T FROM BCS-GR LOG
DTWS  .US/F  : COMPRESSIONAL SONIC [DTED]
GRSED .GAPI  : GAMMA RAY FROM BCS-GR LOG
GRWS  .GAPI  : GAMMA RAY [GRSED]
ILDED .OHMM  : DEEP INDUCTION FROM IEL LOG
MCALED.IN    : MICRO CALIPER FROM MICRO-CAL LOG
SNED  .OHMM  : SHORT NORMAL FROM IEL LOG
SPRED .MV    : SPONTANEOUS POTENTIAL FROM IEL LOG
SPWS  .MV    : SPONTANEOUS POTENTIAL [BASELINE 0 MV, SPRED]
SRESWS.OHMM  : SHALLOW RESISTIVITY [SNED]
~Params ----------------------------------------------------
PD  .                     GL : PERMANENT DATUM
EPD .FT               2839.9 : ELEVATION PERMANENT DATUM
LMF .                     KB : LOG MEASURED FROM
DAPD.FT                 13.9 : FEET ABOVE PERMANENT DATUM
EKB .FT               2853.8 : KELLY BUSHING
EGL .FT               2839.9 : GROUND LEVEL
DATE.               10/12/62 : RUN DATE
RUN .                      1 : RUN NUMBER
DD  .FT                11540 : DEPTH DRILLER
DL  .FT                11538 : DEPTH LOGGER
BLI .FT                11537 : BOTTOM LOG INTERVAL
TLI .FT                 1157 : TOP LOG INTERVAL
CBD .FT                 1157 : CASING BOTTOM DRILLER
CBL .FT                 1157 : CASING BOTTOM LOGGER
BS  .IN                 8.75 : BIT SIZE
BSD .FT                11540 : BIT SIZE AT DEPTH
DFT .               GEL CHEM : DRILLING FLUID TYPE
DFD .                   10.2 : DRILLING FLUID DENSITY
DFV .                     85 : DRILLING FLUID VISCOSITY
DFPH.                    9.5 : DRILLING FLUID PH
DFL .                    6.6 : DRILLING FLUID LOSS
MSS .                  6FF40 : MUD SAMPLE SOURCE
RMS .OHMM               2.22 : RESISTIVITY MUD SAMPLE
MST .DEGF                 70 : MUD SAMPLE TEMPERATURE
RMF .OHMM                1.8 : RESISTIVITY MUD FILTRATE SAMPLE
MFST.DEGF                 61 : MUD FILTRATE SAMPLE TEMPERATURE
RMC .OHMM                2.1 : RESISTIVITY MUD CAKE
MCST.DEGF                 74 : MUD CAKE SAMPLE TEMPERATURE
RMB .OHMM               0.84 : RESISTIVITY MUD AT BHT
TCS .HRS                   4 : TIME CIRCULATED STOPPED
LUN .                   1573 : LOGGING UNIT NUMBER
LUL .                    WCT : LOGGING UNIT LOCATION
ENGI.                  MILLS : RECORDING ENGINEER
WITN.                  EVANS : WITNESSED BY
CLNT.                A2DTECH : CLIENT CODE
ORIG.            2" 5" PRINT : ORIGIN OF DATA
UWI .       100040706523W500 : UNIQUE WELL ID
DICO. A2D Technologies, Inc. : DIGITIZING COMPANY
~Other -----------------------------------------------------
~ASCII -----------------------------------------------------
# ...
 3600.00000   15.57230  129.63070  130.43930    7.66640  111.14300  111.14300  117.41320  117.41320    7.66640   15.57230    8.55580  -18.71220   -4.86320    8.55580
 3650.00000   14.69830  164.88430  167.38790    5.97410  118.06540  118.06540   95.08050   95.08050    5.97410   14.69830    6.54220  -19.99010   -5.97100    6.54220
 3700.00000   14.30970  164.09200  168.40120    5.93820  104.80650  104.80650   90.45190   90.45190    5.93820   14.30970    6.35070  -19.86490   -5.67440    6.35070
 3750.00000   11.10640   64.27720   62.88320   15.90250   80.43500   80.43500   60.69060   60.69060   15.90250   11.10640   15.24540  -27.00370  -12.64280   15.24540
 3800.00000   13.56510  149.27030  148.57970    6.73300   99.67220   99.67220  100.30660  100.30660    6.73300   13.56510    6.89860  -19.70170   -5.17070    6.89860
 3850.00000   13.15220  152.12060  153.21680    6.52670  105.60750  105.60750  117.72470  117.72470    6.52670   13.15220    6.99270  -18.91210   -4.20970    6.99270
 3900.00000   10.95570  164.78930  166.84590    5.99380   94.06100   94.06100  123.87800  123.87800    5.99380   10.95570    6.47220  -20.00980   -5.13730    6.47220
 3950.00000   11.54410  125.25620  123.74250    8.08130   89.52980   89.52980  114.26030  114.26030    8.08130   11.54410    7.75420  -19.98520   -4.94140    7.75420
 4000.00000   10.58210   74.40400   71.00710   14.08310   80.28950   80.28950  111.88760  111.88760   14.08310   10.58210   15.05000  -29.02150  -13.88970   15.05000
 4050.00000   11.07710  111.82110  107.08950    9.33810   85.48780   85.48780  121.94700  121.94700    9.33810   11.07710    9.12040  -19.79870   -4.65960    9.12040
 4100.00000   11.95860   99.26170  100.58030    9.94230   85.26500   85.26500  131.95510  131.95510    9.94230   11.95860   10.90860  -19.80160   -4.65500   10.90860
 4150.00000   11.43520  115.11780  112.43730    8.89380   84.92860   84.92860  118.77320  118.77320    8.89380   11.43520    9.26170  -19.51200   -4.35810    9.26170
 4200.00000   11.69750  114.85450  116.07120    8.61540   83.48370   83.48370  110.45290  110.45290    8.61540   11.69750    9.05070  -20.93750   -5.77600    9.05070
 4250.00000   11.43870  130.47860  128.58590    7.77690   85.00000   85.00000  126.30680  126.30680    7.77690   11.43870    7.95270  -20.11650   -4.94740    7.95270
 4300.00000   11.72200  155.31320  151.75210    6.58970   98.19400   98.19400  122.44700  122.44700    6.58970   11.72200    7.76500  -20.05620   -4.87980    7.76500
 4350.00000   11.55500  159.43700  149.75890    6.67740   95.70550   95.70550  130.49200  130.49200    6.67740   11.55500    7.99260  -20.27080   -5.08690    7.99260
 4400.00000   11.41870  130.66060  128.05080    7.80940   95.16500   95.16500  133.00590  133.00590    7.80940   11.41870    9.74270  -19.44080   -4.24970    9.74270
 4450.00000   11.75830  137.79970  133.28360    7.50280   96.53620   96.53620  120.62430  120.62430    7.50280   11.75830    9.54420  -19.38560   -4.18680    9.54420
 4500.00000   11.28100  100.31900   97.83970   10.22080   91.53270   91.53270  135.19520  135.19520   10.22080   11.28100   12.97510  -20.30090   -5.09450   12.97510
 4550.00000   11.57180  128.93390  124.63960    8.02320   91.28470   91.28470  141.94810  141.94810    8.02320   11.57180    9.94870  -21.01810   -5.80440    9.94870
 4600.00000    9.70440   60.64100   57.11220   17.50940   97.38850   97.38850  135.37530  135.37530   17.50940    9.70440   23.64040  -20.32660   -5.10540   23.64040
 4650.00000   11.19310  124.54590  122.52970    8.16140   95.92410   95.92410  135.22780  135.22780    8.16140   11.19310   11.01790  -19.63400   -4.40550   11.01790
 4700.00000    9.98000   87.39050   86.11630   11.61220  106.33870  106.33870  179.33530  179.33530   11.61220    9.98000   17.29080  -19.13590   -3.89980   17.29080
 4750.00000   11.12030  155.00770  152.32990    6.56470   86.19750   86.19750  120.47100  120.47100    6.56470   11.12030    7.47140  -20.75700   -5.51330    7.47140
 4800.00000   11.76570  148.48290  146.05860    6.84750   85.56770   85.56770  108.84940  108.84940    6.84750   11.76570    7.82770  -20.37290   -5.12200    7.82770
 4850.00000   10.71750  139.24330  138.80790    7.20420   85.77450   85.77450  124.04290  124.04290    7.20420   10.71750    8.86520  -21.74170   -6.48320    8.86520
 4900.00000   10.56150  127.82950  125.39820    7.97460   82.38660   82.38660  131.43680  131.43680    7.97460   10.56150    9.41970  -22.13890   -6.87320    9.41970
 4950.00000   12.03260  158.81530  157.56960    6.34640   87.21250   87.21250  126.92820  126.92820    6.34640   12.03260    7.77460  -20.48290   -5.20960    7.77460
 5000.00000   11.78820  237.50750  240.92900    4.15060   89.68850   89.68850  133.28630  133.28630    4.15060   11.78820    4.99440  -19.96030   -4.67930    4.99440
 5050.00000   11.80040  116.90980  111.35230    8.98250   77.54260   77.54260  111.98660  111.98660    8.98250   11.80040    9.53990  -21.39390   -6.10570    9.53990
 5100.00000   12.00900  195.23110  195.30870    5.12010   81.54980   81.54980  121.74540  121.74540    5.12010   12.00900    6.01170  -20.78480   -5.48900    6.01170
 5150.00000   11.12070  144.56110  145.90340    6.85400   84.57580   84.57580  125.35320  125.35320    6.85400   11.12070    7.96180  -20.37470   -5.07160    7.96180
 5200.00000   13.04680  331.27190  310.12560    3.22450  102.58400  102.58400  132.25190  132.25190    3.22450   13.04680    3.71030  -20.20790   -5.05860    3.71030
 5250.00000   13.84680  450.81730  396.79390    2.52020  102.09520  102.09520  115.78240  115.78240    2.52020   13.84680    2.91180  -20.43090   -6.74070    2.91180
 5300.00000   13.79920  268.35050  257.77740    3.88030   92.64090   92.64090  113.91710  113.91710    3.88030   13.79920    4.29300  -19.79890   -7.30670    4.29300
 5350.00000   13.54680  250.65390  239.50950    4.17520   97.56070   97.56070  132.74180  132.74180    4.17520   13.54680    4.81080  -20.80040   -2.72060    4.81080
 5400.00000   13.31710  221.00510  221.16060    4.52420   96.57050   96.57050  120.13930  120.13930    4.52420   13.31710    5.66710  -27.39080   -7.48180    5.66710
 5450.00000   11.27110   88.86360   85.45690   11.70180   76.61300   76.61300  116.66220  116.66220   11.70180   11.27110   14.15370  -43.17570  -21.41930   14.15370
 5500.00000   10.00630   80.96770   68.70070   14.55590   72.12620   72.12620  110.61390  110.61390   14.55590   10.00630   16.24240  -43.37290  -19.77820   16.24240
 5550.00000   13.13400  125.24650  130.03040    7.69090   81.44350   81.44350  108.95660  108.95660    7.69090   13.13400    9.23830  -34.69960   -9.27560    9.23830
 5600.00000    9.87560   63.06860   60.89020   16.42300   77.95080   77.95080   81.84530   81.84530   16.42300    9.87560   16.15880  -71.16870  -43.89730   16.15880
 5650.00000    8.96250   59.22050   57.87330   17.28170   75.05490   75.05490   76.53840   76.53840   17.28170    8.96250   19.70910  -72.13570  -43.03500   19.70910
 5700.00000   12.44510  127.86690  125.36040    7.97700   69.16650   69.16650   78.34930   78.34930    7.97700   12.44510    9.30090  -36.17160   -5.22350    9.30090
 5750.00000   10.44560   67.84160   64.35090   15.53980   62.80470   62.80470   85.75940   85.75940   15.53980   10.44560   18.52320  -37.28380   -4.37490   18.52320
 5800.00000   11.56340  112.66320  115.53900    8.67180   89.87520   89.87520  109.43420  109.43420    8.67180   11.56340   16.42850  -35.40020    2.38810   16.42850
 5850.00000    8.89420   70.35610   69.24440   14.44160   82.83350   82.83350   63.14800   63.14800   14.44160    8.89420   24.66580  -77.66670  -34.95030   24.66580
 5900.00000   12.41330  107.68440  110.97670    9.01220   85.72620   85.72620  109.68740  109.68740    9.01220   12.41330   15.27630  -57.36380  -10.25660   15.27630
 5950.00000   11.26830  104.23370  109.15840    9.16100   96.48550   96.48550   90.87770   90.87770    9.16100   11.26830   12.12590  -60.46490  -14.97370   12.12590
 6000.00000   11.70390  106.68900  128.26270    7.79650   84.58070   84.58070  107.69410  107.69410    7.79650   11.70390   16.41970    -999.25    -999.25   16.41970
