~Version ---------------------------------------------------
VERS.      2.0 : CWLS log ASCII Standard -VERSION 2.0
WRAP.       NO : One line per depth step
CREA. 12/18/17 : LAS Creation Date
~Well ------------------------------------------------------
STRT.FT                             1350.0 : START DEPTH
STOP.FT                            11950.0 : STOP DEPTH
STEP.FT                           50.00000 : STEP LENGTH
NULL.                              -999.25 : NULL VALUE
COMP.                 CHEVRON STANDARD LTD : COMPANY
WELL. CHEVRON AMOCO WASKAHIGAN 10-17-64-24 : WELL
FLD .                                      : FIELD
LOC .                                      : LOCATION
CTRY.                               CANADA : COUNTRY
SRVC.                         Schlumberger : SERVICE COMPANY
DATE.                          17-Sep-1977 : LOGDATE
PROV.                              Alberta : PROVINCE
UWI .                     100101706424W500 : UNIQUE WELL ID
SLAT.WGS84                        54.54045 : SURFACE LATITUDE
SLON.WGS84                       -117.5875 : SURFACE LONGITUDE
~Curve Information -----------------------------------------
DEPT    .FT    : Depth Curve
CALDED  .IN    : CALIPER FROM DENSITY LOG [ADJ. TO RESISTIVITY LOG]
CALSED  .IN    : CALIPER FROM SONIC LOG  [ADJ. TO RESISTIVITY LOG]
CALWS   .IN    : CALIPER [CALSED]
CONDWS  .MMHO  : CONDUCTIVITY [1000/DRESWS]
DCORWS  .G/C3  : DENSITY CORRECTION [DRHOED]
DENWS   .G/C3  : FORMATION BULK DENSITY [RHOBED SPL. TO CALC, FROM DPHILSED M=2.71, F=1.00 FROM 11478'-11488']
DPHILSED.V/V   : DENSITY POROSITY LIMESTONE [M=2.71, F=1.00] FROM DENSITY LOG  [ADJ. TO RESISTIVITY LOG]
DPHISSED.V/V   : DENSITY POROSITY SANDSTONE [M=2.65, F=1.00] FROM DENSITY LOG  [ADJ. TO RESISTIVITY LOG]
DPOLSWS .V/V   : DENSITY POROSITY SANDSTONE [CALC. FROM DENWS  [M=2.71, F=1.00]
DRESWS  .OHMM  : DEEP RESISTIVITY [ILDED]
DRHOED  .G/C3  : DENSITY CORRECTION FROM DENSITY LOG [ [ADJ. TO RESISTIVITY / DPHISSED & DPHILSED]
DTED    .US/F  : DELTA TIME FROM SONIC LOG  [ADJ. TO RESISTIVITY LOG]
DTWS    .US/F  : COMPRSSIONAL SONIC[ DTED]
GRDED   .GAPI  : GAMMA RAY FROM DENSITY LOG  [ADJ. TO RESISTIVITY LOG]
GRSED   .GAPI  : GAMMA RAY FROM SONIC LOG  [ADJ. TO RESISTIVITY LOG]
GRWS    .GAPI  : GAMMA RAY [GRSED SPL. TO GRDED @ 11900']
ILDED   .OHMM  : DEEP INDUCTION LOG RESISTIVITY FROM RESISTIVITY LOG
ILMED   .OHMM  : MEDIUM INDUCTION LOG RESISTIVITY FROM RESISTIVITY LOG
LL8ED   .OHMM  : LATEROLOG FROM RESISTIVITY LOG
MRESWS  .OHMM  : MEDIUM RESISTIVITY [ILMED]
NPHILSED.V/V   : NEUTRON POROSITY LIMESTONE FROM DENSITY LOG  [ADJ. TO RESISTIVITY LOG]
NPHISSED.V/V   : NEUTRON POROSITY SANDSTONE FROM DENSITY LOG  [ADJ. TO RESISTIVITY LOG]
NPOLSWS .V/V   : NEUTRON POROSITY LIMESTONE[NPHISSED MATRIX CONVERSION FOR LIMESTONE SPL. TO NPHILSED @ 9050'
RHOBED  .G/C3  : BULK DENSITY FROM DENSITY LOG [ [ADJ. TO RESISTIVITY/ DPHISSED & DPHILSED]
SPRED   .MV    : SPONTANEOUS POTENTIAL FROM RESISTIVITY LOG
SPWS    .MV    : SPONTANEOUS POTENTIAL [BASELINE 0 MV,SPRED]
SRESWS  .OHMM  : SHALLOW RESISTIVITY [LL8ED]
TENDED  .LBF   : TENSION FROM DENSITY LOG  [ADJ. TO RESISTIVITY LOG]
TENSED  .LBF   : TENSION FROM SONIC LOG  [ADJ. TO RESISTIVITY LOG]
~Params ----------------------------------------------------
PD  .                     GL : PERMANENT DATUM
EPD .FT               2874.1 : ELEVATION PERMANENT DATUM
LMF .                     KB : LOG MEASURED FROM
DAPD.FT                 18.5 : FEET ABOVE PERMANENT DATUM
EKB .FT               2892.6 : KELLY BUSHING
EGL .FT               2874.1 : GROUND LEVEL
DATE.               09/17/77 : RUN DATE
RUN .                      1 : RUN NUMBER
DD  .FT                11989 : DEPTH DRILLER
DL  .FT                11985 : DEPTH LOGGER
BLI .FT                11979 : BOTTOM LOG INTERVAL
TLI .FT                 1516 : TOP LOG INTERVAL
CBD .FT              1516.87 : CASING BOTTOM DRILLER
CBL .FT                 1516 : CASING BOTTOM LOGGER
BS  .IN                 8.75 : BIT SIZE
BSD .FT                11989 : BIT SIZE AT DEPTH
DFT .                    GEL : DRILLING FLUID TYPE
DFD .                      9 : DRILLING FLUID DENSITY
DFV .                     90 : DRILLING FLUID VISCOSITY
DFPH.                    9.5 : DRILLING FLUID PH
DFL .                    8.4 : DRILLING FLUID LOSS
MSS .               FLOWLINE : MUD SAMPLE SOURCE
RMS .OHMM               1.53 : RESISTIVITY MUD SAMPLE
MST .DEGF                 68 : MUD SAMPLE TEMPERATURE
RMF .OHMM               1.36 : RESISTIVITY MUD FILTRATE SAMPLE
MFST.DEGF                 62 : MUD FILTRATE SAMPLE TEMPERATURE
RMC .OHMM               1.37 : RESISTIVITY MUD CAKE
MCST.DEGF                 62 : MUD CAKE SAMPLE TEMPERATURE
TCS .HRS                   5 : TIME CIRCULATED STOPPED
LUN .                   7772 : LOGGING UNIT NUMBER
LUL .                    EDM : LOGGING UNIT LOCATION
ENGI.         BERNISKY TRACY : RECORDING ENGINEER
WITN.             RICHARDSON : WITNESSED BY
CLNT.                A2DTECH : CLIENT CODE
ORIG.            2" 5" PRINT : ORIGIN OF DATA
UWI .       100101706424W500 : UNIQUE WELL ID
DICO. A2D Technologies, Inc. : DIGITIZING COMPANY
~Other -----------------------------------------------------
DIL-CNFD-SONIC LOG RUN
SONIC 2' DEEP TO DIL. GAP IN GRDED FROM 6074'-6090'& 6110' -6132' & GAP IN NPHISSED FROM 6087'-6102' & 6124'-6138' DUE TO REMOVE INVALID VALUE
~ASCII -----------------------------------------------------
# ...
 5100.00000   11.79600    9.92530    9.92530  136.69050    0.06350    2.55720    -999.25    0.05890    0.08940    7.31580    0.06350   83.41800   83.41800  121.36680  105.04710  105.04710    7.31580    7.51490    8.11700    7.51490    -999.25    0.33700    0.29320    2.55720  -42.08080   -8.71680    8.11700 4261.65880 3400.04340
 5150.00000   10.42110   10.05920   10.05920  108.96810    0.02270    2.50950    -999.25    0.08750    0.11730    9.17700    0.02270   78.60800   78.60800   96.86670   93.78870   93.78870    9.17700    9.46500   10.01520    9.46500    -999.25    0.26410    0.22010    2.50950  -40.55030   -8.42800   10.01520 4205.95320 3668.62930
 5200.00000   10.37360   10.05260   10.05260  161.25390    0.04140    2.51020    -999.25    0.08560    0.11680    6.20140    0.04140   84.70820   84.70820  119.81810  110.62950  110.62950    6.20140    6.61070    6.94160    6.61070    -999.25    0.36640    0.32300    2.51020  -39.16280   -8.28220    6.94160 4083.87600 3631.61080
 5250.00000    9.65620    9.35620    9.35620   92.06070    0.06880    2.53590    -999.25    0.07240    0.10180   10.86240    0.06880   76.77520   76.77520   91.60410   84.65630   84.65630   10.86240   11.19170   10.73890   11.19170    -999.25    0.29530    0.25140    2.53590  -52.59210  -22.95310   10.73890 3994.40850 3344.76850
 5300.00000   10.19470    9.72760    9.72760  137.13700    0.02410    2.52350    -999.25    0.07690    0.10910    7.29210    0.02410   81.32260   81.32260  119.38600  110.78760  110.78760    7.29210    7.67080    8.72150    7.67080    -999.25    0.32950    0.28570    2.52350  -38.02330   -9.61980    8.72150 3961.82620 3338.13590
 5350.00000    9.84130    9.06050    9.06050   68.68750    0.05770    2.58900    -999.25    0.03930    0.07080   14.55870    0.05770   71.84430   71.84430   90.96640   84.69140   84.69140   14.55870   15.66250   15.83340   15.66250    -999.25    0.20070    0.15730    2.58900  -44.34100  -17.18530   15.83340 3976.31640 4499.09340
 5400.00000   10.17880    9.44220    9.44220  167.25760    0.06480    2.56930    -999.25    0.05720    0.08230    5.97880    0.06480   83.61950   83.61950  115.97710  112.55520  112.55520    5.97880    6.26000    7.80920    6.26000    -999.25    0.33780    0.29400    2.56930  -29.50280   -3.58880    7.80920 3872.94830 4707.68330
 5450.00000   10.65130    9.36670    9.36670  148.62600    0.09010    2.53270    -999.25    0.07960    0.10370    6.72830    0.09010   81.16530   81.16530  119.00490  115.19840  115.19840    6.72830    6.93380    7.05260    6.93380    -999.25    0.38020    0.33700    2.53270  -26.02490   -1.49270    7.05260 3813.36430 4540.39330
 5500.00000   12.30370    9.61140    9.61140  180.45660    0.12600    2.58440    -999.25    0.03100    0.07350    5.54150    0.12600   85.22740   85.22740  118.80840  115.73370  115.73370    5.54150    5.70900    6.14330    5.70900    -999.25    0.36790    0.32450    2.58440  -25.17630   -1.26140    6.14330 3784.56250 4510.09970
 5550.00000   12.65100    9.64790    9.64790  168.44790    0.20820    2.51020    -999.25    0.08880    0.11680    5.93880    0.20820   83.11020   83.11020  123.73420  113.68210  113.68210    5.93880    6.17000    7.02350    6.17000    -999.25    0.37270    0.32940    2.51020  -25.52670   -1.94440    7.02350 3722.36150 4501.65790
 5600.00000   11.81640    9.69290    9.69290  287.36460    0.11930    2.44290    -999.25    0.12850    0.15620    3.47990    0.11930   97.51290   97.51290  130.56520  123.92900  123.92900    3.47990    3.58570    4.27570    3.58570    -999.25    0.38200    0.33880    2.44290  -24.41630   -1.17000    4.27570 3724.19920 4473.66860
 5650.00000   13.75660    9.31400    9.31400  361.82070    0.12650    2.36330    -999.25    0.17570    0.20270    2.76380    0.12650   99.02360   99.02360  128.92200  116.08580  116.08580    2.76380    3.24970    3.34190    3.24970    -999.25    0.45660    0.41510    2.36330  -24.56290   -1.65100    3.34190 3766.97010 4335.64810
 5700.00000   13.86100    9.78020    9.78020  199.38190    0.08660    2.43480    -999.25    0.13060    0.16090    5.01550    0.08660   83.10720   83.10720  110.48360  105.63040  105.63040    5.01550    5.22210    6.77560    5.22210    -999.25    0.32960    0.28580    2.43480  -24.80300   -2.22540    6.77560 3576.11320 4271.11390
 5750.00000   12.50620    9.53190    9.53190  108.10580    0.20400    2.55160    -999.25    0.06010    0.09270    9.25020    0.20400   74.43310   74.43310  105.85650  100.00760  100.00760    9.25020    9.76250   12.41650    9.76250    -999.25    0.19940    0.15600    2.55160  -25.73570   -3.04460   12.41650 3507.81390 4210.49280
 5800.00000   12.23910    9.58210    9.58210   95.59920    0.19030    2.54810    -999.25    0.06570    0.09470   10.47300    0.19030   75.43460   75.43460  102.11960   94.02720   94.02720   10.47300   11.05590   13.02430   11.05590    -999.25    0.24770    0.20380    2.54810  -26.24570   -3.60610   13.02430 3541.03940 4150.35650
 5850.00000   11.54080    9.68620    9.68620   60.97750    0.20330    2.54930    -999.25    0.05410    0.09400   16.39950    0.20330   70.62590   70.62590   83.32080   74.96780   74.96780   16.39950   17.78640   15.91500   17.78640    -999.25    0.20880    0.16530    2.54930  -29.96200   -8.05470   15.91500 3448.37740 3914.68390
 5900.00000    9.47050    8.71170    8.71170  101.55890    0.08820    2.40510    -999.25    0.15180    0.17830    9.84650    0.08820   77.47150   77.47150   84.47250   81.16290   81.16290    9.84650   10.74490   15.61670   10.74490    -999.25    0.22070    0.17700    2.40510  -49.64960  -28.47090   15.61670 3418.76650 4056.30100
 5950.00000   11.26930    9.46600    9.46600  114.44790    0.25050    2.41180    -999.25    0.14890    0.17440    8.73760    0.25050   75.97680   75.97680  104.69050   95.55850   95.55850    8.73760    9.00290    9.65700    9.00290    -999.25    0.26400    0.22000    2.41180  -24.67490   -3.48780    9.65700 3411.06340 3884.65700
 6000.00000    9.18960    9.27710    9.27710   42.91510    0.07890    2.53130    -999.25    0.07770    0.10450   23.30180    0.07890   71.76750   71.76750   49.42550   44.42950   44.42950   23.30180   25.09450   21.63790   25.09450    -999.25    0.24770    0.20380    2.53130  -43.04640  -21.03270   21.63790 3363.97540 3871.86140
 6050.00000   10.30330    9.74990    9.74990   72.72840    0.01840    2.56240    -999.25    0.05400    0.08630   13.74980    0.01840   71.36650   71.36650   71.28360   64.38800   64.38800   13.74980   14.23130   15.64020   14.23130    -999.25    0.26280    0.21880    2.56240  -26.16380   -3.32760   15.64020 3348.30210 3773.46480
 6100.00000   11.10500   10.13230   10.13230  116.92080    0.05120    2.46410    -999.25    0.12310    0.14380    8.55280    0.05120   77.54360   77.54360  114.32070  103.02270  103.02270    8.55280    7.57120   11.70470    7.57120    -999.25    -999.25    -999.25    2.46410  -30.34810   -6.68110   11.70470 3231.35820 3721.88010
 6150.00000   10.36660    9.84210    9.84210   67.75110    0.05470    2.52550    -999.25    0.07840    0.10790   14.75990    0.05470   78.05460   78.05460   65.71630   65.96620   65.96620   14.75990   12.15420   11.97170   12.15420    -999.25    0.32770    0.28390    2.52550  -27.42800   -2.93440   11.97170 3235.50620 3664.02020
 6200.00000   10.18540    9.58230    9.58230   93.50160    0.02110    2.60610    -999.25    0.01800    0.06080   10.69500    0.02110   79.46320   79.46320  101.20590   94.38700   94.38700   10.69500   11.62520   16.80320   11.62520    -999.25    0.34520    0.30150    2.60610  -29.18160   -3.86130   16.80320 3186.76350 3512.19770
 6250.00000    -999.25    9.29060    9.29060   55.93090    -999.25    -999.25    -999.25    -999.25    -999.25   17.87920    -999.25   75.06500   75.06500    -999.25   41.45010   41.45010   17.87920   24.33820   36.30070   24.33820    -999.25    -999.25    -999.25    -999.25  -53.39480  -27.24790   36.30070    -999.25 3630.97160
 6300.00000    -999.25    9.87780    9.87780   67.99980    -999.25    -999.25    -999.25    -999.25    -999.25   14.70840    -999.25   66.78020   66.78020    -999.25   63.10730   63.10730   14.70840   15.21980   17.77730   15.21980    -999.25    -999.25    -999.25    -999.25  -35.15100   -8.18770   17.77730    -999.25 3461.96340
