~Version ---------------------------------------------------
VERS.      2.0 : CWLS log ASCII Standard -VERSION 2.0
WRAP.       NO : One line per depth step
CREA. 10/25/17 : LAS Creation Date
~Well ------------------------------------------------------
STRT.FT                     1050.0 : START DEPTH
STOP.FT                     9700.0 : STOP DEPTH
STEP.FT                   50.00000 : STEP LENGTH
NULL.                      -999.25 : NULL VALUE
COMP. IMPERIAL OIL ENTERPRISES LTD : COMPANY
WELL.    IOE SAKWATAMAU 4-17-62-14 : WELL
FLD .                              : FIELD
LOC .                              : LOCATION
CTRY.                       CANADA : COUNTRY
SRVC.                 Schlumberger : SERVICE COMPANY
DATE.                  08-Dec-1969 : LOGDATE
PROV.                      Alberta : PROVINCE
UWI .             100041706214W500 : UNIQUE WELL ID
SLAT.WGS84                54.35923 : SURFACE LATITUDE
SLON.WGS84               -116.0706 : SURFACE LONGITUDE
~Curve Information -----------------------------------------
DEPT    .FT    : Depth Curve
CALD1ED .IN    : CALIPER  FROM SYNGENETIC LOG [ADJ. TO RESISTIVITY LOG]
CALDED  .IN    : CALIPER FROM DENSITY LOG [ADJ. TO RESISTIVITY LOG]
CALNED  .IN    : CALIPER FROM SNP LOG [ADJ. TO RESISTIVITY LOG]
CALSED  .IN    : CALIPER FROM SONIC LOG
CALWS   .IN    : CALIPER [CALSED]
CONDWS  .MMHO  : CONDUCTIVITY [1000/DRESWS]
DCORWS  .G/C3  : DENSITY CORRECTION [DRHOED]
DENWS   .G/C3  : FORMATION BULK DENSITY [RHOBED]
DPHILSED.V/V   : DENSITY POROSITY LIMESTONE [M=2.71, F=1.0] FROM DENSITY LOG [ADJ. TO RESISTIVITY LOG]
DPOLSWS .V/V   : DENSITY POROSITY LIMESTONE [CALC. FROM DENWS, M=2.71, F=1.0]
DRESWS  .OHMM  : DEEP RESISTIVITY [RILDED]
DRHOED  .G/C3  : DENSITY CORRECTION FROM DENSITY LOG [ADJ. TO RESISTIVITY LOG]
DTED    .US/F  : DELTA TIME FROM SONIC LOG [ADJ. TO RESISTIVITY LOG]
DTWS    .US/F  : COMPRESSIONAL SONIC [DTED]
GRD1ED  .GAPI  : GAMMA RAY FROM SYNGENETIC LOG [ADJ. TO RESISTIVITY LOG]
GRDED   .GAPI  : GAMMA RAY FROM DENSITY LOG [ADJ. TO RESISTIVITY LOG]
GRNED   .GAPI  : GAMMA RAY FROM SNP LOG [ADJ. TO RESISTIVITY LOG]
GRSED   .GAPI  : GAMMA RAY FROM SONIC LOG [ADJ. TO RESISTIVITY LOG]
GRWS    .GAPI  : GAMMA RAY [GRSED SPL. TO GRDED @ 2955.41M]
MRESWS  .OHMM  : MEDIUM RESISTIVITY [RILMED]
NPOLSWS .V/V   : NEUTRON POROSITY LIMESTONE [SNPLSED]
RHOBED  .G/C3  : BULK DENSITY FROM DENSITY LOG [ADJ. TO RESISTIVITY LOG]
RILDED  .OHMM  : DEEP RESISTIVITY FROM RESISTIVITY LOG
RILMED  .OHMM  : MEDIUM RESISTIVITY FROM RESISTIVITY LOG
RLL8ED  .OHMM  : SHALLOW RESISTIVITY FROM RESISTIVITY LOG
SNPLSED .V/V   : SIDEWALL NEUTRON POROSITY LIMESTONE FROM SNP LOG [ADJ. TO RESISTIVITY LOG]
SPRED   .MV    : SPONTANEOUS POTENTIAL FROM RESISTIVITY LOG
SPWS    .MV    : SPONTANEOUS POTENTIAL [BASELINE 0 MV, SPRED]
SRESWS  .OHMM  : SHALLOW RESISTIVITY [RLL8ED]
~Params ----------------------------------------------------
PD  .                     GL : PERMANENT DATUM
EPD .FT               3124.9 : ELEVATION PERMANENT DATUM
LMF .                     KB : LOG MEASURED FROM
DAPD.FT                 14.5 : FEET ABOVE PERMANENT DATUM
EKB .FT               3139.4 : KELLY BUSHING
EGL .FT               3124.9 : GROUND LEVEL
DATE.               12/08/69 : RUN DATE
RUN .                      1 : RUN NUMBER
DD  .FT                 9730 : DEPTH DRILLER
DL  .FT                 9730 : DEPTH LOGGER
BLI .FT                 9126 : BOTTOM LOG INTERVAL
TLI .FT                 1007 : TOP LOG INTERVAL
CBD .FT                 1007 : CASING BOTTOM DRILLER
CBL .FT                 1007 : CASING BOTTOM LOGGER
BS  .IN                 8.75 : BIT SIZE
BSD .FT                 9730 : BIT SIZE AT DEPTH
DFT .            GEL CAUSTIC : DRILLING FLUID TYPE
DFD .                      9 : DRILLING FLUID DENSITY
DFV .                     85 : DRILLING FLUID VISCOSITY
DFPH.                     10 : DRILLING FLUID PH
DFL .                      9 : DRILLING FLUID LOSS
MSS .               FLOWLINE : MUD SAMPLE SOURCE
RMS .OHMM               2.56 : RESISTIVITY MUD SAMPLE
MST .DEGF                 72 : MUD SAMPLE TEMPERATURE
RMF .OHMM               2.38 : RESISTIVITY MUD FILTRATE SAMPLE
MFST.DEGF                 65 : MUD FILTRATE SAMPLE TEMPERATURE
RMC .OHMM               2.19 : RESISTIVITY MUD CAKE
MCST.DEGF                 72 : MUD CAKE SAMPLE TEMPERATURE
RMB .OHMM               0.84 : RESISTIVITY MUD AT BHT
TCS .HRS                   5 : TIME CIRCULATED STOPPED
LUN .                   7501 : LOGGING UNIT NUMBER
LUL .                    EDM : LOGGING UNIT LOCATION
ENGI.                JOHNSON : RECORDING ENGINEER
WITN.               KRAWCHUK : WITNESSED BY
CLNT.                A2DTECH : CLIENT CODE
ORIG.        2" 5" 25" PRINT : ORIGIN OF DATA
UWI .       100041706214W500 : UNIQUE WELL ID
DICO. A2D Technologies, Inc. : DIGITIZING COMPANY
~Other -----------------------------------------------------
DIL-FDC-SNP-BHC LOG RUN
DT,CALS,GRS DATA FROM 2" LOG @ TOP-5450'
~ASCII -----------------------------------------------------
# ...
 8550.00000   12.28700   13.65400   11.16980   11.19960   11.16980  175.74380    0.19810    2.20460    0.27760    0.29560    5.69010    0.19810   93.67830   93.67830   59.00980   57.42910   50.57360   57.49400   57.49400    6.22760    0.29650    2.20460    5.69010    6.22760    7.43360    0.29650  -70.37760  -23.85520    7.43360
 8600.00000   12.73240   13.34200   12.00410   11.58220   12.00410  206.72990    0.16090    2.02990    0.38140    0.39770    4.84130    0.16090  105.62580  105.62580   65.81830   66.25130   67.93460   67.29000   67.29000    4.07100    0.42940    2.02990    4.84130    4.07100    5.84080    0.42940  -83.50680  -37.23690    5.84080
 8650.00000   10.64420   10.76050   10.45170    9.74100   10.45170   90.93550    0.02570    2.70220    0.00560    0.00460   10.99680    0.02570   77.72870   77.72870   55.95900   55.10590   57.07040   60.04630   60.04630   12.60100    0.06570    2.70220   10.99680   12.60100   16.82920    0.06570  -53.13770   -7.11860   16.82920
 8700.00000   11.47180   11.93000   11.41410   10.34050   11.41410  159.95010    0.21240    2.45610    0.14120    0.14850    6.25220    0.21240   94.01320   94.01320   68.78480   70.93140   68.74750   75.42060   75.42060    6.60550    0.25680    2.45610    6.25220    6.60550    8.26790    0.25680  -64.97420  -19.20760    8.26790
 8750.00000   10.14310   10.24480   10.04220    9.64390   10.04220   81.95850    0.00600    2.69220    0.01330    0.01040   12.20130    0.00600   80.47810   80.47810   58.18710   58.80150   58.62990   66.09330   66.09330   13.54770    0.05420    2.69220   12.20130   13.54770   17.05070    0.05420  -49.53660   -4.02080   17.05070
 8800.00000   10.25210   10.85030   10.43140    9.76950   10.43140  136.14890    0.03400    2.60480    0.08110    0.06150    7.34490    0.03400   88.81050   88.81050   77.19610   78.51700   75.42030   77.40070   77.40070    8.43180    0.15750    2.60480    7.34490    8.43180   11.39120    0.15750  -52.92840   -7.66340   11.39120
 8850.00000   10.57400   11.02600   10.72530    9.66250   10.72530  135.44180    0.24860    2.40550    0.17640    0.17810    7.38330    0.24860   92.69350   92.69350   74.50410   74.82330   75.89020   80.58210   80.58210    8.11350    0.23240    2.40550    7.38330    8.11350   10.04730    0.23240  -48.49300   -3.48050   10.04730
 8900.00000   11.12230   11.59240   10.85830    9.90270   10.85830  165.96130    0.22760    2.40030    0.17630    0.18110    6.02550    0.22760   96.71320   96.71320   69.95710   71.14670   74.26910   82.53930   82.53930    6.56750    0.23910    2.40030    6.02550    6.56750    8.54700    0.23910  -47.50510   -5.17320    8.54700
 8950.00000   11.79890   12.48730   11.59640   10.76370   11.59640  205.62860    0.17800    2.42590    0.16700    0.16610    4.86320    0.17800  101.46370  101.46370   74.83380   73.61230   79.41790   82.35240   82.35240    5.11410    0.25960    2.42590    4.86320    5.11410    6.91340    0.25960  -61.13000  -22.31160    6.91340
 9000.00000   11.07860   11.48100   10.83940   10.58100   10.83940  183.62770    0.16910    2.31790    0.22390    0.22930    5.44580    0.16910  106.80980  106.80980   89.77130   88.63870   85.34290   92.13990   92.13990    5.62380    0.30010    2.31790    5.44580    5.62380    7.48200    0.30010  -70.85980  -35.53190    7.48200
 9050.00000   10.76350   11.53580   10.88760   10.76020   10.88760  168.52320    0.16030    2.20330    0.25560    0.29630    5.93390    0.16030  107.44230  107.44230   83.48470   84.32350   81.43290   79.92750   79.92750    7.29100    0.30070    2.20330    5.93390    7.29100    9.91650    0.30070  -50.40110  -18.12910    9.91650
 9100.00000    9.04020    9.08040    9.20990    8.91090    9.20990    7.62300    0.01880    2.56960    0.08410    0.08210  132.04610    0.01880   93.59550   93.59550  122.41990  124.28740  130.55840  136.58560  136.58560  255.81090    0.09980    2.56960  132.04610  255.81090  836.43230    0.09980  -39.00060   -9.29210  836.43230
 9150.00000    9.09030    9.09110    9.23490    8.94380    9.23490   31.84070    0.00830    2.70480    0.00760    0.00300   31.40630    0.00830   68.19970   68.19970   38.99560   41.79990   37.36290   45.71840   45.71840   35.98970    0.03280    2.70480   31.40630   35.98970   50.22210    0.03280  -35.80580   -8.64400   50.22210
 9200.00000    9.60370    9.09390    9.62960    9.00800    9.62960   47.72670    0.09670    2.34130    0.19930    0.21560   20.97200    0.09670   99.89470   99.89470   88.12400   86.55410   87.34080   95.73640   95.73640   22.81060    0.15180    2.34130   20.97200   22.81060   59.92380    0.15180  -33.67400   -8.79830   59.92380
 9250.00000    8.39590    8.56630    8.72870    8.70910    8.72870   10.94230    0.13020    2.65000    0.04240    0.03510   91.38870    0.13020   57.55810   57.55810    8.60360    6.32480    6.78100    7.07450    7.07450  139.78550    0.04730    2.65000   91.38870  139.78550  463.34560    0.04730 -141.08980 -115.51680  463.34560
 9300.00000    9.30710    9.41230    9.33920    8.83150    9.33920    5.43360    0.07130    2.68770    0.01370    0.01300  184.04150    0.07130   54.12180   54.12180    7.99340    8.19830    6.19100    9.53170    9.53170  286.14700   -0.00020    2.68770  184.04150  286.14700  405.07290   -0.00020 -139.02560 -112.75530  405.07290
 9350.00000    9.31020    9.28110    9.22090    8.85440    9.22090    2.75790    0.12810    2.69840    0.02720    0.00680  362.59420    0.12810   55.21060   55.21060    3.98100    3.86960    5.14790    7.00860    7.00860 1270.73590    0.00190    2.69840  362.59420 1270.73590  689.65250    0.00190 -146.78490 -119.81280  689.65250
 9400.00000    9.13120    8.93560    8.90550    8.84580    8.90550    5.56240    0.01620    2.71930   -0.00390   -0.00540  179.77740    0.01620   53.55860   53.55860    4.70910    4.96500    6.29110    6.90960    6.90960  356.22110   -0.00690    2.71930  179.77740  356.22110  421.90240   -0.00690 -149.18860 -121.51920  421.90240
 9450.00000    9.11500    8.99530    9.07660    8.76150    9.07660    6.40830    0.16510    2.71040    0.01170   -0.00030  156.80690    0.16510   47.87710   47.87710   10.73490    9.68280    7.60870    7.48800    7.48800  271.32570    0.00830    2.71040  156.80690  271.32570 1406.96330    0.00830 -142.10840 -113.73710 1406.96330
 9500.00000    9.03380    8.89330    8.96950    8.84140    8.96950   20.59340    0.01260    2.68590    0.02300    0.01410   48.55920    0.01260   58.29470   58.29470    5.18670    6.12760    6.36280    5.13620    5.13620   54.30930    0.01350    2.68590   48.55920   54.30930   71.04020    0.01350 -142.73010 -113.66160   71.04020
 9550.00000    8.96590    8.78610    8.90890    8.78810    8.90890   26.69020    0.03230    2.73160   -0.00230   -0.01260   37.46690    0.03230   56.53470   56.53470    2.25390    5.95120    6.99470    7.66370    7.66370   40.26650    0.00650    2.73160   37.46690   40.26650   78.66020    0.00650 -137.21370 -107.44790   78.66020
 9600.00000    8.87650    8.83770    8.86960    8.72990    8.86960    3.63410    0.01490    2.70690    0.00250    0.00180  276.65030    0.01490   56.02770   56.02770    8.19550   11.81370   12.94430   11.56930   11.56930  296.16510    0.00030    2.70690  276.65030  296.16510  715.19940    0.00030 -109.50520  -79.03750  715.19940
 9650.00000    8.44920    8.85080    8.81790    8.72470    8.81790   36.72810    0.00710    2.77480   -0.03850   -0.03790   27.22710    0.00710   68.65880   68.65880   43.15870   51.33210   46.72960   62.69200   62.69200   26.81910    0.06350    2.77480   27.22710   26.81910   33.06170    0.06350  -41.94320  -10.77830   33.06170
 9700.00000    8.78040    8.89540    8.84620    8.72490    8.84620  100.83070    0.01570    2.70390    0.01290    0.00360    9.93120    0.01570   76.12420   76.12420  103.35090  104.05960  102.81990   69.09100  104.05960    8.70380    0.09820    2.70390    9.93120    8.70380   12.76390    0.09820  -59.05090  -27.52360   12.76390
