~Version ---------------------------------------------------
VERS.      2.0 : CWLS log ASCII Standard -VERSION 2.0
WRAP.       NO : One line per depth step
CREA. 12/22/12 : LAS Creation Date
~Well ------------------------------------------------------
STRT.M                               450.0 : START DEPTH
STOP.M                              3050.0 : STOP DEPTH
STEP.M                            50.00000 : STEP LENGTH
NULL.                              -999.25 : NULL VALUE
COMP.                    SABINE CANADA LTD : COMPANY
WELL. SABINE ET AL LITTLE SMOKY 11-8-67-21 : WELL
FLD .                                   WC : FIELD
LOC .                                      : LOCATION
CTRY.                               CANADA : COUNTRY
SRVC.                         Schlumberger : SERVICE COMPANY
DATE.                          31-Jul-1979 : LOGDATE
PROV.                              Alberta : PROVINCE
UWI .                     100110806721W500 : UNIQUE WELL ID
SLAT.WGS84                        54.78587 : SURFACE LATITUDE
SLON.WGS84                       -117.1677 : SURFACE LONGITUDE
~Curve Information -----------------------------------------
DEPT    .M      : DEPTH METER
CALDED  .MM     : CALIPER FROM CNFD LOG
CALSED  .MM     : CALIPER FROM BCS LOG [ADJ. TO GRDED]
CALWS   .MM     : CALIPER [CALSED SPL. @ 3073.1M TO CALDED]
CONDWS  .MMHO   : CONDUCTIVITY [1000/DRESWS]
DCORED  .KG/M3  : DENSITY CORRECTION FROM CNFD LOG
DCORWS  .KG/M3  : DENSITY CORRECTION [DCORED]
DENWS   .KG/M3  : FORMATION BULK DENSITY [RHOBED]
DPHILSED.V/V    : DENSITY POROSITY LIMESTONE [D=2710, F=1000] FROM CNFD LOG [ADJ. TO RHOBED]
DPHISSED.V/V    : DENSITY POROSITY SANDSTONE [D=2650, F=1000] FROM CNFD LOG [ADJ. TO RHOBED]
DPOWS   .V/V    : DENSITY POROSITY LIMESTONE [CALCULATED FROM DENWS, M=2.71, F=1.0]
DRESWS  .OHMM   : DEEP RESISTIVITY [ILDED]
DTED    .US/M   : DELTA-T (INTERVAL TRANSIT TIME) FROM BCS LOG [ADJ. TO GRDED]
DTWS    .US/M   : COMPRESSIONAL SONIC [DTED]
GRDED   .GAPI   : GAMMA RAY FROM CNFD LOG
GRSED   .GAPI   : GAMMA RAY FROM BCS LOG [ADJ. TO GRDED]
GRWS    .GAPI   : GAMMA RAY [GRSED SPL. @ 3063M TO GRDED]
ILDED   .OHMM   : DEEP INDUCTION FROM DI-SFL LOG
ILMED   .OHMM   : MEDIUM INDUCTION FROM DI-SFL LOG
MRESWS  .OHMM   : MEDIUM RESISTIVITY [ILMED]
NPHILSED.V/V    : NEUTRON POROSITY LIMESTONE FROM CNFD LOG [ADJ. TO RHOBED]
NPHISSED.V/V    : NEUTRON POROSITY SANDSTONE FROM CNFD LOG [ADJ. TO RHOBED]
NPOWS   .V/V    : NEUTRON POROSITY LIMESTONE [NPHISSED MATRIX CONVERSION FOR LIMESTONE, SPL. TO NPHILSED @ 1770']
RHOBED  .KG/M3  : BULK DENSITY FROM CNFD LOG
SFLED   .OHMM   : SPHERICALLY FOCUSED INDUCTION FROM DI-SFL LOG
SPRED   .MV     : SPONTANEOUS POTENTIAL FROM DI-SFL LOG
SPWS    .MV     : SPONTANEOUS POTENTIAL [BASELINED 0 MV, SPRED]
SRESWS  .OHMM   : SHALLOW RESISTIVITY [SFLED]
~Params ----------------------------------------------------
PD  .                         GL : PERMANENT DATUM
EPD .M                    697.26 : ELEVATION PERMANENT DATUM
LMF .                         KB : LOG MEASURED FROM
DAPD.M                      4.74 : FEET ABOVE PERMANENT DATUM
DMF .                         KB : DRILLING MEASURED FROM
EKB .M                       702 : KELLY BUSHING
EGL .M                    697.26 : GROUND LEVEL
DATE.                   07/31/79 : RUN DATE
RUN .                          1 : RUN NUMBER
DD  .M                    3073.7 : DEPTH DRILLER
DL  .M                      3074 : DEPTH LOGGER
BLI .FT                     3073 : BOTTOM LOG INTERVAL
TLI .FT                      465 : TOP LOG INTERVAL
CS  .MM                      244 : CASING SIZE
CBD .M                       461 : CASING BOTTOM DRILLER
BSD .M                     30737 : BIT SIZE AT DEPTH
DFT .                        GEL : DRILLING FLUID TYPE
DFD .                       1100 : DRILLING FLUID DENSITY
DFV .                         90 : DRILLING FLUID VISCOSITY
DFPH.                        9.5 : DRILLING FLUID PH
DFL .                       11.2 : DRILLING FLUID LOSS
MSS .                   FLOWLINE : MUD SAMPLE SOURCE
RMS .OHMM                   2.48 : RESISTIVITY MUD SAMPLE
MST .DEGFC                  25.6 : MUD SAMPLE TEMPERATURE
RMF .OHMM                   1.77 : RESISTIVITY MUD FILTRATE SAMPLE
MFST.DEGC                   20.6 : MUD FILTRATE SAMPLE TEMPERATURE
MFSS.                       MEAS : MUD FILTRATE SAMPLE SOURCE
MCSS.                      PRESS : MUD CAKE SAMPLE SOURCE
RMB .OHMM                   1.05 : RESISTIVITY MUD AT BHT
TCS .HRS                    1600 : TIME CIRCULATED STOPPED
TLAB.HRS                    2400 : TIME LOGGER AT BOTTOM
LUN .                       7809 : LOGGING UNIT NUMBER
LUL .                        EDM : LOGGING UNIT LOCATION
ENGI.             DRONEN VERKAIK : RECORDING ENGINEER
WITN.                    TAXBOOK : WITNESSED BY
CLNT.                    A2DTECH : CLIENT CODE
ORIG. 6.5"/100M 16.5"/100M PRINT : ORIGIN OF DATA
UWI .           100110806721W500 : UNIQUE WELL ID
DICO.     A2D Technologies, Inc. : DIGITIZING COMPANY
~Other -----------------------------------------------------
~ASCII -----------------------------------------------------
# ...
 1750.00000  249.83150  252.49950  252.49950  121.33710  -22.62890  -22.62890 2597.31960    -999.25    0.01140    0.06590    8.24150  214.45170  214.45170   67.09350   61.29220   61.29220    8.24150    8.78760    8.78760    -999.25    0.15210    0.15210 2597.31960   13.11560 -124.04700  -43.53560   13.11560
 1800.00000  264.68830  247.08290  247.08290  102.86690  172.27170  172.27170 2376.86180    0.18910    -999.25    0.19480    9.72130  218.73460  218.73460   34.52490   31.97050   31.97050    9.72130   15.19260   15.19260    0.21180    -999.25    0.21180 2376.86180   36.82490 -197.73550 -120.98880   36.82490
 1850.00000  255.67900  264.72720  264.72720   18.86680    3.57450    3.57450 2969.85740   -0.15530    -999.25   -0.15200   53.00310  167.30600  167.30600   10.79560   10.63520   10.63520   53.00310   99.71630   99.71630    0.00140    -999.25    0.00140 2969.85740 1471.74760 -184.78520 -111.80320 1471.74760
 1900.00000  250.36410  250.49730  250.49730   77.35210   -3.52280   -3.52280 2706.61330    0.00210    -999.25    0.00200   12.92790  177.90940  177.90940   29.50180   27.72860   27.72860   12.92790   14.48630   14.48630    0.04300    -999.25    0.04300 2706.61330   32.21600 -140.26870  -71.05140   32.21600
 1950.00000  258.45590  261.68550  261.68550  522.76650    9.14450    9.14450 2639.21440    0.04260    -999.25    0.04140    1.91290  215.94650  215.94650   49.99800   40.34370   40.34370    1.91290    2.38120    2.38120    0.19830    -999.25    0.19830 2639.21440    5.70140 -150.18810  -82.37350    5.70140
 2000.00000  263.92710  257.96800  257.96800    9.44040   22.86530   22.86530 2714.41750   -0.00710    -999.25   -0.00260  105.92780  163.04030  163.04030   15.77800   16.35180   16.35180  105.92780  102.42000  102.42000    0.00880    -999.25    0.00880 2714.41750  300.43140 -179.79370 -112.19720  300.43140
 2050.00000  266.93530  263.60640  263.60640   81.00110    2.16090    2.16080 2662.81390    0.02570    -999.25    0.02760   12.34650  197.12070  197.12070   75.61800   75.45610   75.45610   12.47900   13.25080   13.19150    0.05720    -999.25    0.05720 2664.16970   19.46990  -85.21420  -17.83580   19.75620
 2100.00000  272.97550  256.37160  256.37160    9.92290    2.70420    2.31850 2759.10580   -0.03280    -999.25   -0.02870  100.77750  173.03730  173.03730   15.48940   13.51470   13.51470  101.14990  109.29790  109.30020    0.00370    -999.25    0.00370 2762.80440  412.22780  -81.12360  -13.96330  418.73070
 2150.00000  239.73870  237.83060  237.83060   23.57880   -5.80310   -6.44820 2728.53880   -0.01570    -999.25   -0.01080   42.41570  185.69980  185.69980   47.95260   52.14760   52.14760   42.41330   45.65470   45.65570    0.04980    -999.25    0.04980 2729.45240   61.67440  -72.27960   -6.11090   61.54230
 2200.00000  236.18870  235.05290  235.05290   16.89890  -11.43380  -11.95260 2707.82580    0.00020    -999.25    0.00130   59.17550  181.83310  181.83310   53.96970   43.39340   43.39340   59.17540   56.26730   56.26960    0.03110    -999.25    0.03110 2707.82570   95.53550  -80.77100  -17.68510   95.72810
 2250.00000  244.01570  242.86290  242.86290   58.09500   -4.40750   -4.40750 2685.44680    0.02120    -999.25    0.01440   17.21320  198.75280  198.75280  104.28650   92.92840   92.92840   17.21320   16.19240   16.19240    0.08770    -999.25    0.08770 2685.44680   22.33560  -73.94070  -13.93760   22.33560
 2300.00000  258.10580  238.08760  238.08760    0.70750   16.05450   16.05450 2737.06930   -0.01850    -999.25   -0.01580 1413.34300  160.92060  160.92060   17.69800   18.21430   18.21430 1413.34300  303.30910  303.30910    0.00150    -999.25    0.00150 2737.06930 1108.07950 -144.87680  -87.95650 1108.07950
 2350.00000  265.06610  232.07660  232.07660   13.98120   71.09610   71.09610 2580.04100    0.06340    -999.25    0.07600   71.52470  164.40020  164.40020   11.89310   14.32380   14.32380   71.52470  118.12290  118.12290    0.01660    -999.25    0.01660 2580.04100  265.86070 -184.58190 -130.74440  265.86070
 2400.00000  281.21820  235.42540  235.42540    0.71920  223.97880  223.97880 2617.26120    0.05360    -999.25    0.05420 1390.50940  160.60510  160.60510   13.82880   15.11880   15.11880 1390.50940  323.73490  323.73490    0.00120    -999.25    0.00120 2617.26120 1465.83720 -167.83720 -117.08250 1465.83720
 2450.00000  230.62300  222.15680  222.15680   14.98420   19.89720   19.89720 2719.66480   -0.00940    -999.25   -0.00570   66.73710  166.91880  166.91880   14.48180   15.38190   15.38190   66.73710   63.57030   63.57030    0.01770    -999.25    0.01770 2719.66480  127.21130 -189.93000 -142.25810  127.21130
 2500.00000  232.05180  225.61630  225.61630   28.28560   36.36060   36.36060 2707.56640   -0.00090    -999.25    0.00140   35.35370  172.04570  172.04570   28.29960   25.34000   25.34000   35.35370   40.32640   40.32640    0.05660    -999.25    0.05660 2707.56640   88.44170 -177.47930 -132.89020   88.44170
 2550.00000  232.59000  228.68320  228.68320    9.35870    1.63680    1.63680 2757.74270   -0.03350    -999.25   -0.02790  106.85210  168.19020  168.19020   36.37760   33.54420   33.54420  106.85210   89.05920   89.05920    0.01550    -999.25    0.01550 2757.74270  136.90270  -77.27340  -35.76710  136.90270
 2600.00000  229.12830  225.84200  225.84200   44.03970  -13.85450  -13.85450 2701.37010    0.00230    -999.25    0.00500   22.70680  190.20290  190.20290   54.01930   54.02650   54.02650   22.70680   23.97060   23.97060    0.06120    -999.25    0.06120 2701.37010   29.65290  -59.01450  -20.59100   29.65290
 2650.00000  247.15000  235.21060  235.21060  108.82080   -0.24480    2.20410 2669.90520    0.02850    -999.25    0.02340    9.18950  212.64270  212.64270   79.29450   76.40230   76.40230    9.18950    9.86520    9.86520    0.13090    -999.25    0.13090 2661.62040   11.93330  -61.03670  -25.69600   11.89300
 2700.00000  375.00000  353.08620  353.08620  170.41120  124.28910  122.73810 2411.48200    0.17060    -999.25    0.17460    5.86840  248.11330  248.11330   84.22460   82.62590   82.62590    5.86830    7.62360    7.62350    0.28460    -999.25    0.28460 2411.28150    6.79580  -84.73700  -52.47910    6.79720
 2750.00000  262.47950  245.45270  245.45270    -999.25   15.24390   17.54740 2701.35090   -0.00110    -999.25    0.00510   13.59560  206.05350  206.05350   70.32220   76.92240   76.92240   13.59490   16.22320   16.12760    0.12400    -999.25    0.12400 2713.08280   20.06400  -57.05700  -27.88190   20.07400
 2800.00000  293.28490  255.74140  255.74140    -999.25  163.35390  163.35390 2643.75870    0.04170    -999.25    0.03870   10.36490  218.97510  218.97510   85.72680   90.43530   90.43530   10.36730   13.69780   13.69000    0.19130    -999.25    0.19130 2639.79570   13.02500  -52.36640  -26.27410   13.02500
 2850.00000  269.36480  246.92770  246.92770    -999.25  210.41590  210.41590 2658.34010    0.03190    -999.25    0.03020    9.26650  222.64060  222.64060   90.26570   84.80240   84.80240    9.26650    9.84210    9.84210    0.16200    -999.25    0.16200 2658.34010   14.79180  -48.11780  -25.10830   14.79180
 2900.00000  238.80030  234.02800  234.02800    -999.25   21.51980   21.51980 2749.78340   -0.02650    -999.25   -0.02330   31.12720  196.57110  196.57110   64.85740   62.90180   62.90180   31.12720   32.55040   32.55040    0.11630    -999.25    0.11630 2749.78340   47.02850  -26.17520   -6.24850   47.02850
 2950.00000  241.81500  231.38040  231.38040    -999.25    7.40740    7.40740 2789.31010   -0.05280    -999.25   -0.04640  178.70290  164.94620  164.94620   27.77790   30.30130   30.30130  178.70290  126.65690  126.65690    0.02580    -999.25    0.02580 2789.31010 1090.92190  -35.32900  -18.48510 1090.92190
 3000.00000  236.37920  229.44550  229.44550    -999.25   -3.89000   -3.89000 2786.54520   -0.05310    -999.25   -0.04480   60.79930  183.54050  183.54050   59.90870   50.81830   50.81830   60.79930   56.45060   56.45060    0.06730    -999.25    0.06730 2786.54520   84.01770  -21.53350   -6.30500   84.01770
