~Version ---------------------------------------------------
VERS.      2.0 : CWLS log ASCII Standard -VERSION 2.0
WRAP.       NO : One line per depth step
CREA. 11/21/17 : LAS Creation Date
~Well ------------------------------------------------------
STRT.FT                          1000.0 : START DEPTH
STOP.FT                         13800.0 : STOP DEPTH
STEP.FT                        50.00000 : STEP LENGTH
NULL.                           -999.25 : NULL VALUE
COMP. HUDSONS BAY OIL & GAS COMPANY LTD : COMPANY
WELL. HB AMOCO FINA BAYBERNE 11-5-57-18 : WELL
FLD .                                   : FIELD
LOC .                                   : LOCATION
CTRY.                            CANADA : COUNTRY
SRVC.                           Unknown : SERVICE COMPANY
DATE.                       13-Aug-1977 : LOGDATE
PROV.                           Alberta : PROVINCE
UWI .                  100110505718W500 : UNIQUE WELL ID
SLAT.WGS84                     53.89911 : SURFACE LATITUDE
SLON.WGS84                    -116.6428 : SURFACE LONGITUDE
~Curve Information -----------------------------------------
DEPT    .FT    : Depth Curve
CALDED  .IN    : CALIPER FROM DENSITY LOG [ADJ. TO RESISTIVITY LOG]
CALSED  .IN    : CALIPER FROM SONIC LOG
CALWS   .IN    : CALIPER [CALSED SPL. TO CALDED @ 5994']
CILDED  .MMHO  : CONDUCTIVITY FROM RESISTIVITY LOG
CONDWS  .MMHO  : CONDUCTIVITY [1000/DRESWS]
DCORWS  .G/C3  : DENSITY CORRECTION [DRHOED]
DENWS   .G/C3  : FORMATION BULK DENSITY [RHOBED]
DPHILSED.V/V   : DENSITY POROSITY LIMESTONE [M=2.71, F=1.00] FROM DENSITY LOG [ADJ. TO RESISTIVITY LOG]
DPHISSED.V/V   : DENSITY POROSITY SANDSTONE [M=2.65, F=1.00] FROM DENSITY LOG [ADJ. TO RESISTIVITY LOG]
DPOLSWS .V/V   : DENSITY POROSITY LIMESTONE [CALC. FROM DENWS, M=2.71, F=1.00]
DRESWS  .OHMM  : DEEP RESISTIVITY [ILDED]
DRHOED  .G/C3  : DENSITY CORRECTION FROM DENSITY LOG [ADJ. TO RESISTIVITY LOG]
DTED    .US/F  : DELTA TIME FROM SONIC LOG
DTWS    .US/F  : COMPRESSIONAL SONIC [DTED]
GRDED   .GAPI  : GAMMA RAY FROM DENSITY LOG [ADJ. TO RESISTIVITY LOG]
GRSED   .GAPI  : GAMMA RAY FROM SONIC LOG
GRWS    .GAPI  : GAMMA RAY [GRSED SPL. TO GRDED @ 13780']
ILDED   .OHMM  : DEEP INDUCTION RESISTIVITY FROM RESISTIVITY LOG
ILMED   .OHMM  : MEDIUM INDUCTION RESISTIVITY FROM RESISTIVITY LOG
LL8ED   .OHMM  : LATEROLOG-8 RESISTIVITY FROM RESISTIVITY LOG
MRESWS  .OHMM  : MEDIUM RESISTIVITY [ILMED]
NPHILSED.V/V   : NEUTRON POROSITY LIMESTONE FROM DENSITY LOG [ADJ. TO RESISTIVITY LOG]
NPHISSED.V/V   : NEUTRON POROSITY SANDSTONE FROM DENSITY LOG [ADJ. TO RESISTIVITY LOG]
NPOLSWS .V/V   : NEUTRON POROSITY LIMESTONE [NPHISSED MATRIX CONVERSION FOR LIMESTONE, SPL. TO NPHILSED @ 8509']
RHOBED  .G/C3  : BULK DENSITY FROM DENSITY LOG [ADJ. TO RESISTIVITY LOG]
SPRED   .MV    : SPONTANEOUS POTENTIAL FROM RESISTIVITY LOG [ADJ. TO RESISTIVITY LOG]
SPWS    .MV    : SPONTANEOUS POTENTIAL [BASELINE 0 MV, SPRED]
SRESWS  .OHMM  : SHALLOW RESISTIVITY [LL8ED]
~Params ----------------------------------------------------
PD  .                     GL : PERMANENT DATUM
EPD .FT               3898.7 : ELEVATION PERMANENT DATUM
LMF .                     KB : LOG MEASURED FROM
DAPD.FT                 20.4 : FEET ABOVE PERMANENT DATUM
DMF .                     KB : DRILLING MEASURED FROM
EKB .FT               3919.1 : KELLY BUSHING
EGL .FT               3898.7 : GROUND LEVEL
DATE.               08/13/77 : RUN DATE
RUN .                      2 : RUN NUMBER
DD  .FT                13825 : DEPTH DRILLER
DL  .FT                13826 : DEPTH LOGGER
BLI .FT                13820 : BOTTOM LOG INTERVAL
TLI .FT                 8771 : TOP LOG INTERVAL
CBD .FT                 8770 : CASING BOTTOM DRILLER
CBL .FT                 8771 : CASING BOTTOM LOGGER
BS  .IN                  8.5 : BIT SIZE
BSD .FT                13825 : BIT SIZE AT DEPTH
DFT .                    GEL : DRILLING FLUID TYPE
DFD .                    8.9 : DRILLING FLUID DENSITY
DFV .                    120 : DRILLING FLUID VISCOSITY
DFPH.                     11 : DRILLING FLUID PH
DFL .                   11.2 : DRILLING FLUID LOSS
MSS .                    MUD : MUD SAMPLE SOURCE
RMS .OHMM               1.38 : RESISTIVITY MUD SAMPLE
MST .DEGF                 62 : MUD SAMPLE TEMPERATURE
RMF .OHMM                1.0 : RESISTIVITY MUD FILTRATE SAMPLE
MFST.DEGF                 62 : MUD FILTRATE SAMPLE TEMPERATURE
RMC .OHMM               1.72 : RESISTIVITY MUD CAKE
MCST.DEGF                 64 : MUD CAKE SAMPLE TEMPERATURE
RMB .OHMM               0.24 : RESISTIVITY MUD AT BHT
TCS .HRS                 3.5 : TIME CIRCULATED STOPPED
LUN .                   7809 : LOGGING UNIT NUMBER
LUL .                    EDM : LOGGING UNIT LOCATION
ENGI.     CROCKFORD DEROCHIE : RECORDING ENGINEER
WITN.       NORTON GILBREATH : WITNESSED BY
CLNT.                A2DTECH : CLIENT CODE
ORIG.            2" 5" PRINT : ORIGIN OF DATA
UWI .       100110505718W500 : UNIQUE WELL ID
DICO. A2D Technologies, Inc. : DIGITIZING COMPANY
~Other -----------------------------------------------------
DIL-FDC-CNL-BHC LOG RUN
ALL RESISTIVITY & SONIC DATA FROM SMALL SECTION @ TOP-5928'
CALS INVALID FROM 4993' TO CASING ON MAIN PASS, THEREFORE THIS SECTION WAS RELOGGED
~ASCII -----------------------------------------------------
# ...
 8500.00000   12.47750   11.29960   12.47750    -999.25   44.30900    0.14130    2.45300    -999.25    0.11880    0.15030   22.56880    0.14130   69.55730   69.55730   93.04670  107.25330  107.25330   22.56880    9.03290   21.92800    9.03290    -999.25    0.20470    0.16120    2.45300 -103.12630   -6.32300   21.92800
 8550.00000   13.36410   11.56200   13.36410    -999.25  126.42910    0.25000    2.59420    -999.25    0.04360    0.06770    7.90990    0.25000   74.55400   74.55400  119.82600  125.50510  125.50510    7.90990   10.88360   11.72100   10.88360    0.20340    0.24950    0.20340    2.59420  -99.02140   -2.57660   11.72100
 8600.00000   13.59600   12.20370   13.59600    -999.25  138.90630    0.25000    2.36860    -999.25    0.16750    0.19960    7.19910    0.25000   77.74110   77.74110  120.85760  121.99540  121.99540    7.19910    6.19080    9.51260    6.19080    0.26590    0.30830    0.26590    2.36860  -98.85330   -2.76930    9.51260
 8650.00000   15.64420   13.43600   15.64420    -999.25  230.87220    0.25000    2.32220    -999.25    0.19740    0.22680    4.33140    0.25000   92.81610   92.81610  117.16220  125.53940  125.53940    4.33140    3.28140    6.45840    3.28140    0.35320    0.39430    0.35320    2.32220 -100.73610   -5.01050    6.45840
 8700.00000   12.36200   12.32400   12.36200    -999.25    0.60110    0.17410    2.57830    -999.25    0.05820    0.07700 1663.70020    0.17410   55.69760   55.69760   25.12760   31.07810   31.07810 1663.70020   56.87320  155.66110   56.87320    0.05690    0.07050    0.05690    2.57830 -108.48050  -15.41520  155.66110
 8750.00000   12.28610   12.34450   12.28610    -999.25    0.51800    0.03500    2.58410    -999.25    0.04020    0.07360 1930.56990    0.03500   57.77730   57.77730   36.44880  141.50760  141.50760 1930.56990   33.20550  101.94930   33.20550    0.06230    0.05740    0.06230    2.58410 -108.98870  -18.89030  101.94930
 8800.00000    8.50660    8.67110    8.50660    -999.25    0.63650   -0.00580    2.60930    0.06040    -999.25    0.05890 1571.21520   -0.00580   54.11630   54.11630   13.14590   20.57990   20.57990 1571.21520 2000.00000 1449.51220 2000.00000    0.01700    -999.25    0.01700    2.60930 -101.49360  -14.36200 1449.51220
 8850.00000    8.56520    8.70190    8.56520    -999.25    2.70630    0.00220    2.51580    0.11930    -999.25    0.11360  369.51370    0.00220   68.00300   68.00300  299.98280  300.00000  300.00000  369.51370 1426.42500 1469.68070 1426.42500    0.18770    -999.25    0.18770    2.51580  -88.76390   -4.61870 1469.68070
 8900.00000    8.61470    8.69000    8.61470    -999.25   31.45200    0.01310    2.61870    0.05130    -999.25    0.05340   31.79450    0.01310   60.36390   60.36390   92.53090   91.45580   91.45580   31.79450   35.10310   47.16250   35.10310    0.09510    -999.25    0.09510    2.61870  -91.59960   -9.79070   47.16250
 8950.00000    9.14230    8.69960    9.14230    -999.25  205.93500    0.25000    2.35730    0.21670    -999.25    0.20630    4.85590    0.25000   64.88360   64.88360   36.29560   46.31570   46.31570    4.85590    6.19250   10.35260    6.19250    0.17820    -999.25    0.17820    2.35730 -143.54440  -63.82860   10.35260
 9000.00000   11.66430   10.04560   11.66430    -999.25    9.69540    0.25070    2.28580    0.23270    -999.25    0.24810  103.14150    0.25070   53.59560   53.59560   50.16480   45.68780   45.68780  103.14150   82.38640  166.40810   82.38640    0.03300    -999.25    0.03300    2.28580  -92.86910  -15.23270  166.40810
 9050.00000    8.69390    9.02740    8.69390    -999.25   69.52900    0.00240    2.80270   -0.05080    -999.25   -0.05420   14.43950    0.00240   52.79250   52.79250   42.27360   45.14450   45.14450   14.43950   15.44540   20.72830   15.44540    0.05500    -999.25    0.05500    2.80270  -98.01980  -22.46280   20.72830
 9100.00000    8.56730    8.66480    8.56730    -999.25   20.94890    0.00710    2.76310   -0.04140    -999.25   -0.03110   47.73510    0.00710   54.02110   54.02110   38.95620   47.42090   47.42090   47.73510   67.67120  156.51550   67.67120    0.02570    -999.25    0.02570    2.76310  -92.42520  -18.96130  156.51550
 9150.00000    8.94890    8.73930    8.94890    -999.25   76.21660    0.03700    2.73960   -0.02990    -999.25   -0.01730   13.12050    0.03700   59.03940   59.03940   51.79290   51.91640   51.91640   13.12050    9.91470   25.12590    9.91470    0.09180    -999.25    0.09180    2.73960  -91.07230  -19.68780   25.12590
 9200.00000    8.84320    8.83930    8.84320    -999.25    3.83720    0.00150    2.92280   -0.14000    -999.25   -0.12440  260.61000    0.00150   50.46660   50.46660    5.46580   11.52980   11.52980  260.61000  610.93700 1140.93960  610.93700   -0.00190    -999.25   -0.00190    2.92280 -119.27750  -38.77700 1140.93960
 9250.00000    8.04990    7.89420    8.04990    -999.25  100.41670    0.24020    2.59580    0.07220    -999.25    0.06680    9.95850    0.24020   56.94040   56.94040   10.45450   15.17280   15.17280    9.95850   16.26770   41.62400   16.26770    0.11210    -999.25    0.11210    2.59580 -159.09220  -66.10890   41.62400
 9300.00000    8.79120    8.82160    8.79120    -999.25   61.10820    0.03570    2.72370   -0.02220    -999.25   -0.00800   16.36670    0.03570   55.20420   55.20420   52.54920   50.15240   50.15240   16.36670   15.91980   45.96130   15.91980    0.11030    -999.25    0.11030    2.72370  -64.39460   -8.37240   45.96130
 9350.00000    8.86920    8.87430    8.86920    -999.25   73.77460    0.01850    2.71210   -0.01470    -999.25   -0.00120   13.55480    0.01850   57.63430   57.63430   85.09070   81.94800   81.94800   13.55480   15.15010   18.29950   15.15010    0.10230    -999.25    0.10230    2.71210  -53.98830  -13.57350   18.29950
 9400.00000    8.52990    8.81590    8.52990    -999.25   53.66510    0.02390    2.64920    0.01600    -999.25    0.03560   18.63410    0.02390   56.00960   56.00960   58.18730   57.85490   57.85490   18.63410   23.28870   67.27910   23.28870    0.04330    -999.25    0.04330    2.64920  -83.05360  -47.00910   67.27910
 9450.00000    8.83630    8.95000    8.83630    -999.25   89.71350    0.01750    2.68230    0.01490    -999.25    0.01620   11.14660    0.01750   57.11750   57.11750   46.91840   56.39140   56.39140   11.14660   10.32180   29.17870   10.32180    0.04450    -999.25    0.04450    2.68230  -68.09050  -36.44510   29.17870
 9500.00000    9.18680    9.10630    9.18680    -999.25   40.52410    0.03030    2.69340    0.00820    -999.25    0.00970   24.67670    0.03030   55.86250   55.86250   31.49900   33.61800   33.61800   24.67670   20.49450   28.24310   20.49450    0.04340    -999.25    0.04340    2.69340  -33.29770   -3.46670   28.24310
 9550.00000    9.09700    8.89980    9.09700    -999.25   18.46430    0.00470    2.67110    0.01820    -999.25    0.02270   54.27140    0.00470   53.83230   53.83230   37.36730   41.91850   41.91850   54.27140   62.55620   84.07460   62.55620    0.02730    -999.25    0.02730    2.67110  -32.33670   -3.52670   84.07460
 9600.00000    9.21630    8.95930    9.21630    -999.25   29.49930    0.01790    2.71070   -0.01140    -999.25   -0.00040   33.89910    0.01790   55.96160   55.96160   39.63260   44.32820   44.32820   33.89910   35.82760   49.69370   35.82760    0.03980    -999.25    0.03980    2.71070  -37.12700   -9.34490   49.69370
 9650.00000    9.13550    8.98480    9.13550    -999.25   51.15090    0.00760    2.68960   -0.00060    -999.25    0.01190   19.55000    0.00760   58.09020   58.09020   42.13790   47.51610   47.51610   19.55000   20.47110   25.55520   20.47110    0.05580    -999.25    0.05580    2.68960  -32.42120   -5.66020   25.55520
 9700.00000    8.91080    8.85780    8.91080    -999.25   19.44240    0.04040    2.73060   -0.02190    -999.25   -0.01200   51.43410    0.04040   54.49620   54.49620   31.02800   36.70740   36.70740   51.43410   55.53900   70.87960   55.53900    0.03250    -999.25    0.03250    2.73060  -38.04930   -9.69770   70.87960
