~Version ---------------------------------------------------
VERS. 2.0 : CWLS log ASCII Standard -VERSION 2.0
WRAP.  NO : ONE LINE PER DEPTH STEP
~Well ------------------------------------------------------
STRT.F                         950.0 : START DEPTH
STOP.F                        9400.0 : STOP DEPTH
STEP.F                      50.00000 : STEP LENGTH
NULL.                        -999.25 : NULL VALUE
COMP. CANADIAN PACIFIC OIL & GAS LTD : COMPANY
WELL.       CPOG OBERLIN 10-15-38-21 : WELL
FLD .                                : FIELD
LOC .                                : LOCATION
CTRY.                         CANADA : COUNTRY
SRVC.                        Unknown : SERVICE COMPANY
DATE.                    13-Apr-1967 : LOGDATE
PROV.                        Alberta : PROVINCE
UWI .               100101503821W400 : UNIQUE WELL ID
SLAT.WGS84                  52.26833 : SURFACE LATITUDE
SLON.WGS84                 -112.9183 : SURFACE LONGITUDE
~Curve Information -----------------------------------------
DEPT.F     : 
CALD.IN    : CALIPER FROM DENSITY LOG
DRHO.G/C3  : DENSITY CORRECTION
RHOB.G/C3  : BULK DENSITY
GRN .GAPI  : GAMMA RAY FROM NEUTRON GAMMA RAY
NEUT.NAPI  : NEUTRON FROM NEUTRON GAMMA RAY
CAL .IN    : CALIPER FROM CALIPER LOG
GRS .GAPI  : GAMMA RAY FROM SONIC LOG
DT  .US/F  : DELTA TIME FROM SONIC LOG
ILD .OHMM  : DEEP INDUCTION RESISTIVITY
ILM .OHMM  : INDUCTION MEDIUM RESISTIVITY
LL8 .OHMM  : LATEROLOG-8 RESISTIVITY
SPR .MV    : SPONTANEOUS POTENTIAL FROM RESISTIVITY
~Params ----------------------------------------------------
PD  .                     GL : PERMANENT DATUM
EPD .FT               2675.8 : ELEVATION PERMANENT DATUM
LMF .                     KB : LOG MEASURED FROM
DAPD.FT                   13 : FEET ABOVE PERMANENT DATUM
DMF .                     KB : DRILLING MEASURED FROM
EKB .FT               2688.8 : KELLY BUSHING
EGL .FT               2675.8 : GROUND LEVEL
DATE.               04/13/67 : RUN DATE
RUN .                      1 : RUN NUMBER
DD  .FT                 9418 : DEPTH DRILLER
DL  .FT                 9417 : DEPTH LOGGER
BLI .FT                 9413 : BOTTOM LOG INTERVAL
TLI .FT                  920 : TOP LOG INTERVAL
CBD .FT                  920 : CASING BOTTOM DRILLER
CBL .FT                  918 : CASING BOTTOM LOGGER
BS  .IN                 8.75 : BIT SIZE
BSD .FT                 9417 : BIT SIZE AT DEPTH
DFT .            CAUSTIC GEL : DRILLING FLUID TYPE
DFD .                   10.4 : DRILLING FLUID DENSITY
DFV .                     68 : DRILLING FLUID VISCOSITY
DFPH.                   10.5 : DRILLING FLUID PH
DFL .                    9.6 : DRILLING FLUID LOSS
MSS .               FLOWLINE : MUD SAMPLE SOURCE
RMS .OHMM              0.397 : RESISTIVITY MUD SAMPLE
MST .DEGF                 62 : MUD SAMPLE TEMPERATURE
RMF .OHMM              0.211 : RESISTIVITY MUD FILTRATE SAMPLE
MFST.DEGF                 76 : MUD FILTRATE SAMPLE TEMPERATURE
RMB .OHMM              0.094 : RESISTIVITY MUD AT BHT
TCS .HRS                   3 : TIME CIRCULATED STOPPED
LUN .                   7014 : LOGGING UNIT NUMBER
LUL .                  STETT : LOGGING UNIT LOCATION
ENGI.                  YOUNG : RECORDING ENGINEER
WITN.                KOZBIAL : WITNESSED BY
CLNT.                A2DTECH : CLIENT CODE
ORIG.            2" 5" PRINT : ORIGIN OF DATA
UWI .       100101503821W400 : UNIQUE WELL ID
DICO. A2D Technologies, Inc. : DIGITIZING COMPANY
~Other -----------------------------------------------------
~ASCII -----------------------------------------------------
# ...
 3750.00000    -999.25    -999.25    -999.25    -999.25    -999.25   10.79360  120.07640   98.04810    3.64320    3.87310    5.89620  -61.84480
 3800.00000    -999.25    -999.25    -999.25    -999.25    -999.25   12.42790   75.47580  108.88210    2.64910    2.45830    3.17330  -63.02830
 3850.00000    -999.25    -999.25    -999.25    -999.25    -999.25   12.22440   88.55210  112.49930    2.15930    2.02260    2.92400  -62.06720
 3900.00000    -999.25    -999.25    -999.25    -999.25    -999.25   12.56940   76.60020   89.89740    2.78410    2.57600    3.79730  -60.63410
 3950.00000    -999.25    -999.25    -999.25    -999.25    -999.25   12.06990   47.98790   77.91010    7.71000    6.81090    8.45750  -66.88880
 4000.00000    -999.25    -999.25    -999.25    -999.25    -999.25   14.81050   74.88400   94.53630    2.20540    2.00020    2.69520  -61.05620
 4050.00000    -999.25    -999.25    -999.25    -999.25    -999.25   14.88350   73.15630  148.36350    1.23370    1.12070    1.73140  -59.78500
 4100.00000    -999.25    -999.25    -999.25    -999.25    -999.25   14.22520   58.29240   81.82930    3.80490    3.53380    4.67990  -60.97530
 4150.00000    -999.25    -999.25    -999.25    -999.25    -999.25   13.88770   64.75550   81.83010    4.85170    4.28610    5.23340  -62.70590
 4200.00000    -999.25    -999.25    -999.25    -999.25    -999.25   12.30580   62.19910   79.97260    7.03370    6.16170    7.98780  -63.14220
 4250.00000    -999.25    -999.25    -999.25   70.73320  439.46880   12.01400   60.12780   77.90120    6.39920    5.67790    7.77050  -63.29520
 4300.00000    -999.25    -999.25    -999.25   54.18220  216.01270   11.26420   30.81320  127.81070   61.29280   28.53670   52.96890  -65.41150
 4350.00000    -999.25    -999.25    -999.25   88.33360  539.73180   11.51380   80.41680   80.56520    8.03140    7.73630    8.84760  -59.87890
 4400.00000    -999.25    -999.25    -999.25   83.04400  320.16890   13.65160   78.88400   87.08640    4.75190    3.22730    5.30450  -56.71390
 4450.00000    -999.25    -999.25    -999.25   44.75100  591.07570    9.67580   20.41280   85.25400    1.28430    1.60880    1.73570  -70.10540
 4500.00000   13.53800    0.11250    2.50250   92.38420  435.88760   13.54910   98.70250   86.18780    4.80120    4.18570    6.67300  -60.40130
 4550.00000   13.61440    0.18350    2.42000    -999.25    -999.25   14.61030   88.43560   86.04260    4.40690    3.96340    6.09290  -60.01590
 4600.00000   13.63790    0.17520    2.18240    -999.25    -999.25   16.00860   83.73590   89.30630    3.95940    3.58500    5.38630  -60.00360
 4650.00000   13.63860    0.13550    1.87180    -999.25    -999.25    -999.25   84.47410   87.97180    3.90350    3.27730    5.18680  -60.46350
 4700.00000   13.65460    0.15150    1.90080    -999.25    -999.25    -999.25   80.25690   94.44490    3.01920    2.69380    4.17040  -60.91420
 4750.00000    9.99010    0.00320    2.73570    -999.25    -999.25    -999.25   31.94360   55.02670   38.71470   41.36750   84.41270  -60.99650
 4800.00000   10.07170    0.00660    2.70790    -999.25    -999.25    -999.25   29.81560   56.64560   32.14390   25.90600   51.99040  -62.52670
 4850.00000   10.62380    0.01250    2.92070    -999.25    -999.25    -999.25   22.89080   53.07730  172.85300   50.45120  401.66190  -56.97990
 4900.00000   10.91430    0.02050    2.91480    -999.25    -999.25    -999.25   24.20610   54.06570   30.03110   19.87100   98.07600  -52.66110
 4950.00000   10.35120    0.00320    2.84830    -999.25    -999.25    -999.25   19.42150   54.04440   44.60730   38.02980  249.76080  -63.45570
 5000.00000   10.34860    0.02050    2.80730    -999.25    -999.25    -999.25   19.48720   53.52170  244.17540   49.19920  859.84060  -60.97190
 5050.00000   10.51860    0.02810    2.80040    -999.25    -999.25    -999.25   18.25030   54.73990   56.32630   31.94950  172.82570  -60.78710
 5100.00000   10.93880    0.02400    2.74000    -999.25    -999.25    -999.25   18.68970   52.13840  175.95990   42.28100  181.88380  -58.60340
 5150.00000   11.07340   -0.01790    2.07200    -999.25    -999.25    -999.25   24.05520   54.05850    -999.25    6.39690 3006.49170  -65.95790
 5200.00000   10.48290   -0.00210    2.90880    -999.25    -999.25    -999.25   16.91950   49.45460  271.78910  107.86670 2987.69870  -59.67260
 5250.00000   14.26540    0.01130    1.43630    -999.25    -999.25    -999.25   33.93360   66.17430    1.49990    0.61050   18.00900  -62.11520
 5300.00000   11.42900    0.00550    2.87320    -999.25    -999.25    -999.25   24.92660   53.76030   14.24980   13.02880   68.66710  -49.05800
 5350.00000   10.41760    0.04270    2.75250    -999.25    -999.25    -999.25   23.18620   49.49220  142.54750   42.49620  292.92140  -52.75960
 5400.00000   10.66610    0.07080    2.75980    -999.25    -999.25    -999.25   28.25860   47.94230 2983.82200   59.70890  818.59220  -53.70720
 5450.00000   10.51450    0.00220    2.91060    -999.25    -999.25    -999.25   23.72380   48.51140  335.73170   76.59780  601.00880  -59.02630
 5500.00000   10.03220    0.01820    2.80990    -999.25    -999.25    -999.25   29.25360   51.65000   79.54800   43.62110   66.87900  -64.73210
 5550.00000   10.54160   -0.00750    2.88690    -999.25    -999.25    -999.25   18.95600   48.47550  375.56520   47.57060  380.26800  -67.24050
 5600.00000   10.89500    0.01590    2.75280    -999.25    -999.25    -999.25   66.05820   65.24110   18.85710   12.71360   31.18930  -41.53230
 5650.00000   10.23370    0.00670    2.72260    -999.25    -999.25    -999.25   52.82910   56.77040   17.87820   14.78790   25.11230  -38.29670
 5700.00000   12.52810   -0.00130    2.68870    -999.25    -999.25    -999.25   60.36110   65.67790    9.99440    7.78780   12.84710  -29.97410
 5750.00000   11.26040    0.01380    2.72030    -999.25    -999.25    -999.25   73.30280   64.35390   12.14540    9.48090   17.94880  -42.27510
 5800.00000   11.48900    0.00050    2.65290    -999.25    -999.25    -999.25   69.62820   65.09370   17.53460   12.47970   24.06740  -48.98000
 5850.00000   11.79570   -0.00220    2.66940    -999.25    -999.25    -999.25   75.63890   66.32200   11.70410    8.87150   15.53670  -47.87330
 5900.00000   11.58070    0.00190    2.67080    -999.25    -999.25    -999.25   83.30050   70.59930    9.61600    7.77160   13.85630  -44.33100
 5950.00000   11.51360    0.00650    2.68750    -999.25    -999.25    -999.25   79.86370   69.98100    9.93950    8.16290   14.21410  -47.79100
 6000.00000   11.31790   -0.00030    2.68600    -999.25    -999.25    -999.25   78.17370   68.98480    9.31860    7.76050   13.45440  -42.72310
 6050.00000   10.80660    0.00300    2.68440    -999.25    -999.25    -999.25   46.69150   58.83940   21.54580   16.60410   33.45100  -45.75910
 6100.00000    9.46160    0.03890    2.66540    -999.25    -999.25    -999.25   26.89110   55.99760   38.59980   26.02630   64.46410  -71.09190
 6150.00000   11.90870    0.08810    2.57810    -999.25    -999.25    -999.25   30.66700   48.56800   67.57970   21.50900  170.01740  -77.22250
 6200.00000   11.89280    0.23440    2.77970    -999.25    -999.25    -999.25   34.93910   50.78200  151.79280   34.68260  383.11940  -79.18900
 6250.00000   10.37720    0.03730    2.81360    -999.25    -999.25    -999.25   21.85470   48.04910  206.38990   86.10460  740.74950  -83.88200
 6300.00000   10.16460    0.06160    2.67320    -999.25    -999.25    -999.25   16.16590   51.37950   78.63930  110.46040  390.20690 -100.86680
 6350.00000   10.53000    0.01540    2.75380    -999.25    -999.25    -999.25   18.28150   50.80120  147.96590   68.26240  315.74400  -85.40460
 6400.00000   10.34230    0.16090    2.70070    -999.25    -999.25    -999.25   21.16530   50.68410   81.52050   62.68460  108.51080  -83.79680
 6450.00000   10.22630   -0.01570    2.84240    -999.25    -999.25    -999.25   24.29310   52.07990    4.97060    5.26660   19.33300  -83.96820
 6500.00000   10.10270    0.00330    2.71260    -999.25    -999.25    -999.25   37.96110   75.58450   50.11100   38.21860   81.70800  -59.24930
