~Version ---------------------------------------------------
VERS.      2.0 : CWLS log ASCII Standard -VERSION 2.0
WRAP.       NO : One line per depth step
CREA. 12/15/17 : LAS Creation Date
~Well ------------------------------------------------------
STRT.FT                         950.0 : START DEPTH
STOP.FT                        9250.0 : STOP DEPTH
STEP.FT                      50.00000 : STEP LENGTH
NULL.                         -999.25 : NULL VALUE
COMP.   TEXACO CANADA ENTERPRISES LTD : COMPANY
WELL. TEXCAN ET AL MAHASKA 7-10-58-13 : WELL
FLD .                                 : FIELD
LOC .                                 : LOCATION
CTRY.                          CANADA : COUNTRY
SRVC.                         Unknown : SERVICE COMPANY
DATE.                     11-Jan-1974 : LOGDATE
PROV.                         Alberta : PROVINCE
UWI .                100071005813W500 : UNIQUE WELL ID
SLAT.WGS84                   53.99612 : SURFACE LATITUDE
SLON.WGS84                  -115.8404 : SURFACE LONGITUDE
~Curve Information -----------------------------------------
DEPT    .FT    : Depth Curve
CALDED  .IN    : CALIPER FROM DENSITY LOG
CALSED  .IN    : CALIPER FROM SONIC LOG
CALWS   .IN    : CALIPER [CALSED]
CONDWS  .MMHO  : CONDUCTIVITY [1000/DRESWS]
DCORED  .G/C3  : DENSITY CORRECTION FROM DENSITY LOG [ADJ TO RESISTIVITY LOG]
DCORWS  .G/C3  : DENSITY CORRECTION [DCORED]
DENWS   .G/C3  : FORMATION BULK DENSITY [RHOBED]
DPHILSED.V/V   : DENSITY POROSITY LIMESTONE [M=2.71, F=1.00] FROM DENSITY LOG [ADJ TO RESISTIVITY LOG]
DPHISSED.V/V   : DENSITY POROSITY SANDSTONE [M=2.65, F=1.00] FROM DENSITY LOG [ADJ TO RESISTIVITY LOG]
DPOLSWS .V/V   : DENSITY POROSITY LIMESTONE [CALC FROM DENWS,M=2.71, F=1.00]
DRESWS  .OHMM  : DEEP RESISTIVITY [ILDED]
DTED    .US/F  : INTERVAL TRANSIT TIMEM=2.65, F=1.00 FROM SONIC LOG [ADJ TO RESISTIVITY LOG]
DTWS    .US/F  : COMPRESSIONAL SONIC [DTED]
GRDED   .GAPI  : GAMMA RAY FROM DENSITY LOG
GRSED   .GAPI  : GAMMA RAY FROM SONIC LOG
GRWS    .GAPI  : GAMMA RAY [GRSED]
ILDED   .OHMM  : INDUCTION LOG DEEP FROM RESISTIVITY LOG
ILMED   .OHMM  : INDUCTION LOG MEDIUM FROM RESISTIVITY LOG
LL8ED   .OHMM  : LATEROLOG-8 FROM RESISTIVITY LOG
MRESWS  .OHMM  : MEDIUM RESISTIVITY [ILMED]
NPHILSED.V/V   : NEUTRON POROSITY LIMESTONE FROM DENSITY LOG [ADJ TO RESISTIVITY LOG]
NPHISSED.V/V   : NEUTRON POROSITY SANDSTONE FROM DENSITY LOG [ADJ TO RESISTIVITY LOG]
NPOLSWS .V/V   : NEUTRON POROSITY LIMESTONE [NPHISSED MATRIX CONVERTED TO LIMESTONE (SLB-CNL) & SPL @ 5728' TO NPHILSED]
RHOBED  .G/C3  : BULK DENSITY FROM DENSITY LOG [ADJ TO RESISTIVITY LOG]
SPRED   .MV    : SPONTANEOUS POTENTIAL FROM RESISTIVITY LOG
SPWS    .MV    : SPONTANEOUS POTENTIAL [BASELINE 0MV, SPRED]
SRESWS  .OHMM  : SHALLOW RESISTIVITY [LL8ED]
~Params ----------------------------------------------------
PD  .                     GL : PERMANENT DATUM
EPD .FT               2427.8 : ELEVATION PERMANENT DATUM
LMF .                     KB : LOG MEASURED FROM
DAPD.FT                 18.2 : FEET ABOVE PERMANENT DATUM
DMF .                     KB : DRILLING MEASURED FROM
EKB .FT                 2446 : KELLY BUSHING
EGL .FT               2427.8 : GROUND LEVEL
DATE.               01/11/74 : RUN DATE
RUN .                      1 : RUN NUMBER
DD  .FT                 9279 : DEPTH DRILLER
DL  .FT                 9280 : DEPTH LOGGER
BLI .FT                 9274 : BOTTOM LOG INTERVAL
TLI .FT                  960 : TOP LOG INTERVAL
CBD .FT                  960 : CASING BOTTOM DRILLER
CBL .FT                  960 : CASING BOTTOM LOGGER
BS  .IN                 8.75 : BIT SIZE
BSD .FT                 9279 : BIT SIZE AT DEPTH
DFT .               GEL CHEM : DRILLING FLUID TYPE
DFD .                    9.2 : DRILLING FLUID DENSITY
DFV .                    130 : DRILLING FLUID VISCOSITY
DFPH.                      9 : DRILLING FLUID PH
DFL .                     11 : DRILLING FLUID LOSS
MSS .               FLOWLINE : MUD SAMPLE SOURCE
RMS .OHMM               2.59 : RESISTIVITY MUD SAMPLE
MST .DEGF                 50 : MUD SAMPLE TEMPERATURE
RMF .OHMM               1.92 : RESISTIVITY MUD FILTRATE SAMPLE
MFST.DEGF                 50 : MUD FILTRATE SAMPLE TEMPERATURE
TCS .HRS                   5 : TIME CIRCULATED STOPPED
LUN .                   7636 : LOGGING UNIT NUMBER
LUL .                    EDM : LOGGING UNIT LOCATION
ENGI.                  BOYKO : RECORDING ENGINEER
WITN.         PRIER CHAUDHRY : WITNESSED BY
CLNT.                A2DTECH : CLIENT CODE
ORIG.            2" 5" PRINT : ORIGIN OF DATA
UWI .       100071005813W500 : UNIQUE WELL ID
DICO. A2D Technologies, Inc. : DIGITIZING COMPANY
~Other -----------------------------------------------------
DIL-FDC-CNL-GR-SLC-GR TOOL RUN
RHOB & DRHO VERIFIED FROM SMALL SCALE LOG
~ASCII -----------------------------------------------------
# ...
 2250.00000    -999.25   11.53160   11.53160  236.26140    -999.25    -999.25    -999.25    -999.25    -999.25    -999.25    4.23260  112.16840  112.16840    -999.25   60.34930   60.34930    4.23260    4.07710    3.99640    4.07710    -999.25    -999.25    -999.25    -999.25  -83.30350   -3.23190    3.99640
 2300.00000    -999.25   10.03300   10.03300  181.45200    -999.25    -999.25    -999.25    -999.25    -999.25    -999.25    5.51110   97.12130   97.12130    -999.25   66.32500   66.32500    5.51110    5.28370    4.65340    5.28370    -999.25    -999.25    -999.25    -999.25  -85.01330   -4.91820    4.65340
 2350.00000    -999.25   14.03390   14.03390  289.34350    -999.25    -999.25    -999.25    -999.25    -999.25    -999.25    3.45610  122.31420  122.31420    -999.25   51.56930   51.56930    3.45610    3.22380    3.54550    3.22380    -999.25    -999.25    -999.25    -999.25  -84.17650   -4.05790    3.54550
 2400.00000    -999.25   10.76490   10.76490  208.52450    -999.25    -999.25    -999.25    -999.25    -999.25    -999.25    4.79560  103.57150  103.57150    -999.25   55.36340   55.36340    4.79560    4.62150    4.67610    4.62150    -999.25    -999.25    -999.25    -999.25  -83.48120   -3.33910    4.67610
 2450.00000    -999.25   10.71680   10.71680  266.04940    -999.25    -999.25    -999.25    -999.25    -999.25    -999.25    3.75870  137.18640  137.18640    -999.25   51.78130   51.78130    3.75870    3.62200    3.94910    3.62200    -999.25    -999.25    -999.25    -999.25  -83.08340   -2.91780    3.94910
 2500.00000    -999.25   10.21890   10.21890  146.54810    -999.25    -999.25    -999.25    -999.25    -999.25    -999.25    6.82370  100.24200  100.24200    -999.25   59.42700   59.42700    6.82370    6.52030    7.40750    6.52030    -999.25    -999.25    -999.25    -999.25  -87.80640   -7.61720    7.40750
 2550.00000    -999.25   10.38070   10.38070  151.51970    -999.25    -999.25    -999.25    -999.25    -999.25    -999.25    6.59980  108.53070  108.53070    -999.25   58.78120   58.78120    6.59980    6.36220    6.91870    6.36220    -999.25    -999.25    -999.25    -999.25  -86.91750   -6.70480    6.91870
 2600.00000    -999.25    9.60470    9.60470   67.69660    -999.25    -999.25    -999.25    -999.25    -999.25    -999.25   14.77180   90.32600   90.32600    -999.25   32.75080   32.75080   14.77180   13.95270   17.36810   13.95270    -999.25    -999.25    -999.25    -999.25 -100.80300  -20.56680   17.36810
 2650.00000    -999.25   11.51410   11.51410  201.40990    -999.25    -999.25    -999.25    -999.25    -999.25    -999.25    4.96500   92.30530   92.30530    -999.25   60.87780   60.87780    4.96500    4.78380    5.27720    4.78380    -999.25    -999.25    -999.25    -999.25  -84.27590   -4.01620    5.27720
 2700.00000    -999.25   11.27580   11.27580  152.00340    -999.25    -999.25    -999.25    -999.25    -999.25    -999.25    6.57880   98.20630   98.20630    -999.25   57.62890   57.62890    6.57880    6.09170    5.04130    6.09170    -999.25    -999.25    -999.25    -999.25  -86.17230   -5.88910    5.04130
 2750.00000    -999.25   10.29970   10.29970  195.69090    -999.25    -999.25    -999.25    -999.25    -999.25    -999.25    5.11010   95.91900   95.91900    -999.25   58.07930   58.07930    5.11010    4.92600    5.29840    4.92600    -999.25    -999.25    -999.25    -999.25  -84.79800   -4.49130    5.29840
 2800.00000    -999.25   10.10950   10.10950  218.69870    -999.25    -999.25    -999.25    -999.25    -999.25    -999.25    4.57250   98.37160   98.37160    -999.25   60.08850   60.08850    4.57250    4.40560    5.41020    4.40560    -999.25    -999.25    -999.25    -999.25  -83.19720   -2.86700    5.41020
 2850.00000    -999.25    9.65690    9.65690  130.97580    -999.25    -999.25    -999.25    -999.25    -999.25    -999.25    7.63500   89.80000   89.80000    -999.25   45.87730   45.87730    7.63500    7.11250    7.84900    7.11250    -999.25    -999.25    -999.25    -999.25  -87.85240   -7.49860    7.84900
 2900.00000    -999.25    9.93510    9.93510  190.84700    -999.25    -999.25    -999.25    -999.25    -999.25    -999.25    5.23980   96.48550   96.48550    -999.25   58.14550   58.14550    5.23980    5.04120    5.04060    5.04120    -999.25    -999.25    -999.25    -999.25  -85.14170   -4.76440    5.04060
 2950.00000    -999.25    9.52290    9.52290  134.20840    -999.25    -999.25    -999.25    -999.25    -999.25    -999.25    7.45110   86.77600   86.77600    -999.25   56.28970   56.28970    7.45110    7.18060    7.94460    7.18060    -999.25    -999.25    -999.25    -999.25  -87.58400   -7.18320    7.94460
 3000.00000    -999.25    9.84440    9.84440  207.76200    -999.25    -999.25    -999.25    -999.25    -999.25    -999.25    4.81320   96.89100   96.89100    -999.25   63.55420   63.55420    4.81320    4.62520    5.70970    4.62520    -999.25    -999.25    -999.25    -999.25  -84.84240   -4.42470    5.70970
 3050.00000    -999.25    9.98680    9.98680  147.08480    -999.25    -999.25    -999.25    -999.25    -999.25    -999.25    6.79880   90.48180   90.48180    -999.25   66.52980   66.52980    6.79880    6.58990    7.32570    6.58990    -999.25    -999.25    -999.25    -999.25  -85.97170   -5.75210    7.32570
 3100.00000    -999.25    9.52970    9.52970  153.82250    -999.25    -999.25    -999.25    -999.25    -999.25    -999.25    6.50100   91.55840   91.55840    -999.25   95.68730   95.68730    6.50100    6.65200    7.13200    6.65200    -999.25    -999.25    -999.25    -999.25  -86.12870   -6.10710    7.13200
 3150.00000    -999.25   10.91580   10.91580  154.54280    -999.25    -999.25    -999.25    -999.25    -999.25    -999.25    6.47070   93.09200   93.09200    -999.25   85.03950   85.03950    6.47070    6.65170    6.92670    6.65170    -999.25    -999.25    -999.25    -999.25  -86.26670   -6.44310    6.92670
 3200.00000    -999.25   10.06360   10.06360  143.36710    -999.25    -999.25    -999.25    -999.25    -999.25    -999.25    6.97510  100.83480  100.83480    -999.25  100.96620  100.96620    6.97510    7.17660    7.31320    7.17660    -999.25    -999.25    -999.25    -999.25  -87.19910   -7.57360    7.31320
 3250.00000    -999.25   10.09300   10.09300  150.11860    -999.25    -999.25    -999.25    -999.25    -999.25    -999.25    6.66140   91.80540   91.80540    -999.25   94.23000   94.23000    6.66140    7.05810    8.11980    7.05810    -999.25    -999.25    -999.25    -999.25  -86.50980   -7.08230    8.11980
 3300.00000    -999.25    9.86930    9.86930  145.25380    -999.25    -999.25    -999.25    -999.25    -999.25    -999.25    6.88450   95.32750   95.32750    -999.25   95.93420   95.93420    6.88450    7.28460   10.02110    7.28460    -999.25    -999.25    -999.25    -999.25  -86.43730   -7.20790   10.02110
 3350.00000    -999.25    9.93300    9.93300  115.12780    -999.25    -999.25    -999.25    -999.25    -999.25    -999.25    8.68600   90.76790   90.76790    -999.25  110.02490  110.02490    8.68600    8.93220   13.45290    8.93220    -999.25    -999.25    -999.25    -999.25  -85.12920   -6.09780   13.45290
 3400.00000    -999.25   10.23270   10.23270  156.91940    -999.25    -999.25    -999.25    -999.25    -999.25    -999.25    6.37270   93.93880   93.93880    -999.25  109.68350  109.68350    6.37270    6.55030    8.55500    6.55030    -999.25    -999.25    -999.25    -999.25  -84.87240   -6.03900    8.55500
 3450.00000    -999.25   10.33260   10.33260  143.32810    -999.25    -999.25    -999.25    -999.25    -999.25    -999.25    6.97700   93.01070   93.01070    -999.25   93.13670   93.13670    6.97700    7.17650    8.18890    7.17650    -999.25    -999.25    -999.25    -999.25  -86.31060   -7.67530    8.18890
 3500.00000    -999.25   10.31280   10.31280  150.95250    -999.25    -999.25    -999.25    -999.25    -999.25    -999.25    6.62460   88.81780   88.81780    -999.25   92.92450   92.92450    6.62460    6.81050    7.12930    6.81050    -999.25    -999.25    -999.25    -999.25  -86.67750   -8.24020    7.12930
