~Version ---------------------------------------------------
VERS.      2.0 : CWLS log ASCII Standard -VERSION 2.0
WRAP.       NO : One line per depth step
CREA. 12/21/17 : LAS Creation Date
~Well ------------------------------------------------------
STRT.FT                           300.0 : START DEPTH
STOP.FT                         10850.0 : STOP DEPTH
STEP.FT                        50.00000 : STEP LENGTH
NULL.                           -999.25 : NULL VALUE
COMP. HUDSONS BAY OIL & GAS COMPANY LTD : COMPANY
WELL.    H.B. UNION KAYBOB S 7-14-62-20 : WELL
FLD .                                   : FIELD
LOC .                                   : LOCATION
CTRY.                            CANADA : COUNTRY
SRVC.            Schlumberger of Canada : SERVICE COMPANY
DATE.                       27-Mar-1965 : LOGDATE
PROV.                           Alberta : PROVINCE
UWI .                  100071406220W500 : UNIQUE WELL ID
SLAT.WGS84                      54.3613 : SURFACE LATITUDE
SLON.WGS84                    -116.8845 : SURFACE LONGITUDE
~Curve Information -----------------------------------------
DEPT   .FT        : Depth Curve
CALSED .IN        : CALIPER FROM SONIC LOG
CALWS  .IN        : CALIPER [TOP MCALED 6870' CALSED TD]
CILDED .MMHO      : CONDUCTIVITY FROM IEL LOG
CONDWS .MMHO      : CONDUCTIVITY [1000/DRESWS]
DRESWS .OHMM      : DEEP RESISTIVITY [1000/CILDED IF ILDED<5, ILDED]
DTED   .US/F      : SHEAR SONIC FROM SONIC LOG
DTWS   .US/F      : COMPRESSIONAL  SONIC [DTED]
GRED   .GAPI      : GAMMA RAY FROM CBL LOG
GRSED  .GAPI      : GAMMA RAY FROM SONIC LOG
GRWS   .GAPI      : GAMMA RAY [GRED SPL. TO GRSED @ 7000']
ILDED  .OHMM      : DEEP INDUCTION FROM IEL LOG
MCALED .IN        : CALIPER FROM MICROLOG
RATIOED.UNITLESS  : RATIO FROM TDT LOG
SIGMAED.CU        : CAPTURE CROSS SECTION FROM TDT LOG
SNED   .OHMM      : 16 INCH SHORT NORMAL RESISTIVITY FROM IEL LOG
SPRED  .MV        : SPONTANEOUS POTENTIAL FROM IEL LOG
SPWS   .MV        : SPONTANEOUS POTENTIAL [BASELINE 0 MV, SPRED]
SRESWS .OHMM      : SHALLOW RESISTIVITY [SNED]
TENED  .LBF       : TENSION FROM CBL LOG
~Params ----------------------------------------------------
PD  .                     GL : PERMANENT DATUM
EPD .FT                 2833 : ELEVATION PERMANENT DATUM
LMF .                     KB : LOG MEASURED FROM
DAPD.FT                   16 : FEET ABOVE PERMANENT DATUM
EKB .FT                 2849 : KELLY BUSHING
EGL .FT                 2833 : GROUND LEVEL
DATE.               03/27/65 : RUN DATE
RUN .                      2 : RUN NUMBER
TCS .HRS                 3.5 : TIME CIRCULATED STOPPED
LUN .                   1576 : LOGGING UNIT NUMBER
LUL .                    WCT : LOGGING UNIT LOCATION
ENGI.              DEMETRICK : RECORDING ENGINEER
WITN.               HAMILTON : WITNESSED BY
CLNT.                A2DTECH : CLIENT CODE
ORIG.            2" 5" PRINT : ORIGIN OF DATA
UWI .       100071406220W500 : UNIQUE WELL ID
DICO. A2D Technologies, Inc. : DIGITIZING COMPANY
~Other -----------------------------------------------------
CALIPER-CBL-GR-IEL-ML-TDT-SONIC LOG RAN
EL: ALL CURVES HAVE BEEN VERIFIED FROM 1" SECTION @TOP-1146',3454'-4150',4398'-5498'.
MCAL HAS BEEN VERIFIED FROM 1" SECTION @TOP-1940',3450'-4140',4400'-5500'
~ASCII -----------------------------------------------------
# ...
 2150.00000    -999.25   12.11580  243.82420  243.82420    4.10130    -999.25    -999.25   71.78520    -999.25   71.78520    3.21950   12.11580    -999.25    -999.25    3.78560  -61.07090   -3.82940    3.78560 1642.73960
 2200.00000    -999.25   11.47280  490.56790  490.56790    2.03850    -999.25    -999.25   59.51900    -999.25   59.51900    0.96750   11.47280    -999.25    -999.25    2.43740  -60.85470   -3.76720    2.43740 1638.05510
 2250.00000    -999.25   10.74790  110.69120  108.00770    9.25860    -999.25    -999.25   69.51580    -999.25   69.51580    9.25860   10.74790    -999.25    -999.25    7.52140  -61.42970   -4.49630    7.52140 1638.64910
 2300.00000    -999.25   10.74120  176.57560  176.57560    5.66330    -999.25    -999.25   76.17850    -999.25   76.17850    4.95470   10.74120    -999.25    -999.25    5.11010  -59.91950   -3.14030    5.11010 1640.77640
 2350.00000    -999.25   12.00820  243.58720  243.58720    4.10530    -999.25    -999.25   65.94690    -999.25   65.94690    3.28630   12.00820    -999.25    -999.25    4.05360  -59.27360   -2.64830    4.05360 1637.31450
 2400.00000    -999.25    9.57170   60.84430   65.49990   15.26720    -999.25    -999.25   64.23850    -999.25   64.23850   15.26720    9.57170    -999.25    -999.25   10.66680  -68.01600  -11.50540   10.66680 1635.97780
 2450.00000    -999.25   10.96420  272.88850  272.88850    3.66450    -999.25    -999.25   66.05590    -999.25   66.05590    2.74150   10.96420    -999.25    -999.25    3.46170  -60.16150   -3.75000    3.46170 1642.58870
 2500.00000    -999.25    9.72910  116.29270  125.37930    7.97580    -999.25    -999.25   57.09410    -999.25   57.09410    7.97580    9.72910    -999.25    -999.25    6.09560  -60.89290   -4.58080    6.09560 1675.82350
 2550.00000    -999.25   10.81680  154.35090  174.91080    5.71720    -999.25    -999.25   56.56170    -999.25   56.56170    5.71720   10.81680    -999.25    -999.25    6.44090  -62.57580   -6.36310    6.44090 1678.49860
 2600.00000    -999.25    9.98310  169.00480  177.27670    5.64090    -999.25    -999.25   42.22290    -999.25   42.22290    5.64090    9.98310    -999.25    -999.25    5.42370  -58.98980   -2.87620    5.42370 1677.41210
 2650.00000    -999.25   10.88550  191.49670  191.49670    5.22200    -999.25    -999.25   52.03730    -999.25   52.03730    4.46180   10.88550    -999.25    -999.25    5.61780  -60.22050   -4.20630    5.61780 1671.70500
 2700.00000    -999.25    9.56570   20.10910   24.05180   41.57700    -999.25    -999.25   32.11700    -999.25   32.11700   41.57700    9.56570    -999.25    -999.25   27.62220  -68.67270  -12.75760   27.62220 1687.29400
 2750.00000    -999.25    9.76170   51.74650   52.83230   18.92780    -999.25    -999.25   32.20610    -999.25   32.20610   18.92780    9.76170    -999.25    -999.25   15.18030  -63.94110   -8.12550   15.18030 1689.64160
 2800.00000    -999.25   10.94130  205.11090  205.11090    4.87540    -999.25    -999.25   47.86720    -999.25   47.86720    4.12410   10.94130    -999.25    -999.25    4.73960  -59.42110   -3.70490    4.73960 1691.30190
 2850.00000    -999.25   12.02380  213.78900  213.78900    4.67750    -999.25    -999.25   39.86770    -999.25   39.86770    3.88660   12.02380    -999.25    -999.25    4.43890  -59.12440   -3.52020    4.43890 1719.47000
 2900.00000    -999.25   10.76060   46.81840   52.06730   19.20590    -999.25    -999.25   38.20380    -999.25   38.20380   19.20590   10.76060    -999.25    -999.25   13.92080  -65.55780  -10.13540   13.92080 1745.10000
 2950.00000    -999.25   10.71990   46.88400   52.26740   19.13240    -999.25    -999.25   37.88840    -999.25   37.88840   19.13240   10.71990    -999.25    -999.25   13.82700  -65.18300   -9.94260   13.82700 1762.31500
 3000.00000    -999.25   12.55100  184.55850  184.55850    5.41830    -999.25    -999.25   51.21680    -999.25   51.21680    4.94650   12.55100    -999.25    -999.25    4.64170  -57.64910   -2.59040    4.64170 1772.67870
 3050.00000    -999.25   10.74260  186.38350  186.38350    5.36530    -999.25    -999.25   43.93380    -999.25   43.93380    4.69020   10.74260    -999.25    -999.25    5.26690  -57.13330   -2.25640    5.26690 1776.24160
 3100.00000    -999.25   10.74680   78.59480   83.01860   12.04550    -999.25    -999.25   41.83460    -999.25   41.83460   12.04550   10.74680    -999.25    -999.25   10.31830  -59.58710   -4.89220   10.31830 1791.05350
 3150.00000    -999.25   11.68140  171.83470  191.05120    5.23420    -999.25    -999.25   50.23890    -999.25   50.23890    5.23420   11.68140    -999.25    -999.25    5.55950  -57.68700   -3.17390    5.55950 1787.87040
 3200.00000    -999.25   10.30770  153.65500  153.65500    6.50810    -999.25    -999.25   55.54050    -999.25   55.54050    5.84970   10.30770    -999.25    -999.25    5.93840  -57.49650   -3.16530    5.93840 1811.33890
 3250.00000    -999.25    9.42430   50.57260   50.57260   19.77360    -999.25    -999.25   39.74190    -999.25   39.74190   17.40820    9.42430    -999.25    -999.25   20.14970  -70.03710  -16.40200   20.14970 1829.47790
 3300.00000    -999.25   10.51500  195.57650  195.57650    5.11310    -999.25    -999.25   45.13260    -999.25   45.13260    4.27860   10.51500    -999.25    -999.25    5.19840  -58.53510   -5.68320    5.19840 1827.90430
 3350.00000    -999.25    9.80170  162.91370  162.91370    6.13820    -999.25    -999.25   44.67000    -999.25   44.67000    5.28350    9.80170    -999.25    -999.25    6.20960  -57.69990   -5.63510    6.20960 1832.21570
 3400.00000    -999.25   10.11970   70.76380   70.76380   14.13150    -999.25    -999.25   38.59070    -999.25   38.59070   13.23740   10.11970    -999.25    -999.25   11.93340  -67.98860  -16.70700   11.93340 1859.28110
 3450.00000    -999.25    9.90360  119.75830  119.75830    8.35020    -999.25    -999.25   46.98620    -999.25   46.98620    7.62470    9.90360    -999.25    -999.25    7.43290  -59.04600   -7.42490    7.43290 1867.48620
 3500.00000    -999.25    9.78710   72.84350   72.84350   13.72810    -999.25    -999.25   39.83130    -999.25   39.83130   12.82610    9.78710    -999.25    -999.25   11.44910  -60.11450   -7.10840   11.44910 1900.55500
 3550.00000    -999.25   10.51650   93.40880   97.51720   10.25460    -999.25    -999.25   61.14780    -999.25   61.14780   10.25460   10.51650    -999.25    -999.25    9.15890  -58.86620   -5.02620    9.15890 1890.69050
 3600.00000    -999.25   12.56710  121.61830  130.26770    7.67650    -999.25    -999.25   76.82390    -999.25   76.82390    7.67650   12.56710    -999.25    -999.25    6.97880  -59.19800   -5.39820    6.97880 1878.20700
 3650.00000    -999.25   12.16390  125.63720  129.57900    7.71730    -999.25    -999.25   71.62660    -999.25   71.62660    7.71730   12.16390    -999.25    -999.25    7.22240  -59.88640   -5.88310    7.22240 1860.95600
 3700.00000    -999.25   11.74100  126.84690  138.80020    7.20460    -999.25    -999.25   79.32040    -999.25   79.32040    7.20460   11.74100    -999.25    -999.25    6.74340  -59.86810   -5.65880    6.74340 1872.76830
 3750.00000    -999.25   10.65180  116.22110  116.20210    8.60570    -999.25    -999.25   78.13540    -999.25   78.13540    8.60570   10.65180    -999.25    -999.25    8.10580  -57.37260   -2.95980    8.10580 1878.01380
 3800.00000    -999.25   11.28540   81.52540   83.27020   12.00910    -999.25    -999.25   84.76840    -999.25   84.76840   12.00910   11.28540    -999.25    -999.25   11.39520  -58.31390   -3.69750   11.39520 1872.08490
 3850.00000    -999.25   11.69830   89.19370   94.74360   10.55480    -999.25    -999.25   81.32710    -999.25   81.32710   10.55480   11.69830    -999.25    -999.25    9.40600  -58.87270   -4.05040    9.40600 1899.87710
 3900.00000    -999.25   11.54000  109.25200  118.52690    8.43690    -999.25    -999.25   79.69030    -999.25   79.69030    8.43690   11.54000    -999.25    -999.25    7.85750  -58.57270   -3.54690    7.85750 1902.71490
 3950.00000    -999.25   11.53020  117.70920  125.82100    7.94780    -999.25    -999.25   70.58540    -999.25   70.58540    7.94780   11.53020    -999.25    -999.25    6.98980  -59.09200   -3.86030    6.98980 1912.48990
