~Version ---------------------------------------------------
VERS.      2.0 : CWLS log ASCII Standard -VERSION 2.0
WRAP.       NO : One line per depth step
CREA. 09/22/17 : LAS Creation Date
~Well ------------------------------------------------------
STRT.FT                1200.0 : START DEPTH
STOP.FT               10800.0 : STOP DEPTH
STEP.FT              50.00000 : STEP LENGTH
NULL.                 -999.25 : NULL VALUE
COMP. SUN OIL COMPANY LIMITED : COMPANY
WELL. BEC ROSEVEAR 6-34-54-15 : WELL
FLD .                         : FIELD
LOC .                         : LOCATION
CTRY.                  CANADA : COUNTRY
SRVC.  Schlumberger of Canada : SERVICE COMPANY
DATE.             25-Mar-1971 : LOGDATE
PROV.                 Alberta : PROVINCE
UWI .        100063405415W500 : UNIQUE WELL ID
SLAT.WGS84           53.70553 : SURFACE LATITUDE
SLON.WGS84          -116.1304 : SURFACE LONGITUDE
~Curve Information -----------------------------------------
DEPT   .FT    : Depth Curve
CALIED .IN    : CALIPER FROM SNP LOG [ADJ. TO RESISTIVITY LOG]
CALSED .IN    : CALIPER FROM SONIC LOG [ADJ. TO RESISTIVITY LOG]
CALWS  .IN    : CALIPER [CALSED]
CILDED .MMHO  : CONDUCTIVITY FROM RESISTIVITY LOG
CONDWS .MMHO  : CONDUCTIVITY [1000/DRESWS]
DRESWS .OHMM  : DEEP RESISTIVITY [1000/CILDED IF ILDED<=5, ILDED]
DTED   .US/F  : DELTA T FROM SONIC LOG [ADJ. TO RESISTIVITY LOG]
DTWS   .US/F  : COMPRESSIONAL SONIC [DTED]
GRED   .GAPI  : GAMMA RAY FROM SNP LOG [ADJ. TO RESISTIVITY LOG]
GRNED  .GAPI  : GAMMA RAY NEUTRON FROM GRN LOG [ADJ. TO RESISTIVITY LOG]
GRSED  .GAPI  : GAMMA RAY FROM SONIC LOG [ADJ. TO RESISTIVITY LOG]
GRWS   .GAPI  : GAMMA RAY [GRSED SPL. TO GRNED @ 10735']
ILDED  .OHMM  : DEEP INDUCTION FROM RESISTIVITY LOG
ILMED  .OHMM  : MEDIUM INDUCTION FROM RESISTIVITY LOG
LL8ED  .OHMM  : LATEROLOG 8' FROM RESISTIVITY LOG
MRESWS .OHMM  : MEDIUM RESISTIVITY [ILMED]
NEUTED .NAPI  : NEUTRON FROM GRN LOG [ADJ. TO RESISTIVITY LOG]
NEUTWS .NAPI  : NEUTRON [NEUTED]
NPOLSWS.V/V   : NEUTRON POROSITY LIMESTONE [SNPLSED]
SNED   .OHMM  : SHORT NORMAL FROM RESISTIVITY LOG
SNPLSED.V/V   : SIDEWALL NEUTRON POROSITY LIMESTONE FROM SNP LOG [ADJ. TO RESISTIVITY LOG]
SPRED  .MV    : SPONTANEOUS POTENTIAL FROM RESISTIVITY LOG
SPWS   .MV    : SPONTANEOUS POTENTIAL [BASELINE 0 MV, SPRED]
SRESWS .OHMM  : SHALLOW RESISTIVITY [SNED SPL. TO LL8ED @ 4794']
~Params ----------------------------------------------------
PD  .                     GL : PERMANENT DATUM
EPD .FT               2803.5 : ELEVATION PERMANENT DATUM
LMF .                     KB : LOG MEASURED FROM
DAPD.FT                 15.5 : FEET ABOVE PERMANENT DATUM
EKB .FT                 2819 : KELLY BUSHING
EGL .FT               2803.5 : GROUND LEVEL
DATE.               03/25/71 : RUN DATE
RUN .                      1 : RUN NUMBER
DD  .FT                10590 : DEPTH DRILLER
DL  .FT                10587 : DEPTH LOGGER
BLI .FT                10581 : BOTTOM LOG INTERVAL
TLI .FT                 1243 : TOP LOG INTERVAL
CBD .FT                 1243 : CASING BOTTOM DRILLER
CBL .FT                 1243 : CASING BOTTOM LOGGER
BS  .IN                 8.75 : BIT SIZE
BSD .FT                10590 : BIT SIZE AT DEPTH
DFT .                    GEL : DRILLING FLUID TYPE
DFD .                   11.1 : DRILLING FLUID DENSITY
DFV .                    127 : DRILLING FLUID VISCOSITY
DFPH.                     10 : DRILLING FLUID PH
DFL .                      6 : DRILLING FLUID LOSS
MSS .                   CIRC : MUD SAMPLE SOURCE
RMS .OHMM               1.34 : RESISTIVITY MUD SAMPLE
MST .DEGF                 68 : MUD SAMPLE TEMPERATURE
RMF .OHMM               0.95 : RESISTIVITY MUD FILTRATE SAMPLE
MFST.DEGF                 50 : MUD FILTRATE SAMPLE TEMPERATURE
RMC .OHMM               1.98 : RESISTIVITY MUD CAKE
MCST.DEGF                 52 : MUD CAKE SAMPLE TEMPERATURE
RMB .OHMM               0.32 : RESISTIVITY MUD AT BHT
TCS .HRS                   4 : TIME CIRCULATED STOPPED
LUN .                   5628 : LOGGING UNIT NUMBER
ENGI.               PUOURSON : RECORDING ENGINEER
WITN.                 BAANUT : WITNESSED BY
CLNT.                A2DTECH : CLIENT CODE
ORIG.            2" 5" PRINT : ORIGIN OF DATA
UWI .       100063405415W500 : UNIQUE WELL ID
DICO. A2D Technologies, Inc. : DIGITIZING COMPANY
~Other -----------------------------------------------------
DIL-GRN-SNP-BCS LOG RAN.
~ASCII -----------------------------------------------------
# ...
 7000.00000   10.49630    9.62120    9.62120    -999.25   55.64460   17.97120   71.63070   71.63070   21.90640    -999.25   32.42690   32.42690   17.97120   21.30180   25.80860   21.30180    -999.25    -999.25    0.12330    -999.25    0.12330  -72.12910  -49.21870   25.80860
 7050.00000   13.91430   10.41080   10.41080    -999.25   24.44420   40.90960   69.97480   69.97480   46.24480    -999.25   71.81030   71.81030   40.90960   41.09800   55.06100   41.09800    -999.25    -999.25    0.22000    -999.25    0.22000  -28.20460   -6.75640   55.06100
 7100.00000   12.11500   10.19800   10.19800    -999.25   63.50130   15.74770   74.44800   74.44800   58.52050    -999.25   93.71550   93.71550   15.74770   17.96130   20.27690   17.96130    -999.25    -999.25    0.24460    -999.25    0.24460  -25.49570   -5.52420   20.27690
 7150.00000   12.26980   10.47980   10.47980    -999.25   87.41610   11.44150   73.23550   73.23550   54.51720    -999.25   87.60780   87.60780   11.44150   13.07160   15.15680   13.07160    -999.25    -999.25    0.21840    -999.25    0.21840  -26.97000   -8.46080   15.15680
 7200.00000   11.05800   11.16550   11.16550    -999.25  143.32190    6.97730   87.01850   87.01850   47.91770    -999.25   80.75940   80.75940    6.97730    7.41640   10.06030    7.41640    -999.25    -999.25    0.33950    -999.25    0.33950  -25.84020   -5.07180   10.06030
 7250.00000   10.01920    9.67910    9.67910    -999.25   38.97480   25.65760   60.23680   60.23680   22.17490    -999.25   35.76730   35.76730   25.65760   36.65520   45.99250   36.65520    -999.25    -999.25    0.10370    -999.25    0.10370  -98.95540  -74.67510   45.99250
 7300.00000   10.28420    9.18110    9.18110    -999.25    1.26320  792.87160   55.71020   55.71020   11.26330    -999.25   20.12370   20.12370  792.87160 1365.76090 1664.88930 1365.76090    -999.25    -999.25    0.04040    -999.25    0.04040  -54.41300  -26.63880 1664.88930
 7350.00000   10.30500    9.18870    9.18870    -999.25    8.36110  119.60140   61.06660   61.06660   19.43740    -999.25   25.31130   25.31130  119.60140  145.18360  167.30770  145.18360    -999.25    -999.25    0.06910    -999.25    0.06910  -42.08870  -10.78510  167.30770
 7400.00000   10.95310    9.57230    9.57230    -999.25   16.91900   59.10820   67.26900   67.26900  199.70780    -999.25  299.67150  299.67150   59.10820   62.55980   73.09500   62.55980    -999.25    -999.25    0.13370    -999.25    0.13370  -62.53600  -30.23210   73.09500
 7450.00000   11.19310   10.00380   10.00380    -999.25   19.70760   50.74180   54.95940   54.95940   18.57690    -999.25   25.09190   25.09190   50.74180   43.24420   82.58030   43.24420    -999.25    -999.25    0.07800    -999.25    0.07800  -50.21420  -19.54440   82.58030
 7500.00000   11.54060   10.04710   10.04710    -999.25    0.64720 1545.04460   49.93020   49.93020    7.38310    -999.25    9.87870    9.87870 1545.04460 1386.01060 1669.72170 1386.01060    -999.25    -999.25   -0.00620    -999.25   -0.00620  -71.27650  -42.23250 1669.72170
 7550.00000   10.78900    9.79680    9.79680    -999.25    2.73790  366.76550   49.94780   49.94780   10.94450    -999.25   16.73260   16.73260  366.76550  982.34400 1672.44330  982.34400    -999.25    -999.25    0.00670    -999.25    0.00670  -85.79160  -58.36610 1672.44330
 7600.00000   11.31660   10.00730   10.00730    -999.25    7.60850  131.43120   49.10980   49.10980    8.02690    -999.25   14.77750   14.77750  131.43120  119.12800  550.59540  119.12800    -999.25    -999.25    0.05490    -999.25    0.05490 -115.74230  -89.95100  550.59540
 7650.00000   10.36500    9.39040    9.39040    -999.25   80.24820   12.46230   60.87690   60.87690   52.69160    -999.25   75.47870   75.47870   12.46230   14.18800   15.61570   14.18800    -999.25    -999.25    0.08010    -999.25    0.08010  -26.99710   -2.82210   15.61570
 7700.00000   10.40410    9.39140    9.39140    -999.25   29.44370   33.96310   58.74970   58.74970   40.91030    -999.25   60.83420   60.83420   33.96310   41.32890   48.67900   41.32890    -999.25    -999.25    0.03670    -999.25    0.03670  -36.27080  -11.97990   48.67900
 7750.00000   10.39840    9.40390    9.40390    -999.25   39.93040   25.04360   59.36740   59.36740   30.57940    -999.25   50.03230   50.03230   25.04360   27.90710   33.34020   27.90710    -999.25    -999.25    0.04240    -999.25    0.04240  -65.05280  -40.31250   33.34020
 7800.00000   12.74230   10.56580   10.56580    -999.25   77.70490   12.86920   65.93820   65.93820   43.75800    -999.25   76.51820   76.51820   12.86920   14.93650   15.40160   14.93650    -999.25    -999.25    0.17840    -999.25    0.17840  -35.84510  -10.65760   15.40160
 7850.00000   10.93030    9.81490    9.81490    -999.25   20.85860   47.94190   52.57320   52.57320   12.52660    -999.25   18.81840   18.81840   47.94190   53.72050   59.98810   53.72050    -999.25    -999.25    0.04400    -999.25    0.04400  -46.78360  -21.14450   59.98810
 7900.00000   10.43670    9.35830    9.35830    -999.25   15.32960   65.26760   52.55260   52.55260   11.55560    -999.25   17.20420   17.20420   65.26760   75.18840  112.38770   75.18840    -999.25    -999.25    0.05860    -999.25    0.05860  -62.66310  -36.57680  112.38770
 7950.00000   10.71560    9.85000    9.85000    -999.25   17.87060   55.95790   54.82480   54.82480   21.11010    -999.25   33.77830   33.77830   55.95790   74.01130  118.52640   74.01130    -999.25    -999.25    0.08240    -999.25    0.08240  -41.20560  -14.66770  118.52640
 8000.00000   10.31420    9.39520    9.39520    -999.25   29.26000   34.17630   57.11680   57.11680   28.35830    -999.25   51.76970   51.76970   34.17630   41.86040   46.46940   41.86040    -999.25    -999.25    0.04530    -999.25    0.04530  -33.45270   -6.46540   46.46940
 8050.00000   10.29640    9.37350    9.37350    -999.25   30.08380   33.24110   57.74220   57.74220   29.50170    -999.25   45.61920   45.61920   33.24110   39.33450   46.73490   39.33450    -999.25    -999.25    0.04260    -999.25    0.04260  -37.24600   -9.81150   46.73490
 8100.00000   10.28350    9.30170    9.30170    -999.25   10.22600   97.79010   54.65280   54.65280   27.84270    -999.25   42.37450   42.37450   97.79010  134.68670  129.76010  134.68670    -999.25    -999.25    0.02690    -999.25    0.02690  -34.05460   -6.16850  129.76010
 8150.00000   10.25640    9.30220    9.30220    -999.25    8.19870  123.02640   58.48620   58.48620   30.72120    -999.25   48.35540   48.35540  123.02640  144.90110  155.84310  144.90110    -999.25    -999.25    0.06800    -999.25    0.06800  -59.44920  -31.24260  155.84310
 8200.00000   11.43370    9.92320    9.92320    -999.25    0.64730 1544.77150   49.76110   49.76110    9.63590    -999.25   14.09360   14.09360 1544.77150 1133.57750 1667.97460 1133.57750    -999.25    -999.25    0.02540    -999.25    0.02540  -71.11490  -42.65670 1667.97460
 8250.00000   11.48320    9.79700    9.79700    -999.25    0.65660 1522.92150   49.64170   49.64170   11.28890    -999.25   16.15470   16.15470 1522.92150 1083.62960  772.73660 1083.62960    -999.25    -999.25    0.04490    -999.25    0.04490  -86.53270  -57.82400  772.73660
 8300.00000   12.82720    9.96640    9.96640    -999.25    0.63240 1581.32090   49.31070   49.31070    9.34090    -999.25   15.51800   15.51800 1581.32090 1374.62050 1439.74570 1374.62050    -999.25    -999.25    0.10790    -999.25    0.10790 -101.34820  -72.39080 1439.74570
 8350.00000   12.87900   10.22580   10.22580    -999.25    0.68510 1459.61550   50.34710   50.34710    8.47090    -999.25   15.37720   15.37720 1459.61550  281.86940  477.96770  281.86940    -999.25    -999.25    0.10020    -999.25    0.10020 -108.39670  -79.18760  477.96770
 8400.00000   11.53470    9.43170    9.43170    -999.25    0.66880 1495.34450   49.35350   49.35350    8.50290    -999.25   14.22940   14.22940 1495.34450  297.67540  470.75630  297.67540    -999.25    -999.25    0.05430    -999.25    0.05430 -116.03890  -86.58100  470.75630
