~Version ---------------------------------------------------
VERS.      2.0 : CWLS log ASCII Standard -VERSION 2.0
WRAP.       NO : One line per depth step
CREA. 12/21/17 : LAS Creation Date
~Well ------------------------------------------------------
STRT.FT                 1500.0 : START DEPTH
STOP.FT                10050.0 : STOP DEPTH
STEP.FT               50.00000 : STEP LENGTH
NULL.                  -999.25 : NULL VALUE
COMP.     CHEVRON STANDARD LTD : COMPANY
WELL. CHEVRON PEMBINA 6-3-51-7 : WELL
FLD .                          : FIELD
LOC .                          : LOCATION
CTRY.                   CANADA : COUNTRY
SRVC.             Schlumberger : SERVICE COMPANY
DATE.              05-Jul-1978 : LOGDATE
PROV.                  Alberta : PROVINCE
UWI .         100060305107W500 : UNIQUE WELL ID
SLAT.WGS84            53.37366 : SURFACE LATITUDE
SLON.WGS84           -114.9508 : SURFACE LONGITUDE
~Curve Information -----------------------------------------
DEPT    .FT    : Depth Curve
CALDED  .IN    : CALIPER FROM DENSITY LOG [ADJ.TO RESISTIVITY LOG]
CALSED  .IN    : CALIPER FROM SONIC LOG [ADJ.TO RESISTIVITY LOG]
CALWS   .IN    : CALIPER [CALDED]
CONDWS  .MMHO  : CONDUCTIVITY [1000/DRESWS]
DCORED  .G/C3  : DENSITY CORRECTION FROM DENSITY LOG [ADJ.TO RESISTIVITY LOG]
DCORWS  .G/C3  : DENSITY CORRECTION [DCORED]
DENWS   .G/C3  : FORMATION BULK DENSITY [RHOBED]
DPHILSED.V/V   : DENSITY POROSITY LIMESTONE [M=2.71,F=1.0] FROM DENSITY LOG [RESISTIVITY LOG]
DPHISSED.V/V   : DENSITY POROSITY SANDSTONE [M=2.65,F=1.0] FROM DENSITY LOG [RESISTIVITY LOG]
DPOLSWS .V/V   : DENSITY POROSITY LIMESTONE [CALC FROM DENWS,M=2.71, F=1.00]]
DRESWS  .OHMM  : DEEP RESISTIVITY [ILDED]
DTED    .US/F  : DELTA TIME FROM SONIC LOG [ADJ.TO RESISTIVITY LOG]
DTWS    .US/F  : COMPRESSIONAL SONIC [DTED]
GRDED   .GAPI  : GAMMA RAY FROM DENSITY LOG [ADJ.TO RESISTIVITY LOG]
GRSED   .GAPI  : GAMMA RAY FROM SONIC LOG [ADJ.TO RESISTIVITY LOG]
GRWS    .GAPI  : GAMMA RAY [GRSED SPL.TO GRDED @ 1554.5']
ILDED   .OHMM  : DEEP INDUCTION FROM RESISTIVITY LOG
ILMED   .OHMM  : MEDIUM INDUCTION FROM RESISTIVITY LOG
MRESWS  .OHMM  : MEDIUM RESISTIVITY [ILMED]
NPHILSED.V/V   : NEUTRON POROSITY LIMESTONE FROM DENSITY LOG [RESISTIVITY LOG]
NPHISSED.V/V   : NEUTRON POROSITY SANDSTONE FROM DENSITY LOG [RESISTIVITY LOG]
NPOLSWS .V/V   : NEUTRON POROSITY LIMESTONE [NPHISSED MATRIX SLB CONVERSION FOR LIMESTONE, SPL.TO NPHILSED @ 6010']
RHOBED  .G/C3  : BULK DENSITY FROM DENSITY LOG [ADJ.TO RESISTIVITY LOG]
SFLED   .OHMM  : SPHERICALLY FOCUSED FROM RESISTIVITY LOG
SPRED   .MV    : SPONTANEOUS POTENTIAL FROM RESISTIVITY LOG
SPWS    .MV    : SPONTANEOUS POTENTIAL [BASELINE 0 MV, SPRED]
SRESWS  .OHMM  : SHALLOW RESISTIVITY [SFLED]
~Params ----------------------------------------------------
PD  .                     GL : PERMANENT DATUM
EPD .FT               2688.6 : ELEVATION PERMANENT DATUM
LMF .                     KB : LOG MEASURED FROM
DAPD.FT                 17.4 : FEET ABOVE PERMANENT DATUM
EKB .FT                 2706 : KELLY BUSHING
EGL .FT               2688.6 : GROUND LEVEL
DATE.                0705/78 : RUN DATE
RUN .                      1 : RUN NUMBER
DD  .FT              3066.28 : DEPTH DRILLER
DL  .FT              3065.67 : DEPTH LOGGER
BLI .FT              3064.76 : BOTTOM LOG INTERVAL
TLI .FT               473.96 : TOP LOG INTERVAL
CBD .FT               473.96 : CASING BOTTOM DRILLER
CBL .FT               472.44 : CASING BOTTOM LOGGER
BS  .IN                 8.75 : BIT SIZE
BSD .FT              3066.28 : BIT SIZE AT DEPTH
DFT .                    GEL : DRILLING FLUID TYPE
DFD .                    110 : DRILLING FLUID DENSITY
DFV .                     75 : DRILLING FLUID VISCOSITY
DFPH.                    9.5 : DRILLING FLUID PH
MSS .            CIRCULATION : MUD SAMPLE SOURCE
RMS .OHMM               0.33 : RESISTIVITY MUD SAMPLE
MST .DEGF                 58 : MUD SAMPLE TEMPERATURE
RMF .OHMM               0.14 : RESISTIVITY MUD FILTRATE SAMPLE
MFST.DEGF                 68 : MUD FILTRATE SAMPLE TEMPERATURE
RMC .OHMM               0.15 : RESISTIVITY MUD CAKE
MCST.DEGF                 68 : MUD CAKE SAMPLE TEMPERATURE
TCS .HRS                   8 : TIME CIRCULATED STOPPED
LUN .                   7738 : LOGGING UNIT NUMBER
LUL .                    EDM : LOGGING UNIT LOCATION
ENGI.                ALVAREZ : RECORDING ENGINEER
WITN.                SPRAGUE : WITNESSED BY
CLNT.                A2DTECH : CLIENT CODE
ORIG.            2" 5" PRINT : ORIGIN OF DATA
UWI .       100060305107W500 : UNIQUE WELL ID
DICO. A2D Technologies, Inc. : DIGITIZING COMPANY
~Other -----------------------------------------------------
~ASCII -----------------------------------------------------
# ...
 4100.00000   13.47930   10.16810   13.47930  128.25450   -0.01240   -0.01240    2.49630    -999.25    0.09690    0.12500    7.79700   91.68870   91.68870  120.15740  119.95760  120.15740    7.79700    8.09630    8.09630    -999.25    0.33860    0.29480    2.49630    8.68470  -33.58140   -2.58500    8.68470
 4150.00000   14.01090    8.81250   14.01090  120.14320   -0.04300   -0.04300    2.48640    -999.25    0.10070    0.13080    8.32340   83.14470   83.14470  110.40630  121.79120  110.40630    8.32340    7.66850    7.66850    -999.25    0.26420    0.22020    2.48640    7.97040  -34.35910   -3.05320    7.97040
 4200.00000   12.71930    8.85090   12.71930  144.52330   -0.03380   -0.03380    2.43360    -999.25    0.13980    0.16160    6.91930   90.68060   90.68060  110.18820  117.83250  110.18820    6.91930    6.28060    6.28060    -999.25    0.33030    0.28650    2.43360    6.48320  -34.95280   -3.16000    6.48320
 4250.00000   11.73300    9.12610   11.73300  120.53420   -0.01250   -0.01250    2.43280    -999.25    0.13490    0.16210    8.29640   85.18620   85.18620  109.12110  113.30300  109.12110    8.29640    8.00390    8.00390    -999.25    0.33540    0.29160    2.43280    7.85440  -34.94610   -2.66970    7.85440
 4300.00000   10.80160    8.43060   10.80160  143.77110   -0.02530   -0.02530    2.45150    -999.25    0.12370    0.15120    6.95550   86.66060   86.66060  114.51680  117.81930  114.51680    6.95550    6.23810    6.23810    -999.25    0.32590    0.28200    2.45150    6.63310  -34.64220   -2.52540    6.63310
 4350.00000   11.47960    8.82140   11.47960   96.52980   -0.00180   -0.00180    2.36150    -999.25    0.18180    0.20380   10.35950   78.68710   78.68710   99.56410  108.85000   99.56410   10.35950   10.10050   10.10050    -999.25    0.30370    0.25970    2.36150    8.97720  -33.76370   -1.88380    8.97720
 4400.00000   10.64660    8.69760   10.64660  103.68710   -0.00820   -0.00820    2.42190    -999.25    0.12880    0.16850    9.64440   76.44060   76.44060   98.52740  101.60300   98.52740    9.64440    9.42830    9.42830    -999.25    0.28290    0.23890    2.42190   10.24740  -33.18190   -1.53720   10.24740
 4450.00000   10.37540    8.40750   10.37540  106.73610    0.04520    0.04520    2.43430    -999.25    0.14060    0.16120    9.36890   77.21480   77.21480  106.42110  112.04390  106.42110    9.36890    8.60830    8.60830    -999.25    0.28720    0.24320    2.43430    8.97360  -32.56460   -1.16350    8.97360
 4500.00000   10.62900    8.70130   10.62900  113.61180    0.00400    0.00400    2.45850    -999.25    0.12220    0.14710    8.80190   80.66520   80.66520  105.33880  112.34300  105.33880    8.80190    9.25180    9.25180    -999.25    0.27190    0.22800    2.45850   10.55640  -32.72670   -1.73030   10.55640
 4550.00000   11.52650    9.11330   11.52650  163.13750   -0.02630   -0.02630    2.36710    -999.25    0.17270    0.20050    6.12980   94.02590   94.02590  113.80260  124.47970  113.80260    6.12980    6.44930    6.44930    -999.25    0.37790    0.33460    2.36710    6.77880  -30.35160    0.24000    6.77880
 4600.00000   12.17890    8.70150   12.17890  111.54740   -0.01770   -0.01770    2.40120    -999.25    0.15680    0.18060    8.96480   91.45670   91.45670  123.17170  133.80630  123.17170    8.96480    9.46280    9.46280    -999.25    0.35720    0.31360    2.40120   10.50690  -31.15610   -0.97190   10.50690
 4650.00000   11.23220    8.60500   11.23220   87.73780   -0.00820   -0.00820    2.46770    -999.25    0.11420    0.14170   11.39760   83.22420   83.22420  117.12360  120.21310  117.12360   11.39760   13.65000   13.65000    -999.25    0.33370    0.28990    2.46770   14.86970  -30.38880   -0.60940   14.86970
 4700.00000   10.86690    8.52440   10.86690  102.34050    0.10460    0.10460    2.24540    -999.25    0.24760    0.27170    9.77130   90.75060   90.75060  124.59290  132.96380  124.59290    9.77130   10.11900   10.11900    -999.25    0.35460    0.31100    2.24540   11.90850  -31.08230   -1.71030   11.90850
 4750.00000   10.63510    8.39580   10.63510   82.99380    0.01430    0.01430    2.38470    -999.25    0.16770    0.19020   12.04910   88.72210   88.72210  122.24790  128.53690  122.24790   12.04910   13.38550   13.38550    -999.25    0.34310    0.29940    2.38470   15.26360  -30.50830   -1.54110   15.26360
 4800.00000   10.14790    8.35790   10.14790  111.26320    0.13520    0.13520    2.25790    -999.25    0.23840    0.26440    8.98770   92.19150   92.19150  124.78110  136.58830  124.78110    8.98770    9.61600    9.61600    -999.25    0.37210    0.32870    2.25790   12.83790  -29.40250   -0.84000   12.83790
 4850.00000    9.13350    8.54740    9.13350  138.84450    0.01540    0.01540    2.38230    -999.25    0.16680    0.19160    7.20230   90.26150   90.26150  118.04960  125.74360  118.04960    7.20230    7.60590    7.60590    -999.25    0.42310    0.38070    2.38230    9.71260  -29.55930   -1.55140    9.71260
 4900.00000   10.10390    8.78300   10.10390  136.97690    0.01240    0.01240    2.30610    -999.25    0.20740    0.23620    7.30050   89.21730   89.21730  118.78480  136.46670  118.78480    7.30050    7.72100    7.72100    -999.25    0.40870    0.36600    2.30610   10.42720  -28.92530   -1.48660   10.42720
 4950.00000    9.80760    8.46260    9.80760   93.79280    0.00950    0.00950    2.33560    -999.25    0.19500    0.21890   10.66180   66.58820   66.58820  111.40590  115.04000  111.40590   10.66180   12.03910   12.03910    -999.25    0.36220    0.31870    2.33560   19.60320  -29.34070   -2.47500   19.60320
 5000.00000   10.88660    9.19530   10.88660  135.53620   -0.00790   -0.00790    2.29570    -999.25    0.21520    0.24230    7.37810   87.04030   87.04030  119.51300  136.17200  119.51300    7.37810    7.89680    7.89680    -999.25    0.40800    0.36530    2.29570    9.91600  -28.27750   -1.98110    9.91600
 5050.00000   10.88880    9.00520   10.88880  272.33860    0.01060    0.01060    2.22700    -999.25    0.25890    0.28250    3.67190   95.74530   95.74530  120.15480  140.08380  120.15480    3.67190    3.91190    3.91190    -999.25    0.39180    0.34880    2.22700    4.48260  -26.87100   -1.14380    4.48260
 5100.00000   10.73940    8.43730   10.73940  355.66940    0.00110    0.00110    2.12250    -999.25    0.31580    0.34360    2.81160   91.95400   91.95400   98.86770  107.71040   98.86770    2.81160    3.05230    3.05230    -999.25    0.43030    0.38810    2.12250    3.51780  -26.66670   -1.51250    3.51780
 5150.00000   12.15500    8.99840   12.15500  276.47220    0.01380    0.01380    2.08920    -999.25    0.32960    0.36300    3.61700   92.31900   92.31900  102.09410  111.14440  102.09410    3.61700    3.76460    3.76460    -999.25    0.38260    0.33940    2.08920    3.98000  -26.25280   -1.82780    3.98000
 5200.00000    9.59970    8.33130    9.59970   81.90540   -0.01890   -0.01890    2.55170    -999.25    0.06000    0.09260   12.20920   71.47780   71.47780   64.82600   69.03060   64.82600   12.20920   13.51330   13.51330    -999.25    0.15710    0.11440    2.55170   14.31690  -35.35960  -11.84990   14.31690
 5250.00000    9.76620    8.46480    9.76620   74.49900   -0.04060   -0.04060    2.54470    -999.25    0.06490    0.09670   13.42300   70.89750   70.89750   76.97860   80.70790   76.97860   13.42300   14.71520   14.71520    -999.25    0.17820    0.13510    2.54470   15.26720  -28.30740   -5.11660   15.26720
 5300.00000   12.97870    9.28310   12.97870  132.18600    0.03320    0.03320    2.20880    -999.25    0.26670    0.29310    7.56510   78.66680   78.66680   81.20900   88.79240   81.20900    7.56510    7.98560    7.98560    -999.25    0.23910    0.19520    2.20880    7.86300  -26.02350   -3.15140    7.86300
 5350.00000   11.98520    8.62970   11.98520  465.63610   -0.02500   -0.02500    2.28020    -999.25    0.22700    0.25130    2.14760  108.60010  108.60010  102.81200  112.33670  102.81200    2.14760    2.42480    2.42480    -999.25    0.41510    0.37250    2.28020    2.30230  -26.13150   -3.58030    2.30230
