~Version ---------------------------------------------------
VERS.      2.0 : CWLS log ASCII Standard -VERSION 2.0
WRAP.       NO : One line per depth step
CREA. 11/14/17 : LAS Creation Date
~Well ------------------------------------------------------
STRT.FT                                 1000.0 : START DEPTH
STOP.FT                                10050.0 : STOP DEPTH
STEP.FT                               50.00000 : STEP LENGTH
NULL.                                  -999.25 : NULL VALUE
COMP. THE BRITISH AMERICAN OIL COMPANY LIMITED : COMPANY
WELL.    B.A. FRONTIER LITTLE SMOKY 10-2-67-21 : WELL
FLD .                                          : FIELD
LOC .                                          : LOCATION
CTRY.                                   CANADA : COUNTRY
SRVC.                             Schlumberger : SERVICE COMPANY
DATE.                              21-Mar-1966 : LOGDATE
PROV.                                  Alberta : PROVINCE
UWI .                         100100206721W500 : UNIQUE WELL ID
SLAT.WGS84                            54.77228 : SURFACE LATITUDE
SLON.WGS84                           -117.0858 : SURFACE LONGITUDE
~Curve Information -----------------------------------------
DEPT  .FT    : Depth Curve
CALSED.IN    : CALIPER FROM SONIC LOG
CALWS .IN    : CALIPER [CALSED]
CILDED.MMHO  : CONDUCTIVITY FROM RESISTIVITY LOG
CONDWS.MMHO  : CONDUCTIVITY [1000/DRESWS]
DRESWS.OHMM  : DEEP RESISTIVITY [1000/CILDED, IF ILDED<1, ILDED]
DTED  .US/F  : DELTA-T FROM SONIC LOG
DTWS  .US/F  : COMPRESSISONAL SONIC [DTED]
GRSED .GAPI  : GAMMA RAY FROM SONIC LOG
GRWS  .GAPI  : GAMMA RAY [GRSED]
ILDED .OHMM  : DEEP INDUCTION FROM RESISTIVITY LOG
MCALED.IN    : MLT MICROLOG CALIPER FROM ML-C LOG
SNED  .OHMM  : SHORT NORMAL FROM RESISTIVITY LOG
SPRED .MV    : SPONTANEOUS POTENTIAL FROM RESISTIVITY LOG
SPWS  .MV    : SPONTANEOUS POTENTIAL [BASELINE 0 MV, SPRED]
SRESWS.OHMM  : SHALLOW RESISTIVITY [SNED]
~Params ----------------------------------------------------
PD  .                     GL : PERMANENT DATUM
EPD .FT                 2440 : ELEVATION PERMANENT DATUM
LMF .                     KB : LOG MEASURED FROM
DAPD.FT                   13 : FEET ABOVE PERMANENT DATUM
EKB .FT                 2453 : KELLY BUSHING
EGL .FT                 2440 : GROUND LEVEL
DATE.               03/21/66 : RUN DATE
RUN .                      1 : RUN NUMBER
DD  .FT                10080 : DEPTH DRILLER
DL  .FT                10081 : DEPTH LOGGER
BLI .FT                10080 : BOTTOM LOG INTERVAL
TLI .FT                 1022 : TOP LOG INTERVAL
CBD .FT                 1020 : CASING BOTTOM DRILLER
CBL .FT                 1022 : CASING BOTTOM LOGGER
BS  .IN                 8.75 : BIT SIZE
BSD .FT                10080 : BIT SIZE AT DEPTH
DFT .            CAUSTIC GEL : DRILLING FLUID TYPE
DFD .                    9.7 : DRILLING FLUID DENSITY
DFV .                     85 : DRILLING FLUID VISCOSITY
DFPH.                     10 : DRILLING FLUID PH
DFL .                      8 : DRILLING FLUID LOSS
RMS .OHMM               2.06 : RESISTIVITY MUD SAMPLE
MST .DEGF                 67 : MUD SAMPLE TEMPERATURE
RMF .OHMM               1.74 : RESISTIVITY MUD FILTRATE SAMPLE
MFST.DEGF                 67 : MUD FILTRATE SAMPLE TEMPERATURE
RMC .OHMM                2.3 : RESISTIVITY MUD CAKE
MCST.DEGF                 67 : MUD CAKE SAMPLE TEMPERATURE
RMB .OHMM               0.68 : RESISTIVITY MUD AT BHT
TCS .HRS                 4.5 : TIME CIRCULATED STOPPED
LUN .                   3534 : LOGGING UNIT NUMBER
LUL .                    WCT : LOGGING UNIT LOCATION
ENGI.               THOMPSON : RECORDING ENGINEER
WITN.              SCHOMAKER : WITNESSED BY
CLNT.                A2DTECH : CLIENT CODE
ORIG.            2" 5" PRINT : ORIGIN OF DATA
UWI .       100100206721W500 : UNIQUE WELL ID
DICO. A2D Technologies, Inc. : DIGITIZING COMPANY
~Other -----------------------------------------------------
~ASCII -----------------------------------------------------
 1000.00000    -999.25    -999.25    -999.25    -999.25    -999.25    -999.25    -999.25   62.51200   62.51200    -999.25    -999.25    -999.25    -999.25    -999.25    -999.25
 1050.00000   14.04020   14.04020  319.09310  319.32560    3.13160  130.35070  130.35070   66.74290   66.74290    3.13160    -999.25    2.21640  -90.55220   -1.49980    2.21640
 1100.00000    9.66280    9.66280  246.08310  245.99640    4.06510  121.08300  121.08300   78.28840   78.28840    4.06510    -999.25    3.11450  -90.49860   -1.44620    3.11450
 1150.00000    9.42200    9.42200  112.98770  112.99440    8.85000  117.71760  117.71760   63.84700   63.84700    8.85000    -999.25    9.46970  -94.14130   -6.68310    9.46970
 1200.00000   10.60730   10.60730  417.91680  417.92040    2.39280  152.01490  152.01490   57.59990   57.59990    2.39280    -999.25    1.60150  -86.79910   -1.04660    1.60150
 1250.00000   10.42960   10.42960  270.92010  270.89990    3.69140  125.14890  125.14890   66.92740   66.92740    3.69140    -999.25    2.31440  -86.58410   -1.80500    2.31440
 1300.00000   10.92760   10.92760  233.99220  234.76380    4.25960  148.31340  148.31340   55.69120   55.69120    4.25960    -999.25    3.59410  -86.00550   -1.86700    3.59410
 1350.00000   11.51890   11.51890  429.72290  429.20300    2.32990  147.27510  147.27510   60.57010   60.57010    2.32990    -999.25    1.51710  -85.58360   -2.08980    1.51710
 1400.00000    8.51700    8.51700   69.59910   67.98790   14.70850  111.70390  111.70390   50.18350   50.18350   14.70850    -999.25   15.57340  -95.36560  -11.62670   15.57340
 1450.00000   10.55240   10.55240  247.80580  247.82530    4.03510  136.03410  136.03410   58.49800   58.49800    4.03510    -999.25    3.03370  -86.19700   -1.82450    3.03370
 1500.00000    8.97240    8.97240  120.06160  120.04080    8.33050   89.65380   89.65380   54.32800   54.32800    8.33050    -999.25    8.90040  -93.65920   -8.65720    8.90040
 1550.00000    9.15890    9.15890  263.87230  263.89400    3.78940  112.38070  112.38070   64.79860   64.79860    3.78940    -999.25    2.97970  -86.13390   -0.83850    2.97970
 1600.00000   12.00160   12.00160  275.06280  275.05780    3.63560  149.69930  149.69930   44.50860   44.50860    3.63560    -999.25    2.74210  -87.90290   -2.48820    2.74210
 1650.00000    9.87900    9.87900  129.85690  129.84990    7.70120  106.37980  106.37980   51.60180   51.60180    7.70120    -999.25    6.13350  -94.62480   -9.09160    6.13350
 1700.00000    9.68340    9.68340  157.46020  157.71630    6.34050  108.62140  108.62140   44.86830   44.86830    6.34050    -999.25    5.07970  -89.39210   -3.73960    5.07970
 1750.00000   10.22940   10.22940  207.39600  207.42580    4.82100   84.48030   84.48030   47.63370   47.63370    4.82100    -999.25    4.26030  -89.44880   -3.67780    4.26030
 1800.00000   11.59600   11.59600  259.90720  259.98340    3.84640  128.27290  128.27290   58.47080   58.47080    3.84640    -999.25    3.22890  -88.57820   -2.68860    3.22890
 1850.00000    8.80490    8.80490   75.25940   69.34570   14.42050   75.29090   75.29090   44.14870   44.14870   14.42050    -999.25   13.41170  -89.73730   -3.72840   13.41170
 1900.00000    9.13570    9.13570  251.50830  251.43950    3.97710  115.51080  115.51080   55.86650   55.86650    3.97710    -999.25    3.25280  -88.58560   -2.45820    3.25280
 1950.00000    9.88910    9.88910  273.41920  273.38090    3.65790  152.99210  152.99210   60.64350   60.64350    3.65790    -999.25    4.13550  -89.31530   -3.06860    4.13550
 2000.00000    9.92250    9.92250  151.81900  151.85570    6.58520   88.14440   88.14440   47.71910   47.71910    6.58520    -999.25    5.55490  -88.92240   -2.55720    5.55490
 2050.00000   10.16990   10.16990  272.33010  272.62070    3.66810  151.04670  151.04670   69.78630   69.78630    3.66810    -999.25    3.27840  -88.15480   -1.67100    3.27840
 2100.00000   10.64170   10.64170  221.14270  221.08730    4.52310  141.70050  141.70050   57.62500   57.62500    4.52310    -999.25    3.39840  -87.63530   -1.03220    3.39840
 2150.00000    9.87310    9.87310  233.34770  233.62300    4.28040  130.00970  130.00970   59.55790   59.55790    4.28040    -999.25    3.95800  -89.63990   -2.91830    3.95800
 2200.00000    9.62780    9.62780  295.20300  295.21170    3.38740  116.67950  116.67950   65.47740   65.47740    3.38740    -999.25    2.99870  -89.17430   -2.33340    2.99870
 2250.00000   10.69260   10.69260  294.11650  273.67270    3.65400  129.23480  129.23480   64.34900   64.34900    3.65400    -999.25    3.27320  -89.05400   -2.09460    3.27320
 2300.00000   10.53920   10.53920  230.77650  230.81360    4.33250  109.65970  109.65970   69.88030   69.88030    4.33250    -999.25    4.74070  -89.56090   -2.48290    4.74070
 2350.00000   10.32140   10.32140  177.96650  178.00880    5.61770   92.11200   92.11200   75.78840   75.78840    5.61770    -999.25    6.03100  -91.80070   -4.66580    6.03100
 2400.00000   10.02490   10.02490  179.57660  179.56550    5.56900   99.19250   99.19250   84.57140   84.57140    5.56900    -999.25    5.93340  -92.36940   -5.23450    5.93340
 2450.00000   10.19270   10.19270  179.20030  179.21150    5.58000  101.60060  101.60060  101.67360  101.67360    5.58000    -999.25    6.57640  -91.43630   -4.30140    6.57640
 2500.00000    9.98910    9.98910  162.53380  162.53560    6.15250  112.32250  112.32250  110.46990  110.46990    6.15250    -999.25    8.10120  -88.74940   -1.61450    8.10120
 2550.00000   10.04830   10.04830  156.24150  156.22800    6.40090  105.61880  105.61880   93.76220   93.76220    6.40090    -999.25    7.84950  -89.72730   -2.59240    7.84950
 2600.00000    9.07880    9.07880  198.75890  198.74000    5.03170  102.97230  102.97230  106.05270  106.05270    5.03170    -999.25    5.84260  -89.75360   -2.61870    5.84260
 2650.00000    9.45150    9.45150  170.63100  170.55820    5.86310   83.69660   83.69660   89.29580   89.29580    5.86310    -999.25    6.13490  -90.90190   -3.76700    6.13490
 2700.00000    9.42980    9.42980   94.74700   90.34730   11.06840   83.71130   83.71130   66.32510   66.32510   11.06840    -999.25   12.37910 -105.43130  -18.29640   12.37910
 2750.00000   10.43290   10.43290  133.25130  133.25870    7.50420   98.07590   98.07590   85.01040   85.01040    7.50420    -999.25    8.45930  -89.55230   -2.41740    8.45930
 2800.00000   12.55320   12.55320  158.90700  158.92190    6.29240  120.78770  120.78770   83.33020   83.33020    6.29240    -999.25    6.74320  -90.83390   -3.83130    6.74320
 2850.00000   10.15020   10.15020  174.40330  174.51090    5.73030  112.11420  112.11420   96.56170   96.56170    5.73030    -999.25    5.13990  -90.21380   -3.57280    5.13990
 2900.00000   11.42610   11.42610  160.03420  160.02820    6.24890   96.54600   96.54600   91.46060   91.46060    6.24890    -999.25    6.66420  -90.15940   -3.87760    6.66420
 2950.00000   10.31400   10.31400  181.15790  184.20960    5.42860  110.72610  110.72610  101.31590  101.31590    5.42860    -999.25    5.81970  -91.07370   -5.15350    5.81970
 3000.00000   10.96690   10.96690  128.14820  128.17550    7.80180   89.62430   89.62430   83.89540   83.89540    7.80180    -999.25    8.79090  -89.93140   -4.37030    8.79090
 3050.00000   10.21940   10.21940  149.31200  149.30720    6.69760  100.77680  100.77680   98.21820   98.21820    6.69760    -999.25    7.47770  -88.64400   -3.44210    7.47770
 3100.00000   11.42850   11.42850  130.61920  130.62670    7.65540  106.18600  106.18600   88.56500   88.56500    7.65540    -999.25    8.09800  -91.40040   -6.56010    8.09800
 3150.00000   10.13270   10.13270  177.11770  177.12910    5.64560  104.18750  104.18750   95.92580   95.92580    5.64560    -999.25    6.09510  -89.74860   -5.26750    6.09510
 3200.00000   11.04370   11.04370  176.60930  176.60980    5.66220  100.22300  100.22300   88.89470   88.89470    5.66220    -999.25    6.17350  -87.64330   -3.52380    6.17350
 3250.00000    9.90690    9.90690  185.32220  185.29500    5.39680  109.43720  109.43720  105.85270  105.85270    5.39680    -999.25    6.89370  -86.95090   -3.19060    6.89370
