~Version ---------------------------------------------------
VERS.      2.0 : CWLS log ASCII Standard -VERSION 2.0
WRAP.       NO : One line per depth step
CREA. 10/01/14 : LAS Creation Date
~Well ------------------------------------------------------
STRT.FT                        1500.0 : START DEPTH
STOP.FT                        9650.0 : STOP DEPTH
STEP.FT                      50.00000 : STEP LENGTH
NULL.                         -999.25 : NULL VALUE
COMP.           OCELOT INDUSTRIES LTD : COMPANY
WELL. OIL ET AL VIRGHILLS 11-15-63-13 : WELL
FLD .                                 : FIELD
LOC .                                 : LOCATION
CTRY.                          CANADA : COUNTRY
SRVC.                   Dresser Atlas : SERVICE COMPANY
DATE.                     19-Jun-1978 : LOGDATE
PROV.                         Alberta : PROVINCE
UWI .                100111506313W500 : UNIQUE WELL ID
SLAT.WGS84                   54.45302 : SURFACE LATITUDE
SLON.WGS84                  -115.8819 : SURFACE LONGITUDE
~Curve Information -----------------------------------------
DEPT    .FT    : DEPTH METER
CALD    .IN    : CALIPER FROM CDL-CNL LOG
CALD1   .IN    : CALIPER FROM CNFD LOG
CORR    .G/C3  : DENSITY CORRECTION FROM CDL-CNL LOG
DCOR1   .G/C3  : DENSITY CORRECTION FROM CNFD LOG
DPHI_LS .DEC   : DENSITY POROSITY LIMESTONE [M=2.71,F=1.0] FROM CDL-CNL LOG
DPHI_SS .DEC   : DENSITY POROSITY SANDSTONE [M=2.65,F=1.0] FROM CDL-CNL LOG
DPHI_SS1.DEC   : DENSITY POROSITY SANDSTONE [M=2.65,F=1.0] FROM CNFD LOG
GRD     .GAPI  : GAMMA RAY FROM CDL-CNL LOG
GRD1    .GAPI  : GAMMA RAY FROM CNFD LOG
ILD     .OHMM  : DEEP INDUCTION FROM RESISTIVITY LOG
ILM     .OHMM  : MEDIUM INDUCTION FROM RESISTIVITY LOG
NPHI_LS .DEC   : NEUTRON POROSITY LIMESTONE FROM CDL-CNL LOG
NPHI_SS .DEC   : NEUTRON POROSITY SANDSTONE FROM CDL-CNL LOG
NPHI_SS1.DEC   : NEUTRON POROSITY SANDSTONE FROM CNFD LOG
RHOB    .G/C3  : BULK DENSITY FROM CDL-CNL LOG
RHOB1   .G/C3  : BULK DENSITY FROM CNFD LOG
SFL     .OHMM  : SPHERICALLY FOCUSED FROM RESISTIVITY LOG
SPR     .MV    : SPONTANEOUS POTENTIAL FROM RESISTIVITY LOG
~Params ----------------------------------------------------
PD  .                     GL : PERMANENT DATUM
EPD .FT               3435.5 : ELEVATION PERMANENT DATUM
LMF .                     KB : LOG MEASURED FROM
DAPD.FT                 15.5 : FEET ABOVE PERMANENT DATUM
DMF .                     KB : DRILLING MEASURED FROM
EKB .FT                 3451 : KELLY BUSHING
EGL .FT               3435.5 : GROUND LEVEL
DATE.               06/19/78 : RUN DATE
RUN .                      1 : RUN NUMBER
DD  .FT                 9683 : DEPTH DRILLER
DL  .FT                 9684 : DEPTH LOGGER
BLI .FT                 9681 : BOTTOM LOG INTERVAL
TLI .FT                 1517 : TOP LOG INTERVAL
CS  .IN                8.625 : CASING SIZE
CBD .FT                 1517 : CASING BOTTOM DRILLER
CBL .FT                 1517 : CASING BOTTOM LOGGER
BS  .IN                7.875 : BIT SIZE
BSD .FT                 9683 : BIT SIZE AT DEPTH
DFT .               GEL CHEM : DRILLING FLUID TYPE
DFD .                    9.1 : DRILLING FLUID DENSITY
DFV .                     65 : DRILLING FLUID VISCOSITY
DFPH.                      9 : DRILLING FLUID PH
DFL .                     11 : DRILLING FLUID LOSS
MSS .                   CIRC : MUD SAMPLE SOURCE
RMS .OHMM                  3 : RESISTIVITY MUD SAMPLE
MST .DEGF                 76 : MUD SAMPLE TEMPERATURE
RMF .OHMM                2.8 : RESISTIVITY MUD FILTRATE SAMPLE
MFST.DEGF                 72 : MUD FILTRATE SAMPLE TEMPERATURE
RMC .OHMM                2.5 : RESISTIVITY MUD CAKE
MCST.DEGF                 72 : MUD CAKE SAMPLE TEMPERATURE
MFSS.                   MEAS : MUD FILTRATE SAMPLE SOURCE
MCSS.                   MEAS : MUD CAKE SAMPLE SOURCE
RMB .OHMM               1.23 : RESISTIVITY MUD AT BHT
TCS .HRS                   5 : TIME CIRCULATED STOPPED
LUN .                HL 6155 : LOGGING UNIT NUMBER
LUL .                     VV : LOGGING UNIT LOCATION
ENGI.                 GORDON : RECORDING ENGINEER
WITN.                  BROCK : WITNESSED BY
CLNT.                A2DTECH : CLIENT CODE
ORIG.            2" 5" PRINT : ORIGIN OF DATA
UWI .       100111506313W500 : UNIQUE WELL ID
DICO. A2D Technologies, Inc. : DIGITIZING COMPANY
~Other -----------------------------------------------------
~ASCII -----------------------------------------------------
# ...
 7350.00000    8.47790    -999.25    0.01850    -999.25   -0.01710    -999.25    -999.25   39.71120    -999.25 1457.04640 1592.03970    0.01900    -999.25    -999.25    2.71910    -999.25 2268.44430 -129.67390
 7400.00000    8.38580    -999.25    0.01720    -999.25    0.02010    -999.25    -999.25   40.18600    -999.25   96.20890  153.88210    0.04400    -999.25    -999.25    2.68050    -999.25 1434.18840 -160.32620
 7450.00000    8.07200    -999.25    0.01550    -999.25    0.00510    -999.25    -999.25   41.65530    -999.25  468.07200  707.07060    0.01550    -999.25    -999.25    2.68970    -999.25 2241.75710 -161.66030
 7500.00000    8.28000    -999.25    0.04200    -999.25    0.00200    -999.25    -999.25   45.50190    -999.25   58.67080  171.59180    0.04030    -999.25    -999.25    2.68650    -999.25 1403.82930 -167.02240
 7550.00000    7.86750    -999.25    0.02840    -999.25   -0.15000    -999.25    -999.25   50.37190    -999.25   17.98870   36.43790    0.04420    -999.25    -999.25    2.97210    -999.25 1565.85490 -100.81590
 7600.00000    9.30420    -999.25    0.06110    -999.25    0.04610    -999.25    -999.25   95.61010    -999.25   11.08130   11.65210    0.12640    -999.25    -999.25    2.61990    -999.25    8.55820  -49.80130
 7650.00000    8.23910    -999.25    0.04930    -999.25    0.00570    -999.25    -999.25   47.52020    -999.25  109.70770 1227.59480    0.10340    -999.25    -999.25    2.73150    -999.25 1546.86330 -141.20300
 7700.00000    8.06410    -999.25    0.01890    -999.25    0.01790    -999.25    -999.25   63.97690    -999.25    9.80940   10.37620    0.13430    -999.25    -999.25    2.65540    -999.25   22.56020  -84.63400
 7750.00000    7.98160    -999.25   -0.00070    -999.25    0.01930    -999.25    -999.25   60.59170    -999.25   18.88370   20.97460    0.11210    -999.25    -999.25    2.64890    -999.25   24.40490  -80.07030
 7800.00000    8.09270    -999.25    0.00890    -999.25   -0.02890    -999.25    -999.25   62.81280    -999.25   47.31810   54.75470    0.07730    -999.25    -999.25    2.72010    -999.25   53.53100  -27.41550
 7850.00000    8.06550    -999.25    0.01260    -999.25   -0.02770    -999.25    -999.25   60.28680    -999.25   42.01920   46.39480    0.07320    -999.25    -999.25    2.70920    -999.25  106.41070  -21.69360
 7900.00000    8.41820    -999.25    0.00770    -999.25    0.01580    -999.25    -999.25   77.82530    -999.25   16.12200   16.66090    0.10320    -999.25    -999.25    2.67530    -999.25   26.11510  -19.93850
 7950.00000    8.10230    -999.25    0.00230    -999.25    0.01490    -999.25    -999.25   72.82200    -999.25   23.95730   25.45260    0.07120    -999.25    -999.25    2.66300    -999.25   27.42180  -24.81490
 8000.00000    8.72020    -999.25    0.04930    -999.25    0.00690    -999.25    -999.25   95.56170    -999.25    7.70130    8.02940    0.14500    -999.25    -999.25    2.69290    -999.25   10.93160  -17.57730
 8050.00000    8.21030    -999.25    0.00190    -999.25    0.00230    -999.25    -999.25   61.60550    -999.25   18.00720   18.66310    0.09000    -999.25    -999.25    2.69420    -999.25   19.63120  -23.13500
 8100.00000    8.33090    -999.25    0.01450    -999.25   -0.00810    -999.25    -999.25   76.40030    -999.25   10.95400   11.75990    0.11550    -999.25    -999.25    2.71270    -999.25   12.48500  -17.20400
 8150.00000    8.75860    -999.25    0.04580    -999.25   -0.00170    -999.25    -999.25   88.80160    -999.25   11.18920   12.06520    0.14720    -999.25    -999.25    2.70810    -999.25   13.51690  -19.21800
 8200.00000   10.88660    -999.25    0.08620    -999.25    0.39380    -999.25    -999.25  116.79630    -999.25    5.97450    6.47690    0.25570    -999.25    -999.25    2.32680    -999.25    7.24080  -27.76860
 8250.00000    8.41300    -999.25    0.02740    -999.25    0.00790    -999.25    -999.25   64.17560    -999.25   15.94510   16.69720    0.10000    -999.25    -999.25    2.68560    -999.25   17.49470  -20.19730
 8300.00000   11.12530    -999.25    0.16930    -999.25    0.15650    -999.25    -999.25   88.42190    -999.25    6.55110    7.19680    0.24940    -999.25    -999.25    2.41180    -999.25   11.23490  -27.77500
 8350.00000   13.57370    -999.25    0.12610    -999.25    0.22380    -999.25    -999.25  103.66180    -999.25    4.55770    4.87910    0.32030    -999.25    -999.25    2.29730    -999.25    5.97610  -46.27340
 8400.00000   11.49910    -999.25    0.08310    -999.25    0.33640    -999.25    -999.25  103.28120    -999.25    5.54310    5.85840    0.30480    -999.25    -999.25    2.01650    -999.25    6.02340  -42.99950
 8450.00000    8.58240    -999.25    0.08890    -999.25    0.05080    -999.25    -999.25  103.40390    -999.25    8.98790    9.54800    0.15720    -999.25    -999.25    2.62670    -999.25    9.74940  -28.57250
 8500.00000    8.71690    -999.25    0.09030    -999.25    0.14910    -999.25    -999.25  102.22150    -999.25    7.46950    8.09710    0.18980    -999.25    -999.25    2.37790    -999.25    8.71730  -34.50160
 8550.00000    8.70070    -999.25    0.10410    -999.25    0.10700    -999.25    -999.25  103.18450    -999.25    7.29620    7.96610    0.17450    -999.25    -999.25    2.50760    -999.25    8.95040  -30.57250
 8600.00000    9.58080    -999.25    0.12460    -999.25    0.17930    -999.25    -999.25  104.39520    -999.25    5.60110    5.78580    0.27330    -999.25    -999.25    2.40120    -999.25    6.72740  -46.23340
 8650.00000    9.38830    -999.25    0.12310    -999.25    0.10790    -999.25    -999.25   84.44010    -999.25    6.73690    7.04850    0.21950    -999.25    -999.25    2.51790    -999.25    7.29470  -34.84940
 8700.00000    9.26390    -999.25    0.06830    -999.25    0.19290    -999.25    -999.25   71.00070    -999.25    5.91250    6.15360    0.20270    -999.25    -999.25    2.43600    -999.25    6.61360  -35.67730
 8750.00000   10.21330    -999.25    0.17570    -999.25    0.08760    -999.25    -999.25   78.66160    -999.25    5.40970    5.80520    0.25620    -999.25    -999.25    2.55920    -999.25    6.28800  -43.23230
 8800.00000    9.94430    -999.25    0.17590    -999.25    0.09560    -999.25    -999.25   83.28080    -999.25    5.13810    5.56300    0.21830    -999.25    -999.25    2.53110    -999.25    6.07550  -37.78240
 8850.00000   11.15280    -999.25    0.21550    -999.25    0.17920    -999.25    -999.25   93.28750    -999.25    3.94180    4.21710    0.27740    -999.25    -999.25    2.36600    -999.25    5.34140  -48.59870
 8900.00000    8.67630    -999.25    0.03300    -999.25    0.04160    -999.25    -999.25   95.26630    -999.25   47.61510   56.73270    0.14840    -999.25    -999.25    2.67250    -999.25  170.79630  -29.60200
 8950.00000    8.75710    -999.25    0.07000    -999.25    0.01770    -999.25    -999.25   76.87470    -999.25   14.43330   16.62660    0.17590    -999.25    -999.25    2.66530    -999.25   21.94410  -23.44290
 9000.00000   12.62200    -999.25    0.11510    -999.25    0.45040    -999.25    -999.25   87.51280    -999.25    5.41510    5.81790    0.30610    -999.25    -999.25    1.78220    -999.25    8.36430  -48.87340
 9050.00000    8.78800    -999.25    0.01310    -999.25    0.00420    -999.25    -999.25   13.07840    -999.25 1458.47570 1858.87590    0.00850    -999.25    -999.25    2.70620    -999.25 2278.28760 -159.48050
 9100.00000    8.42930    -999.25    0.02720    -999.25    0.12080    -999.25    -999.25   11.48560    -999.25  188.85390 1287.72670    0.01930    -999.25    -999.25    2.48690    -999.25  689.91510 -160.26100
 9150.00000    8.03620    -999.25    0.03040    -999.25    0.08760    -999.25    -999.25    7.19590    -999.25   11.28510   18.34590    0.07030    -999.25    -999.25    2.51760    -999.25  132.99430 -182.97240
 9200.00000    7.62180    -999.25    0.05930    -999.25    0.00910    -999.25    -999.25    6.50940    -999.25  495.02060  723.29720    0.01380    -999.25    -999.25    2.64930    -999.25 1505.81150 -132.53680
 9250.00000    7.81180    -999.25    0.02600    -999.25   -0.01050    -999.25    -999.25    9.35360    -999.25 1705.00330 1897.74380    0.01130    -999.25    -999.25    2.68580    -999.25 2288.09060 -154.58160
