~Version ---------------------------------------------------
VERS.      2.0 : CWLS log ASCII Standard -VERSION 2.0
WRAP.       NO : One line per depth step
CREA. 06/14/13 : LAS Creation Date
~Well ------------------------------------------------------
STRT.M                     300.0 : START DEPTH
STOP.M                    3350.0 : STOP DEPTH
STEP.M                  50.00000 : STEP LENGTH
NULL.                    -999.25 : NULL VALUE
COMP.  GULF CANADA RESOURCES INC : COMPANY
WELL. GULF AEC STURLS 6-11-69-26 : WELL
FLD .                            : FIELD
LOC .                            : LOCATION
CTRY.                     CANADA : COUNTRY
SRVC.               Schlumberger : SERVICE COMPANY
DATE.                18-Aug-1983 : LOGDATE
PROV.                    Alberta : PROVINCE
UWI .           100061106926W500 : UNIQUE WELL ID
SLAT.WGS84              54.95913 : SURFACE LATITUDE
SLON.WGS84              -117.858 : SURFACE LONGITUDE
~Curve Information -----------------------------------------
DEPT    .M      : DEPTH METER
C1ED    .MM     : CALIPER 1 FROM DENSITY LOG [ADJ. TO RESISTIVITY LOG]
C2ED    .MM     : CALIPER 2 FROM DENSITY LOG [ADJ. TO RESISTIVITY LOG]
CALSED  .MM     : CALIPER FROM SONIC LOG
CALWS   .MM     : CALIPER [C1ED]
CONDWS  .MMHO   : CONDUCTIVITY [1000/DRESWS]
DCORWS  .KG/M3  : DENSITY CORRECTION [DRHOED]
DENWS   .KG/M3  : FORMATION BULK DENSITY [RHOBED]
DPHILSED.V/V    : DENSITY POROSITY LIMESTONE [M=2710, F=1000] FROM DENSITY LOG [ADJ. TO RESISTIVITY LOG]
DPHISSED.V/V    : DENSITY POROSITY SANDSTONE [M=2650, F=1000] FROM DENSITY LOG [ADJ. TO RESISTIVITY LOG]
DPOLSWS .V/V    : DENSITY POROSITY LIMESTONE [CALC. FROM DENWS, M=2710, F=1000]
DRESWS  .OHMM   : DEEP RESISTIVITY [ILDED]
DRHOED  .KG/M3  : BULK DENSITY CORRECTION FROM DENSITY LOG [ADJ. TO RESISTIVITY LOG]
DTED    .US/M   : DELTA-T FROM SONIC LOG
DTWS    .US/M   : COMPRESSIONAL SONIC [DTED]
GRDED   .GAPI   : GAMMA RAY FROM DENSITY LOG [ADJ. TO RESISTIVITY LOG]
GRSED   .GAPI   : GAMMA RAY FROM SONIC LOG
GRWS    .GAPI   : GAMMA RAY [GRSED]
ILDED   .OHMM   : DEEP INDUCTION RESISTIVITY FROM RESISTIVITY LOG
ILMED   .OHMM   : MEDIUM INDUCTION RESISTIVITY FROM RESISTIVITY LOG
MRESWS  .OHMM   : MEDIUM RESISTIVITY [ILMED]
NPHILSED.V/V    : NEUTRON POROSITY LIMESTONE FROM DENSITY LOG [ADJ. TO RESISTIVITY LOG]
NPHISSED.V/V    : NEUTRON POROSITY SANDSTONE FROM DENSITY LOG [ADJ. TO RESISTIVITY LOG]
NPOLSWS .V/V    : NEUTRON POROSITY LIMESTONE [NPHISSED MATRIX CONVERSION FOR LIMESTONE, SPL. TO NPHILSED @ 1771']
RHOBED  .KG/M3  : BULK DENSITY FROM DENSITY LOG [ADJ. TO RESISTIVITY LOG]
SFLUED  .OHMM   : SHALLOW FOCUSED RESISTIVITY FROM SONIC LOG
SPRED   .MV     : SPONTANEOUS POTENTIAL FROM RESISTIVITY LOG
SPWS    .MV     : SPONTANEOUS POTENTIAL [BASLEINE 0 MV, SPRED]
SRESWS  .OHMM   : SHALLOW RESISTIVITY [SFLUED]
TENDED  .N      : TENSION FROM DENSITY LOG [ADJ. TO RESISTIVITY LOG]
TENRED  .N      : TENSION FROM RESISTIVITY LOG
TENSED  .N      : TENSION FROM SONIC LOG
~Params ----------------------------------------------------
PD  .                         GL : PERMANENT DATUM
EPD .M                    696.75 : ELEVATION PERMANENT DATUM
LMF .                         KB : LOG MEASURED FROM
DAPD.M                      5.25 : FEET ABOVE PERMANENT DATUM
DMF .                         KB : DRILLING MEASURED FROM
EKB .M                       702 : KELLY BUSHING
EGL .M                    696.75 : GROUND LEVEL
DATE.                   08/18/83 : RUN DATE
RUN .                          1 : RUN NUMBER
DD  .M                      3345 : DEPTH DRILLER
DL  .M                      3346 : DEPTH LOGGER
BLI .M                      3344 : BOTTOM LOG INTERVAL
TLI .M                       449 : TOP LOG INTERVAL
CS  .MM                    244.5 : CASING SIZE
CBD .M                       449 : CASING BOTTOM DRILLER
CBL .M                       449 : CASING BOTTOM LOGGER
BS  .MM                      222 : BIT SIZE
BSD .M                      3345 : BIT SIZE AT DEPTH
DFT .                   GEL CHEM : DRILLING FLUID TYPE
DFD .                       1100 : DRILLING FLUID DENSITY
DFV .                         60 : DRILLING FLUID VISCOSITY
DFPH.                        8.5 : DRILLING FLUID PH
DFL .                        8.5 : DRILLING FLUID LOSS
MSS .                   FLOWLINE : MUD SAMPLE SOURCE
RMS .OHMM                   1.49 : RESISTIVITY MUD SAMPLE
MST .DEGC                   22.7 : MUD SAMPLE TEMPERATURE
RMF .OHMM                   1.24 : RESISTIVITY MUD FILTRATE SAMPLE
MFST.DEGC                   22.2 : MUD FILTRATE SAMPLE TEMPERATURE
RMC .OHMM                  0.562 : RESISTIVITY MUD CAKE
MCST.DEGC                     75 : MUD CAKE SAMPLE TEMPERATURE
MFSS.                      PRESS : MUD FILTRATE SAMPLE SOURCE
RMB .OHMM                  0.685 : RESISTIVITY MUD AT BHT
TCS .HRS                     700 : TIME CIRCULATED STOPPED
TLAB.HRS                    1715 : TIME LOGGER AT BOTTOM
LUN .                       8157 : LOGGING UNIT NUMBER
LUL .                         GP : LOGGING UNIT LOCATION
ENGI.                      KUPER : RECORDING ENGINEER
WITN.                      ZAHED : WITNESSED BY
CLNT.                    A2DTECH : CLIENT CODE
ORIG. 6.5"/100M 16.5"/100M PRINT : ORIGIN OF DATA
UWI .           100061106926W500 : UNIQUE WELL ID
DICO.     A2D Technologies, Inc. : DIGITIZING COMPANY
~Other -----------------------------------------------------
CNFD-DIL-SFL-BCS LOG RAN.
FDC DETECTER FAILED @ 1400M, LDT USED TO RECORD BULK DENSITY FROM 1400M. TO CASING.
RHOB FROM SMALL SECTION.
~ASCII -----------------------------------------------------
  300.00000    -999.25    -999.25    -999.25    -999.25    -999.25    -999.25    -999.25    -999.25    -999.25    -999.25    -999.25    -999.25    -999.25    -999.25    -999.25    -999.25    -999.25    -999.25    -999.25    -999.25    -999.25    -999.25    -999.25    -999.25    -999.25    -999.25    -999.25    -999.25    -999.25    -999.25    -999.25
  350.00000    -999.25    -999.25    -999.25    -999.25    -999.25    -999.25    -999.25    -999.25    -999.25    -999.25    -999.25    -999.25    -999.25    -999.25    -999.25    -999.25    -999.25    -999.25    -999.25    -999.25    -999.25    -999.25    -999.25    -999.25    -999.25    -999.25    -999.25    -999.25    -999.25    -999.25    -999.25
  400.00000    -999.25    -999.25    -999.25    -999.25    -999.25    -999.25    -999.25    -999.25    -999.25    -999.25    -999.25    -999.25    -999.25    -999.25    -999.25   40.47980   40.47980    -999.25    -999.25    -999.25    -999.25    -999.25    -999.25    -999.25    -999.25    -999.25    -999.25    -999.25    -999.25    -999.25    -999.25
  450.00000  248.36580  246.17060  261.47370  248.36580    -999.25  -62.24980 2148.33540    -999.25    0.30240    0.32850    -999.25  -62.24980  320.79850  320.79850   43.19400   39.25800   39.25800    -999.25    -999.25    -999.25    -999.25    0.36600    0.32260 2148.33540    -999.25    -999.25    -999.25    -999.25 7202.95850 3353.20970 5273.28760
  500.00000  270.14560  251.75060  268.18320  270.14560  159.08370  -12.78430 2281.38180    -999.25    0.22150    0.25070    6.28600  -12.78430  337.00900  337.00900   51.32930   49.03460   49.03460    6.28600    5.77760    5.77760    -999.25    0.34610    0.30240 2281.38180    5.61970  -11.23280   -3.09080    5.61970 7209.56930 3661.84690 5829.54100
  550.00000  331.80360  213.11200  324.70500  331.80360  213.22870  -18.44970 2174.14840    -999.25    0.27020    0.31340    4.68980  -18.44970  367.21630  367.21630   60.18860   48.37810   48.37810    4.68980    3.81290    3.81290    -999.25    0.44820    0.40650 2174.14840    2.87360  -13.54080   -2.12050    2.87360 7648.94780 3843.75150 6090.55570
  600.00000  498.56170  239.85560  358.01590  498.56170  152.20240   31.70170 2358.31130    -999.25    0.17480    0.20570    6.57020   31.70170  337.16590  337.16590   86.27430   77.22120   77.22120    6.57020    5.62790    5.62790    -999.25    0.43760    0.39560 2358.31130    5.61760  -15.76040   -2.57460    5.61760 7589.77880 4384.40530 6101.09280
  650.00000  451.63130  263.44980  375.96060  451.63130  125.82890    7.26960 1494.65700    -999.25    0.69920    0.71070    7.94730    7.26960  362.80700  362.80700  101.08750   94.68140   94.68140    7.94730    6.87060    6.87060    -999.25    0.52610    0.48760 1494.65700    8.15280  -14.93410    0.02710    8.15280 7829.49410 4553.19480 6249.98540
  700.00000  214.54200  324.49150  251.38620  214.54200   59.90430   96.48490 2289.51760    -999.25    0.21900    0.24590   16.69330   96.48490  292.52550  292.52550   63.99070   60.13940   60.13940   16.69330   12.64200   12.64200    -999.25    0.32190    0.27800 2289.51760   12.93930  -27.55140  -10.32680   12.93930 8227.36620 4850.24760 6830.32180
  750.00000  397.20250  319.84190  353.93370  397.20250  104.20790    3.42730 1541.24340    -999.25    0.62110    0.68350    9.59620    3.42730  323.44990  323.44990   81.47570   79.73640   79.73640    9.59620    7.15000    7.15000    -999.25    0.60700    0.57350 1541.24340    7.52250  -17.79690   -0.70100    7.52250 8154.45410 5048.35350 6796.15820
  800.00000  479.36600  341.03240  378.47680  479.36600  120.00340  -54.98350 1227.86280    -999.25    0.86210    0.86670    8.33310  -54.98350  397.85390  397.85390   54.88300   53.39710   53.39710    8.33310    4.35080    4.35080    -999.25    0.63990    0.60870 1227.86280    6.32890  -18.24790   -2.34030    6.32890 8918.32320 5263.39010 7164.12350
  850.00000  465.45690  339.05080  378.10060  465.45690  124.13720  -16.61830 1530.82570    -999.25    0.68060    0.68960    8.05560  -16.61830  289.58100  289.58100   76.50890   74.01100   74.01100    8.05560    6.72380    6.72380    -999.25    0.52720    0.48880 1530.82570    8.08440  -16.36030   -1.89970    8.08440 8717.49120 5680.68310 7072.10060
  900.00000  325.01170  307.91950  301.38930  325.01170  132.40470  -12.42350 1784.82500    -999.25    0.50120    0.54100    7.55260  -12.42350  341.02210  341.02210   96.21190   87.37750   87.37750    7.55260    6.50560    6.50560    -999.25    0.54910    0.51190 1784.82500    7.36130  -14.16750   -1.15380    7.36130 9225.78810 6042.20800 7915.59620
  950.00000  248.07030  229.50500  231.25930  248.07030  103.74300    8.18890 1929.90750    -999.25    0.43400    0.45620    9.63920    8.18890  363.48510  363.48510  154.75540  139.24450  139.24450    9.63920    8.99770    8.99770    -999.25    0.49300    0.45290 1929.90750   11.88560  -12.91260   -1.57250   11.88560 9465.30960 6138.72660 8323.70120
 1000.00000  382.17370  229.06730  297.90890  382.17370  103.87340   -6.67980 1515.23000    -999.25    0.71780    0.69870    9.62710   -6.67980  323.41310  323.41310   55.85520   52.32180   52.32180    9.62710    5.64260    5.64260    -999.25    0.53320    0.49510 1515.23000    9.67190  -20.64910  -10.73340    9.67190 10226.87110 6397.19820 8596.13870
 1050.00000  277.52580  229.18850  236.92240  277.52580  133.02470   55.46420 2140.11840    -999.25    0.30470    0.33330    7.51740   55.46420  302.71090  302.71090   87.05530   94.41620   94.41620    7.51740    7.72910    7.72910    -999.25    0.32040    0.27650 2140.11840    7.18680  -23.76570  -14.24980    7.18680 10699.01460 6854.52150 8920.30960
 1100.00000  299.30980  225.58240  238.66040  299.30980  116.51480   38.96880 2446.85180    -999.25    0.13780    0.15390    8.58260   38.96880  243.97790  243.97790   83.11490   75.35980   75.35980    8.58260   11.10510   11.10510    -999.25    0.27670    0.23270 2446.85180   10.66210  -17.97740   -7.71530   10.66210 10877.96290 7027.20260 9005.66410
 1150.00000  356.39850  270.76650  277.10780  356.39850  237.54660   56.08620 1757.63180    -999.25    0.54140    0.55690    4.20970   56.08620  337.07550  337.07550  197.32830  199.40750  199.40750    4.20970    3.80020    3.80020    -999.25    0.52700    0.48860 1757.63180    5.01890   -7.98110   -1.15670    5.01890 10972.06540 7382.46880 9407.58300
 1200.00000  469.34740  335.12030  343.99420  469.34740  363.05550   19.93250 1644.17970    -999.25    0.60640    0.62330    2.75440   19.93250  314.50250  314.50250   87.70100   76.19190   76.19190    2.75440    2.42980    2.42980    -999.25    0.54860    0.51140 1644.17970    2.84260   -8.13200   -1.08640    2.84260 11881.23630 7558.00490 9586.83110
 1250.00000  225.77180  245.90570  237.81390  225.77180  113.70610   -0.59380 2495.46090    -999.25    0.09170    0.12550    8.79460   -0.59380  287.51350  287.51350  143.95890  140.62420  140.62420    8.79460    8.42010    8.42010    -999.25    0.32110    0.27720 2495.46090   10.05580   -9.31650   -1.73890   10.05580 11394.69040 8020.46090 10038.39840
 1300.00000  266.29150  299.51170  271.74480  266.29150  120.28770   75.84130 2022.06120    -999.25    0.38310    0.40230    8.31340   75.84130  278.62820  278.62820  111.24400   99.04780   99.04780    8.31340    7.82840    7.82840    -999.25    0.30770    0.26370 2022.06120    7.50900  -12.70060   -6.90530    7.50900 11640.50590 8371.40620 10339.65530
 1350.00000  226.91110  223.12500  221.56340  226.91110   68.34800   -1.38070 2358.70780    -999.25    0.17710    0.20540   14.63100   -1.38070  249.91860  249.91860   33.23210   32.82740   32.82740   14.63100   18.70780   18.70780    -999.25    0.20530    0.16180 2358.70780   23.99150  -53.77670  -49.00260   23.99150 11679.54200 8239.07620 10346.50590
 1400.00000  312.37010  252.74950  272.74930  312.37010  111.70190    8.87040 2377.39770    -999.25    0.17560    0.19450    8.95240    8.87040  291.58650  291.58650   72.16080   71.71540   71.71540    8.95240    7.73550    7.73550    -999.25    0.35530    0.31170 2377.39770    7.83450  -19.57860  -13.58120    7.83450 12532.72660 8886.78220 10768.24710
