~Version ---------------------------------------------------
VERS.      2.0 : CWLS log ASCII Standard -VERSION 2.0
WRAP.       NO : One line per depth step
CREA. 08/31/13 : LAS Creation Date
~Well ------------------------------------------------------
STRT.M                           300.0 : START DEPTH
STOP.M                          2850.0 : STOP DEPTH
STEP.M                        50.00000 : STEP LENGTH
NULL.                          -999.25 : NULL VALUE
COMP.          PETROREP CANADA LIMITED : COMPANY
WELL. PETROREP ET AL SUNSET 4-35-69-19 : WELL
FLD .                                  : FIELD
LOC .                                  : LOCATION
CTRY.                           CANADA : COUNTRY
SRVC.                          Unknown : SERVICE COMPANY
DATE.                      05-May-1981 : LOGDATE
PROV.                          Alberta : PROVINCE
UWI .                 100043506919W500 : UNIQUE WELL ID
SLAT.WGS84                    55.01115 : SURFACE LATITUDE
SLON.WGS84                    -116.792 : SURFACE LONGITUDE
~Curve Information -----------------------------------------
DEPT    .M      : DEPTH METER
CALDED  .MM     : CALIPER FROM DENSITY LOG [ADJ. WITH RESISTIVITY LOG]
CALSED  .MM     : CALIPER FROM SONIC LOG
CALWS   .MM     : CALIPER [CALSED]
CONDWS  .MMHO   : CONDUCTIVITY [1000/DRESWS]
DCORWS  .KG/M3  : DENSITY CORRECTION [DRHOED]
DENWS   .KG/M3  : FORMATION BULK DENSITY [CALC. FROM DPOLSWS, M= 2710, F= 1000]
DPHILSED.V/V    : DENSITY POROSITY LIMESTONE [M= 2710, F= 1000] FROM DENSITY LOG [ADJ. WITH RESISTIVITY LOG]
DPHISSED.V/V    : DENSITY POROSITY SANDSTONE [M= 2650, F= 1000] FROM DENSITY LOG [ADJ. WITH RESISTIVITY LOG]
DPOLSWS .V/V    : DENSITY POROSITY LIMESTONE [DPHISSED CONVERTED TO LIMESTONE MATRIX, M= 2710, F= 1000, SPL. TO DPHILSED @ 1450.3']
DRESWS  .OHMM   : DEEP RESISTIVITY [ILDED]
DRHOED  .KG/M3  : BULK DENSITY CORRECTION FROM DENSITY LOG [ADJ. WITH RESISTIVITY LOG]
DTED    .US/M   : SONIC INTERVAL TRANSIT TIME FROM SONIC LOG
DTWS    .US/M   : COMPRESSIONAL SONIC [DTED]
GRDED   .GAPI   : GAMMA RAY FROM DENSITY LOG [ADJ. WITH RESISTIVITY LOG]
GRSED   .GAPI   : GAMMA RAY FROM SONIC LOG
GRWS    .GAPI   : GAMMA RAY [GRSED]
ILDED   .OHMM   : DEEP INDUCTION RESISTIVITY FROM RESISTIVITY LOG
ILMED   .OHMM   : INDUCTION MEDIUM RESISTIVITY FROM RESISTIVITY LOG
MRESWS  .OHMM   : MEDIUM RESISTIVITY [ILMED]
NPHILSED.V/V    : NEUTRON POROSITY LIMESTONE FROM DENSITY LOG [ADJ. WITH RESISTIVITY LOG]
NPHISSED.V/V    : NEUTRON POROSITY SANDSTONE FROM DENSITY LOG [ADJ. WITH RESISTIVITY LOG]
NPOLSWS .V/V    : NEUTRON POROSITY LIMESTONE [NPHISSED MATRIX CONVERSION FOR LIMESTONE, SPL. TO NPHILSED @ 1451.9' ]
RHOBED  .KG/M3  : BULK DENSITY FROM DENSITY LOG [ADJ. WITH RESISTIVITY LOG]
SFLED   .OHMM   : SHALLOW FOCUSED LOG FROM RESISTIVITY LOG
SPRED   .MV     : SPONTANEOUS POTENTIAL FROM RESISTIVITY LOG
SPWS    .MV     : SPONTANEOUS POTENTIAL [BASELINE 0 MV, SPRED]
SRESWS  .OHMM   : SHALLOW RESISTIVITY [SFLED]
~Params ----------------------------------------------------
PD  .                         GL : PERMANENT DATUM
EPD .M                     832.7 : ELEVATION PERMANENT DATUM
LMF .                         KB : LOG MEASURED FROM
DAPD.M                       6.7 : FEET ABOVE PERMANENT DATUM
DMF .                         KB : DRILLING MEASURED FROM
EKB .M                     839.4 : KELLY BUSHING
EGL .M                     832.7 : GROUND LEVEL
DATE.                   05/05/81 : RUN DATE
RUN .                          1 : RUN NUMBER
DD  .M                      2860 : DEPTH DRILLER
DL  .M                      2861 : DEPTH LOGGER
BLI .M                      2860 : BOTTOM LOG INTERVAL
TLI .M                       298 : TOP LOG INTERVAL
CS  .MM                    244.5 : CASING SIZE
CBD .M                       298 : CASING BOTTOM DRILLER
CBL .M                       298 : CASING BOTTOM LOGGER
BS  .MM                      222 : BIT SIZE
BSD .M                      2860 : BIT SIZE AT DEPTH
DFT .                   GEL CHEM : DRILLING FLUID TYPE
DFD .                       1140 : DRILLING FLUID DENSITY
DFV .                         91 : DRILLING FLUID VISCOSITY
DFPH.                         10 : DRILLING FLUID PH
DFL .                        8.2 : DRILLING FLUID LOSS
MSS .                CIRCULATION : MUD SAMPLE SOURCE
RMS .OHMM                   1.81 : RESISTIVITY MUD SAMPLE
MST .DEGC                     11 : MUD SAMPLE TEMPERATURE
RMF .OHMM                   1.51 : RESISTIVITY MUD FILTRATE SAMPLE
MFST.DEGC                     14 : MUD FILTRATE SAMPLE TEMPERATURE
MFSS.                 WATER LOSS : MUD FILTRATE SAMPLE SOURCE
MCSS.                 WATER LOSS : MUD CAKE SAMPLE SOURCE
RMB .OHMM                   0.57 : RESISTIVITY MUD AT BHT
TCS .HRS                     300 : TIME CIRCULATED STOPPED
TLAB.HRS                    1100 : TIME LOGGER AT BOTTOM
LUN .                       1301 : LOGGING UNIT NUMBER
LUL .                        EDM : LOGGING UNIT LOCATION
ENGI.                  BRANSTROM : RECORDING ENGINEER
WITN.                     TUCKER : WITNESSED BY
CLNT.                    A2DTECH : CLIENT CODE
ORIG. 6.5"/100M 16.5"/100M PRINT : ORIGIN OF DATA
UWI .           100043506919W500 : UNIQUE WELL ID
DICO.     A2D Technologies, Inc. : DIGITIZING COMPANY
~Other -----------------------------------------------------
DIL-CNFD & BHC LOG RAN
~ASCII -----------------------------------------------------
  300.00000  220.08220  223.86640  223.86640  135.76260  100.61460 2203.55030    -999.25    0.25590    0.29750    7.36580  100.61460  346.36930  346.36930   96.13220   56.63450   56.63450    7.36580    6.12280    6.12280    -999.25    0.40890    0.36620 2203.55030    7.97110  -87.02440  -12.02990    7.97110
  350.00000  373.78690  278.40650  278.40650  181.42560   70.54670 1646.51780    -999.25    0.52180    0.53860    5.51190   70.54670  396.89140  396.89140   91.53010   51.65850   51.65850    5.51190    4.86550    4.86550    -999.25    0.50310    0.46340 1646.51780    4.17400  -83.50270  -10.56810    4.17400
  400.00000  228.64300  224.35100  224.35100  163.12150   57.20410 2203.36210    -999.25    0.28210    0.30730    6.13040   57.20410  403.21320  403.21320   85.92180   54.08470   54.08470    6.13040    5.80120    5.80120    -999.25    0.44740    0.40560 2203.36210    5.45550  -87.65150  -13.23510    5.45550
  450.00000  269.49140  231.00870  231.00870  280.52850  121.09390 1847.40360    -999.25    0.42760    0.44770    3.56470  121.09390  439.03320  439.03320   95.73390   59.68320   59.68320    3.56470    2.99340    2.99340    -999.25    0.50820    0.46880 1847.40360    2.83430  -79.27050   -4.11790    2.83430
  500.00000  279.48130  282.11620  282.11620  261.30130  119.39980 1818.30180    -999.25    0.48250    0.50070    3.82700  119.39980  385.07440  385.07440   84.16810   51.16160   51.16160    3.82700    3.20710    3.20710    -999.25    0.52950    0.49120 1818.30180    3.03630  -79.18510   -3.57800    3.03630
  550.00000  340.66680  252.50730  252.50730  293.65130   38.83880 2149.86430    -999.25    0.30960    0.33380    3.40540   38.83880  447.61540  447.61540   88.82130   55.25930   55.25930    3.40540    3.14610    3.14610    -999.25    0.49910    0.45930 2149.86430    2.92590  -80.28470   -4.22310    2.92590
  600.00000  277.28840  284.31920  284.31920  180.11200   76.11580 1765.24150    -999.25    0.52970    0.54620    5.55210   76.11580  375.64400  375.64400  111.34630   74.49470   74.49470    5.55210    4.78880    4.78880    -999.25    0.48210    0.44150 1765.24150    4.66640  -84.73640   -8.49050    4.66640
  650.00000  380.49720  256.89940  256.89940  180.83840   34.60530 2301.85130    -999.25    0.19740    0.22560    5.52980   34.60530  388.41110  388.41110  215.98410  117.89850  117.89850    5.52980    5.11220    5.11220    -999.25    0.42550    0.38320 2301.85130    5.95210  -81.03460   -5.29230    5.95210
  700.00000  268.93740  240.51770  240.51770  107.24320  -29.73550 2682.51340    -999.25    0.01670    0.05120    9.32460  -29.73550  325.51510  325.51510  164.10440   97.72820   97.72820    9.32460    8.72970    8.72970    -999.25    0.47480    0.43390 2682.51340    8.32070  -90.54610  -15.30740    8.32070
  750.00000  264.84580  287.40860  287.40860  154.41390   12.28810 2008.24720    -999.25    0.37340    0.39540    6.47610   12.28810  573.93330  573.93330  128.74160   78.42390   78.42390    6.47610    5.60590    5.60590    -999.25    0.52710    0.48870 2008.24720    5.12730  -87.46800  -12.73300    5.12730
  800.00000  288.54300  276.95510  276.95510  151.24250   36.97450 1798.75020    -999.25    0.50430    0.52170    6.61190   36.97450  452.87890  452.87890  140.01480   86.51200   86.51200    6.61190    5.80230    5.80230    -999.25    0.53260    0.49450 1798.75020    5.55400  -82.83580   -8.60440    5.55400
  850.00000  278.60200  288.63010  288.63010  173.45150   97.94400 2103.51610    -999.25    0.31690    0.34090    5.76530   97.94400  368.36870  368.36870  156.87450   97.80490   97.80490    5.76530    5.48080    5.48080    -999.25    0.50300    0.47700 2103.51610    6.06970  -80.85230   -7.12450    6.06970
  900.00000  246.19730  243.74220  243.74220  130.62670   82.75750 2383.29540    -999.25    0.19360    0.22190    7.65540   82.75750  355.47950  355.47950  202.26610  133.70260  133.70260    7.65540    6.88430    6.88430    -999.25    0.45270    0.41110 2383.29540    8.10700  -79.60980   -7.05920    8.10700
  950.00000  269.48870  236.53280  236.53280  212.48110  176.01110 2294.79540    -999.25    0.22870    0.25580    4.70630  176.01110  333.19600  333.19600  164.47050   99.17180   99.17180    4.70630    4.81650    4.81650    -999.25    0.42530    0.38300 2294.79540    5.19410  -76.18850   -5.04190    5.19410
 1000.00000  282.31580  247.56560  247.56560  167.48450   74.90610 2462.45730    -999.25    0.12130    0.16230    5.97070   74.90610  307.18390  307.18390  157.92860   89.73720   89.73720    5.97070    6.13110    6.13110    -999.25    0.35520    0.29590 2462.45730    5.74810  -78.72050   -8.97800    5.74810
 1050.00000  290.26030  256.74450  256.74450  488.35280  137.67110 2314.01810    -999.25    0.20270    0.23070    2.04770  137.67110  396.73880  396.73880  220.33080  124.05290  124.05290    2.04770    2.18610    2.18610    -999.25    0.44420    0.41570 2314.01810    2.40850  -69.34380   -1.00530    2.40850
 1100.00000  326.17890  259.60130  259.60130  252.38500  140.11440 2327.53320    -999.25    0.18340    0.21210    3.96220  140.11440  330.29070  330.29070  168.10220  101.71190  101.71190    3.96220    3.75950    3.75950    -999.25    0.36300    0.31950 2327.53320    4.10840  -74.32790   -6.45840    4.10840
 1150.00000  230.46100  233.27540  233.27540  225.41820  125.59980 2424.26640    -999.25    0.19300    0.22130    4.43620  125.59980  327.55580  327.55580  141.16910   80.72370   80.72370    4.43620    4.00580    4.00580    -999.25    0.35380    0.29560 2424.26640    5.16360  -76.53200   -8.86470    5.16360
 1200.00000  239.95470  242.06250  242.06250  262.50160  175.23650 2317.71610    -999.25    0.20560    0.24340    3.80950  175.23650  302.69540  302.69540  136.11060   81.86310   81.86310    3.80950    4.01170    4.01170    -999.25    0.36240    0.31890 2317.71610    4.83350  -74.89200   -7.42690    4.83350
 1250.00000  246.96100  230.54630  230.54630  357.71780   50.19250 2338.41500    -999.25    0.18860    0.21710    2.79550   50.19250  300.34320  300.34320   98.10090   55.54150   55.54150    2.79550    3.41520    3.41520    -999.25    0.34430    0.30060 2338.41500    5.14330 -108.27040  -41.00750    5.14330
 1300.00000  243.08670  246.10030  246.10030  159.24580   40.71210 2034.34510    -999.25    0.48790    0.50590    6.27960   40.71210  358.66860  358.66860  114.05440   66.16730   66.16730    6.27960    6.60930    6.60930    -999.25    0.56710    0.53100 2034.34510    5.46490  -75.83340   -8.77270    5.46490
 1350.00000  220.30770  225.22260  225.22260  224.79490   87.19360 2328.77660    -999.25    0.19680    0.22500    4.44850   87.19360  277.84550  277.84550   91.92070   57.56690   57.56690    4.44850    6.79300    6.79300    -999.25    0.34090    0.29720 2328.77660   11.50220 -133.79910  -66.94060   11.50220
 1400.00000  263.77370  260.42140  260.42140  229.64750    8.20450 2580.16460    -999.25    0.04940    0.08100    4.35450    8.20450  294.61000  294.61000  159.63320   93.92350   93.92350    4.35450    4.56060    4.56060    -999.25    0.32910    0.28530 2580.16460    5.27710  -71.30780   -4.65150    5.27710
 1450.00000  242.18660  250.69650  250.69650  116.12380   64.56880 2514.33640    0.12860    0.08050    0.12260    8.61150   64.56880  256.62250  256.62250  149.23460   90.22420   90.22420    8.61150    9.55600    9.55600    0.29120    0.28610    0.24210 2514.33640   12.71770  -77.18140  -13.21490   12.71770
 1500.00000  236.20770  240.10040  240.10040   36.19630   -5.64840 2441.16410    0.16100    0.12980    0.16100   27.62710   -5.64840  320.86900  320.86900  164.65980  101.39910  101.39910   27.62710   30.25260   30.25260    0.35870    0.38200    0.31170 2441.16410   46.57030  -62.87290   -2.09660   46.57030
 1550.00000  234.68360  224.07330  224.07330  342.74750   95.82440 2473.37080    0.15610    0.08460    0.15610    2.91760   95.82440  247.71230  247.71230  136.86340   84.50360   84.50360    2.91760    4.12630    4.12630    0.24480    0.28060    0.24480 2473.37080    9.04870 -104.51190  -52.05190    9.04870
