~Version ---------------------------------------------------
VERS.      2.0 : CWLS log ASCII Standard -VERSION 2.0
WRAP.       NO : One line per depth step
CREA. 08/10/13 : LAS Creation Date
~Well ------------------------------------------------------
STRT.M                           450.0 : START DEPTH
STOP.M                          3450.0 : STOP DEPTH
STEP.M                        50.00000 : STEP LENGTH
NULL.                          -999.25 : NULL VALUE
COMP. AMOCO CANADA PETROLEUM CO., LTD. : COMPANY
WELL.    ULSTER ANTE CREEKK 5-22-66-25 : WELL
FLD .                       ANTE CREEK : FIELD
LOC .                                  : LOCATION
CTRY.                           CANADA : COUNTRY
SRVC.                          Unknown : SERVICE COMPANY
DATE.                      24-Sep-1983 : LOGDATE
PROV.                          Alberta : PROVINCE
UWI .                 100052206625W500 : UNIQUE WELL ID
SLAT.WGS84                    54.72352 : SURFACE LATITUDE
SLON.WGS84                   -117.7013 : SURFACE LONGITUDE
~Curve Information -----------------------------------------
DEPT   .M     : DEPTH METER
AC     .US/M  : ACOUSTIC FROM SONIC LOG
C13    .MM    : CALIPER 13PAD ELECTRODE FROM DENSITY LOG
C24    .MM    : CALIPER 24 FROM DENSITY LOG
CALS   .MM    : CALIPER FROM SONIC LOG
CNC_LS .DEC   : COMPENSATED NEUTRON POROSITY LIMESTONE FROM DENSITY LOG
CNC_SS .DEC   : COMPENSATED NEUTRON POROSITY SANDSTONE FROM DENSITY LOG
CORR   .G/C3  : DENSITY CORRECTION FROM DENSITY LOG
DEN    .G/C3  : COMPENSATED BULK DENSITY FROM DENSITY LOG
GRD    .GAPI  : GAMMA RAY FROM DENSITY LOG
GRR    .GAPI  : GAMMA RAY FROM RESISTIVITY LOG
PORD_LS.DEC   : DENSITY POROSITY LIMESTONE [M=2710, F=1000] FROM DENSITY LOG
PORD_SS.DEC   : DENSITY POROSITY SANDSTONE [M=2650, F=1000] FROM DENSITY LOG
RFOC   .OHMM  : SHALLOW FOCUSED RESISTIVITY FROM RESISTIVITY LOG
RILD   .OHMM  : DEEP INDUCTION  RESISTIVITY FROM RESISTIVITY LOG
RILM   .OHMM  : MEDIUM INDUCTION RESISTIVITY FROM RESISTIVITY LOG
SPR    .MV    : SPONTANEOUS POTENTIAL FROM RESISTIVITY LOG
TEND   .KG    : TENSION FROM DENSITY LOG
TENR   .KG    : TENSION FROM RESISTIVITY LOG
~Params ----------------------------------------------------
PD  .                         GL : PERMANENT DATUM
EPD .M                    762.45 : ELEVATION PERMANENT DATUM
LMF .                         KB : LOG MEASURED FROM
DAPD.M                      7.45 : FEET ABOVE PERMANENT DATUM
DMF .                         KB : DRILLING MEASURED FROM
EKB .M                     769.9 : KELLY BUSHING
EGL .M                    762.45 : GROUND LEVEL
DATE.                   09/24/83 : RUN DATE
RUN .                          1 : RUN NUMBER
DD  .M                      3460 : DEPTH DRILLER
DL  .M                    3457.8 : DEPTH LOGGER
BLI .M                    3457.3 : BOTTOM LOG INTERVAL
TLI .M                     448.7 : TOP LOG INTERVAL
CS  .MM                      244 : CASING SIZE
CBD .M                       448 : CASING BOTTOM DRILLER
CBL .M                     448.7 : CASING BOTTOM LOGGER
BS  .MM                      219 : BIT SIZE
BSD .M                      3460 : BIT SIZE AT DEPTH
DFT .                   GEL CHEM : DRILLING FLUID TYPE
DFD .                       1100 : DRILLING FLUID DENSITY
DFV .                         55 : DRILLING FLUID VISCOSITY
DFPH.                       10.5 : DRILLING FLUID PH
DFL .                         10 : DRILLING FLUID LOSS
MSS .                       CIRC : MUD SAMPLE SOURCE
RMS .OHMM                    2.7 : RESISTIVITY MUD SAMPLE
MST .DEGC                     19 : MUD SAMPLE TEMPERATURE
RMF .OHMM                    1.8 : RESISTIVITY MUD FILTRATE SAMPLE
MFST.DEGC                     19 : MUD FILTRATE SAMPLE TEMPERATURE
RMC .OHMM                    1.7 : RESISTIVITY MUD CAKE
MCST.DEGC                     19 : MUD CAKE SAMPLE TEMPERATURE
MFSS.                       MEAS : MUD FILTRATE SAMPLE SOURCE
MCSS.                       MEAS : MUD CAKE SAMPLE SOURCE
RMB .OHMM                   0.83 : RESISTIVITY MUD AT BHT
TCS .HRS                      29 : TIME CIRCULATED STOPPED
LUN .                       6217 : LOGGING UNIT NUMBER
LUL .                         GP : LOGGING UNIT LOCATION
ENGI.             HODSON BROTHEN : RECORDING ENGINEER
WITN.                    TUSTIAN : WITNESSED BY
CLNT.                    A2DTECH : CLIENT CODE
ORIG. 6.5"/100M 16.5"/100M PRINT : ORIGIN OF DATA
UWI .           100052206625W500 : UNIQUE WELL ID
DICO.     A2D Technologies, Inc. : DIGITIZING COMPANY
~Other -----------------------------------------------------
~ASCII -----------------------------------------------------
# ...
 2400.00000  176.81990  262.85520  271.41560  252.53780    0.13110    -999.25    0.03590    2.68560   31.21120   31.42850    0.02780    -999.25   18.72630    7.09630    8.67680 -120.84880   -7.58260  -36.64070
 2450.00000  167.58240  263.98660  298.85000  264.99940    0.02520    -999.25    0.06280    2.70230   14.28250   15.60290    0.00300    -999.25 1978.70960  422.47090 2021.06870  -68.33790  -15.66230  -31.87620
 2500.00000  207.80980  275.04260  278.09590  261.56750    0.17100    -999.25    0.03710    2.66210   87.64210   77.09960    0.03560    -999.25   18.29350   10.52850   12.67870  -42.48220   -9.38680  -24.77560
 2550.00000  234.36660  295.67590  378.16040  333.55700    0.16070    -999.25    0.10410    2.41910   71.64100   71.05350    0.15960    -999.25   10.19560    8.25990    8.07430  -47.63610  -10.57800  -21.38120
 2600.00000  181.83170  264.45100  218.84590  237.44560    0.06910    -999.25    0.01300    2.69820   53.56110   47.38350    0.01030    -999.25   93.83250   62.89680   79.09110  -26.52840   -9.78140  -32.83290
 2650.00000  174.23790  269.78940  226.62220  239.29700    0.08520    -999.25    0.02840    2.70470   57.19470   40.87880    0.00290    -999.25  212.32140  118.76640  184.33540  -28.59060  -23.20350  -34.58050
 2700.00000  195.26230  258.48410  246.90840  243.57580    0.10810    -999.25    0.02290    2.69020   71.94350   84.87810    0.01570    -999.25   36.46270   26.16700   27.91710  -54.07530  -15.08970  -19.01680
 2750.00000  157.67800  249.27740  297.88770  249.01760    0.01290    -999.25    0.00780    2.70360   15.41760   16.92940    0.00630    -999.25 1991.15560    -999.25 1958.84360 -128.04470  -14.11300  -22.57460
 2800.00000  159.12770  246.93990  302.16620  245.27670    0.01510    -999.25    0.00340    2.70450   11.49910   13.32390    0.00390    -999.25 1991.90670    -999.25 1990.10780 -139.43190  -19.10240  -18.54340
 2850.00000  163.53720  243.42720  345.31000  245.76140    0.02110    -999.25    0.02820    2.65650   13.87440   14.70110    0.03140    -999.25 1992.65800    -999.25 1995.14530 -140.01710  -10.12980  -25.19390
 2900.00000  159.96640  243.52960  356.12180  242.46350    0.01030    -999.25    0.01780    2.69820   13.97400   16.25160    0.00870    -999.25 1997.71960    -999.25 1982.10340 -145.60410  -11.32320  -16.35530
 2950.00000  162.72730  254.74710  221.03460  231.14030    0.02640    -999.25    0.11000    2.85050   15.53830   17.80640   -0.10520    -999.25 1979.00020 1446.58400  333.84370 -125.88690   -3.24350  -27.98230
 3000.00000  154.32460  249.24460  224.60000  224.13550    0.10030    -999.25    0.01790    2.75960   19.57990   21.61580   -0.02080    -999.25  531.79030  106.91220  167.35180 -154.07310   -8.16330  -20.76740
 3050.00000  176.88730  252.51550  236.34720  234.61470    0.08340    -999.25   -0.00070    2.68370   52.66230   38.34710    0.01640    -999.25   53.81200   34.82140   36.08670  -48.35700  -12.93170  -27.92350
 3100.00000  175.92740  264.32080  252.46620  243.23910    0.05170    -999.25    0.01470    2.70410   42.31010   38.92740    0.00360    -999.25   88.44900   64.96070   54.81030  -51.09040  -14.01880  -16.05020
 3150.00000  232.02570  272.96310  288.49330  251.35300    0.25710    -999.25    0.09590    2.59390  109.40230   92.89060    0.06020    -999.25   34.16520   18.01000   22.06730  -28.90700   -9.07280  -12.24560
 3200.00000  226.51420  277.05350  354.44490  258.45060    0.16870    -999.25    0.03070    2.69340  104.87130   99.22150    0.01350    -999.25   15.80680   14.26410   14.78900  -14.29250  -33.20400  -22.53330
 3250.00000  230.80710  268.43800  355.19860  262.08910    0.19880    -999.25    0.02780    2.67300   99.96020   93.69460    0.02260    -999.25    8.53270    6.81350    7.25980  -19.02630  -22.90530  -27.08790
 3300.00000  227.34200  255.37910  342.13770  251.90590    0.19870    -999.25    0.21590    2.70940   90.08400   84.02550    0.00090    -999.25    7.76130    5.60190    5.92570  -25.40350  -19.41820    1.08160
 3350.00000  279.22050  267.62770  426.76390  265.53510    0.24670    -999.25    0.18260    2.58350  159.64970  146.52020    0.07990    -999.25   41.95440   30.34260   17.37490  -28.41090    7.50210   -1.01410
 3400.00000  156.21730  242.31090  320.84500  230.72170    0.00890    -999.25    0.04020    2.69700   15.97750   14.57680    0.00890    -999.25 1694.51590    -999.25  175.79270 -172.66670  -16.05090  -41.77530
 3450.00000    -999.25  239.73160  316.81880    -999.25    0.17400    -999.25    0.05330    2.73000  173.47770   22.31870   -0.01160    -999.25  106.84640   40.08930   33.29090  -47.63060  -16.69200    4.10400
