~Version ---------------------------------------------------
VERS.      2.0 : CWLS log ASCII Standard -VERSION 2.0
WRAP.       NO : One line per depth step
CREA. 10/07/14 : LAS Creation Date
~Well ------------------------------------------------------
STRT.M                   450.0 : START DEPTH
STOP.M                  2500.0 : STOP DEPTH
STEP.M                50.00000 : STEP LENGTH
NULL.                  -999.25 : NULL VALUE
COMP. CHEVRON STANDARD LIMITED : COMPANY
WELL. CHEVRON MAJEAU 1-28-57-3 : WELL
FLD .                          : FIELD
LOC .                          : LOCATION
CTRY.                   CANADA : COUNTRY
SRVC.            Dresser Atlas : SERVICE COMPANY
DATE.              27-Nov-1979 : LOGDATE
PROV.                  Alberta : PROVINCE
UWI .         100012805703W500 : UNIQUE WELL ID
SLAT.WGS84            53.95118 : SURFACE LATITUDE
SLON.WGS84           -114.3782 : SURFACE LONGITUDE
~Curve Information -----------------------------------------
DEPT  .M      : Depth meters
AC    .US/M   : ACOUSTIC FROM SONIC LOG
CALD  .MM     : CALIPER FROM DENSITY LOG
CALS  .MM     : CALIPER FROM SONIC LOG
CORR  .KG/M3  : DENSITY CORRECTION FROM DENSITY LOG
DPHILS.V/V    : DENSITY POROSITY LIMESTONE
DPHISS.V/V    : DENSITY POROSITY SANDSTONE
GRD   .GAPI   : GAMMA RAY FROM DENSITY LOG
GRS   .GAPI   : GAMMA RAY FROM SONIC LOG
ILD   .OHMM   : INDUCTION DEEP RESISTIVITY
ILM   .OHMM   : INDUCTION MEDIUM RESISTIVITY
NPHILS.V/V    : NEUTRON POROSITY LIMESTONE
NPHISS.V/V    : NEUTRON POROSITY SANDSTONE
RHOB  .KG/M3  : BULK DENSITY FROM DENSITY LOG
SFL   .OHMM   : SPHERICALLY FOCUSED LOG
SPR   .MV     : SPONTANEOUS POTENTIAL FROM RESISTIVITY LOG
TEND  .N      : TENSION FROM DENSITY LOG
TENS  .LBF    : TENSION FROM SONIC LOG
~Params ----------------------------------------------------
PD  .            GROUND LEVEL : PERMANENT DATUM
EPD .FT                699.25 : ELEVATION PERMANENT DATUM
LMF .           KELLY BUSHING : LOG MEASURED FROM
DAPD.FT                  4.45 : FEET ABOVE PERMANENT DATUM
DMF .           KELLY BUSHING : DRILLING MEASURED FROM
EKB .FT                 703.7 : KELLY BUSHING
EGL .FT                699.25 : GROUND LEVEL
DATE.              11/27/1979 : RUN DATE
RUN .                       1 : RUN NUMBER
DD  .FT                  2525 : DEPTH DRILLER
DL  .FT                2523.4 : DEPTH LOGGER
BLI .FT                2520.7 : BOTTOM LOG INTERVAL
TLI .FT                   467 : TOP LOG INTERVAL
CS  .IN                   244 : CASING SIZE
CBD .FT                   465 : CASING BOTTOM DRILLER
CBL .FT                   467 : CASING BOTTOM LOGGER
BS  .IN                 222.5 : BIT SIZE
BSD .FT                  2525 : BIT SIZE AT DEPTH
DFT .                GEL CHEM : DRILLING FLUID TYPE
DFD .                    1150 : DRILLING FLUID DENSITY
DFV .                     100 : DRILLING FLUID VISCOSITY
DFPH.                     9.5 : DRILLING FLUID PH
DFL .                     8.6 : DRILLING FLUID LOSS
MSS .                FLOWLINE : MUD SAMPLE SOURCE
RMS .OHMM                 1.3 : RESISTIVITY MUD SAMPLE
MST .DEGF                  22 : MUD SAMPLE TEMPERATURE
RMF .OHMM                 1.1 : RESISTIVITY MUD FILTRATE SAMPLE
MFST.DEGF                  23 : MUD FILTRATE SAMPLE TEMPERATURE
RMC .OHMM                 1.4 : RESISTIVITY MUD CAKE
MCST.DEGF                  22 : MUD CAKE SAMPLE TEMPERATURE
MFSS.                    MEAS : MUD FILTRATE SAMPLE SOURCE
MCSS.                    MEAS : MUD CAKE SAMPLE SOURCE
RMB .OHMM                0.41 : RESISTIVITY MUD AT BHT
MRT .DEGF                  75 : MAXIMUM RECORDED TEMPERATURE
LUN .                  HL6214 : LOGGING UNIT NUMBER
LUL .                     EDM : LOGGING UNIT LOCATION
ENGI.                  FOSSEY : RECORDING ENGINEER
WITN.                 BARROWS : WITNESSED BY
CLNT.                 A2DTECH : CLIENT CODE
ORIG. 40"/100M 24'/100M PRINT : ORIGIN OF DATA
UWI .        100012805703W500 : UNIQUE WELL ID
DICO.  A2D Technologies, Inc. : DIGITIZING COMPANY
~Other -----------------------------------------------------
~ASCII -----------------------------------------------------
  450.00000    -999.25    -999.25    -999.25    -999.25    -999.25    -999.25    -999.25   51.74610    -999.25    -999.25    -999.25    -999.25    -999.25    -999.25    -999.25    -999.25    -999.25
  500.00000  366.49270  211.84810  217.51710  110.70530    -999.25    0.30420   62.29760   65.03370    6.19500    7.84870    -999.25    0.38110 2141.95970    9.67110  -59.65880 8983.33110 1066.02560
  550.00000  287.81720  271.27250  260.91860  142.96810    -999.25    0.36210   82.18620   83.32350    6.76070    7.42480    -999.25    -999.25 1999.26660    8.31100  -43.32380 8944.99510 1071.03800
  600.00000  382.33060  260.25900  246.24380  140.57150    -999.25    0.36170   99.95830  106.25560    9.68010   10.26520    -999.25    0.34930 1932.35110   11.62180  -47.54040 8919.74320 1064.75370
  650.00000  330.88660  259.73940  238.73000  163.01570    -999.25    0.33000  114.55240  119.10320    8.55150    9.14900    -999.25    0.44030 2067.44950   10.91060  -47.78360 9007.60450 1075.97270
  700.00000  386.29930  301.40660  234.14040  136.45110    -999.25    0.38890  126.33590  127.79110    9.04860    9.44190    -999.25    -999.25 1974.38090   10.80130  -47.77190 8939.70610 1057.59420
  750.00000  316.32850  305.13320  246.59610  174.74700    -999.25    0.37580  111.32250  104.88720    9.72120   10.60910    -999.25    0.40970 2017.23230   11.69380  -49.71800 8954.94630 1063.08390
  800.00000  319.25310  266.77050  236.66050  149.09270    -999.25    0.31640  120.01060  113.91850    9.61480    9.28600    -999.25    0.40310 2065.20700   11.10450  -52.96290 9004.71000 1080.11520
  850.00000  344.26800  290.14880  258.02920   85.99600    -999.25    0.14900  137.48010  131.42660   10.88320    9.93240    -999.25    0.36810 2388.98460   12.10090  -46.22260 9002.64160 1103.41110
  900.00000  308.52540  327.71590  273.67890  183.89960    -999.25    0.19120  118.22400  125.10620    8.77230    7.89280    -999.25    0.43140 2326.47800   10.82510  -45.92750 9000.44140 1095.44960
  950.00000  331.84450  308.92730  260.57420  165.43140    -999.25    0.11210  173.44740  172.21310    6.38810    5.92730    -999.25    0.41520 2431.85130   10.19110  -42.48160 8951.23440 1039.41220
 1000.00000  349.64140  269.01570  254.16670  188.07770    -999.25    0.29690  120.91740  119.39890    5.14980    6.12570    -999.25    0.39110 2156.50980    9.82010  -59.50220 9007.74710 1081.74580
 1050.00000  285.15210  245.85850  213.03200  104.78570    -999.25    0.42930   86.45660   77.26470    5.91740    6.43560    -999.25    0.39710 2249.48580    7.46200  -63.02710 9062.87400 1045.15980
 1100.00000  264.40120  256.24850  242.74370  107.78430    -999.25    0.13130   93.20940   98.19770    7.69530    8.51050    -999.25    0.34950 2500.96950    9.50370  -45.55800 8928.81930 1061.36950
 1150.00000  268.46920  254.69680  237.63770   52.85060    -999.25    0.08870   99.67710  104.19330    7.78550    8.51030    -999.25    0.28610 2494.71660    9.49050  -43.39010 8977.91800 1058.12260
 1200.00000  280.56200  258.57040  233.18420  127.91050    -999.25    0.10410   99.48970   96.19670    6.85310    7.19890    -999.25    0.31150 2433.17940    8.84210  -48.87160 8878.14550 1078.62830
 1250.00000  261.99260  222.51100  221.25060  143.78230    -999.25    0.12970   92.14580   75.87490    8.38260   10.84820    -999.25    0.24510 2386.80740   18.33580  -82.98740 9009.70700 1109.38110
 1300.00000  184.38020  237.98330  218.54330   33.64320    0.03180    0.00260   33.93020   30.95430   41.17050   44.14120    0.08160    0.11580 2638.93900   60.00730  -58.33820 8897.55470 1102.30550
 1350.00000  170.87550  219.91780  214.72020   42.36670    0.03730    -999.25   25.77320   23.57570   11.23910   14.31500    0.16560    -999.25 2627.31400   21.07300  -94.18870 8982.54300 1052.76600
 1400.00000  185.82160  204.75140  193.65290  215.29250    0.09690    -999.25   20.42430   21.15580   19.32150   27.78470    0.15960    -999.25 2515.50150  205.57430 -131.67470 9022.12010 1050.58300
 1450.00000  180.54090  185.77040  184.50500  232.54510    0.09100    -999.25   23.06790   22.27000    6.67610   10.66510    0.18770    -999.25 2506.42870   23.84780 -131.71190 8898.65530 1052.18480
 1500.00000  174.29750  200.11110  191.57470  105.31860    0.06790    -999.25   25.78300   30.79950   11.71090   22.06140    0.14940    -999.25 2569.60060   80.98100 -120.72370 8948.28710 1092.03750
 1550.00000  201.25650  244.70140  226.10040   35.16400    0.02280    -999.25   66.97540   63.10020   17.26780   19.72380    0.14150    -999.25 2648.41060   20.31160  -50.25880 8903.11620 1047.33450
 1600.00000  185.88110  233.75890  220.47210   17.86710    0.02550    -999.25   46.06630   50.01540   28.33020   30.78530    0.09740    -999.25 2644.95210   43.15720  -70.00650 8973.20310 1076.53260
 1650.00000  246.20100  262.30480  254.53190  149.75830    0.15670    -999.25   87.07230   82.68820    8.75520    9.35600    0.29190    -999.25 2314.60640   11.32960  -50.14400 8976.55960 1105.47310
 1700.00000  245.97660  268.36210  234.12480  203.97290    0.25070    -999.25   93.49790   93.76720    8.89550   10.45620    0.30980    -999.25 2442.09890   13.58470  -45.44100 9085.81640 1037.67240
 1750.00000  252.51490  295.98160  272.39240  247.96860    0.29830    -999.25   83.84440   77.37550    7.73860    8.39590    0.32200    -999.25 2202.54690   10.80020  -51.30090 8915.52250 1072.31990
 1800.00000  216.47880  249.32590  220.66120   21.12280    0.03740    -999.25   57.78640   56.38840   16.91290   19.77790    0.13320    -999.25 2625.82370   25.12620  -27.38870 8939.16410 1077.69580
 1850.00000  225.99610  242.81880  217.48070   25.98260    0.05750    -999.25   90.88470   83.95160   25.10290   31.72030    0.18350    -999.25 2574.53370   51.28030  -32.47410 9018.16600 1069.31900
 1900.00000  282.61030  332.15010  293.69030  125.92410    0.13200    -999.25  112.93880   97.00820    4.87610    4.67020    0.33770    -999.25 2461.23510    7.36630  -48.70230 8925.45210 1104.62290
 1950.00000  232.55410  257.05800  234.49850  187.63310    0.18330    -999.25   72.38650   63.55840    8.64280   10.61440    0.19620    -999.25 2496.46440   17.19810  -34.33530 8925.69240 1079.31960
 2000.00000  166.64160  248.03580  217.71690   34.96830    0.00550    -999.25   14.43860   19.03580   55.70200   91.53090    0.05810    -999.25 2694.57060  106.76370  -58.54760 8905.42190 1055.75230
 2050.00000  207.20150  266.20430  230.14450  157.86370    0.13720    -999.25   62.43990   65.62780   12.65670   13.82460    0.21450    -999.25 2497.91670   18.66140  -28.32370 8866.53320 1095.11230
 2100.00000  183.86410  256.83060  225.64630   35.18260    0.00430    -999.25   43.77960   41.67150   42.89890   66.31500    0.10530    -999.25 2685.24050   66.46000  -27.67310 8862.77150 1031.58650
 2150.00000  256.66730  270.76930  227.22310   91.91390    0.11030    -999.25  105.87010   82.12730    7.35630    8.84170    0.14300    -999.25 2298.88940    7.94550  -39.36930 8850.96970 1099.22990
 2200.00000  214.65270  253.44160  229.66780  120.90810    0.02990    -999.25  104.75360  100.36320    8.71780    9.77000    0.23630    -999.25 2664.03780   17.26770  -22.89310 8958.56150 1147.99410
 2250.00000  196.32670  243.36530  229.22430   80.37750    0.02660    -999.25  134.55300  121.13000   13.57370   17.17780    0.17270    -999.25 2637.60520   19.23640  -17.85430 8923.32910 1070.71300
 2300.00000  176.21840  251.00950  230.89120   24.66810   -0.01120    -999.25   83.14500   74.00480   11.60000   13.47470    0.17590    -999.25 2713.80710   17.65790  -32.69630 8952.47850 1066.40750
 2350.00000  156.99130  262.01210  231.63850   35.94270    0.06450    -999.25  100.49940   83.97240   16.21710   22.36890    0.10000    -999.25 2516.89550  125.42160  -53.85710 8872.04300 1055.47070
 2400.00000  257.86220  287.91660  257.03670  131.29510    0.26340    -999.25  152.37720  149.09430    5.79790    6.07230    0.26520    -999.25 2102.05830    7.52600  -60.73990 8859.45310 1052.33840
 2450.00000  273.53510  343.76230  331.85900  201.74440    0.15260    -999.25  157.54030  146.14990    4.51020    4.80840    0.36000    -999.25 2391.45530    6.76060  -45.89800 8991.32910 1045.13550
