~Version ---------------------------------------------------
VERS.      2.0 : CWLS log ASCII Standard -VERSION 2.0
WRAP.       NO : One line per depth step
CREA. 09/18/14 : LAS Creation Date
~Well ------------------------------------------------------
STRT.M                         300.0 : START DEPTH
STOP.M                        1700.0 : STOP DEPTH
STEP.M                      50.00000 : STEP LENGTH
NULL.                        -999.25 : NULL VALUE
COMP.                     SUNCOR INC : COMPANY
WELL. SUNCOR KILLAM NORTH 6-15-45-15 : WELL
FLD .                                : FIELD
LOC .                                : LOCATION
CTRY.                         CANADA : COUNTRY
SRVC.                   Schlumberger : SERVICE COMPANY
DATE.                    12-Nov-1983 : LOGDATE
PROV.                        Alberta : PROVINCE
UWI .               102061504515W400 : UNIQUE WELL ID
SLAT.WGS84                  52.87721 : SURFACE LATITUDE
SLON.WGS84                 -112.0968 : SURFACE LONGITUDE
~Curve Information -----------------------------------------
DEPT    .M      : DEPTH METER
CALDED  .MM     : CALIPER FROM DENSITY LOG [ADJ. TO RESISTIVITY LOG]
CALSED  .MM     : CALIPER FROM SONIC LOG
CALWS   .MM     : CALIPER [CALDED]
CONDWS  .MMHO   : CONDUCTIVITY [1000/DRESWS]
DCORWS  .KG/M3  : DENSITY CORRECTION [DRHOED] [ADJ. TO RESISTIVITY LOG]
DENWS   .KG/M3  : FORMATION BULK DENSITY [CALC. FROM DPOLSWS, M=2710, F=1000]
DPHILSED.V/V    : DENSITY POROSITY LIMESTONE [M=2710, F=1000] FROM DENSITY LOG [ADJ. TO RESISTIVITY LOG]
DPHISSED.V/V    : DENSITY POROSITY  SANDSTONE [M=2650,F=1000] FROM DENSITY LOG [ADJ. TO RESISTIVITY LOG]
DPOLSWS .V/V    : DENSITY POROSITY LIMESTONE [DPHISSED CONVERTED TO LIMESTONE (M=2710, F=1000) SPL.TO DPHILSED @ 901.2M]
DRESWS  .OHMM   : DEEP RESISTIVITY [LLDED]
DRHOED  .KG/M3  : BULK DENSITY CORRECTION FROM DENDITY LOG [ADJ. TO RESISTIVITY LOG]
DTED    .US/M   : DELTA-TIME FROM DENSITY LOG
DTWS    .US/M   : COMPRESSIONAL SONIC [DTED]
GRDED   .GAPI   : GAMMA RAY FROM DENSITY  LOG [ADJ. TO RESISTIVITY LOG]
GRSED   .GAPI   : GAMMA RAY FROM SONIC LOG
GRWS    .GAPI   : GAMMMA RAY [GRSED SPL @244.5M TO GRDED]
LLDED   .OHMM   : DEEP LATEROLOG RESISTIVITY FROM RESISTIVITY LOG
LLSED   .OHMM   : SHALLOW LATEROLOG RESISTIVITY FROM RESISTIVITY LOG
NPHILSED.V/V    : NEUTRON POROSITY LIMESTONE FROM DENSITY LOG [ADJ. TO RESISTIVITY LOG]
NPHISSED.V/V    : NEUTRON POROSITY SANDSTONE FROM DENSITY LOG [ADJ. TO RESISTIVITY LOG]
NPOLSWS .V/V    : NEUTRON POROSITY LIMESTONE [NPHISSED MATRIX  CONVERSION FOR LIMESTONE, SPL.TO NPHILSED @ 995.1M]
RHOBED  .KG/M3  : BULK DENSITY FROM DENSITY LOG [ADJ. TO RESISTIVITY LOG]
SPRED   .MV     : SPONTANEOUS POTENTIAL FROM RESISTIVITY LOG
SPWS    .MV     : SPONTANEOUS POTENTIAL [BASELINE 0 MV, SPRED*-1]
SRESWS  .OHMM   : SHALLO RESISTIVITY [LLSED]
~Params ----------------------------------------------------
PD  .                         GL : PERMANENT DATUM
EPD .M                    693.77 : ELEVATION PERMANENT DATUM
LMF .                         KB : LOG MEASURED FROM
DAPD.M                      4.63 : FEET ABOVE PERMANENT DATUM
DMF .                         KB : DRILLING MEASURED FROM
EKB .M                     698.4 : KELLY BUSHING
EGL .M                    693.77 : GROUND LEVEL
DATE.                   11/12/83 : RUN DATE
RUN .                          1 : RUN NUMBER
DD  .M                      1738 : DEPTH DRILLER
DL  .M                    1738.2 : DEPTH LOGGER
BLI .M                    1732.4 : BOTTOM LOG INTERVAL
TLI .M                     251.5 : TOP LOG INTERVAL
CS  .MM                      244 : CASING SIZE
CBD .M                       252 : CASING BOTTOM DRILLER
CBL .M                       251 : CASING BOTTOM LOGGER
BS  .MM                      222 : BIT SIZE
BSD .M                      1738 : BIT SIZE AT DEPTH
DFT .             SALT SATURATED : DRILLING FLUID TYPE
DFD .                       1365 : DRILLING FLUID DENSITY
DFV .                         66 : DRILLING FLUID VISCOSITY
DFPH.                         10 : DRILLING FLUID PH
DFL .                          8 : DRILLING FLUID LOSS
MSS .                       CIRC : MUD SAMPLE SOURCE
RMS .OHMM                   0.08 : RESISTIVITY MUD SAMPLE
MST .DEGC                     29 : MUD SAMPLE TEMPERATURE
RMF .OHMM                  0.061 : RESISTIVITY MUD FILTRATE SAMPLE
MFST.DEGC                     12 : MUD FILTRATE SAMPLE TEMPERATURE
RMC .OHMM                  0.117 : RESISTIVITY MUD CAKE
MCST.DEGC                      9 : MUD CAKE SAMPLE TEMPERATURE
MFSS.                       MEAS : MUD FILTRATE SAMPLE SOURCE
RMB .OHMM                  0.054 : RESISTIVITY MUD AT BHT
TCS .HRS                    1700 : TIME CIRCULATED STOPPED
TLAB.HRS                    2130 : TIME LOGGER AT BOTTOM
LUN .                       8108 : LOGGING UNIT NUMBER
LUL .                 WAINWRIGHT : LOGGING UNIT LOCATION
ENGI.                    FERENCE : RECORDING ENGINEER
WITN.                     TAYLOR : WITNESSED BY
CLNT.                    A2DTECH : CLIENT CODE
ORIG. 6.5"/100M 16.5"/100M PRINT : ORIGIN OF DATA
UWI .           102061504515W400 : UNIQUE WELL ID
DICO.     A2D Technologies, Inc. : DIGITIZING COMPANY
~Other -----------------------------------------------------
DLL-CNL-FDC-BHC SONIC TOOL RUN
~ASCII -----------------------------------------------------
  300.00000  231.04920  231.33290  231.04920  225.61650   26.13410 2226.61000    -999.25    0.25660    0.28270    4.43230   26.13410  348.43080  348.43080   45.85130   46.01610   45.85130    4.43230    3.12210    -999.25    0.35950    0.31600 2229.02490  -52.92070  -20.32520    3.12210
  350.00000  256.71630  255.49260  256.71630  281.00940   37.68100 2289.64000    -999.25    0.21840    0.24580    3.55860   37.68100  411.09180  411.09180   70.24620   64.03440   70.24620    3.55860    2.67350    -999.25    0.43120    0.38900 2290.40700  -58.53950   -6.43330    2.67350
  400.00000  291.45220  290.03960  291.45220  225.17960   43.04890 2385.50500    -999.25    0.16030    0.18980    4.44090   43.04890  367.65210  367.65210  106.37200   70.71780  106.37200    4.44090    3.63560    -999.25    0.39490    0.35190 2385.38670  -55.82060   -9.70600    3.63560
  450.00000  242.08540  242.20420  242.08540  199.50520   30.34850 2308.28500    -999.25    0.20710    0.23490    5.01240   30.34850  392.58130  392.58130  104.33520   86.92850  104.33520    5.01240    4.10790    -999.25    0.42890    0.38670 2308.27710  -53.35870  -12.72180    4.10790
  500.00000  260.70540  261.11350  260.70540  165.36850   62.15500 2394.08500    -999.25    0.15510    0.18470    6.04710   62.15500  380.30530  380.30530  117.93670  101.72320  117.93670    6.04710    6.03530    -999.25    0.44020    0.39820 2392.56860  -55.70910  -10.92530    6.03530
  550.00000  252.22420  252.43970  252.22420  172.31280   38.54500 2371.31500    -999.25    0.16890    0.19810    5.80340   38.54500  389.15020  389.15020  124.33410  104.52750  124.33410    5.80340    5.38390    -999.25    0.47900    0.43830 2373.14600  -58.87470   -8.31350    5.38390
  600.00000  245.66350  245.57120  245.66350  139.76630   18.81070 2376.76000    -999.25    0.16560    0.19490    7.15480   18.81070  325.91280  325.91280  106.36950  100.03140  106.36950    7.15480    5.41800    -999.25    0.31490    0.27100 2370.43850  -58.26920   -9.47290    5.41800
  650.00000  249.06350  249.77110  249.06350  168.69950   75.15060 2276.93500    -999.25    0.22610    0.25330    5.92770   75.15060  359.34860  359.34860  109.94250   96.55300  109.94250    5.92770    4.86530    -999.25    0.37690    0.33360 2276.70210  -56.74330  -11.55270    4.86530
  700.00000  251.72810  251.09680  251.72810  186.73440   26.25200 2296.24000    -999.25    0.21440    0.24200    5.35520   26.25200  364.19900  364.19900  119.71390  109.42340  119.71390    5.35520    5.84720    -999.25    0.49510    0.45510 2300.58130  -62.44700   -6.81260    5.84720
  750.00000  245.43690  251.13700  245.43690  263.14400  108.08360 2375.60500    -999.25    0.16630    0.19560    3.80020  108.08360  328.48460  328.48460   85.01320   71.70060   85.01320    3.80020    3.36130    -999.25    0.34960    0.30600 2374.85400  -61.60370   -9.40800    3.36130
  800.00000  265.60320  266.52570  265.60320  312.26580   30.64830 2405.47000    -999.25    0.14820    0.17810    3.20240   30.64830  342.88540  342.88540   83.32990   76.46690   83.32990    3.20240    2.73170    -999.25    0.38830    0.34520 2407.18900  -62.27410   -9.52950    2.73170
  850.00000  236.15840  236.11140  236.15840  197.41780   15.34990 2592.58000    -999.25    0.03480    0.06870    5.06540   15.34990  263.07770  263.07770   69.84390   64.26070   69.84390    5.06540    4.58270    -999.25    0.36780    0.32440 2579.31540  -60.72010   -6.43380    4.58270
  900.00000  275.39740  275.52290  275.39740  239.72190   13.28370 2428.73500    -999.25    0.13410    0.16450    4.17150   13.28370  264.93130  264.93130   63.79640   63.29630   63.79640    4.17150    3.76920    0.24680    0.27540    0.23140 2430.04130  -55.72180   -9.09800    3.76920
  950.00000  247.81280  248.59810  247.81280  148.37240   13.56900 2534.38300    0.10270    0.06980    0.10270    6.73980   13.56900  271.91080  271.91080   79.55970   81.94090   79.55970    6.73980   10.10220    0.23460    0.27930    0.23460 2526.02370  -55.85800   -8.96180   10.10220
 1000.00000  226.23740  226.61690  226.23740  159.04070    1.07800 2531.64700    0.10430    -999.25    0.10430    6.28770    1.07800  210.61890  210.61890   31.44830   29.23800   31.44830    6.28770    5.78000    0.15900    -999.25    0.15900 2533.84910  -44.09940  -18.50840    5.78000
 1050.00000  234.47780  234.71200  234.47780   71.22250   50.30010 2750.52700   -0.02370    -999.25   -0.02370   14.04050   50.30010  185.98740  185.98740   24.29220   24.13750   24.29220   14.04050   11.55070    0.14450    -999.25    0.14450 2751.46970  -50.97390   -9.76240   11.55070
 1100.00000  241.66040  242.25700  241.66040  156.15000   11.44510 2622.96100    0.05090    -999.25    0.05090    6.40410   11.44510  279.94410  279.94410  100.65530   89.24450  100.65530    6.40410    6.17070    0.23210    -999.25    0.23210 2624.08670  -55.51530   -4.35290    6.17070
 1150.00000  281.68440  281.72350  281.68440  197.32040   15.71280 2613.89800    0.05620    -999.25    0.05620    5.06790   15.71280  295.80630  295.80630  108.40380   88.75210  108.40380    5.06790    4.91330    0.24490    -999.25    0.24490 2615.80370  -56.34700   -2.65310    4.91330
 1200.00000  259.07360  259.71670  259.07360  132.65940   -5.11510 2606.54500    0.06050    -999.25    0.06050    7.53810   -5.11510  272.00420  272.00420   83.97830   72.89650   83.97830    7.53810    7.21950    0.19980    -999.25    0.19980 2607.19530  -52.99310   -5.13880    7.21950
 1250.00000  266.16110  266.13870  266.16110   40.54130   -7.68940 2655.79300    0.03170    -999.25    0.03170   24.66620   -7.68940  205.63310  205.63310   44.49940   46.51910   44.49940   24.66620   21.24810    0.07740    -999.25    0.07740 2653.79130  -49.53150   -7.73230   21.24810
 1300.00000  244.28060  244.94980  244.28060   45.40580    6.27610 2712.73600   -0.00160    -999.25   -0.00160   22.02360    6.27610  196.91790  196.91790   42.83130   42.19610   42.83130   22.02360   19.85750    0.05560    -999.25    0.05560 2703.84690  -45.15220  -15.20330   19.85750
 1350.00000  227.87450  228.79760  227.87450   66.15770   25.85510 2644.50700    0.03830    -999.25    0.03830   15.11540   25.85510  177.76920  177.76920    8.66000    8.76750    8.66000   15.11540    9.59900    0.10960    -999.25    0.10960 2655.32760  -47.64830  -16.46510    9.59900
 1400.00000  267.54040  267.89760  267.54040   83.74370   11.68620 2662.63300    0.02770    -999.25    0.02770   11.94120   11.68620  221.79270  221.79270   55.75010   52.12490   55.75010   11.94120   10.47070    0.16040    -999.25    0.16040 2662.61080  -69.84810  -27.28480   10.47070
 1450.00000  232.08330  232.41160  232.08330  159.53800    6.21790 2594.91700    0.06730    -999.25    0.06730    6.26810    6.21790  187.14320  187.14320   11.52190   12.73250   11.52190    6.26810    5.39810    0.08690    -999.25    0.08690 2592.20650  -45.53530  -91.39200    5.39810
 1500.00000  229.50620  229.63750  229.50620   36.66680   -9.59140 2655.96400    0.03160    -999.25    0.03160   27.27260   -9.59140  192.53320  192.53320   43.58840   37.81560   43.58840   27.27260   26.42130    0.08650    -999.25    0.08650 2658.47780  -50.35980 -126.36180   26.42130
 1550.00000  229.52620  229.94190  229.52620  179.91440   21.19090 2623.81600    0.05040    -999.25    0.05040    5.55820   21.19090  257.35310  257.35310  107.04380  103.97450  107.04380    5.55820    4.76210    0.22860    -999.25    0.22860 2623.32540  -46.51830 -169.99770    4.76210
 1600.00000  240.51750  241.47990  240.51750    0.05460   83.53880 2294.47000    0.24300    -999.25    0.24300 18329.80470   83.53880  221.41120  221.41120   26.66210   17.77310   26.66210 18329.80470   48.68600    0.00020    -999.25    0.00020 2260.08350  143.55450 -413.37740   48.68600
 1650.00000  245.69650  245.53800  245.69650    0.78410    6.04610 2087.73100    0.36390    -999.25    0.36390 1275.32780    6.04610  230.54340  230.54340   13.31980   11.13650   13.31980 1275.32780    0.77890   -0.01420    -999.25   -0.01420 2083.48830   11.46710 -370.04290    0.77890
