~Version ---------------------------------------------------
VERS.      2.0 : CWLS log ASCII Standard -VERSION 2.0
WRAP.       NO : One line per depth step
CREA. 11/10/17 : LAS Creation Date
~Well ------------------------------------------------------
STRT.FT                            300.0 : START DEPTH
STOP.FT                          12850.0 : STOP DEPTH
STEP.FT                         50.00000 : STEP LENGTH
NULL.                            -999.25 : NULL VALUE
COMP.            TRIAD OIL COMPANY, LTD. : COMPANY
WELL. TRIAD H.B. MOOSE CREEK 10-27-51-17 : WELL
FLD .                                    : FIELD
LOC .                                    : LOCATION
CTRY.                             CANADA : COUNTRY
SRVC.                       Schlumberger : SERVICE COMPANY
DATE.                        21-May-1958 : LOGDATE
PROV.                            Alberta : PROVINCE
UWI .                   100102705117W500 : UNIQUE WELL ID
SLAT.WGS84                      53.43327 : SURFACE LATITUDE
SLON.WGS84                     -116.4188 : SURFACE LONGITUDE
~Curve Information -----------------------------------------
DEPT  .FT         : Depth Curve
CALSED.IN         : CALIPER FROM SONIC LOG
CALWS .IN         : CALIPER [MCALED SPL. CALSED @ 8179'-9461']
CONDWS.MMHO       : CONDUCTIVITY [1000/DRESWS]
DRESWS.OHMM       : DEEP RESISTIVITY [LNED]
DTED  .US/F       : DELTA-TIME FROM SONIC LOG
DTWS  .US/F       : COMPRESSIONAL SONIC [DTED]
GRNED .UgRa-Eq/T  : GAMMA RAY [GRNED*16.5] FROM GRN LOG
GRSED .GAPI       : GAMMA RAY FROM SONIC LOG
GRWS  .GAPI       : GAMMA RAY [GRNED SPL. TO GRSED @ 8179'-9461']
LATED .OHMM       : LATERAL 18' 8" RESISTIVITY FROM RESISTIVITY LOG
LNED  .OHMM       : LONG NORMAL 64" RESISTIVITY FROM RESISTIVITY LOG
MCALED.IN         : MICRO CALIPER FROM MICROLOG
NEUTED.CPS        : NEUTRON FROM GRN LOG
NEUTWS.CPS        : NEUTRON [NEUTED]
SNED  .OHMM       : SHORT NORMAL 16" RESISTIVITY FROM RESISTIVITY LOG
SPRED .MV         : SPONTANEOUS POTENTIAL FROM RESISTIVITY LOG
SPWS  .MV         : SPONTANEOUS POTENTIAL [BASELINE 0 MV, SPRED]
SRESWS.OHMM       : SHALLOW RESISTIVITY [SNED]
~Params ----------------------------------------------------
LMF .                     KB : LOG MEASURED FROM
DMF .                     KB : DRILLING MEASURED FROM
EKB .FT                 3293 : KELLY BUSHING
DATE.               05/21/58 : RUN DATE
RUN .                      2 : RUN NUMBER
DD  .FT                12881 : DEPTH DRILLER
DL  .FT                12871 : DEPTH LOGGER
BLI .FT                12870 : BOTTOM LOG INTERVAL
TLI .FT                 8178 : TOP LOG INTERVAL
CBD .FT                 8182 : CASING BOTTOM DRILLER
CBL .FT                 8178 : CASING BOTTOM LOGGER
BS  .IN                8.625 : BIT SIZE
BSD .FT                12861 : BIT SIZE AT DEPTH
DFT .                   LIME : DRILLING FLUID TYPE
DFD .                   10.2 : DRILLING FLUID DENSITY
DFV .                     72 : DRILLING FLUID VISCOSITY
MSS .               FLOWLINE : MUD SAMPLE SOURCE
RMS .OHMM               0.52 : RESISTIVITY MUD SAMPLE
MST .DEGF                 65 : MUD SAMPLE TEMPERATURE
RMF .OHMM               0.25 : RESISTIVITY MUD FILTRATE SAMPLE
MFST.DEGF                 85 : MUD FILTRATE SAMPLE TEMPERATURE
RMC .OHMM               0.68 : RESISTIVITY MUD CAKE
MCST.DEGF                 85 : MUD CAKE SAMPLE TEMPERATURE
TCS .HRS                 300 : TIME CIRCULATED STOPPED
LUN .                   1571 : LOGGING UNIT NUMBER
LUL .                    EDM : LOGGING UNIT LOCATION
ENGI.                  JAMES : RECORDING ENGINEER
WITN.                 AITKEN : WITNESSED BY
CLNT.                A2DTECH : CLIENT CODE
ORIG.            2" 5" PRINT : ORIGIN OF DATA
UWI .       100102705117W500 : UNIQUE WELL ID
DICO. A2D Technologies, Inc. : DIGITIZING COMPANY
~Other -----------------------------------------------------
~ASCII -----------------------------------------------------
# ...
 2250.00000    -999.25   12.29530   91.00260   10.98870    -999.25    -999.25    -999.25    -999.25    -999.25   11.95410   10.98870   12.29530    -999.25    -999.25    7.61540  -88.73190   -4.92080    7.61540
 2300.00000    -999.25   13.57460  164.46840    6.08020    -999.25    -999.25    -999.25    -999.25    -999.25    5.48370    6.08020   13.57460    -999.25    -999.25    3.23260  -87.10620   -3.39620    3.23260
 2350.00000    -999.25   13.84490  114.14090    8.76110    -999.25    -999.25    -999.25    -999.25    -999.25    5.33470    8.76110   13.84490    -999.25    -999.25    6.85980  -87.49210   -3.82170    6.85980
 2400.00000    -999.25   13.38470   38.01300   26.33600    -999.25    -999.25    -999.25    -999.25    -999.25   54.79290   26.33600   13.38470    -999.25    -999.25   20.88940  -94.26030  -10.22680   20.88940
 2450.00000    -999.25   13.82210   69.29050   14.43200    -999.25    -999.25    -999.25    -999.25    -999.25    7.82090   14.43200   13.82210    -999.25    -999.25    6.65180  -88.34270   -3.98860    6.65180
 2500.00000    -999.25   12.88840   35.34670   28.29120    -999.25    -999.25    -999.25    -999.25    -999.25   13.05130   28.29120   12.88840    -999.25    -999.25   17.87240  -90.02230   -5.34920   17.87240
 2550.00000    -999.25   12.68230   49.13570   20.35190    -999.25    -999.25   21.71810    -999.25   21.71810    9.08750   20.35190   12.68230  367.78090  367.78090    8.65050  -89.04260   -4.76930    8.65050
 2600.00000    -999.25   13.82520   65.10760   15.35920    -999.25    -999.25   21.41040    -999.25   21.41040   48.62890   15.35920   13.82520  294.81160  294.81160   10.51740  -89.51890   -5.45680   10.51740
 2650.00000    -999.25   13.16600   36.13770   27.67250    -999.25    -999.25   32.14780    -999.25   32.14780    8.30490   27.67250   13.16600  350.33660  350.33660   12.67640  -88.80230   -4.94940   12.67640
 2700.00000    -999.25   13.15170   60.27870   16.58960    -999.25    -999.25    -999.25    -999.25    -999.25   14.00340   16.58960   13.15170    -999.25    -999.25   10.30970  -90.97660   -7.33500   10.30970
 2750.00000    -999.25   13.32630  124.23750    8.04910    -999.25    -999.25    -999.25    -999.25    -999.25    8.10470    8.04910   13.32630    -999.25    -999.25    4.58630  -86.43050   -2.99910    4.58630
 2800.00000    -999.25   13.77810   74.87680   13.35530    -999.25    -999.25    -999.25    -999.25    -999.25   13.30930   13.35530   13.77810    -999.25    -999.25    7.82200  -84.92500   -1.70280    7.82200
 2850.00000    -999.25   13.85850   73.26010   13.65000    -999.25    -999.25    -999.25    -999.25    -999.25   13.16740   13.65000   13.85850    -999.25    -999.25    8.63800  -87.16660   -4.15560    8.63800
 2900.00000    -999.25   13.28520   92.81090   10.77460    -999.25    -999.25    -999.25    -999.25    -999.25   13.12600   10.77460   13.28520    -999.25    -999.25    8.00940  -85.68440   -2.88260    8.00940
 2950.00000    -999.25   12.87660   55.97880   17.86390    -999.25    -999.25    -999.25    -999.25    -999.25   12.10870   17.86390   12.87660    -999.25    -999.25   11.10760  -86.74770   -4.18990   11.10760
 3000.00000    -999.25   12.22490   45.77600   21.84550    -999.25    -999.25    -999.25    -999.25    -999.25   19.46070   21.84550   12.22490    -999.25    -999.25   14.45270  -88.29740   -6.05220   14.45270
 3050.00000    -999.25   13.10670   72.33840   13.82430    -999.25    -999.25    -999.25    -999.25    -999.25    8.93160   13.82430   13.10670    -999.25    -999.25    9.11810  -83.44910   -1.51490    9.11810
 3100.00000    -999.25   13.42740   70.16070   14.25300    -999.25    -999.25    -999.25    -999.25    -999.25   16.64110   14.25300   13.42740    -999.25    -999.25    6.13130  -83.62440   -2.00440    6.13130
 3150.00000    -999.25   13.83580   75.44530   13.25490    -999.25    -999.25    -999.25    -999.25    -999.25   16.33150   13.25490   13.83580    -999.25    -999.25    7.08690  -84.33070   -3.02170    7.08690
 3200.00000    -999.25   13.82590   36.47200   27.41830    -999.25    -999.25    -999.25    -999.25    -999.25    3.64100   27.41830   13.82590    -999.25    -999.25   17.99310  -93.00390  -12.00900   17.99310
 3250.00000    -999.25   13.69920   93.82270   10.65840    -999.25    -999.25    -999.25    -999.25    -999.25   14.22240   10.65840   13.69920    -999.25    -999.25    6.01030  -86.05370   -5.37140    6.01030
 3300.00000    -999.25   10.32390   27.53070   36.34910    -999.25    -999.25    -999.25    -999.25    -999.25   51.52910   36.34910   10.32390    -999.25    -999.25   31.43350 -121.70830  -41.33700   31.43350
 3350.00000    -999.25   13.80140   69.36540   14.41640    -999.25    -999.25    -999.25    -999.25    -999.25    8.43940   14.41640   13.80140    -999.25    -999.25    9.85460  -85.28660   -4.37040    9.85460
 3400.00000    -999.25   12.54560   85.80450   11.65450    -999.25    -999.25    -999.25    -999.25    -999.25    3.96050   11.65450   12.54560    -999.25    -999.25    7.36660  -86.57070   -4.86960    7.36660
 3450.00000    -999.25   12.40460  105.71380    9.45950    -999.25    -999.25    -999.25    -999.25    -999.25    4.78490    9.45950   12.40460    -999.25    -999.25    6.74730  -87.24880   -4.75490    6.74730
 3500.00000    -999.25   12.79630   81.54010   12.26390    -999.25    -999.25    -999.25    -999.25    -999.25    7.79790   12.26390   12.79630    -999.25    -999.25    7.28030  -86.80770   -3.52500    7.28030
 3550.00000    -999.25   11.31130   49.30820   20.29060    -999.25    -999.25    -999.25    -999.25    -999.25   15.00470   20.29060   11.31130    -999.25    -999.25   12.82780  -87.09280   -4.14680   12.82780
 3600.00000    -999.25   13.76730   98.55910   10.14620    -999.25    -999.25    -999.25    -999.25    -999.25   10.08590   10.14620   13.76730    -999.25    -999.25    7.27650  -85.75210   -4.08950    7.27650
 3650.00000    -999.25   12.33170   31.99530   31.25460    -999.25    -999.25    -999.25    -999.25    -999.25    6.77380   31.25460   12.33170    -999.25    -999.25   18.09930  -87.34100   -6.94900   18.09930
 3700.00000    -999.25   13.32770   56.37680   17.73780    -999.25    -999.25    -999.25    -999.25    -999.25   14.31160   17.73780   13.32770    -999.25    -999.25   11.44210  -83.60490   -4.49630   11.44210
 3750.00000    -999.25   12.93040  107.04580    9.34180    -999.25    -999.25    -999.25    -999.25    -999.25   10.18780    9.34180   12.93040    -999.25    -999.25    7.04530  -80.82280   -2.99120    7.04530
 3800.00000    -999.25   12.98380   98.97420   10.10370    -999.25    -999.25    -999.25    -999.25    -999.25    7.63370   10.10370   12.98380    -999.25    -999.25    6.30750  -80.11040   -3.54950    6.30750
 3850.00000    -999.25   12.22150   77.78050   12.85670    -999.25    -999.25    -999.25    -999.25    -999.25   11.31510   12.85670   12.22150    -999.25    -999.25    7.53250  -78.84000   -3.56250    7.53250
 3900.00000    -999.25   12.50520   95.01870   10.52540    -999.25    -999.25    -999.25    -999.25    -999.25   10.64980   10.52540   12.50520    -999.25    -999.25    7.38230  -77.36710   -3.36010    7.38230
 3950.00000    -999.25   10.67940   26.45190   37.80440    -999.25    -999.25    -999.25    -999.25    -999.25   24.23070   37.80440   10.67940    -999.25    -999.25   27.16220 -122.75940  -48.82160   27.16220
 4000.00000    -999.25   11.71350   88.16090   11.34290    -999.25    -999.25    -999.25    -999.25    -999.25   10.12530   11.34290   11.71350    -999.25    -999.25    6.84390  -77.72380   -2.99140    6.84390
 4050.00000    -999.25   11.34620   79.27610   12.61760    -999.25    -999.25    -999.25    -999.25    -999.25    3.25960   12.61760   11.34620    -999.25    -999.25    7.80380  -77.24060   -1.71750    7.80380
 4100.00000    -999.25   11.55360  110.63660    9.03860    -999.25    -999.25    -999.25    -999.25    -999.25   18.41770    9.03860   11.55360    -999.25    -999.25    4.94230  -79.90140   -3.57970    4.94230
 4150.00000    -999.25   13.65290  108.16790    9.24490    -999.25    -999.25    -999.25    -999.25    -999.25    7.64090    9.24490   13.65290    -999.25    -999.25    4.30880  -80.01810   -2.90580    4.30880
