~Version ---------------------------------------------------
VERS.      2.0 : CWLS log ASCII Standard -VERSION 2.0
WRAP.       NO : One line per depth step
CREA. 07/10/13 : LAS Creation Date
~Well ------------------------------------------------------
STRT.FT                         55.3 : START DEPTH
STOP.FT                      11119.8 : STOP DEPTH
STEP.FT                      0.50000 : STEP LENGTH
NULL.                        -999.25 : NULL VALUE
COMP.         PACIFIC PETROLEUMS LTD : COMPANY
WELL. PACIFIC ET AL TONY 10-18-63-21 : WELL
FLD .                     TONY TOWER : FIELD
LOC .                                : LOCATION
CTRY.                         CANADA : COUNTRY
SRVC.                   Schlumberger : SERVICE COMPANY
DATE.                    24-Sep-1975 : LOGDATE
PROV.                        Alberta : PROVINCE
UWI .               100101806321W500 : UNIQUE WELL ID
SLAT.WGS84                  54.45338 : SURFACE LATITUDE
SLON.WGS84                 -117.1585 : SURFACE LONGITUDE
~Curve Information -----------------------------------------
DEPT   .FT    : DEPTH FEET
CALD   .IN    : CALIPER FROM DENSITY LOG
DCOR   .G/C3  : DENSITY CORRECTION FROM DENSITY LOG
DPHI_LS.DEC   : DENSITY POROSITY LIMESTONE [M=2.71,F=1.0] FROM DENSITY LOG
DPHI_SS.DEC   : DENSITY POROSITY SANDSTONE [M=2.65,F=1.0] FROM DENSITY LOG
GRD    .GAPI  : GAMMA RAY FROM DENSITY LOG
ILD    .OHMM  : DEEP INDUCTION FROM RESISTIVITY LOG
ILM    .OHMM  : MEDIUM INDUCTION FROM RESISTIVITY LOG
LL8    .OHMM  : LATEROLOG FROM RESISTIVITY LOG
NPHI_LS.DEC   : NEUTRON POROSITY LIMESTONE FROM DENSITY LOG
NPHI_SS.DEC   : NEUTRON POROSITY SANDSTONE FROM DENSITY LOG
RHOB   .G/C3  : BULK DENSITY FROM DENSITY LOG
SPR    .MV    : SPONTANEOUS POTENTIAL FROM RESISTIVITY LOG
~Params ----------------------------------------------------
PD  .                     GL : PERMANENT DATUM
EPD .FT                 2714 : ELEVATION PERMANENT DATUM
LMF .                     KB : LOG MEASURED FROM
DAPD.FT                 13.7 : FEET ABOVE PERMANENT DATUM
EKB .FT               2727.7 : KELLY BUSHING
EGL .FT                 2714 : GROUND LEVEL
DATE.               09/24/75 : RUN DATE
RUN .                      1 : RUN NUMBER
DD  .FT                11125 : DEPTH DRILLER
DL  .FT                11121 : DEPTH LOGGER
BLI .FT                11115 : BOTTOM LOG INTERVAL
TLI .FT                 1125 : TOP LOG INTERVAL
CBD .FT                 1125 : CASING BOTTOM DRILLER
CBL .FT                 1125 : CASING BOTTOM LOGGER
BS  .IN                 8.75 : BIT SIZE
BSD .FT                11125 : BIT SIZE AT DEPTH
DFT .               GEL CHEM : DRILLING FLUID TYPE
DFD .                    9.3 : DRILLING FLUID DENSITY
DFV .                    147 : DRILLING FLUID VISCOSITY
DFPH.                    9.5 : DRILLING FLUID PH
DFL .                    9.2 : DRILLING FLUID LOSS
MSS .               FLOWLINE : MUD SAMPLE SOURCE
RMS .OHMM               1.62 : RESISTIVITY MUD SAMPLE
MST .DEGF                 72 : MUD SAMPLE TEMPERATURE
RMF .OHMM               1.26 : RESISTIVITY MUD FILTRATE SAMPLE
MFST.DEGF                 68 : MUD FILTRATE SAMPLE TEMPERATURE
RMB .OHMM               0.41 : RESISTIVITY MUD AT BHT
TCS .HRS                 3.5 : TIME CIRCULATED STOPPED
LUN .                   7691 : LOGGING UNIT NUMBER
LUL .                    EDM : LOGGING UNIT LOCATION
ENGI.              CROCKFORD : RECORDING ENGINEER
WITN.                   ROSS : WITNESSED BY
CLNT.                A2DTECH : CLIENT CODE
ORIG.            2" 5" PRINT : ORIGIN OF DATA
UWI .       100101806321W500 : UNIQUE WELL ID
DICO. A2D Technologies, Inc. : DIGITIZING COMPANY
~Other -----------------------------------------------------
~ASCII -----------------------------------------------------
# ...
 10415.30000    9.74550    0.01330    0.00340    -999.25  102.33570    3.44880    3.64610    5.05630    0.16090    -999.25    2.70240  -46.63630
 10415.80000    9.74450    0.02240    0.01400    -999.25  102.53920    3.44410    3.64030    5.20680    0.15640    -999.25    2.69310  -46.65910
 10416.30000    9.73690    0.01100    0.01760    -999.25  103.38960    3.43940    3.63860    5.22700    0.15470    -999.25    2.67800  -46.65910
 10416.80000    9.74160    0.01710    0.01070    -999.25  103.95320    3.43070    3.63690    5.05370    0.15750    -999.25    2.67140  -46.65920
 10417.30000    9.74100    0.02860    0.01130    -999.25  103.87990    3.41840    3.63510    4.96570    0.16090    -999.25    2.68610  -46.65930
 10417.80000    9.74420    0.01240    0.00660    -999.25  103.44470    3.41100    3.63340    4.97790    0.16250    -999.25    2.67850  -46.65940
 10418.30000    9.74350    0.02930   -0.00320    -999.25  103.69690    3.40430    3.63170    4.85520    0.16270    -999.25    2.69810  -46.65940
 10418.80000    9.74180    0.04330   -0.01380    -999.25  104.07560    3.39770    3.63000    4.71740    0.16480    -999.25    2.72140  -46.65940
 10419.30000    9.74110    0.04700   -0.01810    -999.25  104.45080    3.39110    3.62830    4.70360    0.16840    -999.25    2.73190  -46.65940
 10419.80000    9.73520    0.04420   -0.00960    -999.25  104.71890    3.38450    3.62660    4.68670    0.17030    -999.25    2.71700  -46.66350
 10420.30000    9.72740    0.02850   -0.01790    -999.25  104.02920    3.37790    3.62480    4.72340    0.17050    -999.25    2.71180  -46.77120
 10420.80000    9.72490    0.04160   -0.03870    -999.25  103.86970    3.37130    3.62310    4.91120    0.16770    -999.25    2.74230  -46.75500
 10421.30000    9.72530    0.08110   -0.03370    -999.25  103.52470    3.36720    3.62140    5.09060    0.16490    -999.25    2.76950  -46.71660
 10421.80000    9.72460    0.05800   -0.00750    -999.25  103.18660    3.36720    3.61970    5.17950    0.16540    -999.25    2.74290  -46.66940
 10422.30000    9.72380    0.03840   -0.00130    -999.25  104.71880    3.36720    3.61800    5.14650    0.16720    -999.25    2.70680  -46.58450
 10422.80000    9.72540    0.02760    0.00380    -999.25  106.49470    3.33840    3.61630    5.03740    0.17170    -999.25    2.70010  -46.62230
 10423.30000    9.73000    0.01050    0.01960    -999.25  107.79580    3.30290    3.55400    4.80770    0.17760    -999.25    2.68760  -46.28830
 10423.80000    9.72510   -0.00460    0.02840    -999.25  107.33000    3.26780    3.49110    4.64440    0.18390    -999.25    2.66350  -46.04450
 10424.30000    9.72370   -0.00750    0.01830    -999.25  106.14460    3.23310    3.42930    4.63200    0.18260    -999.25    2.65470  -45.75840
 10424.80000    9.72300   -0.00050    0.01480    -999.25  105.62770    3.19690    3.36870    4.53460    0.18150    -999.25    2.67210  -45.50630
 10425.30000    9.72290    0.00430    0.01020    -999.25  105.96380    3.15660    3.30910    4.49510    0.18100    -999.25    2.67900  -45.48300
 10425.80000    9.72280    0.01440    0.00210    -999.25  105.89720    3.11680    3.25050    4.52390    0.18210    -999.25    2.68790  -45.48650
 10426.30000    9.72260    0.03000   -0.00410    -999.25  105.89430    3.07760    3.19300    4.41850    0.18180    -999.25    2.70470  -45.74900
 10426.80000    9.72210    0.03440    0.00380    -999.25  105.90840    3.03880    3.14720    4.37580    0.18050    -999.25    2.70180  -45.83060
 10427.30000    9.72230    0.02630    0.00600    -999.25  106.21350    3.00050    3.11470    4.40650    0.17930    -999.25    2.69400  -45.81370
 10427.80000    9.72570    0.02430    0.00660    -999.25  107.70790    2.96270    3.08420    4.42640    0.18020    -999.25    2.68620  -45.10890
 10428.30000    9.72820    0.03400    0.00440    -999.25  109.47980    2.92540    3.05400    4.40580    0.18630    -999.25    2.69460  -45.50840
 10428.80000    9.72500    0.04320    0.00340    -999.25  111.03160    2.88850    3.02410    4.34790    0.18850    -999.25    2.69590  -45.82460
 10429.30000    9.71940    0.03800    0.00630    -999.25  112.09560    2.85220    2.99570    4.17500    0.18940    -999.25    2.68950  -46.02500
 10429.80000    9.70020    0.03630    0.00630    -999.25  112.46850    2.81620    2.96880    3.96790    0.19080    -999.25    2.69230  -46.20990
 10430.30000    9.71650    0.06360   -0.00360    -999.25  112.45360    2.78830    2.94210    3.83520    0.19530    -999.25    2.70670  -46.46970
 10430.80000    9.77140    0.05910    0.01580    -999.25  112.18740    2.77150    2.91560    3.79870    0.19440    -999.25    2.69250  -46.77220
 10431.30000    9.85240    0.03150    0.03670    -999.25  112.35230    2.75490    2.90480    3.84160    0.19200    -999.25    2.65770  -46.19860
 10431.80000    9.84300    0.00060    0.03370    -999.25  112.45570    2.73830    2.91370    3.99520    0.18620    -999.25    2.63760  -45.71290
 10432.30000    9.84080   -0.00240    0.02080    -999.25  112.25060    2.72190    2.92260    4.12760    0.18090    -999.25    2.65950  -45.72480
 10432.80000    9.84440    0.00270    0.01510    -999.25  112.17280    2.71240    2.91880    4.22850    0.17540    -999.25    2.67100  -45.85140
 10433.30000    9.84960    0.00710    0.01180    -999.25  112.14380    2.70360    2.89430    4.27590    0.17020    -999.25    2.68030  -46.16860
 10433.80000    9.84150    0.01010    0.00970    -999.25  112.02780    2.69480    2.87000    4.16830    0.17040    -999.25    2.68750  -46.34090
 10434.30000    9.84390    0.01250    0.01300    -999.25  111.26250    2.68600    2.84590    4.06540    0.17470    -999.25    2.67870  -47.09690
 10434.80000    9.85330    0.02450    0.01060    -999.25  111.53420    2.67730    2.81040    3.93340    0.17960    -999.25    2.67910  -48.20790
 10435.30000    9.86260    0.04760    0.01000    -999.25  112.51220    2.66850    2.78900    3.80950    0.18460    -999.25    2.68890  -49.26830
 10435.80000    9.84970    0.04980    0.01850    -999.25  113.71260    2.65110    2.76770    3.76150    0.18440    -999.25    2.67920  -49.62710
 10436.30000    9.81500    0.02330    0.03120    -999.25  114.07670    2.63010    2.74660    3.86210    0.18660    -999.25    2.66530  -49.72410
 10436.80000    9.78780    0.00980    0.02560    -999.25  113.17010    2.60920    2.72560    3.88810    0.19040    -999.25    2.64950  -49.88440
 10437.30000    9.78170    0.00210    0.00970    -999.25  112.62310    2.58820    2.70480    3.74790    0.19550    -999.25    2.66800  -50.21290
 10437.80000    9.78020    0.02110   -0.00490    -999.25  112.63290    2.56620    2.68650    3.71920    0.20130    -999.25    2.68850  -50.27900
 10438.30000    9.77040    0.06190   -0.00090    -999.25  112.80370    2.54440    2.69000    3.78350    0.20260    -999.25    2.70450  -49.36970
 10438.80000    9.76140    0.08560   -0.01220    -999.25  112.80380    2.53530    2.69850    3.85010    0.19950    -999.25    2.71250  -48.48880
 10439.30000    9.75880    0.05440    0.00070    -999.25  113.04410    2.54250    2.70690    3.89580    0.19200    -999.25    2.71600  -47.88510
 10439.80000    9.75240    0.03800    0.01360    -999.25  113.25630    2.54970    2.71540    3.91540    0.19000    -999.25    2.68430  -47.61990
 10440.30000    9.75460    0.00930    0.01750    -999.25  113.07960    2.55690    2.72400    3.87960    0.19190    -999.25    2.67290  -46.86210
 10440.80000    9.73920    0.01020    0.02650    -999.25  112.23720    2.56410    2.73250    3.84470    0.19370    -999.25    2.66440  -46.51110
 10441.30000    9.73580   -0.00070    0.01480    -999.25  111.38650    2.57130    2.74110    3.82070    0.18960    -999.25    2.66080  -46.17830
 10441.80000    9.73290    0.01230    0.01070    -999.25  110.57910    2.57860    2.74970    3.84630    0.18800    -999.25    2.68490  -45.48070
 10442.30000    9.73840    0.02240    0.01560    -999.25  109.45300    2.58580    2.75830    3.85290    0.18800    -999.25    2.68500  -44.92910
 10442.80000    9.73980    0.01730    0.01290    -999.25  107.68200    2.59310    2.76890    3.89610    0.18780    -999.25    2.68080  -44.49640
