~Version ---------------------------------------------------
VERS.      2.0 : CWLS log ASCII Standard -VERSION 2.0
WRAP.       NO : One line per depth step
CREA. 11/17/17 : LAS Creation Date
~Well ------------------------------------------------------
STRT.FT                            1200.0 : START DEPTH
STOP.FT                           11100.0 : STOP DEPTH
STEP.FT                          50.00000 : STEP LENGTH
NULL.                             -999.25 : NULL VALUE
COMP.        CANADIAN HOMESTEAD OILS LTD. : COMPANY
WELL. HOMESTEAD RB ANTE CREEK 10-20-65-23 : WELL
FLD .                                     : FIELD
LOC .                                     : LOCATION
CTRY.                              CANADA : COUNTRY
SRVC.              Schlumberger of Canada : SERVICE COMPANY
DATE.                         17-Apr-1963 : LOGDATE
PROV.                             Alberta : PROVINCE
UWI .                    100102006523W500 : UNIQUE WELL ID
SLAT.WGS84                       54.64192 : SURFACE LATITUDE
SLON.WGS84                      -117.4369 : SURFACE LONGITUDE
~Curve Information -----------------------------------------
DEPT  .FT    : Depth Curve
CALSED.IN    : CALIPER FROM SONIC LOG
CALWS .IN    : CALIPER [CALSED]
CILDED.MMHO  : DEEP INDUCTION CONDUCTIVITY FROM RESISTIVITY LOG
CONDWS.MMHO  : CONDUCTIVITY [1000/DRESWS]
DRESWS.OHMM  : DEEP RESISTIVITY [1000/CILDED,IF ILDED<3,ILDED]
DT1ED .US/F  : DELTA TIME (3' SPACING-1' PICK UP SPAN) FROM SONIC LOG
DTED  .US/F  : DELTA TIME (3' SPACING-3' PICK UP SPAN) FROM SONIC LOG
DTWS  .US/F  : COMPRESSIONAL SONIC [DTED]
GRSED .GAPI  : GAMMA RAY FROM SONIC LOG
GRWS  .GAPI  : GAMMA RAY [GRSED]
ILDED .OHMM  : DEEP INDUCTION RESISTIVITY FROM RESISTIVITY LOG
SNED  .OHMM  : 16 INCH  SHORT NORMAL FROM RESISTIVITY LOG
SPRED .MV    : SPONTANEOUS POTENTIAL FROM RESISTIVITY LOG
SPWS  .MV    : SPONTANEOUS POTENTIAL [BASELINE 0 MV,SPRED]
SRESWS.OHMM  : SHALLOW RESISTIVITY [SNED]
~Params ----------------------------------------------------
PD  .                     GL : PERMANENT DATUM
EPD .FT                 2567 : ELEVATION PERMANENT DATUM
LMF .                     KB : LOG MEASURED FROM
DAPD.FT                   14 : FEET ABOVE PERMANENT DATUM
EKB .FT                 2581 : KELLY BUSHING
EGL .FT                 2567 : GROUND LEVEL
DATE.               04/17/69 : RUN DATE
RUN .                      1 : RUN NUMBER
DD  .FT                11135 : DEPTH DRILLER
DL  .FT                11136 : DEPTH LOGGER
BLI .FT                11135 : BOTTOM LOG INTERVAL
TLI .FT                 1229 : TOP LOG INTERVAL
CBD .FT                 1228 : CASING BOTTOM DRILLER
CBL .FT                 1229 : CASING BOTTOM LOGGER
BS  .IN                    9 : BIT SIZE
BSD .FT                11135 : BIT SIZE AT DEPTH
DFT .           GEL CHEMICAL : DRILLING FLUID TYPE
DFD .                     10 : DRILLING FLUID DENSITY
DFV .                     95 : DRILLING FLUID VISCOSITY
DFPH.                      8 : DRILLING FLUID PH
DFL .                   13.2 : DRILLING FLUID LOSS
RMS .OHMM                3.5 : RESISTIVITY MUD SAMPLE
MST .DEGF                 50 : MUD SAMPLE TEMPERATURE
RMF .OHMM                3.3 : RESISTIVITY MUD FILTRATE SAMPLE
MFST.DEGF                 54 : MUD FILTRATE SAMPLE TEMPERATURE
RMC .OHMM                3.6 : RESISTIVITY MUD CAKE
MCST.DEGF                 54 : MUD CAKE SAMPLE TEMPERATURE
RMB .OHMM               0.88 : RESISTIVITY MUD AT BHT
TCS .HRS                   6 : TIME CIRCULATED STOPPED
LUN .                DSU A 9 : LOGGING UNIT NUMBER
ENGI.                MCKEOWN : RECORDING ENGINEER
WITN.                   EARL : WITNESSED BY
CLNT.                A2DTECH : CLIENT CODE
ORIG.            2" 5" PRINT : ORIGIN OF DATA
UWI .       100102006523W500 : UNIQUE WELL ID
DICO. A2D Technologies, Inc. : DIGITIZING COMPANY
~Other -----------------------------------------------------
IEL-BCS LOG RUN
ALL IEL DATA FROM TOP TO 4286' FROM SMALL SCALE SECTION
~ASCII -----------------------------------------------------
 1200.00000    -999.25    -999.25    -999.25    -999.25    -999.25    -999.25    -999.25    -999.25   80.96510   80.96510    -999.25    -999.25    -999.25    -999.25    -999.25
 1250.00000   10.42650   10.42650  141.25590  140.03840    7.14090    -999.25   96.82170   96.82170  141.45480  141.45480    7.14090    7.43090 -168.29820   -2.06050    7.43090
 1300.00000   10.20230   10.20230  151.47650  151.42110    6.60410    -999.25  103.02200  103.02200  108.38000  108.38000    6.60410    7.13440 -171.06240   -3.32090    7.13440
 1350.00000   10.14760   10.14760  430.02990  386.05570    2.59030    -999.25  122.49030  122.49030  125.15530  125.15530    2.59030    2.85820 -171.05840   -3.17720    2.85820
 1400.00000   10.30130   10.30130  137.25180  133.51310    7.48990    -999.25   94.16600   94.16600  101.73120  101.73120    7.48990    8.29660 -169.76820   -2.49930    8.29660
 1450.00000   11.31020   11.31020  184.30300  177.47170    5.63470    -999.25  101.46930  101.46930  107.25630  107.25630    5.63470    5.92150 -169.01700   -2.36030    5.92150
 1500.00000   12.05060   12.05060  340.44650  340.44650    2.93730    -999.25  104.60020  104.60020  123.77160  123.77160    2.94080    3.33220 -170.18780   -3.46690    3.33220
 1550.00000   13.30110   13.30110  267.93640  262.72920    3.80620    -999.25  113.86600  113.86600  113.79170  113.79170    3.80620    4.12950 -170.59280   -3.79380    4.12950
 1600.00000   11.89540   11.89540  164.05310  160.03330    6.24870    -999.25   87.25780   87.25780  116.08450  116.08450    6.24870    6.83010 -170.68990   -3.81290    6.83010
 1650.00000   12.62500   12.62500  320.29250  314.89120    3.17570    -999.25  111.47420  111.47420  114.34070  114.34070    3.17570    3.26230 -169.29660   -2.36450    3.26230
 1700.00000   12.80040   12.80040  429.72130  429.72130    2.32710    -999.25  119.11660  119.11660  119.15610  119.15610    2.47270    2.95180 -169.37900   -2.65560    2.95180
 1750.00000   11.60660   11.60660  358.62900  335.45790    2.98100    -999.25  120.67720  120.67720  123.39800  123.39800    2.98100    3.27040 -169.17970   -2.66510    3.27040
 1800.00000   11.61230   11.61230  262.63960  250.77110    3.98770    -999.25  100.12860  100.12860  108.72650  108.72650    3.98770    3.40360 -167.99710   -1.69130    3.40360
 1850.00000   12.21000   12.21000  204.70540  195.79050    5.10750    -999.25  108.35500  108.35500  119.78610  119.78610    5.10750    4.54130 -167.62250   -1.38490    4.54130
 1900.00000   11.44730   11.44730  220.51210  202.62600    4.93520    -999.25   96.98410   96.98410  126.87960  126.87960    4.93520    4.41920 -169.18110   -2.81100    4.41920
 1950.00000    9.27950    9.27950  113.45510  111.69940    8.95260    -999.25  101.11600  101.11600  106.26480  106.26480    8.95260    9.17330 -175.42570   -8.92310    9.17330
 2000.00000   10.12430   10.12430  105.16780  101.69940    9.83290    -999.25   88.04270   88.04270   90.99680   90.99680    9.83290   10.33150 -168.69150   -2.05650   10.33150
 2050.00000    9.65330    9.65330  127.97900  104.50300    9.56910    -999.25   97.76430   97.76430  104.44420  104.44420    9.56910   10.20790 -173.01370   -6.46940   10.20790
 2100.00000   12.04240   12.04240  228.90570  225.08830    4.44270    -999.25  128.57480  128.57480  100.73600  100.73600    4.44270    4.97080 -167.99370   -2.43310    4.97080
 2150.00000   11.96190   11.96190  268.42440  267.95280    3.73200    -999.25  130.51590  130.51590   99.78340   99.78340    3.73200    4.01950 -167.29420   -2.71740    4.01950
 2200.00000   10.00910   10.00910  180.41420  164.94850    6.06250    -999.25  100.79710  100.79710   92.50410   92.50410    6.06250    7.08650 -165.79040   -2.19730    7.08650
 2250.00000   10.22170   10.22170  175.54160  177.13850    5.64530    -999.25   83.34990   83.34990   99.98670   99.98670    5.64530    5.90530 -165.65160   -3.04220    5.90530
 2300.00000   10.59700   10.59700  253.00030  237.50150    4.21050    -999.25  111.75820  111.75820  104.52240  104.52240    4.21050    4.70530 -166.37700   -4.52770    4.70530
 2350.00000   10.11680   10.11680  125.82160  125.91920    7.94160    -999.25   92.08620   92.08620  100.06090  100.06090    7.94160    7.69600 -165.79180   -3.60610    7.69600
 2400.00000   12.10850   12.10850  230.37610  227.24170    4.40060    -999.25  123.27150  123.27150  106.39640  106.39640    4.40060    4.20520 -165.74540   -3.22320    4.20520
 2450.00000   12.68240   12.68240  220.61600  227.74370    4.39090    -999.25  112.20560  112.20560   96.13350   96.13350    4.39090    4.72140 -165.69600   -2.83740    4.72140
 2500.00000   10.31450   10.31450  236.45260  235.92700    4.23860    -999.25   96.56420   96.56420  109.49250  109.49250    4.23860    4.58000 -163.68510   -0.49010    4.58000
 2550.00000   12.15120   12.15120  218.75220  221.29280    4.51890    -999.25  112.97710  112.97710  101.30430  101.30430    4.51890    4.80670 -165.99810   -2.57440    4.80670
 2600.00000    8.02240    8.02240   34.04600   31.61520   31.63040    -999.25   84.69540   84.69540   64.40800   64.40800   31.63040   32.09310 -180.85140  -17.50570   32.09310
 2650.00000   10.41360   10.41360  246.70720  236.91070    4.22100    -999.25  113.48890  113.48890   98.70840   98.70840    4.22100    4.67220 -164.49230   -1.22470    4.67220
 2700.00000   10.81070   10.81070  290.51620  269.46190    3.71110    -999.25  152.58340  152.58340  100.44580  100.44580    3.71110    4.04400 -165.68050   -2.92160    4.04400
 2750.00000    9.52950    9.52950   64.53620   60.79880   16.44770    -999.25   79.14050   79.14050   80.92170   80.92170   16.44770   19.42000 -180.90450  -18.65870   19.42000
 2800.00000    9.90900    9.90900  232.01680  219.43300    4.55720    -999.25   98.47690   98.47690  115.56700  115.56700    4.55720    4.86850 -163.73720   -2.00450    4.86850
 2850.00000    7.90090    7.90090  163.96950  161.09540    6.20750    -999.25   96.51500   96.51500  102.38130  102.38130    6.20750    6.59380 -163.53980   -2.32020    6.59380
 2900.00000    8.59060    8.59060  196.45680  203.13230    4.92290    -999.25   94.63470   94.63470  109.55450  109.55450    4.92290    5.29230 -162.66020   -1.95370    5.29230
 2950.00000    9.93420    9.93420  192.78330  185.67000    5.38590    -999.25  102.40960  102.40960  123.91750  123.91750    5.38590    5.86960 -163.18200   -1.86980    5.86960
 3000.00000   11.45810   11.45810  139.48870  131.11490    7.62690    -999.25   95.99830   95.99830  135.11750  135.11750    7.62690    7.12100 -167.56740   -3.61470    7.12100
 3050.00000   11.06800   11.06800  135.44620  134.35260    7.44310    -999.25   99.36860   99.36860  141.31280  141.31280    7.44310    7.78470 -165.25220   -2.78960    7.78470
 3100.00000   11.84810   11.84810  122.30120  120.15330    8.32270    -999.25   96.93800   96.93800  150.45710  150.45710    8.32270    9.63170 -163.89480   -2.66460    9.63170
 3150.00000   12.14800   12.14800  113.51560  108.05440    9.25460    -999.25   95.17640   95.17640  142.87140  142.87140    9.25460   10.80550 -163.96060   -2.70510   10.80550
 3200.00000   11.90220   11.90220  128.00120  124.00950    8.06390    -999.25   97.50200   97.50200  144.83880  144.83880    8.06390    8.94400 -163.07550   -1.79460    8.94400
 3250.00000   12.06600   12.06600  177.25000  165.92280    6.02690    -999.25   98.26360   98.26360  151.77170  151.77170    6.02690    6.39660 -165.28540   -3.97910    6.39660
 3300.00000   12.06400   12.06400  139.98640  144.25230    6.93230    -999.25   93.18070   93.18070  130.30750  130.30750    6.93230    7.36130 -165.17550   -3.84380    7.36130
 3350.00000   11.44970   11.44970   94.55130   90.08360   11.10080    -999.25   92.89090   92.89090  117.34910  117.34910   11.10080    9.85730 -165.30910   -4.18780    9.85730
 3400.00000   11.04030   11.04030   98.17800   96.62300   10.34950    -999.25  108.36360  108.36360  121.53040  121.53040   10.34950    9.68190 -164.21310   -4.24850    9.68190
 3450.00000   11.10710   11.10710  126.20560  121.15930    8.25360    -999.25   94.93730   94.93730  164.47420  164.47420    8.25360    8.74500 -161.26630   -1.44190    8.74500
