~Version ---------------------------------------------------
VERS.      2.0 : CWLS log ASCII Standard -VERSION 2.0
WRAP.       NO : One line per depth step
CREA. 10/03/17 : LAS Creation Date
~Well ------------------------------------------------------
STRT.FT                              1000.0 : START DEPTH
STOP.FT                             10700.0 : STOP DEPTH
STEP.FT                            50.00000 : STEP LENGTH
NULL.                               -999.25 : NULL VALUE
COMP. HUDSONS BAY OIL & GAS COMPANY LIMITED : COMPANY
WELL.        H.B. UNION KAYBOBS 11-27-62-20 : WELL
FLD .                                       : FIELD
LOC .                                       : LOCATION
CTRY.                                CANADA : COUNTRY
SRVC.                Schlumberger of Canada : SERVICE COMPANY
DATE.                           19-Sep-1961 : LOGDATE
PROV.                               Alberta : PROVINCE
UWI .                      100112706220W500 : UNIQUE WELL ID
SLAT.WGS84                          54.3942 : SURFACE LATITUDE
SLON.WGS84                        -116.9147 : SURFACE LONGITUDE
~Curve Information -----------------------------------------
DEPT  .FT         : Depth Curve
CALWS .IN         : CALIPER [MCALED]
CILDED.MMHO       : DEEP INDUCTION CONDUCTIVITY FROM RESISTIVITY LOG
CONDWS.MMHO       : CONDUCTIVITY [1000/DRESWS]
DRESWS.OHMM       : DEEP RESISTIVITY [CILDED/1000.IF ILDED <=5,ILDED]
DTED  .US/F       : DELTA-T FROM SONIC LOG [ADJ. TO RESISTIVITY LOG]
DTWS  .US/F       : COMPRESSIONAL SONIC [DTED]
GRNED .GAPI       : GAMMA RAY FROM GRN LOG [ADJ. TO RESISTIVITY LOG]
GRSED .UgRa-Eq/T  : GAMMA RAY FROM SONIC LOG [ADJ. TO RESISTIVITY LOG]
GRWS  .GAPI       : GAMMA RAY [GRSED*16.5]
ILDED .OHMM       : DEEP INDUCTION RESISTIVITY FROM RESISTIVITY LOG
MCALED.IN         : CALIPER FROM MICROLOG
NEUTED.NAPI       : NEUTRON FROM GRN LOG [ADJ. TO RESISTIVITY LOG]
NEUTWS.NAPI       : NEUTRON [NEUTED]
SNED  .OHMM       : SHORT NORMAL RESISTIVITY FROM RESISTIVITY LOG
SPRED .MV         : SPONTANEOUS POTENTIAL FROM RESISTIVITY LOG
SPWS  .MV         : SPONTANEOUS POTENTIAL [BASELINE 0 MV,SPRED]
SRESWS.OHMM       : SHALLOW RESISTIVITY [SNED]
~Params ----------------------------------------------------
PD  .                    CBF : PERMANENT DATUM
EPD .FT                 2733 : ELEVATION PERMANENT DATUM
LMF .                     KB : LOG MEASURED FROM
DAPD.FT                 15.6 : FEET ABOVE PERMANENT DATUM
EKB .FT               2748.6 : KELLY BUSHING
EDF .FT                 2733 : DRILLING FLOOR
EGL .FT                 2733 : GROUND LEVEL
DATE.               09/19/61 : RUN DATE
RUN .                      1 : RUN NUMBER
DD  .FT                10742 : DEPTH DRILLER
DL  .FT                10737 : DEPTH LOGGER
BLI .FT                10736 : BOTTOM LOG INTERVAL
TLI .FT                 1078 : TOP LOG INTERVAL
CBD .FT                 1078 : CASING BOTTOM DRILLER
CBL .FT                 1078 : CASING BOTTOM LOGGER
BS  .IN                    9 : BIT SIZE
BSD .FT                10742 : BIT SIZE AT DEPTH
DFT .                    GEL : DRILLING FLUID TYPE
DFD .                    9.8 : DRILLING FLUID DENSITY
DFV .                     90 : DRILLING FLUID VISCOSITY
DFPH.                      9 : DRILLING FLUID PH
DFL .                    7.8 : DRILLING FLUID LOSS
RMS .OHMM                1.7 : RESISTIVITY MUD SAMPLE
MST .DEGF                 74 : MUD SAMPLE TEMPERATURE
RMF .OHMM               1.42 : RESISTIVITY MUD FILTRATE SAMPLE
MFST.DEGF                 76 : MUD FILTRATE SAMPLE TEMPERATURE
RMC .OHMM               1.65 : RESISTIVITY MUD CAKE
MCST.DEGF                 77 : MUD CAKE SAMPLE TEMPERATURE
RMB .OHMM                0.6 : RESISTIVITY MUD AT BHT
TCS .HRS                 500 : TIME CIRCULATED STOPPED
LUN .                   1574 : LOGGING UNIT NUMBER
ENGI.                 BENNER : RECORDING ENGINEER
WITN.         BRITTON WALKER : WITNESSED BY
CLNT.                A2DTECH : CLIENT CODE
ORIG.            2" 5" PRINT : ORIGIN OF DATA
UWI .       100112706220W500 : UNIQUE WELL ID
DICO. A2D Technologies, Inc. : DIGITIZING COMPANY
~Other -----------------------------------------------------
IEL/GRN/SONIC LOG RAN
~ASCII -----------------------------------------------------
# ...
 5100.00000   12.31710  156.10100  176.53810    5.66450   88.13770   88.13770    -999.25    5.01250   82.70620    5.66450   12.31710    -999.25    -999.25    6.95330  -87.54410   -2.80980    6.95330
 5150.00000   12.71060  158.74680  182.63170    5.47550   98.52940   98.52940    -999.25    5.07400   83.72100    5.47550   12.71060    -999.25    -999.25    7.03030  -92.20640   -3.46920    7.03030
 5200.00000   13.58360  158.39260  177.74620    5.62600   85.43570   85.43570    -999.25    5.48010   90.42170    5.62600   13.58360    -999.25    -999.25    7.00480  -91.22600   -3.24570    7.00480
 5250.00000   15.41540  210.21680  235.01210    4.25510  116.57790  116.57790    -999.25    6.55840  108.21360    4.25510   15.41540    -999.25    -999.25    5.81920  -90.00330   -2.77490    5.81920
 5300.00000   15.42010  228.10720  274.92390    3.63740  105.01120  105.01120    -999.25    4.94630   81.61400    3.63740   15.42010    -999.25    -999.25    4.05310  -90.24820   -3.77170    4.05310
 5350.00000   14.83180  160.91700  178.26580    5.60960   94.10970   94.10970    -999.25    4.86800   80.32120    5.60960   14.83180    -999.25    -999.25    5.77640  -89.95410   -4.23440    5.77640
 5400.00000   12.69280  144.88390  157.98540    6.32970   80.33670   80.33670    -999.25    4.72450   77.95430    6.32970   12.69280    -999.25    -999.25    6.36550  -89.06690   -4.09920    6.36550
 5450.00000   11.84150   72.56860   76.83210   13.01540   77.24830   77.24830    -999.25    4.64730   76.68040   13.01540   11.84150    -999.25    -999.25   15.70490  -94.29980   -9.11860   15.70490
 5500.00000   12.19320  120.02260  133.77030    7.47550   82.89020   82.89020    -999.25    4.41810   72.89950    7.47550   12.19320    -999.25    -999.25    8.48250  -91.07200   -4.67620    8.48250
 5550.00000   11.97730  108.88850  126.74460    7.91030   72.05190   72.05190    -999.25    3.19730   52.75500    7.91030   11.97730    -999.25    -999.25   11.13530  -95.37510   -8.91540   11.13530
 5600.00000   10.87560   82.98680   89.23470   11.20640   70.84880   70.84880    -999.25    4.61560   76.15740   11.20640   10.87560    -999.25    -999.25   12.20070  -90.55320   -4.76400   12.20070
 5650.00000   10.51230  108.25810  115.09330    8.68860   88.31650   88.31650    -999.25    4.64020   76.56330    8.68860   10.51230    -999.25    -999.25   11.13500  -90.07930   -4.95620   11.13500
 5700.00000   12.42550   64.35440   70.99900   14.08470   82.94650   82.94650    -999.25    4.34830   71.74690   14.08470   12.42550    -999.25    -999.25   12.92410  -88.77000   -4.31740   12.92410
 5750.00000   11.61770   62.89070   69.25350   14.43970   67.43640   67.43640    -999.25    3.83600   63.29400   14.43970   11.61770    -999.25    -999.25   18.76120  -96.86560  -13.07910   18.76120
 5800.00000   11.68820   70.84650   79.59070   12.56460   75.24820   75.24820    -999.25    3.60140   59.42390   12.56460   11.68820    -999.25    -999.25   16.60880 -101.61480  -18.49440   16.60880
 5850.00000   11.99120   93.88080   98.45910   10.15650   72.63950   72.63950    -999.25    4.87970   80.51500   10.15650   11.99120    -999.25    -999.25   13.83340  -85.80310   -3.35320   13.83340
 5900.00000   11.70410   68.24670   74.02360   13.50920   71.67670   71.67670    -999.25    2.71770   44.84200   13.50920   11.70410    -999.25    -999.25   19.83740 -114.50580  -35.00290   19.83740
 5950.00000   10.82660   32.01320   34.25140   29.19590  102.53760  102.53760    -999.25    3.28510   54.20410   29.19590   10.82660    -999.25    -999.25   28.56170  -92.28540  -16.43570   28.56170
 6000.00000   10.62870   66.17760   76.00520   13.15700   71.75080   71.75080    -999.25    3.79830   62.67190   13.15700   10.62870    -999.25    -999.25   14.67610  -82.65330   -8.67680   14.67610
 6050.00000   11.21140   64.84160   75.28430   13.28330   73.60440   73.60440    -999.25    3.74760   61.83460   13.28330   11.21140    -999.25    -999.25   20.64290  -78.82080   -5.40550   20.64290
 6100.00000   11.24650   77.78870   89.01230   11.23440   76.98920   76.98920    -999.25    3.01920   49.81680   11.23440   11.24650    -999.25    -999.25   16.10310  -87.05510  -14.20470   16.10310
 6150.00000   10.82520   66.36650   75.08800   13.31770   74.30140   74.30140    -999.25    4.39670   72.54560   13.31770   10.82520    -999.25    -999.25   15.77750  -78.69740   -6.40820   15.77750
 6200.00000   10.21290   61.62560   72.36470   13.81890   71.84810   71.84810    -999.25    4.35600   71.87400   13.81890   10.21290    -999.25    -999.25   15.77390  -76.69440   -5.09730   15.77390
 6250.00000   10.37670   89.26680   94.73380   10.55590   62.29660   62.29660    -999.25    4.85600   80.12400   10.55590   10.37670    -999.25    -999.25   10.83530  -73.86310   -3.07510   10.83530
 6300.00000   13.33420   96.91320  109.16760    9.16600   76.04690   76.04690    -999.25    4.97720   82.12460    9.16600   13.33420    -999.25    -999.25   10.80680  -73.62510   -3.64620   10.80680
 6350.00000   10.91930   54.90070   64.39030   15.53030   81.86780   81.86780    -999.25    4.49120   74.10480   15.53030   10.91930  354.13230  354.13230   20.07700  -73.68270   -4.51830   20.07700
 6400.00000   10.46430   79.59970   96.22970   10.39180   67.69950   67.69950   51.23290    4.15430   68.54680   10.39180   10.46430  316.00950  316.00950   13.97700  -76.33230   -7.74810   13.97700
 6450.00000   11.37750   27.69700   19.15130   52.21590   72.94970   72.94970   65.76390    4.68660   77.32810   52.21590   11.37750  374.51030  374.51030   26.06380  -81.86500  -13.28080   26.06380
 6500.00000   12.63510   84.51840  102.37820    9.76770   92.63170   92.63170   80.37020    4.55520   75.16080    9.76770   12.63510  414.96640  414.96640   11.81130  -72.05890   -3.47470   11.81130
 6550.00000   12.51910  185.18340  233.81710    4.27700   95.44990   95.44990    -999.25    5.06680   83.60140    4.27700   12.51910    -999.25    -999.25    5.96330  -72.97060   -4.38640    5.96330
 6600.00000   15.35420  197.82190  247.61670    4.03850   88.93120   88.93120    -999.25    4.02140   66.35310    4.03850   15.35420    -999.25    -999.25    5.05820  -72.37900   -3.79480    5.05820
 6650.00000   14.37070  230.75650  281.56320    3.55160   92.83050   92.83050    -999.25    4.01220   66.20130    3.55160   14.37070    -999.25    -999.25    4.00160  -73.22670   -4.99060    4.00160
 6700.00000   10.59420   14.38610   15.21000   65.74630   84.47720   84.47720    -999.25    9.06400  149.55600   65.74630   10.59420    -999.25    -999.25   82.35760  -73.52340   -5.82520   82.35760
 6750.00000   10.04070   13.83480    3.95250  253.00660   65.19140   65.19140    -999.25    4.54250   74.95130  253.00660   10.04070    -999.25    -999.25  169.25460  -89.39470  -15.93500  169.25460
 6800.00000   10.48490   84.73550   89.07890   11.29520   61.63440   61.63440    -999.25    3.49830   57.72200   11.29520   10.48490    -999.25    -999.25   12.28810  -90.18180   -7.41670   12.28810
 6850.00000   10.61910   26.88920   31.85610   31.39120   59.53240   59.53240    -999.25    3.58240   59.10960   31.39120   10.61910    -999.25    -999.25   31.48970  -83.95000   -6.09590   31.48970
 6900.00000   11.47000   34.68700   42.07500   23.76710   60.57700   60.57700    -999.25    3.64450   60.13420   23.76710   11.47000    -999.25    -999.25   24.78660  -80.46070   -7.48550   24.78660
 6950.00000   11.02920   27.59530   32.85990   30.43220   60.39790   60.39790  143.23230    4.55260   75.11710   30.43220   11.02920  346.98490  346.98490   33.93060  -73.35930   -5.29510   33.93060
 7000.00000    9.90080   18.87770   21.07310   47.45390   51.74560   51.74560   18.03150    2.00210   33.03460   47.45390    9.90080  511.17490  511.17490   60.91670 -114.92030  -49.55160   60.91670
 7050.00000   13.65010   38.31850   46.78980   21.41170   73.62970   73.62970   36.93830    1.84280   30.40540   21.41170   13.65010  270.16020  270.16020   29.39980 -140.16690  -76.25580   29.39980
 7100.00000    9.95120   72.65460   91.71790   10.90300   59.44390   59.44390   66.73370    2.21930   36.61850   10.90300    9.95120  675.39900  675.39900   37.37480 -160.30800  -97.86400   37.37480
