~Version ---------------------------------------------------
VERS.      2.0 : CWLS log ASCII Standard -VERSION 2.0
WRAP.       NO : One line per depth step
CREA. 09/03/13 : LAS Creation Date
~Well ------------------------------------------------------
STRT.M                       300.0 : START DEPTH
STOP.M                      3650.0 : STOP DEPTH
STEP.M                    50.00000 : STEP LENGTH
NULL.                      -999.25 : NULL VALUE
COMP.       FOREST OIL CORPORATION : COMPANY
WELL. FOREST ET AL ANTE 3-30-67-26 : WELL
FLD .                           WC : FIELD
LOC .                              : LOCATION
CTRY.                       CANADA : COUNTRY
SRVC.                 Schlumberger : SERVICE COMPANY
DATE.                  18-Feb-1981 : LOGDATE
PROV.                      Alberta : PROVINCE
UWI .             100033006726W500 : UNIQUE WELL ID
SLAT.WGS84                54.82301 : SURFACE LATITUDE
SLON.WGS84               -117.9545 : SURFACE LONGITUDE
~Curve Information -----------------------------------------
DEPT    .M      : DEPTH METER
CALDED  .MM     : CALIPER FROM DENSITY LOG [ADJ.  TO RESISTIVITY LOG]
CALSED  .MM     : CALIPER FROM SONIC LOG
CALWS   .MM     : CALIPER [CALDED]
CONDWS  .MMHO   : CONDUCTIVITY [1000/DRESWS]
CORRED  .KG/M3  : DENSITY CORRECTION FROM DENSITY LOG [ADJ.  TO RESISTIVITY LOG]
DCORWS  .KG/M3  : DENSITY CORRECTION [CORRED]
DENWS   .KG/M3  : FORMATION BULK DENSITY [CAL. FROM DPOLSWS, M=2710, M=1000]
DPHILSED.V/V    : DENSITY POROSITY LIMESTONE
DPHISSED.V/V    : DENSITY POROSITY SANDSTONE [M=2650, F=1000] FROM DENSITY LOG
DPOLSWS .V/V    : DENSITY POROSITY LIMESTONE [DPHISSED CONVERTED TO LIMESTONE MATRIX, M=2710, F=1000, SPL. TO DPHILSED @ 2027.29M]
DRESWS  .OHMM   : DEEP RESISTIVITY [ILDED SPL.TO LLD @ 2077.13 M]
DTED    .US/M   : INTERVAL TRANSIT TIME FROM SONIC LOG
DTWS    .US/M   : COMPRESSIONAL SONIC [DTED]
GRDED   .GAPI   : GAMMA RAY FROM DENSITY LOG [ADJ. TO RESISTIVITY LOG]
GRRED   .GAPI   : GAMMA RAY FROM RESISTIVITY  LOG
GRSED   .GAPI   : GAMMA RAY FROM SONIC LOG [ADJ.  TO RESISTIVITY LOG]
GRWS    .GAPI   : GAMMA RAY [GRSED]
ILDED   .OHMM   : DEEP INDUCTION LOG RESISTIVITY FROM RESISTIVITY LOG
ILMED   .OHMM   : MEDIUM INDUCTION LOG RESISTIVITY FROM RESISTIVITY LOG
LLDED   .OHMM   : DEEP LATEROLOG LOG RESISTIVITY FROM RESISTIVITY LOG
LLSED   .OHMM   : SHALLOW LATEROLOG LOG RESISTIVITY FROM RESISTIVITY LOG
MRESWS  .OHMM   : MEDIUM RESISTIVITY [ILMED]
MSFLED  .OHMM   : MICROSPHERICALLY FOCUSED RESISTIVITY FROM RESISTIVITY LOG
NPHILSED.V/V    : NEUTRON POROSITY LIMESTONE FROM DENSITY LOG [ADJ. TO RESISTIVITY LOG]
NPHISSED.V/V    : NEUTRON POROSITY SANDSTONE FROM DENSITY LOG [ADJ. TO RESISTIVITY LOG]
NPOLSWS .V/V    : NEUTRON POROSITY LIMESTONE [NPHISSED MATRIX CONVERSION FOR LIMESTONE , SPL. TO NPHILSED @1994 M ]
RHOBED  .KG/M3  : BULK DENSITY  FROM DENSITY LOG [ADJ.  TO RESISTIVITY LOG]
SFLED   .OHMM   : SPHERICALLY FOCUSED RESISTIVITY FROM RESISTIVITY LOG
SPR1ED  .MV     : SPONTANEOUS POTENTIAL   FROM RESISTIVITY LOG
SPRED   .MV     : SPONTANEOUS POTENTIAL FROM RESISTIVITY LOG
SPWS    .MV     : SPONTANEOUS POTENTIAL [BASELINE 0 MV, SPRED, SPRED SPL. TO SPRIED@207 6M]
SRESWS  .OHMM   : SHALLOW RESISTIVITY [SFLED SPL. TO LLSED @2075M]
TENDED  .N      : TENSION FROM DENSITY LOG  [ADJ.  TO RESISTIVITY LOG]
TENSED  .N      : TENSION FROM SONIC LOG
~Params ----------------------------------------------------
PD  .                       GL : PERMANENT DATUM
EPD .M                   756.8 : ELEVATION PERMANENT DATUM
LMF .                       KB : LOG MEASURED FROM
DAPD.M                     5.4 : FEET ABOVE PERMANENT DATUM
DMF .                       KB : DRILLING MEASURED FROM
EKB .M                   762.2 : KELLY BUSHING
EGL .M                   756.8 : GROUND LEVEL
DATE.                 02/18/81 : RUN DATE
RUN .                        2 : RUN NUMBER
DD  .M                    3673 : DEPTH DRILLER
DL  .M                  3672.5 : DEPTH LOGGER
BLI .M                  3588.5 : BOTTOM LOG INTERVAL
TLI .M                    2076 : TOP LOG INTERVAL
CS  .MM                    244 : CASING SIZE
CBD .M                    2076 : CASING BOTTOM DRILLER
CBL .M                    2076 : CASING BOTTOM LOGGER
BS  .MM                    216 : BIT SIZE
BSD .M                    3673 : BIT SIZE AT DEPTH
DFT .                GEL BENEX : DRILLING FLUID TYPE
DFD .                     1100 : DRILLING FLUID DENSITY
DFV .                       85 : DRILLING FLUID VISCOSITY
DFPH.                       10 : DRILLING FLUID PH
DFL .                     12.5 : DRILLING FLUID LOSS
MSS .                 FLOWLINE : MUD SAMPLE SOURCE
RMS .OHMM                 3.38 : RESISTIVITY MUD SAMPLE
MST .DEGC                   23 : MUD SAMPLE TEMPERATURE
RMF .OHMM                0.714 : RESISTIVITY MUD FILTRATE SAMPLE
MFST.DEGC                 16.7 : MUD FILTRATE SAMPLE TEMPERATURE
RMB .OHMM                 0.22 : RESISTIVITY MUD AT BHT
TCS .HRS                   900 : TIME CIRCULATED STOPPED
TLAB.HRS                   330 : TIME LOGGER AT BOTTOM
LUN .                     8157 : LOGGING UNIT NUMBER
LUL .                       GP : LOGGING UNIT LOCATION
ENGI.                    JONES : RECORDING ENGINEER
WITN.        NORQUAY MCCAFFREY : WITNESSED BY
CLNT.                  A2DTECH : CLIENT CODE
ORIG. 6"/100M 16.5"/100M PRINT : ORIGIN OF DATA
UWI .         100033006726W500 : UNIQUE WELL ID
DICO.   A2D Technologies, Inc. : DIGITIZING COMPANY
~Other -----------------------------------------------------
DLL-MSFL-DISFL-FDC-CNL-BHC LOG RAN
BHC RAN IN COMBINATION WITH DLL-MSFL
RHOB ARE FROM SMALL SCALE SECTION
~ASCII -----------------------------------------------------
# ...
 2400.00000  270.31400  243.80780  270.31400    3.13870  249.85630  249.85630 2556.10000    0.09000    -999.25    0.09000  318.60230  167.41500  167.41500   23.48110   22.20860   21.55380   21.55380    -999.25    -999.25  318.60230  176.61370    -999.25   90.16920    0.02220    -999.25    0.02220 2549.96510    -999.25  -74.52280    -999.25    -999.25  176.61370 13008.02080 13451.55350
 2450.00000  250.84440  251.50120  250.84440   24.01390   29.39600   29.39600 2696.66200    0.00780    -999.25    0.00780   41.64260  186.71290  186.71290   43.72300   40.76960   41.58820   41.58820    -999.25    -999.25   41.64260   33.14930    -999.25   29.72060    0.10120    -999.25    0.10120 2694.76880    -999.25  -48.82180    -999.25    -999.25   33.14930 13225.64490 13810.16020
 2500.00000  302.07700  251.33320  302.07700   21.49410  124.63870  124.63870 2615.60800    0.05520    -999.25    0.05520   46.52450  169.01030  169.01030   14.85830   18.46400   18.49610   18.49610    -999.25    -999.25   46.52450   50.37290    -999.25   28.57540    0.02210    -999.25    0.02210 2613.50370    -999.25  -99.92410    -999.25    -999.25   50.37290 13417.12470 13913.64250
 2550.00000  242.74250  237.00650  242.74250    6.76190  128.91490  128.91490 2656.99000    0.03100    -999.25    0.03100  147.88700  170.72530  170.72530   21.10050   27.61030   27.59130   27.59130    -999.25    -999.25  147.88700  164.89170    -999.25   38.46310    0.02150    -999.25    0.02150 2684.84960    -999.25 -135.46790    -999.25    -999.25  164.89170 13426.66160 14153.79350
 2600.00000  285.13720  258.60260  285.13720   52.14310  243.08470  243.08470 2406.98800    0.17720    -999.25    0.17720   19.17800  199.64000  199.64000   61.78310   59.79610   59.81770   59.81770    -999.25    -999.25   19.17800   15.99670    -999.25   16.45200    0.16800    -999.25    0.16800 2349.13530    -999.25  -39.13870    -999.25    -999.25   15.99670 13767.14310 14215.60470
 2650.00000  266.02710  251.49480  266.02710    7.52320   37.40390   37.40390 2788.48900   -0.04590    -999.25   -0.04590  132.92220  178.25450  178.25450   39.79400   36.87050   37.22770   37.22770    -999.25    -999.25  132.92220  120.70400    -999.25   59.37520    0.04680    -999.25    0.04680 2827.89750    -999.25  -47.89740    -999.25    -999.25  120.70400 14032.66160 14460.08860
 2700.00000  231.61820  243.77700  231.61820   12.78860    1.70090    1.70090 2672.72200    0.02180    -999.25    0.02180   78.19480  182.62980  182.62980   39.03350   32.20320   32.45850   32.45850    -999.25    -999.25   78.19480   80.65010    -999.25   45.82340    0.03720    -999.25    0.03720 2674.69240    -999.25  -58.90560    -999.25    -999.25   80.65010 14210.08740 14597.72260
 2750.00000  238.91500  243.38020  238.91500   31.14070   -1.43250   -1.43250 2694.95200    0.00880    -999.25    0.00880   32.11230  203.66830  203.66830   73.07220   67.89610   67.51780   67.51780    -999.25    -999.25   32.11230   33.19900    -999.25   16.09590    0.09660    -999.25    0.09660 2696.70390    -999.25  -26.96420    -999.25    -999.25   33.19900 14394.72840 14847.37200
 2800.00000  219.41430  237.59250  219.41430    0.14760   -3.83530   -3.83530 2667.59200    0.02480    -999.25    0.02480 6775.92920  164.68940  164.68940   18.19650   25.01790   24.60900   24.60900    -999.25    -999.25 6775.92920 3791.56760    -999.25   10.56680    0.00860    -999.25    0.00860 2668.66410    -999.25  -73.92820    -999.25    -999.25 3791.56760 14542.30050 14991.52140
 2850.00000  314.60100  236.90380  314.60100    0.25140  138.54010  138.54010 2461.02400    0.14560    -999.25    0.14560 3977.90530  164.47530  164.47530   15.14170   18.81780   18.75820   18.75820    -999.25    -999.25 3977.90530 1159.61900    -999.25    9.73520    0.00810    -999.25    0.00810 2469.14990    -999.25 -191.91960    -999.25    -999.25 1159.61900 15235.77040 15284.42040
 2900.00000  300.30340  234.89710  300.30340    0.02260  189.47310  189.47310 2456.92000    0.14800    -999.25    0.14800 44267.57420  161.57880  161.57880   13.04900   19.66410   19.83270   19.83270    -999.25    -999.25 44267.57420 1802.77640    -999.25    6.77060    0.00800    -999.25    0.00800 2448.66770    -999.25 -183.31020    -999.25    -999.25 1802.77640 15088.58120 15470.81080
 2950.00000  333.17860  235.19280  333.17860    0.23850  232.23670  232.23670 2517.79600    0.11240    -999.25    0.11240 4193.14840  161.89260  161.89260   14.97410   19.57430   20.01040   20.01040    -999.25    -999.25 4193.14840  826.17270    -999.25    8.01070   -0.00120    -999.25   -0.00120 2530.12770    -999.25 -194.31030    -999.25    -999.25  826.17270 15136.97500 15681.72820
 3000.00000  335.51550  233.51550  335.51550    0.12190  233.42080  233.42080 2311.22800    0.23320    -999.25    0.23320 8202.95800  162.11220  162.11220   17.69750   21.06860   20.84420   20.84420    -999.25    -999.25 8202.95800  638.76480    -999.25    6.17160    0.00380    -999.25    0.00380 2305.19600    -999.25 -147.45570    -999.25    -999.25  638.76480 15357.66160 15855.10990
 3050.00000  267.02830  248.83260  267.02830    0.02110   -9.98160   -9.98160 2893.99600   -0.10760    -999.25   -0.10760 47503.21480  163.81890  163.81890   11.77760   16.94010   16.60820   16.60820    -999.25    -999.25 47503.21480 2778.99460    -999.25 1253.52600   -0.00620    -999.25   -0.00620 2893.97410    -999.25 -158.94400    -999.25    -999.25 2778.99460 15562.79180 16122.28000
 3100.00000  245.85960  240.95380  245.85960    0.05990   16.28760   16.28760 2948.71600   -0.13960    -999.25   -0.13960 16685.99220  165.72420  165.72420   16.44030   12.39830   12.32150   12.32150    -999.25    -999.25 16685.99220 3307.75200    -999.25 1573.71420   -0.00380    -999.25   -0.00380 2953.61600    -999.25 -182.32020    -999.25    -999.25 3307.75200 15744.85380 16514.11450
 3150.00000  242.04560  244.19980  242.04560    0.01950   -7.98360   -7.98360 2901.52000   -0.11200    -999.25   -0.11200 51296.28120  167.48660  167.48660   12.07680   19.89120   20.19390   20.19390    -999.25    -999.25 51296.28120 5061.73290    -999.25  968.81240   -0.00540    -999.25   -0.00540 2903.35230    -999.25 -188.60010    -999.25    -999.25 5061.73290 15952.46870 16669.04190
 3200.00000  223.98740  227.96880  223.98740    7.72210   26.42230   26.42230 2677.51000    0.01900    -999.25    0.01900  129.49770  171.95590  171.95590   44.39430   39.01720   38.73430   38.73430    -999.25    -999.25  129.49770  115.78630    -999.25   84.02530    0.04230    -999.25    0.04230 2675.93380    -999.25  -95.28900    -999.25    -999.25  115.78630 16370.46010 16848.34300
 3250.00000  272.68390  245.15250  272.68390   69.47920  248.37230  248.37230 2503.94500    0.12050    -999.25    0.12050   14.39280  238.38040  238.38040   77.58580   84.01990   83.67370   83.67370    -999.25    -999.25   14.39280   10.35720    -999.25   12.17290    0.20960    -999.25    0.20960 2435.34860    -999.25  -31.44670    -999.25    -999.25   10.35720 16901.00330 17240.31540
 3300.00000  363.59300  255.47440  363.59300  203.56650   26.33280   26.33280 2127.40300    0.34070    -999.25    0.34070    4.91240  258.66810  258.66810   84.31420   84.43210   86.53370   86.53370    -999.25    -999.25    4.91240    5.63270    -999.25    3.44190    0.23560    -999.25    0.23560 2088.20560    -999.25  -43.83130    -999.25    -999.25    5.63270 16957.84790 17268.30000
 3350.00000  242.71210  251.12650  242.71210  149.47010   -3.58110   -3.58110 2683.66600    0.01540    -999.25    0.01540    6.69030  217.53720  217.53720   74.72060   79.16730   79.13580   79.13580    -999.25    -999.25    6.69030    7.14520    -999.25    7.79180    0.15990    -999.25    0.15990 2683.37180    -999.25  -26.86740    -999.25    -999.25    7.14520 17133.96510 17711.79500
 3400.00000  276.51010  257.06390  276.51010  205.73590  209.09790  209.09790 2481.71500    0.13350    -999.25    0.13350    4.86060  239.01990  239.01990   86.53440   91.63120   91.73180   91.73180    -999.25    -999.25    4.86060    5.49160    -999.25    5.97720    0.20870    -999.25    0.20870 2448.16700    -999.25  -10.27660    -999.25    -999.25    5.49160 17669.73200 17855.34930
