~Version ---------------------------------------------------
VERS.      2.0 : CWLS log ASCII Standard -VERSION 2.0
WRAP.       NO : One line per depth step
CREA. 07/27/17 : LAS Creation Date
~Well ------------------------------------------------------
STRT.FT                            1000.0 : START DEPTH
STOP.FT                            9950.0 : STOP DEPTH
STEP.FT                          50.00000 : STEP LENGTH
NULL.                             -999.25 : NULL VALUE
COMP.        HUDSONS BAY OIL & GAS CO LTD : COMPANY
WELL. HB QUINTANA UNION GIROUX 10-8-66-20 : WELL
FLD .                                     : FIELD
LOC .                                     : LOCATION
CTRY.                              CANADA : COUNTRY
SRVC.                        Schlumberger : SERVICE COMPANY
DATE.                         18-Mar-1972 : LOGDATE
PROV.                             Alberta : PROVINCE
UWI .                    100100806620W500 : UNIQUE WELL ID
SLAT.WGS84                       54.70057 : SURFACE LATITUDE
SLON.WGS84                      -116.9823 : SURFACE LONGITUDE
~Curve Information -----------------------------------------
DEPT  .FT    : Depth Curve
CALSED.IN    : CALIPER FROM SONIC LOG
CALWS .IN    : CALIPER [CALSED]
CILDED.MMHO  : CONDUCTIVITY FROM RESISTIVITY LOG
CONDWS.MMHO  : CONDUCTIVITY [1000/DRESWS]
DRESWS.OHMM  : DEEP RESISTIVITY [1000/CILDED IF ILDED < 4, ILDED]
DTED  .US/F  : DELTA T FROM SONIC LOG
DTWS  .US/F  : COMPRESSIONAL SONIC [DTED]
GRSED .GAPI  : GAMMA RAY FROM SONIC LOG
GRWS  .GAPI  : GAMMA RAY [GRSED]
ILDED .OHMM  : DEEP INDUCTION FROM RESISTIVITY LOG
LL8ED .OHMM  : 8 INCH LATEROLOG FROM RESISTIVITY LOG
SPRED .MV    : SPONTANEOUS POTENTIAL FROM RESISTIVITY LOG
SPWS  .MV    : SPONTANEOUS POTENTIAL [BASELINE 0 MV, SPRED]
SRESWS.OHMM  : SHALLOW RESISTIVITY [LL8ED]
~Params ----------------------------------------------------
PD  .                     GL : PERMANENT DATUM
EPD .FT               2420.2 : ELEVATION PERMANENT DATUM
LMF .                     KB : LOG MEASURED FROM
DAPD.FT                   13 : FEET ABOVE PERMANENT DATUM
EKB .FT                 2434 : KELLY BUSHING
EGL .FT               2420.2 : GROUND LEVEL
DATE.               03/18/72 : RUN DATE
RUN .                      1 : RUN NUMBER
DD  .FT                 9990 : DEPTH DRILLER
DL  .FT                 9990 : DEPTH LOGGER
BLI .FT                 9987 : BOTTOM LOG INTERVAL
TLI .FT                 1023 : TOP LOG INTERVAL
CBD .FT                 1023 : CASING BOTTOM DRILLER
CBL .FT                 1023 : CASING BOTTOM LOGGER
BS  .IN                 8.75 : BIT SIZE
BSD .FT                 9990 : BIT SIZE AT DEPTH
DFT .               GEL CHEM : DRILLING FLUID TYPE
DFD .                    9.7 : DRILLING FLUID DENSITY
DFV .                    157 : DRILLING FLUID VISCOSITY
DFPH.                    9.5 : DRILLING FLUID PH
DFL .                    6.8 : DRILLING FLUID LOSS
MSS .             CIRCULATED : MUD SAMPLE SOURCE
RMS .OHMM               2.07 : RESISTIVITY MUD SAMPLE
MST .DEGF                 60 : MUD SAMPLE TEMPERATURE
RMF .OHMM               1.02 : RESISTIVITY MUD FILTRATE SAMPLE
MFST.DEGF                 72 : MUD FILTRATE SAMPLE TEMPERATURE
RMB .OHMM               0.48 : RESISTIVITY MUD AT BHT
TCS .HRS                 3.5 : TIME CIRCULATED STOPPED
LUN .                   7640 : LOGGING UNIT NUMBER
LUL .                    EDM : LOGGING UNIT LOCATION
ENGI.                CUTRESS : RECORDING ENGINEER
WITN.                HIGGINS : WITNESSED BY
CLNT.                A2DTECH : CLIENT CODE
ORIG.            2" 5" PRINT : ORIGIN OF DATA
UWI .       100100806620W500 : UNIQUE WELL ID
DICO. A2D Technologies, Inc. : DIGITIZING COMPANY
~Other -----------------------------------------------------
~ASCII -----------------------------------------------------
# ...
 8350.00000    9.20320    9.20320    -999.25    7.54680  132.50600   52.23010   52.23010   32.37820   32.37820  132.50600  118.08630  -52.93870  -23.22740  118.08630
 8400.00000    9.43830    9.43830    -999.25   29.90820   33.43570   58.17110   58.17110   57.80830   57.80830   33.43570   31.80650  -60.04160  -32.00110   31.80650
 8450.00000   10.34300   10.34300    -999.25    0.56820 1759.94410   53.04650   53.04650   11.21900   11.21900 1759.94410  321.89860 -102.60380  -76.24260  321.89860
 8500.00000    9.50920    9.50920    -999.25    0.62570 1598.17380   46.77880   46.77880   21.56950   21.56950 1598.17380  276.47800  -78.59360  -53.89490  276.47800
 8550.00000    9.90460    9.90460    -999.25   64.15730   15.58670   61.71080   61.71080   48.19200   48.19200   15.58670   14.31430  -43.32350  -20.29570   14.31430
 8600.00000   12.82280   12.82280    -999.25  204.90960    4.88020   72.33270   72.33270   71.37570   71.37570    4.88020    5.79220  -46.04170  -24.68470    5.79220
 8650.00000   13.47820   13.47820    -999.25  197.39830    5.06590   74.72790   74.72790   67.58150   67.58150    5.06590    5.64270  -58.74460  -39.05850    5.64270
 8700.00000   15.00000   15.00000    -999.25  260.39630    3.84030   81.55760   81.55760   76.39640   76.39640    3.84030    4.22980  -51.63720  -33.63030    4.22980
 8750.00000   15.00000   15.00000    -999.25  253.01080    3.95240   80.50350   80.50350   71.55530   71.55530    3.95240    4.35740  -48.51880  -32.17450    4.35740
 8800.00000   15.00000   15.00000    -999.25  277.14650    3.60820   83.31850   83.31850   67.89600   67.89600    3.60820    3.89150  -46.15620  -31.48270    3.89150
 8850.00000   15.00000   15.00000    -999.25  235.17790    4.25210   76.77810   76.77810   65.60320   65.60320    4.25210    3.98850  -51.04040  -38.03780    3.98850
 8900.00000   15.00000   15.00000    -999.25  242.11320    4.13030   79.42310   79.42310   69.36450   69.36450    4.13030    3.89810  -58.54780  -47.21610    3.89810
 8950.00000    9.45870    9.45870    -999.25   59.64770   16.76510   65.70860   65.70860   71.17800   71.17800   16.76510   21.52730  -36.73660  -27.08410   21.52730
 9000.00000    9.43420    9.43420    -999.25  121.32540    8.24230   65.41100   65.41100   69.49520   69.49520    8.24230   10.61760  -56.21450  -48.22450   10.61760
 9050.00000    9.47760    9.47760    -999.25  133.60590    7.48470   66.64010   66.64010   84.09790   84.09790    7.48470    9.39830  -64.39220  -58.07300    9.39830
 9100.00000    9.19960    9.19960    -999.25  111.56730    8.96320   67.96270   67.96270   77.06140   77.06140    8.96320   12.21560  -52.91560  -48.26740   12.21560
 9150.00000    9.08460    9.08460    -999.25   89.84890   11.12980   64.55230   64.55230   65.87110   65.87110   11.12980   15.09060  -51.25130  -48.27390   15.09060
 9200.00000   10.21910   10.21910    -999.25  140.45930    7.11950   75.94240   75.94240   94.91550   94.91550    7.11950    9.69570  -56.95870  -55.66050    9.69570
 9250.00000   11.98180   11.98180    -999.25  200.50530    4.98740   76.85020   76.85020   96.38420   96.38420    4.98740    6.65150  -60.82700  -61.19140    6.65150
 9300.00000    9.53000    9.53000    -999.25  151.44170    6.60320   74.07430   74.07430   72.54540   72.54540    6.60320    8.31560  -47.20700  -49.24220    8.31560
 9350.00000    9.23920    9.23920    -999.25  165.63150    6.03750   71.40700   71.40700   72.45610   72.45610    6.03750    8.83150  -36.23550  -39.94160    8.83150
 9400.00000    8.94430    8.94430    -999.25  118.26060    8.45590   71.24540   71.24540   93.75670   93.75670    8.45590   14.28170  -27.75430  -33.13120   14.28170
 9450.00000    8.76100    8.76100    -999.25   20.17420   49.56830   63.27440   63.27440   47.52240   47.52240   49.56830   89.94820  -10.02050  -17.07660   89.94820
 9500.00000   10.13550   10.13550    -999.25  117.91900    8.48040   95.98950   95.98950  122.32610  122.32610    8.48040   10.01290   -1.09710   -9.78850   10.01290
 9550.00000    8.80560    8.80560    -999.25   27.07470   36.93490   61.73760   61.73760   51.12100   51.12100   36.93490  171.06540   -5.45850  -14.14090  171.06540
 9600.00000    8.85700    8.85700    -999.25   90.80840   11.01220   61.01530   61.01530   47.65790   47.65790   11.01220   13.28970  -26.19780  -34.79200   13.28970
 9650.00000    8.73770    8.73770    -999.25    9.74410  102.62620   54.62910   54.62910   24.06270   24.06270  102.62620   98.00570  -10.30110  -18.80700   98.00570
 9700.00000    8.81940    8.81940    -999.25   52.82370   18.93090   58.32170   58.32170   39.95490   39.95490   18.93090   30.57480   -0.75480   -9.17190   30.57480
 9750.00000    8.75950    8.75950    -999.25   17.97950   55.61890   59.34080   59.34080   48.78060   48.78060   55.61890   59.89600  -10.40380  -18.73310   59.89600
 9800.00000    8.74210    8.74210    -999.25   15.10040   66.22350   52.67870   52.67870   28.44010   28.44010   66.22350   98.29450  -12.44860  -20.68960   98.29450
 9850.00000    8.71380    8.71380    -999.25    0.60390 1655.78040   51.42660   51.42660   18.35130   18.35130 1655.78040  410.46620    3.16200   -4.99070  410.46620
 9900.00000    8.75720    8.75720    -999.25    0.55930 1788.02750   51.47790   51.47790   22.81010   22.81010 1788.02750 1347.85440   -8.01670  -16.08420 1347.85440
 9950.00000    9.07150    9.07150    -999.25  168.99600    5.91730   94.24710   94.24710  117.93260  117.93260    5.91730    7.22850  -78.25610  -86.32360    7.22850
