~Version ---------------------------------------------------
VERS. 2.0 : CWLS log ASCII Standard -VERSION 2.0
WRAP. YES : MULTIPLE LINES PER DEPTH STEP
~Well ------------------------------------------------------
STRT.FT                      2000.0 : START DEPTH
STOP.FT                     17600.0 : STOP DEPTH
STEP.FT                    50.00000 : STEP LENGTH
NULL.                      -99925.0 : NULL VALUE
COMP.        SEAFORT PETROLEUM LTD. : COMPANY
WELL. SEAFORT ET AL KAKWA 2-20-61-7 : WELL
FLD .                               : FIELD
LOC .                               : LOCATION
CTRY.                        CANADA : COUNTRY
SRVC.        Schlumberger of Canada : SERVICE COMPANY
DATE.                   12-Aug-1975 : LOGDATE
PROV.                       Alberta : PROVINCE
UWI .              100022006107W600 : UNIQUE WELL ID
SLAT.WGS84                 54.28609 : SURFACE LATITUDE
SLON.WGS84                -119.0081 : SURFACE LONGITUDE
~Curve Information -----------------------------------------
DEPT    .FT    : DEPTH FEET
CALDED  .IN    : CALIPER FROM DENSITY LOG [ADJ TO GRRED]
CALSED  .IN    : CALIPER FROM SONIC LOG
CALWS   .IN    : CALIPER [CALSED]
CONDWS  .MMHO  : CONDUCTIVITY [1000/DRESWS]
DCORED  .G/C3  : DENSITY CORRECTION FROM DENSITY LOG [ADJ TO GRRED]
DCORWS  .G/C3  : DENSITY CORRECTION [DCORED]
DENWS   .G/C3  : BULK DENSITY [M=2.65 F=1.0] <14590> [M=2.71 F=1.0] [RHOBED]
DPHILSED.V/V   : DENSITY POROSITY [M=2.71 F=1.0] FROM DENSITY LOG [ADJ TO GRRED]
DPHISSED.V/V   : DENSITY POROSITY [M=2.65 F=1.0] FROM DENSITY LOG [ADJ TO GRRED]
DPOWS   .V/V   : DENSITY POROSITY [M=2.71 F=1.0] [CALCULATED FROM DENWS]
DRESWS  .OHMM  : DEEP RESISTIVITY [SPL ILDED <14590> LLDED]
DTED    .US/F  : DELTA TIME FROM SONIC LOG
DTWS    .US/F  : DELTA TIME [DTED]
GRDED   .GAPI  : GAMMA RAY FROM DENSITY LOG [ADJ TO GRRED]
GRRED   .GAPI  : GAMMA RAY FROM RESISTIVITY LOG
GRSED   .GAPI  : GAMMA RAY FROM SONIC LOG
GRWS    .GAPI  : GAMMA RAY [GRSED, CSG ABOVE 2005F]
ILDED   .OHMM  : INDUCTION LOG DEEP RESISTIVITY
ILMED   .OHMM  : INDUCTION LOG MEDIUM RESISTIVITY
LL8ED   .OHMM  : 8 INCH LATEROLOG RESISTIVITY
LLDED   .OHMM  : LATEROLOG DEEP RESISTIVITY
LLSED   .OHMM  : LATEROLOG SHALLOW RESISTIVITY
MRESWS  .OHMM  : MEDIUM RESISTIVITY [ILMED]
NPHILSED.V/V   : NEUTRON POROSITY LIMESTONE FROM DENSITY LOG [ADJ TO GRRED]
NPHISSED.V/V   : NEUTRON POROSITY SANDSTONE FROM DENSITY LOG [ADJ TO GRRED]
NPOWS   .V/V   : NEUTRON POROSITY LIMESTONE [CONVERTED NPHISSED TO LIMESTONE SPL WITH NPHILSED @14516F]
RHOBED  .G/C3  : BULK DENSITY FROM DENSITY LOG [ADJ TO GRRED]
SPRED   .MV    : SPONTANEOUS POTENTIAL FROM RESISTIVITY LOG
SPWS    .MV    : SPONTANEOUS POTENTIAL [BASELINE 0 MV] [SPRED]
SRESWS  .OHMM  : SHALLOW RESISTIVITY [SPL LL8ED <14590> LLSED]
~Params ----------------------------------------------------
PD  .                     GL : PERMANENT DATUM
EPD .FT                 3465 : ELEVATION PERMANENT DATUM
LMF .                     KB : LOG MEASURED FROM
DAPD.FT                   21 : FEET ABOVE PERMANENT DATUM
EKB .FT                 3486 : KELLY BUSHING
EGL .FT                 3465 : GROUND LEVEL
DATE.               10/06/75 : RUN DATE
RUN .                      2 : RUN NUMBER
DD  .FT                17618 : DEPTH DRILLER
DL  .FT                17600 : DEPTH LOGGER
BLI .FT                17600 : BOTTOM LOG INTERVAL
TLI .FT                14577 : TOP LOG INTERVAL
CBD .FT                14590 : CASING BOTTOM DRILLER
CBL .FT                14577 : CASING BOTTOM LOGGER
BS  .IN                  9.5 : BIT SIZE
BSD .FT                17618 : BIT SIZE AT DEPTH
DFT .                    GEL : DRILLING FLUID TYPE
DFD .                   13.8 : DRILLING FLUID DENSITY
DFV .                    115 : DRILLING FLUID VISCOSITY
DFPH.                     11 : DRILLING FLUID PH
DFL .                      7 : DRILLING FLUID LOSS
RMS .OHMM              0.809 : RESISTIVITY MUD SAMPLE
MST .DEGF                 75 : MUD SAMPLE TEMPERATURE
WITN.                  BROWN : WITNESSED BY
CLNT.                A2DTECH : CLIENT CODE
ORIG.               5" PRINT : ORIGIN OF DATA
UWI .       100022006107W600 : UNIQUE WELL ID
DICO. A2D Technologies, Inc. : DIGITIZING COMPANY
~Other -----------------------------------------------------
~ASCII -----------------------------------------------------
# ...
 16400.00000   -99925.0   10.76480   10.76480  161.29290    0.01600    0.01600    2.51870    0.11870   -99925.0    0.11190    6.19990   71.63250   71.63250   71.90920   53.28130   66.68340   66.68340   -99925.0   -99925.0   -99925.0    6.19990    6.99770   -99925.0    0.26710   -99925.0    0.26710    2.51870   -99925.0   -99925.0    6.99770
 16450.00000   -99925.0   10.16770   10.16770  185.95310    0.08330    0.08330    2.58910    0.08020   -99925.0    0.07070    5.37770   75.04110   75.04110   82.01910   60.73420   74.37140   74.37140   -99925.0   -99925.0   -99925.0    5.37770    4.82260   -99925.0    0.28800   -99925.0    0.28800    2.58910   -99925.0   -99925.0    4.82260
 16500.00000   10.45030    9.37000    9.37000  168.25100    0.03140    0.03140    2.73550   -0.02620   -99925.0   -0.01490    5.94350   68.15170   68.15170   84.16540   58.58300   83.19940   83.19940   -99925.0   -99925.0   -99925.0    5.94350    7.00140   -99925.0    0.19910   -99925.0    0.19910    2.73550   -99925.0   -99925.0    7.00140
 16550.00000   10.82890    9.41270    9.41270  162.03520    0.05790    0.05790    2.72820   -0.01070   -99925.0   -0.01060    6.17150   72.99130   72.99130   88.59370   65.37640   82.63540   82.63540   -99925.0   -99925.0   -99925.0    6.17150    6.73620   -99925.0    0.19770   -99925.0    0.19770    2.72820   -99925.0   -99925.0    6.73620
 16600.00000   11.81230    9.84920    9.84920  191.12420    0.04380    0.04380    2.72420   -0.00350   -99925.0   -0.00830    5.23220   74.57350   74.57350   84.34470   61.41230   82.79280   82.79280   -99925.0   -99925.0   -99925.0    5.23220    5.91840   -99925.0    0.23760   -99925.0    0.23760    2.72420   -99925.0   -99925.0    5.91840
 16650.00000    9.92050    8.91630    8.91630  198.61370    0.02400    0.02400    2.69860    0.01600   -99925.0    0.00670    5.03490   73.52650   73.52650   83.14050   61.11880   80.45460   80.45460   -99925.0   -99925.0   -99925.0    5.03490    6.02550   -99925.0    0.22270   -99925.0    0.22270    2.69860   -99925.0   -99925.0    6.02550
 16700.00000   12.23690    9.04170    9.04170  197.10650    0.05190    0.05190    2.76140   -0.03450   -99925.0   -0.03010    5.07340   73.80450   73.80450   81.94080   62.94630   83.25980   83.25980   -99925.0   -99925.0   -99925.0    5.07340    5.80520   -99925.0    0.22160   -99925.0    0.22160    2.76140   -99925.0   -99925.0    5.80520
 16750.00000   14.38490   11.87660   11.87660  228.45650    0.05240    0.05240    2.62090    0.05550   -99925.0    0.05210    4.37720   80.12580   80.12580   77.53660   54.50280   81.77790   81.77790   -99925.0   -99925.0   -99925.0    4.37720    4.21470   -99925.0    0.31740   -99925.0    0.31740    2.62090   -99925.0   -99925.0    4.21470
 16800.00000   -99925.0   12.39380   12.39380  257.06280   -0.00420   -0.00420    2.37580    0.20750   -99925.0    0.19540    3.89010   80.92440   80.92440   83.70680   51.92450   75.90730   75.90730   -99925.0   -99925.0   -99925.0    3.89010    3.62320   -99925.0    0.25700   -99925.0    0.25700    2.37580   -99925.0   -99925.0    3.62320
 16850.00000   14.83290   10.07030   10.07030  217.69890    0.07270    0.07270    2.65010    0.03740   -99925.0    0.03500    4.59350   75.80150   75.80150   90.15540   49.28180   79.07750   79.07750   -99925.0   -99925.0   -99925.0    4.59350    5.09460   -99925.0    0.21070   -99925.0    0.21070    2.65010   -99925.0   -99925.0    5.09460
 16900.00000   11.42630    9.02210    9.02210  291.32440    0.01040    0.01040    2.68780    0.01410   -99925.0    0.01300    3.43260   75.08760   75.08760   80.32070   54.37350   81.93630   81.93630   -99925.0   -99925.0   -99925.0    3.43260    4.26750   -99925.0    0.18240   -99925.0    0.18240    2.68780   -99925.0   -99925.0    4.26750
 16950.00000    9.49510    8.81790    8.81790   69.50380    0.07670    0.07670    2.77330   -0.03930   -99925.0   -0.03700   14.38770   61.41580   61.41580   62.70970   45.16080   60.78700   60.78700   -99925.0   -99925.0   -99925.0   14.38770   17.52950   -99925.0    0.11080   -99925.0    0.11080    2.77330   -99925.0   -99925.0   17.52950
 17000.00000    9.85630    8.79810    8.79810  121.37690    0.01230    0.01230    2.71760   -0.00780   -99925.0   -0.00440    8.23880   65.32210   65.32210   75.07270   50.34870   68.37960   68.37960   -99925.0   -99925.0   -99925.0    8.23880    9.93380   -99925.0    0.13530   -99925.0    0.13530    2.71760   -99925.0   -99925.0    9.93380
 17050.00000    8.87840    8.73240    8.73240   66.87840    0.02690    0.02690    2.73190   -0.01310   -99925.0   -0.01280   14.95250   63.22660   63.22660   53.80270   40.33580   61.82010   61.82010   -99925.0   -99925.0   -99925.0   14.95250   18.10820   -99925.0    0.06770   -99925.0    0.06770    2.73190   -99925.0   -99925.0   18.10820
 17100.00000   10.02980    9.05670    9.05670   79.52920    0.04350    0.04350    2.69620    0.01050   -99925.0    0.00810   12.57400   62.97300   62.97300   68.28180   50.09240   62.67170   62.67170   -99925.0   -99925.0   -99925.0   12.57400   14.56800   -99925.0    0.12100   -99925.0    0.12100    2.69620   -99925.0   -99925.0   14.56800
 17150.00000    9.85460    9.12990    9.12990  147.77820    0.06050    0.06050    2.73740   -0.02160   -99925.0   -0.01600    6.76690   70.76260   70.76260  103.49060   69.10030  100.98650  100.98650   -99925.0   -99925.0   -99925.0    6.76690    8.16930   -99925.0    0.20390   -99925.0    0.20390    2.73740   -99925.0   -99925.0    8.16930
 17200.00000   10.76120    9.38500    9.38500  149.66250    0.03220    0.03220    2.71770   -0.00940   -99925.0   -0.00450    6.68170   79.64350   79.64350   79.39180   73.00390   99.77900   99.77900   -99925.0   -99925.0   -99925.0    6.68170    7.75420   -99925.0    0.20530   -99925.0    0.20530    2.71770   -99925.0   -99925.0    7.75420
 17250.00000    8.75890    7.82410    7.82410  148.47810   -0.00340   -0.00340    2.64460    0.04630   -99925.0    0.03820    6.73500   80.99080   80.99080  101.22540   81.93200  138.35590  138.35590   -99925.0   -99925.0   -99925.0    6.73500    9.23100   -99925.0    0.19640   -99925.0    0.19640    2.64460   -99925.0   -99925.0    9.23100
 17300.00000    8.65450    8.22930    8.22930   84.42240    0.01920    0.01920    2.66970    0.02390   -99925.0    0.02360   11.84520   70.02200   70.02200   86.40080   32.48660  163.29350  163.29350   -99925.0   -99925.0   -99925.0   11.84520   13.33590   -99925.0    0.07480   -99925.0    0.07480    2.66970   -99925.0   -99925.0   13.33590
 17350.00000    9.33650    8.19400    8.19400   57.07700    0.05930    0.05930    2.64520    0.03350   -99925.0    0.03790   17.52020   80.97420   80.97420   69.80410   53.19460   89.51870   89.51870   -99925.0   -99925.0   -99925.0   17.52020   19.38960   -99925.0    0.13660   -99925.0    0.13660    2.64520   -99925.0   -99925.0   19.38960
 17400.00000    9.04250    7.88480    7.88480   14.93520    0.04460    0.04460    2.76810   -0.04570   -99925.0   -0.03400   66.95590   56.23730   56.23730   43.74720   26.21320   43.43750   43.43750   -99925.0   -99925.0   -99925.0   66.95590   89.50670   -99925.0    0.02660   -99925.0    0.02660    2.76810   -99925.0   -99925.0   89.50670
 17450.00000    9.05130    8.00470    8.00470   51.20560    0.01710    0.01710    2.71780    0.00100   -99925.0   -0.00460   19.52910   59.63900   59.63900   67.36740   42.71830   65.22860   65.22860   -99925.0   -99925.0   -99925.0   19.52910   17.93100   -99925.0    0.07410   -99925.0    0.07410    2.71780   -99925.0   -99925.0   17.93100
 17500.00000    8.45840    8.08860    8.08860    0.26140    0.01560    0.01560    2.74770   -0.02270   -99925.0   -0.02200 3826.09770   49.56660   49.56660   16.41190   10.48880   16.66120   16.66120   -99925.0   -99925.0   -99925.0 3826.09770 1378.70250   -99925.0    0.00580   -99925.0    0.00580    2.74770   -99925.0   -99925.0 1378.70250
 17550.00000    8.56690    7.54690    7.54690    4.14800    0.01940    0.01940    2.67250    0.01920   -99925.0    0.02190  241.08200   55.91390   55.91390  108.25020   72.51910   67.42160   67.42160   -99925.0   -99925.0   -99925.0  241.08200  197.47590   -99925.0    0.06080   -99925.0    0.06080    2.67250   -99925.0   -99925.0  197.47590
