~Version ---------------------------------------------------
VERS.      2.0 : CWLS log ASCII Standard -VERSION 2.0
WRAP.       NO : One line per depth step
CREA. 11/22/17 : LAS Creation Date
~Well ------------------------------------------------------
STRT.FT                         900.0 : START DEPTH
STOP.FT                        8350.0 : STOP DEPTH
STEP.FT                      50.00000 : STEP LENGTH
NULL.                         -999.25 : NULL VALUE
COMP.         QUINTANA EXPLORATION CO : COMPANY
WELL. QUINTANA ET AL SNIPE 6-23-72-18 : WELL
FLD .                                 : FIELD
LOC .                                 : LOCATION
CTRY.                          CANADA : COUNTRY
SRVC.          Schlumberger of Canada : SERVICE COMPANY
DATE.                     22-Mar-1977 : LOGDATE
PROV.                         Alberta : PROVINCE
UWI .                100062307218W500 : UNIQUE WELL ID
SLAT.WGS84                   55.24794 : SURFACE LATITUDE
SLON.WGS84                  -116.6597 : SURFACE LONGITUDE
~Curve Information -----------------------------------------
DEPT    .FT    : Depth Curve
CALDED  .IN    : CALIPER FROM DENSITY LOG
CALSED  .IN    : CALIPER FROM SONIC LOG
CALWS   .IN    : CALIPER [CALSED]
CONDWS  .MMHO  : CONDUCTIVITY [1000/DRESWS]
DCORWS  .G/C3  : DENSITY CORRECTION [DRHOED]
DENWS   .G/C3  : FORMATION BULK DENSITY [CALC FROM DPOLSWS, M=2.71, F=1.00]
DPHILSED.V/V   : DENSITY POROSITY LIMESTONE [M=2.71, F=1.00] FROM DENSITY LOG
DPHISSED.V/V   : DENSITY POROSITY SANDSTONE [M=2.65, F=1.00] FROM DENSITY LOG
DPOLSWS .V/V   : DENSITY POROSITY LIMESTONE [DPHISSED CONVERTED TO LS, SPL TO DPHILSED @1274M & SPL TO CALC FROM RHOBED, SEE the Other Information]
DRESWS  .OHMM  : DEEP RESISTIVITY [ILDED]
DRHOED  .G/C3  : DENSITY CORRECTION FROM DENSITY LOG
DTED    .US/F  : DELTA TIME FROM SONIC LOG
DTWS    .US/F  : COMPRESSIONAL SONIC [DTED]
GRDED   .GAPI  : GAMMA RAY FROM DENSITY LOG
GRSED   .GAPI  : GAMMA RAY FROM SONIC LOG
GRWS    .GAPI  : GAMMA RAY [GRSED SPL. TO GRDED @ 964'-8333']
ILDED   .OHMM  : DEEP INDUCTION FROM RESISTIVITY LOG
ILMED   .OHMM  : MEDIUM INDUCTION FROM RESISTIVITY LOG
LL8ED   .OHMM  : 8 INCH LATEROLOG RESISTIVITY FROM RESISTIVITY LOG
MRESWS  .OHMM  : MEDIUM RESISTIVITY [ILMED]
NPHILSED.V/V   : NEUTRON POROSITY LIMESTONE FROM DENSITY LOG
NPHISSED.V/V   : NEUTRON POROSITY SANDSTONE FROM DENSITY LOG
NPOLSWS .V/V   : NEUTRON POROSITY LIMESTONE [NPHISSED MATRIX CONVERSION FOR LIMESTONE & SPL. TO NPHILSED @ 4200']
RHOBED  .G/C3  : BULK DENSITY FROM DENSITY LOG
SPRED   .MV    : SPONTANEOUS POTENTIAL FROM RESISTIVITY LOG
SPWS    .MV    : SPONTANEOUS POTENTIAL [BASELINE 0 MV, SPRED]
SRESWS  .OHMM  : SHALLOW RESISTIVITY [LL8ED]
~Params ----------------------------------------------------
PD  .                     GL : PERMANENT DATUM
EPD .FT                 2330 : ELEVATION PERMANENT DATUM
LMF .                     KB : LOG MEASURED FROM
DAPD.FT                    7 : FEET ABOVE PERMANENT DATUM
EKB .FT                 2347 : KELLY BUSHING
EGL .FT                 2330 : GROUND LEVEL
DATE.               03/22/77 : RUN DATE
RUN .                      1 : RUN NUMBER
DD  .FT                 8390 : DEPTH DRILLER
DL  .FT                 8389 : DEPTH LOGGER
BLI .FT                 8383 : BOTTOM LOG INTERVAL
TLI .FT                  615 : TOP LOG INTERVAL
CBD .FT                  918 : CASING BOTTOM DRILLER
CBL .FT                  916 : CASING BOTTOM LOGGER
BS  .IN                 8.75 : BIT SIZE
BSD .FT                 8390 : BIT SIZE AT DEPTH
DFT .               GEL CHEM : DRILLING FLUID TYPE
DFD .                    9.3 : DRILLING FLUID DENSITY
DFV .                     76 : DRILLING FLUID VISCOSITY
DFPH.                    9.0 : DRILLING FLUID PH
DFL .                    6.0 : DRILLING FLUID LOSS
MSS .               FLOWLINE : MUD SAMPLE SOURCE
RMS .OHMM               3.18 : RESISTIVITY MUD SAMPLE
MST .DEGF                 68 : MUD SAMPLE TEMPERATURE
RMF .OHMM               2.96 : RESISTIVITY MUD FILTRATE SAMPLE
MFST.DEGF                 70 : MUD FILTRATE SAMPLE TEMPERATURE
RMB .OHMM               1.48 : RESISTIVITY MUD AT BHT
TCS .HRS                 1.5 : TIME CIRCULATED STOPPED
LUN .                   7802 : LOGGING UNIT NUMBER
LUL .                    EDM : LOGGING UNIT LOCATION
ENGI.              CERANTOLA : RECORDING ENGINEER
WITN.                  SKOKO : WITNESSED BY
CLNT.                A2DTECH : CLIENT CODE
ORIG.            2" 5" PRINT : ORIGIN OF DATA
UWI .       100062307218W500 : UNIQUE WELL ID
DICO. A2D Technologies, Inc. : DIGITIZING COMPANY
~Other -----------------------------------------------------
DPOLSWS.(@5685'-5705',7139'-7303', 7342'-7345',7375'-7378',7539'-7552' & 7884'-7890']
DIL-CNFD-BCS LOG RUN
RHOB & DRHO HAVE BEEN VERIFIED FROM 2" SECTION
NEUTRON CONVERSION [CNL (NPHI)] USING SCHLUMBERGER CHART
~ASCII -----------------------------------------------------
# ...
 3500.00000   11.65290   11.53430   11.53430  327.01110    0.12160    2.24920    -999.25    0.24290    0.26950    3.05800    0.12160  101.76860  101.76860   88.52830   80.22310   88.52830    3.05800    4.66480    8.89100    4.66480    -999.25    0.39840    0.35550    2.24920 -104.85730  -58.81360    8.89100
 3550.00000   10.65810   10.61490   10.61490  272.86620    0.12170    2.46500    -999.25    0.11210    0.14330    3.66480    0.12170   98.62170   98.62170  117.10450   98.37930  117.10450    3.66480    3.48130    4.59100    3.48130    -999.25    0.38110    0.33790    2.46500  -49.44070   -3.16800    4.59100
 3600.00000   10.80440   10.79880   10.79880  188.01590    0.09420    2.50100    -999.25    0.09030    0.12220    5.31870    0.09420   98.13480   98.13480  146.41180  123.72980  146.41180    5.31870    5.02380    6.60850    5.02380    -999.25    0.30530    0.26140    2.50100  -53.11980   -8.79280    6.60850
 3650.00000   12.27050   12.00140   12.00140  253.20300    0.15600    2.13650    -999.25    0.31120    0.33540    3.94940    0.15600   95.59310   95.59310  119.72950  104.95970  119.72950    3.94940    3.67140    5.01530    3.67140    -999.25    0.41030    0.36760    2.13650  -50.95550   -9.08600    5.01530
 3700.00000   11.32530   11.26070   11.26070  114.61450    0.13290    2.46850    -999.25    0.11000    0.14120    8.72490    0.13290   85.05350   85.05350   83.28820   72.09860   83.28820    8.72490   10.90270   19.84790   10.90270    -999.25    0.24810    0.20420    2.46850  -77.59380  -34.49340   19.84790
 3750.00000   13.35390   11.77680   11.77680  179.16650    0.05690    2.39720    -999.25    0.15320    0.18290    5.58140    0.05690   90.97090   90.97090  121.67580  111.02860  121.67580    5.58140    5.94140    8.82010    5.94140    -999.25    0.29490    0.25090    2.39720  -59.35490  -11.75270    8.82010
 3800.00000   11.01500   11.60010   11.60010  111.37100    0.07730    2.19660    -999.25    0.27480    0.30020    8.97900    0.07730  106.45240  106.45240  120.18690  110.52160  120.18690    8.97900    9.38340   11.07260    9.38340    -999.25    0.38900    0.34590    2.19660  -58.70990  -15.39610   11.07260
 3850.00000   12.80470   11.77540   11.77540  187.71590    0.21140    2.33650    -999.25    0.19000    0.21840    5.32720    0.21140  110.07980  110.07980  174.08890  152.28560  174.08890    5.32720    4.91460    7.62420    4.91460    -999.25    0.47480    0.43390    2.33650  -42.34700   -6.40990    7.62420
 3900.00000    9.95570   10.00200   10.00200   73.87320    0.12450    2.33060    -999.25    0.19360    0.22190   13.53670    0.12450  108.19710  108.19710  172.62630  141.75730  172.62630   13.53670   11.53880   20.50030   11.53880    -999.25    0.46660    0.42540    2.33060  -32.15230   -3.59200   20.50030
 3950.00000    9.24280    9.43170    9.43170   26.91610    0.02350    2.46110    -999.25    0.11450    0.14560   37.15250    0.02350   78.90080   78.90080  106.65160   93.76020  106.65160   37.15250   44.19320   79.29530   44.19320    -999.25    0.28180    0.23780    2.46110  -29.36300   -7.11580   79.29530
 4000.00000    9.59020    9.80440    9.80440   21.37480    0.06950    2.22960    -999.25    0.25480    0.28090   46.78400    0.06950  110.83720  110.83720  248.67850  215.52090  248.67850   46.78400   63.74340  239.15690   63.74340    -999.25    0.45000    0.40830    2.22960  -24.50550   -2.21500  239.15690
 4050.00000    9.59030    9.28960    9.28960  166.78340    0.11740    2.38010    -999.25    0.16360    0.19290    5.99580    0.11740   81.12920   81.12920   51.33170   43.98150   51.33170    5.99580   10.73880   25.21010   10.73880    -999.25    0.27340    0.22940    2.38010 -149.30570 -126.04650   25.21010
 4100.00000    8.65190    8.73190    8.73190  168.58860    0.13080    2.43140    -999.25    0.13250    0.16290    5.93160    0.13080   73.95780   73.95780   42.31500   33.86330   42.31500    5.93160   10.74240   31.36500   10.74240    -999.25    0.31960    0.27570    2.43140 -144.43640 -120.20530   31.36500
 4150.00000    9.18340    9.12460    9.12460  184.28760    0.15010    2.75020    0.01320   -0.06070   -0.02350    5.42630    0.15010   58.12700   58.12700   52.15960   41.97010   52.15960    5.42630    6.61480   96.07050    6.61480    0.11890    0.16090    0.11810    2.75020  -69.52380  -44.32090   96.07050
 4200.00000    9.99230    9.67300    9.67300  144.36680    0.12890    2.69950    0.00620   -0.00860    0.00620    6.92680    0.12890   91.35470   91.35470   35.20720   32.89020   35.20720    6.92680    9.66230   35.55620    9.66230    0.15320    0.15820    0.15320    2.66420 -139.21570 -113.04090   35.55620
 4250.00000    8.90440    8.83430    8.83430   76.05430    0.03050    2.67390    0.02110    -999.25    0.02110   13.14850    0.03050   53.35250   53.35250   38.19090   34.68430   38.19090   13.14850   19.55230  101.98290   19.55230    0.03470    -999.25    0.03470    2.67390 -123.63050  -96.48390  101.98290
 4300.00000    9.19730    9.12380    9.12380  209.13940    0.16010    2.49880    0.12350    -999.25    0.12350    4.78150    0.16010   68.45920   68.45920   31.13230   30.13050   31.13230    4.78150    7.67900   32.26760    7.67900    0.27530    -999.25    0.27530    2.49880 -141.61340 -113.49500   32.26760
 4350.00000    9.95510    9.84900    9.84900  108.97040    0.05170    2.66460    0.02660    -999.25    0.02660    9.17680    0.05170   55.11940   55.11940   58.32810   51.53230   58.32810    9.17680   19.25940   83.96200   19.25940    0.03250    -999.25    0.03250    2.66460 -124.68830  -95.59800   83.96200
 4400.00000    9.69660    9.53950    9.53950  179.50100    0.08120    2.68140    0.01670    -999.25    0.01670    5.57100    0.08120   58.77790   58.77790   40.35920   31.83600   40.35920    5.57100    6.75180   32.56670    6.75180    0.10000    -999.25    0.10000    2.68140 -146.60850 -116.54640   32.56670
 4450.00000   10.05460   10.43290   10.43290   46.94750    0.12060    2.63970    0.04110    -999.25    0.04110   21.30040    0.12060   57.99960   57.99960   35.62040   32.03030   35.62040   21.30040   30.67740  173.95650   30.67740    0.04800    -999.25    0.04800    2.63970 -102.67120  -71.63720  173.95650
 4500.00000    9.96220   10.22960   10.22960   91.17270    0.07660    2.71960   -0.00560    -999.25   -0.00560   10.96820    0.07660   69.36620   69.36620  100.26020   94.65210  100.26020   10.96820   11.43920   14.23680   11.43920    0.07930    -999.25    0.07930    2.71960  -34.61400   -2.60820   14.23680
 4550.00000   10.32310   10.71980   10.71980   28.76290    0.07420    2.69730    0.00750    -999.25    0.00750   34.76700    0.07420   54.09440   54.09440   30.09590   23.68530   30.09590   34.76700   40.99680  124.21630   40.99680    0.01570    -999.25    0.01570    2.69730  -86.96020  -55.24270  124.21630
 4600.00000   10.15480   10.43790   10.43790  946.79040    0.08170    2.47830    0.13550    -999.25    0.13550    1.05620    0.08170   77.99180   77.99180   50.86700   46.53650   50.86700    1.05620    1.14910    4.02830    1.14910    0.26250    -999.25    0.26250    2.47830 -114.56360  -83.57110    4.02830
 4650.00000   10.32090   10.48100   10.48100  239.63000    0.02740    2.59120    0.06950    -999.25    0.06950    4.17310    0.02740   62.38730   62.38730   42.44150   36.07300   42.44150    4.17310    4.80000   19.91750    4.80000    0.11530    -999.25    0.11530    2.59120  -85.46300  -55.19540   19.91750
 4700.00000   10.10810   10.21900   10.21900  163.44940    0.06660    2.54780    0.09490    -999.25    0.09490    6.11810    0.06660   64.26640   64.26640   49.26440   36.89550   49.26440    6.11810    6.97390   12.25940    6.97390    0.11730    -999.25    0.11730    2.54780  -63.24660  -33.70390   12.25940
 4750.00000   11.88620   11.89270   11.89270  205.48230    0.08390    2.44710    0.15370    -999.25    0.15370    4.86660    0.08390   72.28710   72.28710   76.53960   59.64570   76.53960    4.86660    5.38370   14.12580    5.38370    0.13010    -999.25    0.13010    2.44710  -31.31700   -2.49920   14.12580
