~Version ---------------------------------------------------
VERS.      2.0 : CWLS log ASCII Standard -VERSION 2.0
WRAP.       NO : One line per depth step
CREA. 01/03/18 : LAS Creation Date
~Well ------------------------------------------------------
STRT.FT                         700.0 : START DEPTH
STOP.FT                        9000.0 : STOP DEPTH
STEP.FT                      50.00000 : STEP LENGTH
NULL.                         -999.25 : NULL VALUE
COMP.              IPEX OIL & GAS LTD : COMPANY
WELL. IPEX ET AL VIRGHILLS 15-4-65-12 : WELL
FLD .                                 : FIELD
LOC .                                 : LOCATION
CTRY.                          CANADA : COUNTRY
SRVC.                    Schlumberger : SERVICE COMPANY
DATE.                     08-Nov-1976 : LOGDATE
PROV.                         Alberta : PROVINCE
UWI .                100150406512W500 : UNIQUE WELL ID
SLAT.WGS84                   54.60052 : SURFACE LATITUDE
SLON.WGS84                  -115.7474 : SURFACE LONGITUDE
~Curve Information -----------------------------------------
DEPT  .FT    : Depth Curve
CALSED.IN    : CALIPER FROM SONIC LOG
CALWS .IN    : CALIPER [CALSED]
CILDED.MMHO  : CONDUCTIVITY FROM RESISTIVITY LOG
CONDWS.MMHO  : CONDUCTIVITY [1000/DRESWS]
DRESWS.OHMM  : DEEP RESISTIVITY [IF ILDED<1;THEN 1000/CILDED;ELSE ILDED]
DTED  .US/F  : DELTA TIME FROM SONIC LOG
DTWS  .US/F  : DELTA TIME [DTED]
GRSED .GAPI  : GAMMA RAY FROM SONIC LOG
GRWS  .GAPI  : GAMMA RAY [GRSED]
ILDED .OHMM  : INDUCTION LOG DEEP RESISTIVITY
ILMED .OHMM  : INDUCTION LOG MEDIUM RESISTIVITY
LL8ED .OHMM  : LATEROLOG 8 RESISTIVITY
MRESWS.OHMM  : MEDIUM RESISTIVITY [ILMED]
SPRED .MV    : SPONTANEOUS POTENTIAL FROM RESISTIVITY LOG
SPWS  .MV    : SPONTANEOUS POTENTIAL [BASELINE 0 MV] [SPRED]
SRESWS.OHMM  : SHALLOW RESISTIVITY [LL8ED]
~Params ----------------------------------------------------
PD  .                     GL : PERMANENT DATUM
EPD .FT               3262.9 : ELEVATION PERMANENT DATUM
LMF .                     KB : LOG MEASURED FROM
DAPD.FT                 14.2 : FEET ABOVE PERMANENT DATUM
EKB .FT               3277.1 : KELLY BUSHING
EGL .FT               3262.9 : GROUND LEVEL
DATE.               11/08/76 : RUN DATE
RUN .                      1 : RUN NUMBER
DD  .FT                 9050 : DEPTH DRILLER
DL  .FT                 9050 : DEPTH LOGGER
BLI .FT                 9044 : BOTTOM LOG INTERVAL
TLI .FT                  649 : TOP LOG INTERVAL
CBD .FT                  652 : CASING BOTTOM DRILLER
CBL .FT                  649 : CASING BOTTOM LOGGER
BS  .IN                7.875 : BIT SIZE
BSD .FT                 9050 : BIT SIZE AT DEPTH
DFD .                     90 : DRILLING FLUID DENSITY
DFV .                    150 : DRILLING FLUID VISCOSITY
DFPH.                    9.5 : DRILLING FLUID PH
DFL .                      9 : DRILLING FLUID LOSS
MSS .             CIRCULATED : MUD SAMPLE SOURCE
RMS .OHMM               2.31 : RESISTIVITY MUD SAMPLE
MST .DEGF                 57 : MUD SAMPLE TEMPERATURE
RMF .OHMM               1.54 : RESISTIVITY MUD FILTRATE SAMPLE
MFST.DEGF                 55 : MUD FILTRATE SAMPLE TEMPERATURE
RMC .OHMM               3.55 : RESISTIVITY MUD CAKE
MCST.DEGF                 57 : MUD CAKE SAMPLE TEMPERATURE
TCS .HRS                   2 : TIME CIRCULATED STOPPED
LUN .                   7691 : LOGGING UNIT NUMBER
LUL .                    WCT : LOGGING UNIT LOCATION
ENGI.               CROCFORD : RECORDING ENGINEER
WITN.                NEUFELD : WITNESSED BY
CLNT.                A2DTECH : CLIENT CODE
ORIG.            2" 5" PRINT : ORIGIN OF DATA
UWI .       100150406512W500 : UNIQUE WELL ID
DICO. A2D Technologies, Inc. : DIGITIZING COMPANY
~Other -----------------------------------------------------
~ASCII -----------------------------------------------------
# ...
 2850.00000    -999.25    -999.25  193.25470  185.50470    5.39070    -999.25    -999.25    -999.25    -999.25    5.39070    -999.25    4.69580    -999.25  -31.21250   -9.47960    4.69580
 2900.00000    -999.25    -999.25  162.48120  159.38030    6.27430    -999.25    -999.25    -999.25    -999.25    6.27430    -999.25    5.63860    -999.25  -31.53910  -10.15740    5.63860
 2950.00000    -999.25    -999.25  222.38270  226.57240    4.41360    -999.25    -999.25    -999.25    -999.25    4.41360    -999.25    4.69040    -999.25  -31.60170  -10.57290    4.69040
 3000.00000    -999.25    -999.25  129.36200  129.19060    7.74050    -999.25    -999.25    -999.25    -999.25    7.74050    -999.25    8.33530    -999.25  -29.36290   -8.68350    8.33530
 3050.00000    -999.25    -999.25  172.87150  176.37310    5.66980    -999.25    -999.25    -999.25    -999.25    5.66980    -999.25    6.00850    -999.25  -29.35210   -9.02380    6.00850
 3100.00000    -999.25    -999.25  165.26130  163.77330    6.10600    -999.25    -999.25    -999.25    -999.25    6.10600    -999.25    5.62960    -999.25  -31.61840  -11.64130    5.62960
 3150.00000    -999.25    -999.25  178.27060  172.54470    5.79560    -999.25    -999.25    -999.25    -999.25    5.79560    -999.25    5.14190    -999.25  -31.18650  -11.56050    5.14190
 3200.00000    -999.25    -999.25  146.21370  149.01690    6.71070    -999.25    -999.25    -999.25    -999.25    6.71070    -999.25    6.21870    -999.25  -33.15430  -13.88130    6.21870
 3250.00000    -999.25    -999.25  170.37100  163.21470    6.12690    -999.25    -999.25    -999.25    -999.25    6.12690    -999.25    5.66590    -999.25  -30.34760  -11.42400    5.66590
 3300.00000    -999.25    -999.25  153.97220  150.41890    6.64810    -999.25    -999.25    -999.25    -999.25    6.64810    -999.25    5.78260    -999.25  -33.52380  -14.95130    5.78260
 3350.00000    -999.25    -999.25  159.31280  157.22280    6.36040    -999.25    -999.25    -999.25    -999.25    6.36040    -999.25    5.61980    -999.25  -32.38790  -14.16660    5.61980
 3400.00000    -999.25    -999.25  210.10560  196.83880    5.08030    -999.25    -999.25    -999.25    -999.25    5.08030    -999.25    4.55540    -999.25  -30.99080  -13.12060    4.55540
 3450.00000    -999.25    -999.25  151.32380  158.22660    6.32000    -999.25    -999.25    -999.25    -999.25    6.32000    -999.25    6.03750    -999.25  -32.19540  -14.67820    6.03750
 3500.00000    -999.25    -999.25  158.65270  158.58160    6.30590    -999.25    -999.25    -999.25    -999.25    6.30590    -999.25    5.64160    -999.25  -30.43310  -13.26520    5.64160
 3550.00000    -999.25    -999.25  184.87350  177.89160    5.62140    -999.25    -999.25    -999.25    -999.25    5.62140    -999.25    5.24280    -999.25  -29.28770  -12.47100    5.24280
 3600.00000    -999.25    -999.25  197.17570  197.77310    5.05630    -999.25    -999.25    -999.25    -999.25    5.05630    -999.25    5.45830    -999.25  -26.88050  -10.41490    5.45830
 3650.00000    -999.25    -999.25  172.57050  173.01640    5.77980    -999.25    -999.25    -999.25    -999.25    5.77980    -999.25    6.70100    -999.25  -25.17480   -9.06040    6.70100
 3700.00000    -999.25    -999.25  174.66060  171.64440    5.82600    -999.25    -999.25    -999.25    -999.25    5.82600    -999.25    6.76200    -999.25  -23.80270   -8.04110    6.76200
 3750.00000    -999.25    -999.25  182.68170  180.56730    5.53810    -999.25    -999.25    -999.25    -999.25    5.53810    -999.25    6.51170    -999.25  -22.17240   -6.76030    6.51170
 3800.00000    -999.25    -999.25  103.93640  108.29190    9.23430    -999.25    -999.25    -999.25    -999.25    9.23430    -999.25   12.87430    -999.25  -20.00360   -4.94270   12.87430
 3850.00000    -999.25    -999.25  197.66020  198.26320    5.04380    -999.25    -999.25    -999.25    -999.25    5.04380    -999.25    5.38780    -999.25  -25.77810  -11.06830    5.38780
 3900.00000    -999.25    -999.25  178.73450  181.41910    5.51210    -999.25    -999.25    -999.25    -999.25    5.51210    -999.25    6.49720    -999.25  -25.08880  -10.73020    6.49720
 3950.00000    -999.25    -999.25  161.26360  158.22660    6.32010    -999.25    -999.25    -999.25    -999.25    6.32010    -999.25    7.28280    -999.25  -25.39880  -11.39300    7.28280
 4000.00000    -999.25    -999.25  240.23560  237.03980    4.21870    -999.25    -999.25    -999.25    -999.25    4.21870    -999.25    4.67700    -999.25  -21.72900   -8.07270    4.67700
 4050.00000   12.25540   12.25540  281.43810  274.37100    3.64470    -999.25    -999.25    -999.25    -999.25    3.64470    -999.25    4.16530    -999.25  -19.06450   -5.75930    4.16530
 4100.00000   12.20770   12.20770    -999.25  271.69480    3.68060  103.04120  103.04120   95.45700   95.45700    3.68060    3.20620    4.38210    3.20620  -19.66480   -6.71080    4.38210
 4150.00000    9.44360    9.44360    -999.25  208.22050    4.80260   93.97440   93.97440  112.46140  112.46140    4.80260    4.49500    5.94610    4.49500  -15.51040   -2.90750    5.94610
 4200.00000    9.45140    9.45140    -999.25  386.77990    2.58540  112.80490  112.80490  156.99490  156.99490    2.58540    2.38440    3.46030    2.38440  -13.98340   -1.73340    3.46030
 4250.00000   11.09780   11.09780    -999.25  429.22140    2.32980  110.43880  110.43880   89.01400   89.01400    2.32980    1.99470    2.82450    1.99470  -12.91180   -1.00470    2.82450
 4300.00000   10.38640   10.38640    -999.25  341.33190    2.92970   97.57700   97.57700  102.12650  102.12650    2.92970    2.63500    3.55120    2.63500  -15.03960   -3.47650    3.55120
 4350.00000   11.19180   11.19180    -999.25  243.79540    4.10180   90.40420   90.40420  101.16510  101.16510    4.10180    3.69720    5.20520    3.69720  -15.75370   -4.53450    5.20520
 4400.00000   11.22180   11.22180    -999.25  162.77100    6.14360   84.50280   84.50280   50.96190   50.96190    6.14360    5.84380    7.47800    5.84380  -23.06020  -12.18500    7.47800
 4450.00000   12.20890   12.20890    -999.25  319.66240    3.12830  125.30680  125.30680   58.64600   58.64600    3.12830    2.41170    4.20360    2.41170  -16.05800   -5.52840    4.20360
 4500.00000    8.93630    8.93630    -999.25  169.74470    5.89120   86.31950   86.31950   56.25610   56.25610    5.89120    5.49980   10.54300    5.49980  -37.19810  -27.01070   10.54300
 4550.00000    9.52420    9.52420    -999.25  167.51820    5.96950   84.58470   84.58470   56.56130   56.56130    5.96950    6.65590   10.39980    6.65590  -49.34950  -39.50610   10.39980
 4600.00000   10.99940   10.99940    -999.25  127.39180    7.84980   95.83850   95.83850   72.17920   72.17920    7.84980    8.05590    9.28050    8.05590  -23.11160  -13.61210    9.28050
 4650.00000   10.78890   10.78890    -999.25  142.95110    6.99540   80.37830   80.37830   70.67600   70.67600    6.99540    6.52420    7.90120    6.52420  -21.19740  -12.04180    7.90120
 4700.00000   10.42980   10.42980    -999.25  172.05190    5.81220   81.68980   81.68980   77.87730   77.87730    5.81220    5.58290    6.56360    5.58290  -12.67250   -3.86260    6.56360
 4750.00000   10.16370   10.16370    -999.25  103.68170    9.64490   93.99720   93.99720   75.87710   75.87710    9.64490    8.83860   11.14570    8.83860  -20.43200  -11.96430   11.14570
 4800.00000    8.89130    8.89130    -999.25  202.94680    4.92740   80.89000   80.89000   63.53090   63.53090    4.92740    5.90980   14.18120    5.90980  -57.36710  -49.24330   14.18120
 4850.00000    8.99070    8.99070    -999.25  155.73410    6.42120   78.69620   78.69620   59.91600   59.91600    6.42120    8.76370   21.79760    8.76370  -69.92700  -62.14720   21.79760
 4900.00000    8.61130    8.61130    -999.25  240.40770    4.15960   85.71010   85.71010   61.09130   61.09130    4.15960    6.05330   13.39370    6.05330  -69.56360  -62.12770   13.39370
 4950.00000    9.25360    9.25360    -999.25  193.72520    5.16200   83.65450   83.65450   87.04480   87.04480    5.16200    5.25550    6.92430    5.25550  -10.04170   -2.95140    6.92430
