~Version ---------------------------------------------------
VERS.      2.0 : CWLS log ASCII Standard -VERSION 2.0
WRAP.       NO : One line per depth step
CREA. 08/02/17 : LAS Creation Date
~Well ------------------------------------------------------
STRT.FT                        1050.0 : START DEPTH
STOP.FT                       10700.0 : STOP DEPTH
STEP.FT                      50.00000 : STEP LENGTH
NULL.                         -999.25 : NULL VALUE
COMP.            CHEVRON STANDARD LTD : COMPANY
WELL. CHEVRON GULF KAYBOBS 13-8-63-20 : WELL
FLD .                                 : FIELD
LOC .                                 : LOCATION
CTRY.                          CANADA : COUNTRY
SRVC.                    Schlumberger : SERVICE COMPANY
DATE.                     07-Dec-1977 : LOGDATE
PROV.                         Alberta : PROVINCE
UWI .                100130806320W500 : UNIQUE WELL ID
SLAT.WGS84                   54.44033 : SURFACE LATITUDE
SLON.WGS84                   -116.995 : SURFACE LONGITUDE
~Curve Information -----------------------------------------
DEPT    .FT    : Depth Curve
C13ED   .IN    : CALIPER 1-3 PAD ELECTRODE
C24ED   .IN    : CALIPER 2-4 PAD ELECTRODE
CALDED  .IN    : CALIPER FROM DENSITY LOG
CALSED  .IN    : CALIPER FROM SONIC LOG
CALWS   .IN    : CALIPER [CALSED]
CONDWS  .MMHO  : CONDUCTIVITY [1000/DRESWS]
DCORWS  .G/C3  : DENSITY CORRECTION [DRHOED]
DENWS   .G/C3  : BULK DENSITY [RHOBED]
DPHILSED.V/V   : DENSITY POROSITY [M=2.71 F=1.00] FROM DENSITY LOG
DPHISSED.V/V   : DENSITY POROSITY [M=2.65 F=1.00] FROM DENSITY LOG
DPOLSWS .V/V   : DENSITY POROSITY LIMESTONE  {CALCUKLATED FROM RHOBED]
DRESWS  .OHMM  : DEEP RESISTIVITY [ILDED]
DRHOED  .G/C3  : DENSITY CORRECTION FROM DENSITY LOG
DTED    .US/F  : DELTA TIME FROM SONIC LOG
DTWS    .US/F  : DELTA TIME [DTED]
GRDED   .GAPI  : GAMMA RAY FROM DENSITY LOG
GRSED   .GAPI  : GAMMA RAY FROM SONIC LOG
GRWS    .GAPI  : GAMMA RAY [GRSED]
ILDED   .OHMM  : INDUCTION LOG DEEP RESISTIVITY
ILMED   .OHMM  : INDUCTION LOG MEDIUM RESISTIVITY
LL8ED   .OHMM  : 8 INCH LATEROLOG RESISTIVITY
MRESWS  .OHMM  : MEDIUM RESISTIVITY [ILMED]
NPHILSED.V/V   : NEUTRON POROSITY LIMESTONE FROM DENSITY LOG
NPHISSED.V/V   : NEUTRON POROSITY SANDSTONE FROM DENSITY LOG
NPOLSWS .V/V   : NEUTRON POROSITY LIMESTONE [NPHILSED], SPLICED WITH CONVERTED MATRIX FROM SANDSTONE TO LIMESTONE FROM 2180'-6857'
RHOBED  .G/C3  : BULK DENSITY FROM DENSITY LOG
SPRED   .MV    : SPONTANEOUS POTENTIAL FROM RESISTIVITY LOG
SPWS    .MV    : SPONTANEOUS POTENTIAL [BASELINE 0 MV] [SPRED]
SRESWS  .OHMM  : SHALLOW RESISTIVITY [LL8ED]
TENDED  .LBF   : TENSION FROM DENSITY LOG
TENSED  .LBF   : TENSION FROM SONIC LOG
~Params ----------------------------------------------------
PD  .                     GL : PERMANENT DATUM
EPD .FT               2595.6 : ELEVATION PERMANENT DATUM
LMF .                     KB : LOG MEASURED FROM
DAPD.FT                 17.4 : FEET ABOVE PERMANENT DATUM
EKB .FT                 2613 : KELLY BUSHING
EGL .FT               2595.6 : GROUND LEVEL
DATE.               01/05/77 : RUN DATE
RUN .                      2 : RUN NUMBER
DD  .FT                10720 : DEPTH DRILLER
DL  .FT                10709 : DEPTH LOGGER
BLI .FT                10706 : BOTTOM LOG INTERVAL
TLI .FT                 6500 : TOP LOG INTERVAL
CBD .FT                 1090 : CASING BOTTOM DRILLER
CBL .FT                 1091 : CASING BOTTOM LOGGER
BS  .IN                 8.75 : BIT SIZE
BSD .FT                10720 : BIT SIZE AT DEPTH
DFT .         FGM MLGARD OIL : DRILLING FLUID TYPE
DFD .                    9.2 : DRILLING FLUID DENSITY
DFV .                     80 : DRILLING FLUID VISCOSITY
DFPH.                   10.5 : DRILLING FLUID PH
MSS .               FLOWLINE : MUD SAMPLE SOURCE
RMS .OHMM               1.43 : RESISTIVITY MUD SAMPLE
MST .DEGF                 70 : MUD SAMPLE TEMPERATURE
RMF .OHMM               1.08 : RESISTIVITY MUD FILTRATE SAMPLE
MFST.DEGF                 74 : MUD FILTRATE SAMPLE TEMPERATURE
LUN .                   7800 : LOGGING UNIT NUMBER
LUL .                    EDM : LOGGING UNIT LOCATION
ENGI.               FEINGOLD : RECORDING ENGINEER
WITN.             RICHARDSON : WITNESSED BY
CLNT.                A2DTECH : CLIENT CODE
ORIG.            2" 5" PRINT : ORIGIN OF DATA
UWI .       100130806320W500 : UNIQUE WELL ID
DICO. A2D Technologies, Inc. : DIGITIZING COMPANY
~Other -----------------------------------------------------
~ASCII -----------------------------------------------------
# ...
 7950.00000    -999.25    -999.25    -999.25    8.84890    8.84890   20.03950    -999.25    -999.25    -999.25    -999.25    -999.25   49.90240    -999.25   58.44860   58.44860    -999.25   60.83150   60.83150   49.90240   53.56390   71.47060   53.56390    -999.25    -999.25    -999.25    -999.25   -4.36510   -9.27570   71.47060    -999.25 3913.76050
 8000.00000    -999.25    -999.25    -999.25    8.78940    8.78940    2.94620    -999.25    -999.25    -999.25    -999.25    -999.25  339.42580    -999.25   54.44780   54.44780    -999.25   35.77620   35.77620  339.42580  378.41920  316.35570  378.41920    -999.25    -999.25    -999.25    -999.25  -11.28630  -16.15480  316.35570    -999.25 4217.52440
 8050.00000    -999.25    -999.25    -999.25    8.77660    8.77660   15.79580    -999.25    -999.25    -999.25    -999.25    -999.25   63.30790    -999.25   55.82480   55.82480    -999.25   52.25580   52.25580   63.30790   71.38910   87.02810   71.38910    -999.25    -999.25    -999.25    -999.25  -11.36390  -16.19000   87.02810    -999.25 4309.33390
 8100.00000    -999.25    -999.25    -999.25    9.60770    9.60770   66.51830    -999.25    -999.25    -999.25    -999.25    -999.25   15.05660    -999.25   80.32170   80.32170    -999.25  164.65500  164.65500   15.05660   16.41300   19.89420   16.41300    -999.25    -999.25    -999.25    -999.25  -10.45960  -15.24320   19.89420    -999.25 4517.46090
 8150.00000    -999.25    -999.25    -999.25    9.28700    9.28700    0.57840    -999.25    -999.25    -999.25    -999.25    -999.25 1728.87430    -999.25   50.96430   50.96430    -999.25   14.56220   14.56220 1728.87430 1592.02480 1378.96520 1592.02480    -999.25    -999.25    -999.25    -999.25 -114.03880 -118.78030 1378.96520    -999.25 4591.51700
 8200.00000    -999.25    -999.25    -999.25    9.31480    9.31480    0.59950    -999.25    -999.25    -999.25    -999.25    -999.25 1668.17070    -999.25   50.06580   50.06580    -999.25   17.46900   17.46900 1668.17070  727.37740  936.33970  727.37740    -999.25    -999.25    -999.25    -999.25 -131.08300 -135.78200  936.33970    -999.25 4783.45170
 8250.00000    -999.25    -999.25    -999.25    9.16900    9.16900    0.62890    -999.25    -999.25    -999.25    -999.25    -999.25 1590.03430    -999.25   50.53220   50.53220    -999.25   19.47660   19.47660 1590.03430  339.67220  385.40640  339.67220    -999.25    -999.25    -999.25    -999.25 -144.61810 -149.27490  385.40640    -999.25 4828.76080
 8300.00000    -999.25    -999.25    -999.25    9.48910    9.48910    0.57380    -999.25    -999.25    -999.25    -999.25    -999.25 1742.88650    -999.25   51.71890   51.71890    -999.25   13.37050   13.37050 1742.88650 1610.12150  348.62070 1610.12150    -999.25    -999.25    -999.25    -999.25 -161.61480 -166.22930  348.62070    -999.25 4867.09030
 8350.00000    -999.25    -999.25    -999.25    9.48010    9.48010    0.60670    -999.25    -999.25    -999.25    -999.25    -999.25 1648.26090    -999.25   52.13930   52.13930    -999.25   12.80200   12.80200 1648.26090  662.78040  202.78840  662.78040    -999.25    -999.25    -999.25    -999.25 -164.92070 -169.49260  202.78840    -999.25 5098.87100
 8400.00000    -999.25    -999.25    -999.25    9.52170    9.52170    2.88950    -999.25    -999.25    -999.25    -999.25    -999.25  346.07920    -999.25   50.12110   50.12110    -999.25   10.48320   10.48320  346.07920  184.32290  198.11650  184.32290    -999.25    -999.25    -999.25    -999.25 -189.31980 -193.84970  198.11650    -999.25 5184.40290
 8450.00000    -999.25    -999.25    -999.25    9.49170    9.49170    1.32050    -999.25    -999.25    -999.25    -999.25    -999.25  762.92670    -999.25   49.76240   49.76240    -999.25   11.33530   11.33530  762.92670  653.03590  145.01670  653.03590    -999.25    -999.25    -999.25    -999.25 -186.73640 -191.22380  145.01670    -999.25 5243.50000
 8500.00000    -999.25    -999.25    -999.25    9.66620    9.66620    0.80610    -999.25    -999.25    -999.25    -999.25    -999.25 1240.59110    -999.25   49.45510   49.45510    -999.25   14.72070   14.72070 1240.59110 1045.27220  146.27520 1045.27220    -999.25    -999.25    -999.25    -999.25 -172.40130 -176.84650  146.27520    -999.25 5504.92210
 8550.00000    -999.25    -999.25    -999.25    9.41550    9.41550    0.62040    -999.25    -999.25    -999.25    -999.25    -999.25 1611.89820    -999.25   49.35590   49.35590    -999.25   18.64360   18.64360 1611.89820 1061.35710  192.34410 1061.35710    -999.25    -999.25    -999.25    -999.25 -161.01670 -165.41960  192.34410    -999.25 5460.12850
 8600.00000    -999.25    -999.25    -999.25    9.42800    9.42800    0.62140    -999.25    -999.25    -999.25    -999.25    -999.25 1609.25520    -999.25   51.91730   51.91730    -999.25   13.22760   13.22760 1609.25520  270.50260  146.41620  270.50260    -999.25    -999.25    -999.25    -999.25 -150.00790 -154.36820  146.41620    -999.25 5750.41090
 8650.00000    -999.25    -999.25    -999.25    9.38380    9.38380    0.67990    -999.25    -999.25    -999.25    -999.25    -999.25 1470.90520    -999.25   53.14200   53.14200    -999.25   15.93140   15.93140 1470.90520  246.73580  318.09060  246.73580    -999.25    -999.25    -999.25    -999.25 -152.66230 -156.98050  318.09060    -999.25 5707.22210
 8700.00000    -999.25    -999.25    -999.25    9.41670    9.41670    0.60950    -999.25    -999.25    -999.25    -999.25    -999.25 1640.66630    -999.25   50.87630   50.87630    -999.25   16.15860   16.15860 1640.66630  906.23630  316.88940  906.23630    -999.25    -999.25    -999.25    -999.25 -152.26670 -156.54240  316.88940    -999.25 5887.28540
 8750.00000    -999.25    -999.25    -999.25    9.33810    9.33810    5.85520    -999.25    -999.25    -999.25    -999.25    -999.25  170.78940    -999.25   50.57900   50.57900    -999.25   11.33360   11.33360  170.78940  116.58000   79.66820  116.58000    -999.25    -999.25    -999.25    -999.25 -162.84240 -167.07600   79.66820    -999.25 5945.95040
 8800.00000    -999.25    -999.25    -999.25    9.21410    9.21410   14.89930    -999.25    -999.25    -999.25    -999.25    -999.25   67.11720    -999.25   50.73740   50.73740    -999.25   10.08090   10.08090   67.11720   77.56680   93.58520   77.56680    -999.25    -999.25    -999.25    -999.25 -166.77600 -170.96720   93.58520    -999.25 6053.53430
 8850.00000    -999.25    -999.25    -999.25    9.20650    9.20650   10.77590    -999.25    -999.25    -999.25    -999.25    -999.25   93.00410    -999.25   51.44860   51.44860    -999.25    8.68650    8.68650   93.00410  101.37760   69.93510  101.37760    -999.25    -999.25    -999.25    -999.25 -157.85460 -162.00330   69.93510    -999.25 3995.02630
 8900.00000    -999.25    -999.25    -999.25    8.95800    8.95800    0.67970    -999.25    -999.25    -999.25    -999.25    -999.25 1471.15220    -999.25   50.58430   50.58430    -999.25    9.71330    9.71330 1471.15220 1669.85740 1557.11720 1669.85740    -999.25    -999.25    -999.25    -999.25 -152.73920 -156.84580 1557.11720    -999.25 4245.67120
 8950.00000    -999.25    -999.25    -999.25   10.49490   10.49490    8.02100    -999.25    -999.25    -999.25    -999.25    -999.25  125.69440    -999.25   55.01940   55.01940    -999.25   19.63130   19.63130  125.69440   37.00270   90.62380   37.00270    -999.25    -999.25    -999.25    -999.25 -180.68310 -184.74710   90.62380    -999.25 4410.11990
 9000.00000    -999.25    -999.25    -999.25    9.33950    9.33950   69.52600    -999.25    -999.25    -999.25    -999.25    -999.25   14.38310    -999.25   57.24130   57.24130    -999.25   23.44890   23.44890   14.38310   10.50550   11.84260   10.50550    -999.25    -999.25    -999.25    -999.25 -183.11750 -187.13940   11.84260    -999.25 4439.76660
 9050.00000    -999.25    -999.25    -999.25    9.35950    9.35950    6.47760    -999.25    -999.25    -999.25    -999.25    -999.25  154.37790    -999.25   50.85030   50.85030    -999.25   29.49640   29.49640  154.37790  124.12010  113.96240  124.12010    -999.25    -999.25    -999.25    -999.25 -153.37400 -157.35360  113.96240    -999.25 4668.65900
