~Version ---------------------------------------------------
VERS. 2.0 : CWLS log ASCII Standard -VERSION 2.0
WRAP. YES : MULTIPLE LINES PER DEPTH STEP
~Well ------------------------------------------------------
STRT.FT                      2000.0 : START DEPTH
STOP.FT                     17600.0 : STOP DEPTH
STEP.FT                    50.00000 : STEP LENGTH
NULL.                      -99925.0 : NULL VALUE
COMP.        SEAFORT PETROLEUM LTD. : COMPANY
WELL. SEAFORT ET AL KAKWA 2-20-61-7 : WELL
FLD .                               : FIELD
LOC .                               : LOCATION
CTRY.                        CANADA : COUNTRY
SRVC.        Schlumberger of Canada : SERVICE COMPANY
DATE.                   12-Aug-1975 : LOGDATE
PROV.                       Alberta : PROVINCE
UWI .              100022006107W600 : UNIQUE WELL ID
SLAT.WGS84                 54.28609 : SURFACE LATITUDE
SLON.WGS84                -119.0081 : SURFACE LONGITUDE
~Curve Information -----------------------------------------
DEPT    .FT    : DEPTH FEET
CALDED  .IN    : CALIPER FROM DENSITY LOG [ADJ TO GRRED]
CALSED  .IN    : CALIPER FROM SONIC LOG
CALWS   .IN    : CALIPER [CALSED]
CONDWS  .MMHO  : CONDUCTIVITY [1000/DRESWS]
DCORED  .G/C3  : DENSITY CORRECTION FROM DENSITY LOG [ADJ TO GRRED]
DCORWS  .G/C3  : DENSITY CORRECTION [DCORED]
DENWS   .G/C3  : BULK DENSITY [M=2.65 F=1.0] <14590> [M=2.71 F=1.0] [RHOBED]
DPHILSED.V/V   : DENSITY POROSITY [M=2.71 F=1.0] FROM DENSITY LOG [ADJ TO GRRED]
DPHISSED.V/V   : DENSITY POROSITY [M=2.65 F=1.0] FROM DENSITY LOG [ADJ TO GRRED]
DPOWS   .V/V   : DENSITY POROSITY [M=2.71 F=1.0] [CALCULATED FROM DENWS]
DRESWS  .OHMM  : DEEP RESISTIVITY [SPL ILDED <14590> LLDED]
DTED    .US/F  : DELTA TIME FROM SONIC LOG
DTWS    .US/F  : DELTA TIME [DTED]
GRDED   .GAPI  : GAMMA RAY FROM DENSITY LOG [ADJ TO GRRED]
GRRED   .GAPI  : GAMMA RAY FROM RESISTIVITY LOG
GRSED   .GAPI  : GAMMA RAY FROM SONIC LOG
GRWS    .GAPI  : GAMMA RAY [GRSED, CSG ABOVE 2005F]
ILDED   .OHMM  : INDUCTION LOG DEEP RESISTIVITY
ILMED   .OHMM  : INDUCTION LOG MEDIUM RESISTIVITY
LL8ED   .OHMM  : 8 INCH LATEROLOG RESISTIVITY
LLDED   .OHMM  : LATEROLOG DEEP RESISTIVITY
LLSED   .OHMM  : LATEROLOG SHALLOW RESISTIVITY
MRESWS  .OHMM  : MEDIUM RESISTIVITY [ILMED]
NPHILSED.V/V   : NEUTRON POROSITY LIMESTONE FROM DENSITY LOG [ADJ TO GRRED]
NPHISSED.V/V   : NEUTRON POROSITY SANDSTONE FROM DENSITY LOG [ADJ TO GRRED]
NPOWS   .V/V   : NEUTRON POROSITY LIMESTONE [CONVERTED NPHISSED TO LIMESTONE SPL WITH NPHILSED @14516F]
RHOBED  .G/C3  : BULK DENSITY FROM DENSITY LOG [ADJ TO GRRED]
SPRED   .MV    : SPONTANEOUS POTENTIAL FROM RESISTIVITY LOG
SPWS    .MV    : SPONTANEOUS POTENTIAL [BASELINE 0 MV] [SPRED]
SRESWS  .OHMM  : SHALLOW RESISTIVITY [SPL LL8ED <14590> LLSED]
~Params ----------------------------------------------------
PD  .                     GL : PERMANENT DATUM
EPD .FT                 3465 : ELEVATION PERMANENT DATUM
LMF .                     KB : LOG MEASURED FROM
DAPD.FT                   21 : FEET ABOVE PERMANENT DATUM
EKB .FT                 3486 : KELLY BUSHING
EGL .FT                 3465 : GROUND LEVEL
DATE.               10/06/75 : RUN DATE
RUN .                      2 : RUN NUMBER
DD  .FT                17618 : DEPTH DRILLER
DL  .FT                17600 : DEPTH LOGGER
BLI .FT                17600 : BOTTOM LOG INTERVAL
TLI .FT                14577 : TOP LOG INTERVAL
CBD .FT                14590 : CASING BOTTOM DRILLER
CBL .FT                14577 : CASING BOTTOM LOGGER
BS  .IN                  9.5 : BIT SIZE
BSD .FT                17618 : BIT SIZE AT DEPTH
DFT .                    GEL : DRILLING FLUID TYPE
DFD .                   13.8 : DRILLING FLUID DENSITY
DFV .                    115 : DRILLING FLUID VISCOSITY
DFPH.                     11 : DRILLING FLUID PH
DFL .                      7 : DRILLING FLUID LOSS
RMS .OHMM              0.809 : RESISTIVITY MUD SAMPLE
MST .DEGF                 75 : MUD SAMPLE TEMPERATURE
WITN.                  BROWN : WITNESSED BY
CLNT.                A2DTECH : CLIENT CODE
ORIG.               5" PRINT : ORIGIN OF DATA
UWI .       100022006107W600 : UNIQUE WELL ID
DICO. A2D Technologies, Inc. : DIGITIZING COMPANY
~Other -----------------------------------------------------
~ASCII -----------------------------------------------------
# ...
 6800.00000   -99925.0   11.26300   11.26300  135.88620   -99925.0   -99925.0   -99925.0   -99925.0   -99925.0   -99925.0    7.35910   72.94200   72.94200   -99925.0   70.48520   94.77160   94.77160    7.35910   25.96720    8.91220   21.36370   20.02990   25.96720   -99925.0   -99925.0   -99925.0   -99925.0  -81.47390   -4.36520    8.91220
 6850.00000   -99925.0   11.23510   11.23510   98.36320   -99925.0   -99925.0   -99925.0   -99925.0   -99925.0   -99925.0   10.16640   75.92790   75.92790   -99925.0   88.84660  119.81440  119.81440   10.16640   18.58780   10.31790   18.03570   16.58470   18.58780   -99925.0   -99925.0   -99925.0   -99925.0  -81.58790   -4.45360   10.31790
 6900.00000   -99925.0   10.97150   10.97150  118.86650   -99925.0   -99925.0   -99925.0   -99925.0   -99925.0   -99925.0    8.41280   78.30540   78.30540   -99925.0   84.01070  112.15900  112.15900    8.41280   11.71720    7.86800   14.10450   13.19780   11.71720   -99925.0   -99925.0   -99925.0   -99925.0  -80.34440   -3.18460    7.86800
 6950.00000   -99925.0   11.08460   11.08460  137.87590   -99925.0   -99925.0   -99925.0   -99925.0   -99925.0   -99925.0    7.25290   77.05680   77.05680   -99925.0   82.49310  104.02140  104.02140    7.25290   10.47210    8.04590   14.74730   13.81610   10.47210   -99925.0   -99925.0   -99925.0   -99925.0  -79.54270   -2.35730    8.04590
 7000.00000   -99925.0   10.90610   10.90610  117.74540   -99925.0   -99925.0   -99925.0   -99925.0   -99925.0   -99925.0    8.49290   77.59820   77.59820   -99925.0   81.37070  110.13300  110.13300    8.49290   11.40620   10.00280   15.94400   16.84430   11.40620   -99925.0   -99925.0   -99925.0   -99925.0  -79.26920   -2.05830   10.00280
 7050.00000   -99925.0   10.64290   10.64290  138.43130   -99925.0   -99925.0   -99925.0   -99925.0   -99925.0   -99925.0    7.22380   79.28560   79.28560   -99925.0   82.73960  114.13930  114.13930    7.22380   10.95480    9.79360   14.12820   13.49360   10.95480   -99925.0   -99925.0   -99925.0   -99925.0  -79.50670   -2.27020    9.79360
 7100.00000   -99925.0   10.93740   10.93740  131.57200   -99925.0   -99925.0   -99925.0   -99925.0   -99925.0   -99925.0    7.60040   80.82840   80.82840   -99925.0   86.54540  118.26440  118.26440    7.60040    9.96330    9.74470   13.76560   13.60550    9.96330   -99925.0   -99925.0   -99925.0   -99925.0  -79.86490   -2.60280    9.74470
 7150.00000   -99925.0   10.41740   10.41740  105.73620   -99925.0   -99925.0   -99925.0   -99925.0   -99925.0   -99925.0    9.45750   82.28840   82.28840   -99925.0   91.74730  114.00410  114.00410    9.45750   16.80140   13.30090   12.76790   14.03790   16.80140   -99925.0   -99925.0   -99925.0   -99925.0  -80.28920   -3.00160   13.30090
 7200.00000   -99925.0   11.03280   11.03280  135.96560   -99925.0   -99925.0   -99925.0   -99925.0   -99925.0   -99925.0    7.35480   78.26680   78.26680   -99925.0   87.25640  108.25450  108.25450    7.35480   17.24040    9.40590   14.12640   13.37490   17.24040   -99925.0   -99925.0   -99925.0   -99925.0  -80.52280   -3.20960    9.40590
 7250.00000   -99925.0   10.80420   10.80420  158.86890   -99925.0   -99925.0   -99925.0   -99925.0   -99925.0   -99925.0    6.29450   75.81320   75.81320   -99925.0   83.34950  114.39350  114.39350    6.29450   10.73640    7.77530   14.20190   14.72770   10.73640   -99925.0   -99925.0   -99925.0   -99925.0  -80.85060   -3.51190    7.77530
 7300.00000   -99925.0   10.89380   10.89380  155.24580   -99925.0   -99925.0   -99925.0   -99925.0   -99925.0   -99925.0    6.44140   77.72890   77.72890   -99925.0   81.44220  108.74060  108.74060    6.44140   13.98480    6.99800   13.93400   13.04730   13.98480   -99925.0   -99925.0   -99925.0   -99925.0  -79.64320   -2.27890    6.99800
 7350.00000   -99925.0   11.36500   11.36500   96.07990   -99925.0   -99925.0   -99925.0   -99925.0   -99925.0   -99925.0   10.40800   81.00560   81.00560   -99925.0   83.24610  126.53370  126.53370   10.40800   13.81210    7.19360   16.57100   14.74180   13.81210   -99925.0   -99925.0   -99925.0   -99925.0  -79.83640   -2.44650    7.19360
 7400.00000   -99925.0   11.11110   11.11110  177.62930   -99925.0   -99925.0   -99925.0   -99925.0   -99925.0   -99925.0    5.62970   72.47630   72.47630   -99925.0   77.78810   99.40010   99.40010    5.62970   12.30780    6.41230   20.94670   18.96270   12.30780   -99925.0   -99925.0   -99925.0   -99925.0  -79.40740   -1.99200    6.41230
 7450.00000   -99925.0   11.44260   11.44260  173.69250   -99925.0   -99925.0   -99925.0   -99925.0   -99925.0   -99925.0    5.75730   82.88320   82.88320   -99925.0   84.39410  122.51300  122.51300    5.75730    9.14220    4.98860   10.58820    9.22870    9.14220   -99925.0   -99925.0   -99925.0   -99925.0  -79.36260   -1.92160    4.98860
 7500.00000   -99925.0   13.17050   13.17050  174.56270   -99925.0   -99925.0   -99925.0   -99925.0   -99925.0   -99925.0    5.72860   84.11160   84.11160   -99925.0   84.14030  115.93070  115.93070    5.72860    6.61080    5.43560   10.14430    9.04470    6.61080   -99925.0   -99925.0   -99925.0   -99925.0  -77.67600   -0.20950    5.43560
 7550.00000   -99925.0   11.17370   11.17370  191.15340   -99925.0   -99925.0   -99925.0   -99925.0   -99925.0   -99925.0    5.23140   86.58720   86.58720   -99925.0   79.86740  114.94210  114.94210    5.23140    9.86820    8.15260   15.63970   13.50660    9.86820   -99925.0   -99925.0   -99925.0   -99925.0  -79.49080   -1.99870    8.15260
 7600.00000   -99925.0   11.07720   11.07720  198.79530   -99925.0   -99925.0   -99925.0   -99925.0   -99925.0   -99925.0    5.03030   80.92080   80.92080   -99925.0   80.79980  104.80470  104.80470    5.03030   10.92290    7.38020   12.85160   13.66580   10.92290   -99925.0   -99925.0   -99925.0   -99925.0  -79.37010   -1.85250    7.38020
 7650.00000   -99925.0   11.12140   11.12140  180.18990   -99925.0   -99925.0   -99925.0   -99925.0   -99925.0   -99925.0    5.54970   83.55000   83.55000   -99925.0   85.57160  100.56110  100.56110    5.54970    9.53810    6.11030   10.00210   10.78110    9.53810   -99925.0   -99925.0   -99925.0   -99925.0  -78.96290   -1.41970    6.11030
 7700.00000   -99925.0   10.92530   10.92530  171.22410   -99925.0   -99925.0   -99925.0   -99925.0   -99925.0   -99925.0    5.84030   93.31930   93.31930   -99925.0   88.60860  116.50850  116.50850    5.84030    9.18400    6.85970   11.20630   12.62830    9.18400   -99925.0   -99925.0   -99925.0   -99925.0  -79.06040   -1.49160    6.85970
 7750.00000   -99925.0   10.85300   10.85300  153.90300   -99925.0   -99925.0   -99925.0   -99925.0   -99925.0   -99925.0    6.49760   85.44340   85.44340   -99925.0   81.92310  105.92600  105.92600    6.49760   10.29820    8.05060   11.63550   12.33730   10.29820   -99925.0   -99925.0   -99925.0   -99925.0  -77.84780   -0.25350    8.05060
 7800.00000   -99925.0   11.36890   11.36890  199.59280   -99925.0   -99925.0   -99925.0   -99925.0   -99925.0   -99925.0    5.01020   87.76620   87.76620   -99925.0   83.59060  111.29400  111.29400    5.01020    7.66770    7.14190    9.60650   10.52730    7.66770   -99925.0   -99925.0   -99925.0   -99925.0  -78.03140   -0.41150    7.14190
 7850.00000   -99925.0   10.97300   10.97300  174.14020   -99925.0   -99925.0   -99925.0   -99925.0   -99925.0   -99925.0    5.74250   88.25840   88.25840   -99925.0   89.85090  113.43060  113.43060    5.74250   10.05320    6.83340    9.86760   11.17220   10.05320   -99925.0   -99925.0   -99925.0   -99925.0  -77.98570   -0.34030    6.83340
 7900.00000   -99925.0   12.04400   12.04400  158.99260   -99925.0   -99925.0   -99925.0   -99925.0   -99925.0   -99925.0    6.28960   90.45290   90.45290   -99925.0   85.03410  115.16200  115.16200    6.28960   11.00070    7.07350    9.41240    9.86880   11.00070   -99925.0   -99925.0   -99925.0   -99925.0  -77.27360    0.39740    7.07350
 7950.00000   -99925.0   11.73820   11.73820  207.58950   -99925.0   -99925.0   -99925.0   -99925.0   -99925.0   -99925.0    4.81720   89.06330   89.06330   -99925.0   82.50910  112.76120  112.76120    4.81720    9.96290    7.84560   10.84900   11.57530    9.96290   -99925.0   -99925.0   -99925.0   -99925.0  -77.39190    0.30470    7.84560
