~Version ---------------------------------------------------
VERS.      2.0 : CWLS log ASCII Standard -VERSION 2.0
WRAP.       NO : One line per depth step
CREA. 12/12/17 : LAS Creation Date
~Well ------------------------------------------------------
STRT.FT                       450.0 : START DEPTH
STOP.FT                      6550.0 : STOP DEPTH
STEP.FT                    50.00000 : STEP LENGTH
NULL.                       -999.25 : NULL VALUE
COMP.      CHEVRON STANDARD LIMITED : COMPANY
WELL. CHEVRON GIFT LAKE 11-11-78-12 : WELL
FLD .                               : FIELD
LOC .                               : LOCATION
CTRY.                        CANADA : COUNTRY
SRVC.                  Schlumberger : SERVICE COMPANY
DATE.                   09-Mar-1976 : LOGDATE
PROV.                       Alberta : PROVINCE
UWI .              100111107812W500 : UNIQUE WELL ID
SLAT.WGS84                 55.74751 : SURFACE LATITUDE
SLON.WGS84                -115.7501 : SURFACE LONGITUDE
~Curve Information -----------------------------------------
DEPT  .FT    : Depth Curve
CALSED.IN    : CALIPER FROM SONIC LOG [ADJ. TO RESISTIVITY LOG]
CALWS .IN    : CALIPER [CALSED]
CONDWS.MMHO  : CONDUCTIVITY [1000/DRESWS]
DFLED .OHMM  : DIGITAL FOCUSED LATEROLOG FROM RESISTIVITY LOG
DRESWS.OHMM  : DEEP RESISTIVITY [ILDED]
DTED  .US/F  : DELTA-T FROM SONIC LOG [ADJ. TO RESISTIVITY LOG]
DTWS  .US/F  : COMPRESSIONAL SONIC [DTED]
GRED  .GAPI  : GAMMA RAY FROM CEMENT BOND LOG
GRSED .GAPI  : GAMMA RAY FROM SONIC LOG [ADJ. TO RESISTIVITY LOG]
GRWS  .GAPI  : GAMMA RAY [GRED SPL. TO GRSED @ 695']
ILDED .OHMM  : DEEP INDUCTION  RESISTIVITY FROM RESISTIVITY LOG
ILMED .OHMM  : MEDIUM INDUCTION RESISTIVITY FROM RESISTIVITY LOG
MRESWS.OHMM  : MEDIUM RESISTIVITY [ILMED]
SPRED .MV    : SPONTANEOUS POTENTIAL FROM RESISTIVITY LOG
SPWS  .MV    : SPONTANEOUS POTENTIAL [BASELINE 0 MV,SPRED]
SRESWS.OHMM  : SHALLOW RESISTIVITY [DFLED]
~Params ----------------------------------------------------
PD  .                     GL : PERMANENT DATUM
EPD .FT               2302.2 : ELEVATION PERMANENT DATUM
LMF .                     KB : LOG MEASURED FROM
DAPD.FT                 12.4 : FEET ABOVE PERMANENT DATUM
EKB .FT               2314.6 : KELLY BUSHING
EGL .FT               2302.2 : GROUND LEVEL
DATE.               03/09/76 : RUN DATE
RUN .                      1 : RUN NUMBER
DD  .FT                 6585 : DEPTH DRILLER
DL  .FT                 6586 : DEPTH LOGGER
BLI .FT                 6580 : BOTTOM LOG INTERVAL
TLI .FT                  716 : TOP LOG INTERVAL
CBD .FT                  717 : CASING BOTTOM DRILLER
CBL .FT                  716 : CASING BOTTOM LOGGER
BS  .IN                7.875 : BIT SIZE
BSD .FT                 6585 : BIT SIZE AT DEPTH
DFT .               GEL CHEM : DRILLING FLUID TYPE
DFD .                    9.3 : DRILLING FLUID DENSITY
DFV .                     70 : DRILLING FLUID VISCOSITY
DFPH.                    9.5 : DRILLING FLUID PH
DFL .                      9 : DRILLING FLUID LOSS
MSS .               FLOWLINE : MUD SAMPLE SOURCE
RMS .OHMM               0.61 : RESISTIVITY MUD SAMPLE
MST .DEGF                 57 : MUD SAMPLE TEMPERATURE
RMF .OHMM               0.52 : RESISTIVITY MUD FILTRATE SAMPLE
MFST.DEGF                0.9 : MUD FILTRATE SAMPLE TEMPERATURE
RMC .OHMM                0.9 : RESISTIVITY MUD CAKE
MCST.DEGF                 65 : MUD CAKE SAMPLE TEMPERATURE
TCS .HRS                 1.5 : TIME CIRCULATED STOPPED
LUN .                   7635 : LOGGING UNIT NUMBER
LUL .                    EDM : LOGGING UNIT LOCATION
ENGI.                SWANSON : RECORDING ENGINEER
WITN.                   WONG : WITNESSED BY
CLNT.                A2DTECH : CLIENT CODE
ORIG.            2" 5" PRINT : ORIGIN OF DATA
UWI .       100111107812W500 : UNIQUE WELL ID
DICO. A2D Technologies, Inc. : DIGITIZING COMPANY
~Other -----------------------------------------------------
DIL-SONIC-CBL LOG RUN
~ASCII -----------------------------------------------------
# ...
 2600.00000    9.68470    9.68470  108.84800   10.45960    9.18750   81.13280   81.13280    -999.25   43.11090   43.11090    9.18750    7.79110    7.79110  -69.67560  -20.81760   10.45960
 2650.00000   10.52910   10.52910  136.95440    8.89200    7.30170   83.94170   83.94170    -999.25   48.30790   48.30790    7.30170    5.44070    5.44070  -49.98400   -2.60490    8.89200
 2700.00000    9.24670    9.24670   89.57350   16.87840   11.21670   71.53070   71.53070    -999.25   29.86930   29.86930   11.21670    8.48320    8.48320  -50.98840   -5.04020   16.87840
 2750.00000    8.23420    8.23420   11.67400  142.41290   85.66020   64.60730   64.60730    -999.25   14.91480   14.91480   85.66020   69.95420   69.95420  -75.55880  -30.46140  142.41290
 2800.00000    8.00850    8.00850   12.22730  111.24760   81.78390   68.09550   68.09550    -999.25   14.78310   14.78310   81.78390   64.60150   64.60150  -70.75940  -26.51290  111.24760
 2850.00000   10.51360   10.51360  261.70720    4.40700    3.83040   93.38990   93.38990    -999.25   62.40590   62.40590    3.83040    3.30640    3.30640  -60.09720  -16.70720    4.40700
 2900.00000   10.00230   10.00230  197.63240    5.72520    5.05990   88.49520   88.49520    -999.25   61.36050   61.36050    5.05990    4.03030    4.03030  -64.85170  -22.31250    5.72520
 2950.00000   10.79270   10.79270  404.02440    4.06930    2.48330   93.73710   93.73710    -999.25   55.12350   55.12350    2.48330    2.60660    2.60660  -63.49810  -21.81540    4.06930
 3000.00000    9.01850    9.01850  170.87010    7.02740    5.85240   80.84080   80.84080    -999.25   54.12220   54.12220    5.85240    4.89240    4.89240  -63.31990  -22.48800    7.02740
 3050.00000    8.56200    8.56200  138.86000    9.17690    7.20150   68.53250   68.53250    -999.25   21.64070   21.64070    7.20150    6.51060    6.51060  -80.08660  -40.10560    9.17690
 3100.00000    8.92690    8.92690  147.23760   10.22560    6.79380   71.26820   71.26820    -999.25   30.57480   30.57480    6.79380    5.97160    5.97160  -58.75040  -19.62590   10.22560
 3150.00000    8.49190    8.49190   50.76450   24.94840   19.69880   62.70080   62.70080    -999.25   29.33550   29.33550   19.69880   12.30850   12.30850  -50.44510  -12.17140   24.94840
 3200.00000    9.02920    9.02920   47.86370   35.60990   20.90820   65.60020   65.60020    -999.25   29.18870   29.18870   20.90820   16.03020   16.03020  -79.43480  -42.01760   35.60990
 3250.00000    8.73740    8.73740   55.61180   26.01830   17.98180   62.55960   62.55960    -999.25   19.26850   19.26850   17.98180   14.11400   14.11400 -127.61060  -91.04420   26.01830
 3300.00000    8.97700    8.97700  187.82870    6.78060    5.32400   76.72040   76.72040    -999.25   51.57810   51.57810    5.32400    4.86340    4.86340 -118.72020  -83.00470    6.78060
 3350.00000   10.10340   10.10340  311.86080    3.50190    3.20790   84.50530   84.50530    -999.25   92.77560   92.77560    3.20790    2.97900    2.97900 -135.09510 -100.23610    3.50190
 3400.00000    8.37300    8.37300   60.96070   23.10200   16.40400   62.20260   62.20260    -999.25   21.33150   21.33150   16.40400   13.02550   13.02550 -127.16740  -93.15920   23.10200
 3450.00000    8.50210    8.50210   87.46970   11.49950   11.43390   65.15080   65.15080    -999.25   24.33670   24.33670   11.43390    9.27600    9.27600 -137.28200 -104.13030   11.49950
 3500.00000    8.35950    8.35950   67.83200   18.85900   14.74230   61.20660   61.20660    -999.25   28.47960   28.47960   14.74230   12.05370   12.05370 -117.80720  -85.50640   18.85900
 3550.00000   11.59900   11.59900  394.35290    3.13930    2.53580   97.71680   97.71680    -999.25   55.85780   55.85780    2.53580    2.25530    2.25530  -92.31290  -60.86290    3.13930
 3600.00000    8.46710    8.46710  123.48630    9.30720    8.10070   72.27630   72.27630    -999.25   35.82810   35.82810    8.10070    6.91350    6.91350  -72.50130  -41.90780    9.30720
 3650.00000   11.21460   11.21460  458.77870    2.67900    2.17970  119.70290  119.70290    -999.25  181.99190  181.99190    2.17970    2.01660    2.01660  -65.79190  -36.04920    2.67900
 3700.00000    8.41230    8.41230   37.09390   31.37320   26.99150   57.52800   57.52800    -999.25   26.37340   26.37340   26.99150   19.33920   19.33920  -72.13860  -43.25240   31.37320
 3750.00000    8.52010    8.52010   23.10510   69.15630   43.28040   52.25430   52.25430    -999.25   13.13930   13.13930   43.28040   35.77160   35.77160  -93.09890  -65.06360   69.15630
 3800.00000    8.31240    8.31240   26.36930   37.63500   37.92290   53.67340   53.67340    -999.25   13.56830   13.56830   37.92290   22.16240   22.16240  -77.78730  -50.60280   37.63500
 3850.00000    8.36920    8.36920   26.30100   71.82520   38.06050   53.73080   53.73080    -999.25   12.37970   12.37970   38.06050   24.91770   24.91770  -78.55060  -52.22260   71.82520
 3900.00000    8.48070    8.48070   17.44210  113.76540   57.33250   52.34260   52.34260    -999.25   13.31510   13.31510   57.33250   37.67130   37.67130  -51.45210  -25.97490  113.76540
 3950.00000    8.16690    8.16690   47.07040   67.10230   21.25170   55.32700   55.32700    -999.25   16.45270   16.45270   21.25170   19.83610   19.83610  -75.05850  -50.43780   67.10230
 4000.00000    8.37740    8.37740   32.86450   79.16020   30.42800   53.02570   53.02570    -999.25   12.49700   12.49700   30.42800   26.15520   26.15520 -105.54150  -81.77170   79.16020
 4050.00000    7.84400    7.84400   81.83040   56.89170   12.22040   57.16010   57.16010    -999.25   14.54040   14.54040   12.22040   16.34880   16.34880 -114.01610  -91.09710   56.89170
 4100.00000    7.96000    7.96000   45.05420   58.84920   22.20460   55.04680   55.04680    -999.25   12.29260   12.29260   22.20460   20.14190   20.14190 -107.05650  -84.99400   58.84920
 4150.00000    7.80670    7.80670   52.73590   56.19360   18.96240   56.58280   56.58280    -999.25   13.58830   13.58830   18.96240   16.03610   16.03610 -109.52500  -88.31330   56.19360
 4200.00000    8.18290    8.18290    0.55740  228.75290 1794.17850   49.46850   49.46850    -999.25   13.69620   13.69620 1794.17850   62.36500   62.36500  -66.08790  -45.73270  228.75290
 4250.00000    8.26300    8.26300   13.11900   73.05740   76.22520   52.13150   52.13150    -999.25   13.78370   13.78370   76.22520   32.29510   32.29510  -81.82110  -62.31680   73.05740
 4300.00000    8.30710    8.30710    8.78420   81.80250  113.84120   51.87360   51.87360    -999.25   14.70680   14.70680  113.84120   36.25900   36.25900 -101.33700  -82.68350   81.80250
 4350.00000    8.47860    8.47860    9.00680   86.27680  111.05650   52.85420   52.85420    -999.25   15.69990   15.69990  111.05650   41.82460   41.82460 -114.18890  -96.39190   86.27680
 4400.00000    8.60120    8.60120    0.89330  159.49230 1119.45890   50.31730   50.31730    -999.25   13.91300   13.91300 1119.45890   75.73900   75.73900 -125.92210 -108.97600  159.49230
 4450.00000    8.60870    8.60870   28.55720   66.66700   35.01750   52.85970   52.85970    -999.25   12.28860   12.28860   35.01750   33.55520   33.55520 -122.12090 -106.03120   66.66700
 4500.00000    7.76850    7.76850  152.20930   45.44610    6.56990   58.51530   58.51530    -999.25   11.64650   11.64650    6.56990    9.95510    9.95510 -118.19000 -102.95120   45.44610
 4550.00000    7.67710    7.67710   98.69820   45.60300   10.13190   56.15310   56.15310    -999.25   15.66310   15.66310   10.13190   13.90940   13.90940  -80.00490  -65.61690   45.60300
 4600.00000    8.70010    8.70010  281.64190    4.19790    3.55720   74.59380   74.59380    -999.25   88.08900   88.08900    3.55720    3.17060    3.17060   -6.33730    7.19420    4.19790
 4650.00000    7.70250    7.70250  250.34420    9.51450    3.99450   61.08170   61.08170    -999.25   30.64730   30.64730    3.99450    3.18170    3.18170  -46.31750  -33.63690    9.51450
 4700.00000    8.02720    8.02720   50.04070   82.78770   20.01470   49.44990   49.44990    -999.25   14.72730   14.72730   20.01470   29.28450   29.28450  -68.34750  -56.52330   82.78770
