~Version ---------------------------------------------------
VERS.      2.0 : CWLS log ASCII Standard -VERSION 2.0
WRAP.       NO : One line per depth step
CREA. 11/20/17 : LAS Creation Date
~Well ------------------------------------------------------
STRT.FT                  850.0 : START DEPTH
STOP.FT                 8000.0 : STOP DEPTH
STEP.FT               50.00000 : STEP LENGTH
NULL.                  -999.25 : NULL VALUE
COMP.     IMPERIAL OIL LIMITED : COMPANY
WELL. IMP IROQUOIS 10-21-75-19 : WELL
FLD .                          : FIELD
LOC .                          : LOCATION
CTRY.                   CANADA : COUNTRY
SRVC.             Schlumberger : SERVICE COMPANY
DATE.              06-Jan-1962 : LOGDATE
PROV.                  Alberta : PROVINCE
UWI .         100102107519W500 : UNIQUE WELL ID
SLAT.WGS84            55.51402 : SURFACE LATITUDE
SLON.WGS84           -116.8811 : SURFACE LONGITUDE
~Curve Information -----------------------------------------
DEPT  .FT         : Depth Curve
CALSED.IN         : CALIPER FROM SONIC LOG [ADJ. TO RESISTIVITY LOG]
CALWS .IN         : CALIPER [CALSED]
CILDED.MMHO       : CONDUCTIVITY FROM RESISTIVITY LOG
CONDWS.MMHO       : CONDUCTIVITY [1000/DRESWS]
DRESWS.OHMM       : DEEP RESISTIVITY [1000/CILDED IF ILDED <=2.5, ILDED]
DT1ED .US/F       : DELTA TIME SPACING 3' PICKUP SPAN 1'FROM SONIC LOG [ADJ. TO RESISTIVITY LOG]
DTED  .US/F       : DELTA TIME SPACING 3' PICKUP SPAN 3'FROM SONIC LOG [ADJ. TO RESISTIVITY LOG]
DTWS  .US/F       : COMPRESSIONAL SONIC [DTED]
GRSED .UgRa-Eq/T  : GAMMA RAY FROM SONIC LOG [ADJ. TO RESISTIVITY LOG]
GRWS  .GAPI       : GAMMA RAY [GRSED, CONVERTED TO GAPI UNIT *16.5]
ILDED .OHMM       : DEEP INDUCTION  RESISTIVITY FROM RESISTIVITY LOG
SNED  .OHMM       : SHORT NORMAL 16" RESISTIVITY FROM RESISTIVITY LOG
SPRED .MV         : SPONTANEOUS POTENTIAL FROM RESISTIVITY LOG
SPWS  .MV         : SPONTANEOUS POTENTIAL [BASELINE 0 MV, SPRED]
SRESWS.OHMM       : SHALLOW RESISTIVITY [SNED]
~Params ----------------------------------------------------
PD  .                     GL : PERMANENT DATUM
EPD .FT               2116.7 : ELEVATION PERMANENT DATUM
LMF .                     KB : LOG MEASURED FROM
DAPD.FT                 12.3 : FEET ABOVE PERMANENT DATUM
DMF .                     KB : DRILLING MEASURED FROM
EKB .FT                 2129 : KELLY BUSHING
EGL .FT               2116.7 : GROUND LEVEL
DATE.               01/06/62 : RUN DATE
RUN .                      1 : RUN NUMBER
DD  .FT                 8030 : DEPTH DRILLER
DL  .FT                 8036 : DEPTH LOGGER
BLI .FT                 8031 : BOTTOM LOG INTERVAL
TLI .FT                  854 : TOP LOG INTERVAL
CBD .FT                  856 : CASING BOTTOM DRILLER
CBL .FT                  854 : CASING BOTTOM LOGGER
BS  .IN                 8.75 : BIT SIZE
BSD .FT                 8030 : BIT SIZE AT DEPTH
DFT .                    GEL : DRILLING FLUID TYPE
DFD .                   10.1 : DRILLING FLUID DENSITY
DFV .                     66 : DRILLING FLUID VISCOSITY
DFPH.                     10 : DRILLING FLUID PH
DFL .                    9.6 : DRILLING FLUID LOSS
RMS .OHMM                  2 : RESISTIVITY MUD SAMPLE
MST .DEGF                 40 : MUD SAMPLE TEMPERATURE
RMF .OHMM                1.2 : RESISTIVITY MUD FILTRATE SAMPLE
MFST.DEGF                 60 : MUD FILTRATE SAMPLE TEMPERATURE
RMC .OHMM                3.1 : RESISTIVITY MUD CAKE
MCST.DEGF                 60 : MUD CAKE SAMPLE TEMPERATURE
TCS .HRS                   3 : TIME CIRCULATED STOPPED
LUN .                   1511 : LOGGING UNIT NUMBER
LUL .                     DC : LOGGING UNIT LOCATION
ENGI.                PRATHER : RECORDING ENGINEER
WITN.                RAE ROY : WITNESSED BY
CLNT.                A2DTECH : CLIENT CODE
ORIG.            2" 5" PRINT : ORIGIN OF DATA
UWI .       100102107519W500 : UNIQUE WELL ID
DICO. A2D Technologies, Inc. : DIGITIZING COMPANY
~Other -----------------------------------------------------
IEL-BHC TOOLS RUN
DATA FROM 2" LOG
~ASCII -----------------------------------------------------
# ...
 3150.00000    7.76230    7.76230   83.64450   82.50280   12.12080   87.39740   88.51770   88.51770    4.53740   74.86710   12.12080   15.73760  -36.88250   -9.53810   15.73760
 3200.00000    9.72630    9.72630   78.81240   78.07380   12.80840   77.54770   81.23590   81.23590    3.90870   64.49350   12.80840   21.13290  -42.06510  -17.24840   21.13290
 3250.00000    9.22440    9.22440  302.12080  302.12080    3.30990  100.00000  125.62890  125.62890    4.89860   80.82690    3.33100    4.87230  -27.31310   -5.02420    4.87230
 3300.00000    -999.25    -999.25   90.00800   87.12620   11.47760    -999.25  106.51960  106.51960    5.29430   87.35590   11.47760   18.23390  -21.25160   -1.49040   18.23390
 3350.00000    -999.25    -999.25   23.55840   22.08620   45.27720    -999.25  114.54280  114.54280    9.21550  152.05580   45.27720   55.19880  -27.95930   -7.44620   55.19880
 3400.00000    -999.25    -999.25   11.91300    8.94280  111.82170    -999.25   81.52890   81.52890    4.53480   74.82420  111.82170   74.00440  -35.36550   -8.74970   74.00440
 3450.00000    -999.25    -999.25   75.59990   88.66900   11.27790    -999.25   79.54080   79.54080    8.07590  133.25240   11.27790   24.48490  -68.03020  -36.99630   24.48490
 3500.00000    -999.25    -999.25  193.37130  198.02370    5.04990    -999.25   74.75080   74.75080    2.12590   35.07730    5.04990   16.30310 -122.93720  -92.53920   16.30310
 3550.00000    -999.25    -999.25  295.86240  295.86240    3.37990    -999.25   77.41510   77.41510    2.13440   35.21760    3.41300   14.83220 -129.69250  -99.93040   14.83220
 3600.00000    -999.25    -999.25 1100.86280 1100.86280    0.90840    -999.25  102.86110  102.86110    1.43550   23.68570    1.48480    3.47460 -121.07050  -91.94430    3.47460
 3650.00000    -999.25    -999.25  190.35460  191.43150    5.22380    -999.25   67.99330   67.99330    1.96830   32.47700    5.22380   16.48590 -118.75140  -90.26110   16.48590
 3700.00000    -999.25    -999.25  328.60710  328.60710    3.04310    -999.25   79.48210   79.48210    2.41480   39.84420    3.15520    8.48160 -116.21550  -88.36110    8.48160
 3750.00000    -999.25    -999.25  145.44890  145.91080    6.85350    -999.25   63.97370   63.97370    2.38760   39.39620    6.85350   15.43580  -98.89090  -71.67240   15.43580
 3800.00000    7.57630    7.57630  198.08240  202.42100    4.94020   66.08930   68.55710   68.55710    1.54630   25.51480    4.94020   16.29130 -109.08920  -82.50660   16.29130
 3850.00000    8.71000    8.71000  175.56620  175.95100    5.68340   54.09990   65.69710   65.69710    3.13120   51.66480    5.68340   11.99100  -59.25200  -33.30530   11.99100
 3900.00000    8.13100    8.13100   76.61430   73.21500   13.65840   61.49880   59.15260   59.15260    1.21550   20.05570   13.65840   50.39780 -132.03480 -106.72400   50.39780
 3950.00000    8.54200    8.54200   76.78940   71.64500   13.95770   65.67440   63.91760   63.91760    2.53850   41.88520   13.95770   28.59950  -59.71300  -35.03810   28.59950
 4000.00000    8.50440    8.50440   20.40590   13.95480   71.66000   52.54930   54.31980   54.31980    1.57050   25.91410   71.66000   57.49340  -57.38920  -33.66120   57.49340
 4050.00000    7.62720    7.62720   56.46520   54.59920   18.31530   57.16350   57.66120   57.66120    1.21810   20.09860   18.31530   41.80910  -83.44520  -63.46330   41.80910
 4100.00000    8.74510    8.74510  134.55540  134.60220    7.42930   60.80260   64.94510   64.94510    3.15760   52.10040    7.42930   12.89570  -26.58630  -10.35050   12.89570
 4150.00000    8.92330    8.92330   82.02550   79.90920   12.51420   73.13340   66.96510   66.96510    2.05410   33.89270   12.51420   18.64040  -17.00620   -4.51650   18.64040
 4200.00000    8.92260    8.92260   49.29380   54.16650   18.46160   58.62480   58.26320   58.26320    1.71150   28.23980   18.46160   22.98690  -20.21110   -8.56950   22.98690
 4250.00000    8.93920    8.93920  164.76870  164.39800    6.08280   46.40730   71.28670   71.28670    2.49250   41.12630    6.08280   13.08240  -29.34590  -16.85040   13.08240
 4300.00000    7.85130    7.85130  230.63240  239.98080    4.16700   57.45170   61.99970   61.99970    1.44800   23.89200    4.16700   18.53770  -63.57870  -50.22940   18.53770
 4350.00000    8.57320    8.57320  218.31650  199.50120    5.01250   69.92330   67.13400   67.13400    1.38450   22.84430    5.01250   10.83850  -50.47720  -36.27410   10.83850
 4400.00000    8.64620    8.64620  101.38540  100.15120    9.98490   76.10530   67.96310   67.96310    2.00450   33.07430    9.98490   17.86450  -36.51020  -21.45320   17.86450
 4450.00000    8.77370    8.77370   93.51220   92.39410   10.82320   59.91820   65.64930   65.64930    2.07800   34.28700   10.82320   17.56480  -25.75940   -9.84860   17.56480
 4500.00000    8.46930    8.46930   51.63710   56.70900   17.63390   62.75030   61.50930   61.50930    1.11760   18.44040   17.63390   24.99230  -26.60740   -9.84280   24.99230
 4550.00000    8.11260    8.11260    8.43910    5.71280  175.04460   56.70210   56.91310   56.91310    1.19040   19.64160  175.04460  104.77730  -77.31610  -60.14190  104.77730
 4600.00000    8.09040    8.09040   10.72410    8.31060  120.32770   56.66000   55.95350   55.95350    0.94180   15.53970  120.32770   77.04810  -78.70870  -61.30630   77.04810
 4650.00000    7.80360    7.80360   24.45050   22.24330   44.95740   56.75480   53.78030   53.78030    0.68370   11.28110   44.95740   61.62640 -104.47800  -86.84750   61.62640
 4700.00000    7.05200    7.05200   19.33300   15.80240   63.28170   54.56010   53.36760   53.36760    0.76310   12.59200   63.28170   67.40560  -94.40220  -76.54350   67.40560
 4750.00000    -999.25    -999.25  213.26030  196.92790    5.07800    -999.25   72.29550   72.29550    2.37530   39.19250    5.07800    7.59430  -29.97180  -11.88500    7.59430
 4800.00000    -999.25    -999.25  284.18410  274.77060    3.63940    -999.25   73.48800   73.48800    2.57180   42.43470    3.63940    6.68980  -32.56550  -14.92700    6.68980
 4850.00000    -999.25    -999.25  212.08880  204.88860    4.88070    -999.25   65.99590   65.99590    1.65590   27.32240    4.88070    8.06130  -46.18870  -29.59830    8.06130
 4900.00000    -999.25    -999.25   77.06190   74.35050   13.44980    -999.25   62.82520   62.82520    3.24630   53.56400   13.44980   19.51540  -20.84980   -5.30750   19.51540
 4950.00000    -999.25    -999.25   76.01920   71.68050   13.95080    -999.25   63.02560   63.02560    2.78730   45.99050   13.95080   23.79800  -20.12900   -5.63480   23.79800
 5000.00000    -999.25    -999.25  101.13470   99.69200   10.03090    -999.25   66.02370   66.02370    2.27550   37.54570   10.03090   14.58670  -15.30270   -1.79870   14.58670
 5050.00000    -999.25    -999.25   69.56080   68.61960   14.57310    -999.25   64.80420   64.80420    1.09140   18.00810   14.57310   18.83080  -19.64970   -4.29920   18.83080
 5100.00000    -999.25    -999.25   41.32130   41.68870   23.98730    -999.25   57.73930   57.73930    0.57850    9.54520   23.98730   46.92030  -51.99210  -34.79520   46.92030
 5150.00000    -999.25    -999.25   54.37980   56.27210   17.77080    -999.25   62.90930   62.90930    0.20120    3.31980   17.77080   24.74170  -23.62530   -4.58200   24.74170
 5200.00000    -999.25    -999.25   71.79300   70.29090   14.22660    -999.25   63.62180   63.62180    2.42390   39.99440   14.22660   18.86130  -30.41440   -9.89870   18.86130
 5250.00000    -999.25    -999.25   83.74250   81.68930   12.24150    -999.25   66.09030   66.09030    1.18700   19.58550   12.24150   15.15010  -28.85040   -6.94440   15.15010
 5300.00000    -999.25    -999.25   86.48240   84.31850   11.85980    -999.25   66.97020   66.97020    2.97540   49.09410   11.85980   14.54340  -29.06780   -5.77160   14.54340
 5350.00000    -999.25    -999.25   96.42690   93.93020   10.64620    -999.25   68.60920   68.60920    0.88330   14.57440   10.64620   13.86870  -28.76510   -4.07860   13.86870
 5400.00000    -999.25    -999.25  337.70700  337.70700    2.96110    -999.25   89.59250   89.59250    5.19750   85.75870    3.19260    4.44820  -50.28820  -25.56060    4.44820
