~Version ---------------------------------------------------
VERS.      2.0 : CWLS log ASCII Standard -VERSION 2.0
WRAP.       NO : One line per depth step
CREA. 08/02/17 : LAS Creation Date
~Well ------------------------------------------------------
STRT.FT                       300.0 : START DEPTH
STOP.FT                     10150.0 : STOP DEPTH
STEP.FT                    50.00000 : STEP LENGTH
NULL.                       -999.25 : NULL VALUE
COMP.          MOBIL OIL CANADA LTD : COMPANY
WELL. MOBIL MCLEOD RIVER 11-1-57-14 : WELL
FLD .                               : FIELD
LOC .                               : LOCATION
CTRY.                        CANADA : COUNTRY
SRVC.        Schlumberger of Canada : SERVICE COMPANY
DATE.                   02-May-1978 : LOGDATE
PROV.                       Alberta : PROVINCE
UWI .              100110105714W500 : UNIQUE WELL ID
SLAT.WGS84                 53.89809 : SURFACE LATITUDE
SLON.WGS84                -115.9478 : SURFACE LONGITUDE
~Curve Information -----------------------------------------
DEPT    .FT    : Depth Curve
CALDED  .IN    : CALIPER FROM CNL-FDC LOG [ADJ. TO ILDED/CALSED]
CALSED  .IN    : CALIPER FROM BCS LOG
CALWS   .IN    : CALIPER [CALSED]
CONDWS  .MMHO  : CONDUCTIVITY [1000/DRESWS]
DCORED  .G/C3  : DENSITY CORRECTION FROM CNL-FDC LOG [ADJ. TO ILDED]
DCORWS  .G/C3  : DENSITY CORRECTION [DCORED]
DENWS   .G/C3  : FORMATION BULK DENSITY [RHOBED]
DPHILSED.V/V   : DENSITY POROSITY LIMESTONE [M=2.71, F=1.0] FROM CNL-FDC LOG [ADJ. TO ILDED]
DPHISSED.V/V   : DENSITY POROSITY SANDSTONE [M=2.65, F=1.0] FROM CNL-FDC LOG [ADJ. TO ILDED]
DPOLSWS .V/V   : DENSITY POROSITY LIMESTONE [CALCULATED FROM DENWS, M=2.71, F=1.0]
DRESWS  .OHMM  : DEEP RESISTIVITY [ILDED]
DTED    .US/F  : DELTA-T (INTERVAL TRANSIT TIME) FROM BCS LOG
DTWS    .US/F  : COMPRESSIONAL SONIC [DTED]
GRDED   .GAPI  : GAMMA RAY FROM CNL-FDC LOG  [ADJ. TO ILDED]
GRSED   .GAPI  : GAMMA RAY FROM BCS LOG
GRWS    .GAPI  : GAMMA RAY [GRDED SPL. TO GRSED @ 10161']
ILDED   .OHMM  : DEEP INDUCTION FROM DIL-LL LOG
ILMED   .OHMM  : MEDIUM INDUCTION FROM DIL-LL LOG
LL8ED   .OHMM  : LATEROLOG 8 FROM DIL-LL LOG
MRESWS  .OHMM  : MEDIUM RESISTIVITY [ILMED]
NPHILSED.V/V   : NEUTRON POROSITY LIMESTONE FROM CNL-FDC LOG [ADJ. TO ILDED]
NPHISSED.V/V   : NEUTRON POROSITY SANDSTONE FROM CNL-FDC LOG [ADJ. TO ILDED]
NPOLSWS .V/V   : NEUTRON POROSITY LIMESTONE [NPHISSED CONVERTED TO LIMESTONE MATRIX & SPL. TO NPHILSED @ 6700']
RHOBED  .G/C3  : BULK DENSITY FROM CNL-FDC LOG [ADJ. TO ILDED]
SPRED   .MV    : SPONTANEOUS POTENTIAL FROM DIL-LL LOG
SPWS    .MV    : SPONTANEOUS POTENTIAL [BASELINE 0 MV, SPRED]
SRESWS  .OHMM  : SHALLOW RESISTIVITY [LL8ED]
~Params ----------------------------------------------------
PD  .                     GL : PERMANENT DATUM
EPD .FT               2845.4 : ELEVATION PERMANENT DATUM
LMF .                     KB : LOG MEASURED FROM
DAPD.FT                   20 : FEET ABOVE PERMANENT DATUM
EKB .FT               2865.2 : KELLY BUSHING
EGL .FT               2845.4 : GROUND LEVEL
DATE.               05/02/78 : RUN DATE
RUN .                      1 : RUN NUMBER
DD  .FT                10200 : DEPTH DRILLER
DL  .FT                10189 : DEPTH LOGGER
BLI .FT                10183 : BOTTOM LOG INTERVAL
TLI .FT                 1217 : TOP LOG INTERVAL
CBD .FT                 1217 : CASING BOTTOM DRILLER
CBL .FT                 1217 : CASING BOTTOM LOGGER
BS  .IN                 8.75 : BIT SIZE
BSD .FT                10200 : BIT SIZE AT DEPTH
DFT .                    GEL : DRILLING FLUID TYPE
DFD .                    9.4 : DRILLING FLUID DENSITY
DFV .                    205 : DRILLING FLUID VISCOSITY
DFPH.                   10.0 : DRILLING FLUID PH
DFL .                    8.5 : DRILLING FLUID LOSS
MSS .               FLOWLINE : MUD SAMPLE SOURCE
RMS .OHMM               2.27 : RESISTIVITY MUD SAMPLE
MST .DEGF                 66 : MUD SAMPLE TEMPERATURE
RMF .OHMM               1.96 : RESISTIVITY MUD FILTRATE SAMPLE
MFST.DEGF                 65 : MUD FILTRATE SAMPLE TEMPERATURE
TCS .HRS                   4 : TIME CIRCULATED STOPPED
LUN .                   7800 : LOGGING UNIT NUMBER
LUL .                    EDM : LOGGING UNIT LOCATION
ENGI.                 KUBICA : RECORDING ENGINEER
WITN.                   RUSH : WITNESSED BY
CLNT.                A2DTECH : CLIENT CODE
ORIG.            2" 5" PRINT : ORIGIN OF DATA
UWI .       100110105714W500 : UNIQUE WELL ID
DICO. A2D Technologies, Inc. : DIGITIZING COMPANY
~Other -----------------------------------------------------
~ASCII -----------------------------------------------------
# ...
 8100.00000    8.48080    8.09150    8.09150   69.94500    0.07010    0.07010    2.74530   -0.02290    -999.25   -0.02060   14.32690   52.93340   52.93340   25.88350   27.13180   25.88350   14.32690   21.62900   60.94000   21.62900    0.10660    -999.25    0.10660    2.74530 -141.55520  -95.25480   60.94000
 8150.00000    9.22190    9.65410    9.65410  210.71710    0.01520    0.01520    2.61260    0.05210    -999.25    0.05700    4.74570   64.06890   64.06890   82.31870   82.66970   82.31870    4.74570    5.18700    5.42290    5.18700    0.15470    -999.25    0.15470    2.61260  -90.66520  -45.72390    5.42290
 8200.00000    9.96010    9.22150    9.22150   28.57840    0.24940    0.24940    2.68270    0.03040    -999.25    0.01600   35.45770   52.17300   52.17300   36.77400   36.02110   36.77400   35.45770   42.04680  111.42870   42.04680    0.07510    -999.25    0.07510    2.68270 -126.75010  -85.10890  111.42870
 8250.00000    9.95680    9.16250    9.16250   47.71080    0.18930    0.18930    2.67170    0.02000    -999.25    0.02240   20.95960   49.61710   49.61710   29.17350   26.41180   29.17350   20.95960   23.92420   21.03910   23.92420    0.10690    -999.25    0.10690    2.67170 -110.04430  -71.67810   21.03910
 8300.00000   10.68270    9.57980    9.57980   32.15930    -999.25    -999.25    2.66090    0.03540    -999.25    0.02870   31.09520   50.95270   50.95270   28.25500   28.42990   28.25500   31.09520   32.54410   35.21120   32.54410    0.06490    -999.25    0.06490    2.66090 -111.02030  -75.93410   35.21120
 8350.00000    8.86750    9.07150    9.07150   14.79660    0.01200    0.01200    2.73960   -0.01830    -999.25   -0.01730   67.60380   52.42480   52.42480   38.91650   36.17050   38.91650   67.60380   80.68910  103.41150   80.68910    0.03390    -999.25    0.03390    2.73960  -36.83910   -5.05290  103.41150
 8400.00000    9.04410    9.07790    9.07790   49.11690    0.00800    0.00800    2.69310    0.01470    -999.25    0.00990   20.35960   57.92250   57.92250   46.58670   45.67760   46.58670   20.35960   23.89290   29.97040   23.89290    0.07880    -999.25    0.07880    2.69310  -33.58910   -5.07790   29.97040
 8450.00000    9.26900    9.13080    9.13080   67.84970    0.00060    0.00060    2.68510    0.01850    -999.25    0.01460   14.73840   64.40040   64.40040   71.32430   68.84980   71.32430   14.73840   15.77480   17.97340   15.77480    0.15320    -999.25    0.15320    2.68510  -28.78410   -3.02620   17.97340
 8500.00000    9.37080    9.22230    9.22230   31.79150    0.01310    0.01310    2.73350   -0.00810    -999.25   -0.01370   31.45490   60.74010   60.74010   55.65680   57.89750   55.65680   31.45490   28.01940   29.50080   28.01940    0.13140    -999.25    0.13140    2.73350  -32.79030   -7.08830   29.50080
 8550.00000   12.51190    9.87060    9.87060   56.47450    0.26290    0.26290    2.46780    0.15720    -999.25    0.14160   17.70710   66.82520   66.82520   76.91560   71.14590   76.91560   17.70710   16.32230   10.00400   16.32230    0.21370    -999.25    0.21370    2.46780  -58.27930  -32.35190   10.00400
 8600.00000   13.40520   11.81550   11.81550  240.86910    0.14510    0.14510    2.47120    0.13800    -999.25    0.13960    4.15170   82.05670   82.05670  100.29710   98.21450  100.29710    4.15170    4.29650    5.93140    4.29650    0.35950    -999.25    0.35950    2.47120  -37.44030  -11.28610    5.93140
 8650.00000    9.25410    9.16630    9.16630   41.08990    0.00140    0.00140    2.68370    0.01120    -999.25    0.01540   24.33690   67.34960   67.34960   96.23380  101.77140   96.23380   24.33690   29.50270   39.28350   29.50270    0.16840    -999.25    0.16840    2.68370  -38.18550  -11.80590   39.28350
 8700.00000   10.04400    9.62870    9.62870  157.93450    0.21330    0.21330    2.33470    0.22430    -999.25    0.21950    6.34930   65.41790   65.41790   79.11400   79.55150   79.11400    6.34930    6.79800   10.21640    6.79800    0.19140    -999.25    0.19140    2.33470  -49.92600  -23.31950   10.21640
 8750.00000   14.26450   12.07960   12.07960  153.53200    0.17810    0.17810    2.46040    0.14810    -999.25    0.14600    6.51330   72.71710   72.71710   92.70100   86.55290   92.70100    6.51330    7.33470    9.97380    7.33470    0.22840    -999.25    0.22840    2.46040  -46.86440  -20.03260    9.97380
 8800.00000   12.79790   11.28190   11.28190  192.55210    0.17880    0.17880    2.55450    0.08990    -999.25    0.09090    5.19340   80.69770   80.69770  106.11750  104.28690  106.11750    5.19340    5.72150    7.27560    5.72150    0.28240    -999.25    0.28240    2.55450  -40.74510  -13.68790    7.27560
 8850.00000   10.31350    9.43370    9.43370   76.51250    0.18940    0.18940    2.68280    0.01400    -999.25    0.01590   13.07540   62.91050   62.91050   73.35290   78.60160   73.35290   13.07540   15.62260   18.64180   15.62260    0.14910    -999.25    0.14910    2.68280  -37.08260   -9.79850   18.64180
 8900.00000    9.34220    9.35360    9.35360  112.43160    0.04520    0.04520    2.65090    0.03510    -999.25    0.03460    8.89430   68.20630   68.20630  110.73830  101.98700  110.73830    8.89430   10.26250   12.64440   10.26250    0.17970    -999.25    0.17970    2.65090  -36.07060   -8.56120   12.64440
 8950.00000    9.76230    9.51890    9.51890  121.18690    0.20420    0.20420    2.60730    0.05790    -999.25    0.06010    8.25280   66.85250   66.85250   86.82680   79.54180   86.82680    8.25280    9.27920   12.26140    9.27920    0.21580    -999.25    0.21580    2.60730  -40.93270  -13.19640   12.26140
 9000.00000    9.41380    9.25120    9.25120  132.18250    0.26220    0.26220    2.59410    0.07050    -999.25    0.06780    7.56530   69.45650   69.45650   90.60790   85.15960   90.60790    7.56530    9.00760   10.99180    9.00760    0.19100    -999.25    0.19100    2.59410  -35.91300   -7.95130   10.99180
 9050.00000   12.71460   10.92130   10.92130  188.57250    0.26070    0.26070    2.40910    0.17460    -999.25    0.17600    5.30300   74.48030   74.48030  107.04870  100.02860  107.04870    5.30300    6.08460    7.80830    6.08460    0.26100    -999.25    0.26100    2.40910  -40.89480  -12.70770    7.80830
 9100.00000   10.58470    9.67590    9.67590  119.78060    0.17020    0.17020    2.70330   -0.00380    -999.25    0.00390    8.34860   68.21130   68.21130  103.86960   96.91940  103.86960    8.34860    9.78980   13.29590    9.78980    0.18020    -999.25    0.18020    2.70330  -28.60400  -10.38100   13.29590
 9150.00000    9.44250    9.35140    9.35140   85.94760    0.00700    0.00700    2.71040   -0.00160    -999.25   -0.00020   11.63500   62.12170   62.12170   67.47000   65.84350   67.47000   11.63500   15.22230   26.67550   15.22230    0.10460    -999.25    0.10460    2.71040  -19.66780  -11.83730   26.67550
 9200.00000   11.48000    9.49890    9.49890  137.58190    0.18270    0.18270    2.69830   -0.00390    -999.25    0.00680    7.26840   70.31680   70.31680  111.68640  102.02700  111.68640    7.26840    8.34360   11.49180    8.34360    0.19120    -999.25    0.19120    2.69830    -999.25    -999.25   11.49180
 9250.00000   10.40450    9.44830    9.44830  137.57620    0.20290    0.20290    2.66880    0.02300    -999.25    0.02410    7.26870   69.49990   69.49990  100.11870   96.36550  100.11870    7.26870    8.46410   11.19290    8.46410    0.17380    -999.25    0.17380    2.66880   -9.48280   -3.81490   11.19290
 9300.00000    9.73370    9.31290    9.31290  128.32690    0.07500    0.07500    2.65060    0.04340    -999.25    0.03470    7.79260   68.59150   68.59150  103.68310   95.20870  103.68310    7.79260    9.68470   14.30040    9.68470    0.17860    -999.25    0.17860    2.65060  -10.61280   -5.42750   14.30040
 9350.00000    9.08860    9.14090    9.14090   75.80560   -0.00480   -0.00480    2.69420    0.01260    -999.25    0.00920   13.19160   61.46600   61.46600   77.95230   71.45810   77.95230   13.19160   15.68780   20.69100   15.68780    0.11920    -999.25    0.11920    2.69420   -7.91800   -3.21770   20.69100
