~Version ---------------------------------------------------
VERS.      2.0 : CWLS log ASCII Standard -VERSION 2.0
WRAP.       NO : One line per depth step
CREA. 01/04/18 : LAS Creation Date
~Well ------------------------------------------------------
STRT.FT                               300.0 : START DEPTH
STOP.FT                             11400.0 : STOP DEPTH
STEP.FT                            50.00000 : STEP LENGTH
NULL.                               -999.25 : NULL VALUE
COMP.                  CHEVRON STANDARD LTD : COMPANY
WELL. CHEVRON CLARK 14-34-58-18 10-34-58-18 : WELL
FLD .                          KAYBOB SOUTH : FIELD
LOC .                                       : LOCATION
CTRY.                                CANADA : COUNTRY
SRVC.                          Schlumberger : SERVICE COMPANY
DATE.                           26-Oct-1968 : LOGDATE
PROV.                               Alberta : PROVINCE
UWI .                      100103405818W500 : UNIQUE WELL ID
SLAT.WGS84                         54.05952 : SURFACE LATITUDE
SLON.WGS84                        -116.5853 : SURFACE LONGITUDE
~Curve Information -----------------------------------------
DEPT   .FT    : Depth Curve
CALNED .IN    : CALIPER SIDEWALL NEUTRON  LOG (ADJ TO RES.)
CALSED .IN    : CALIPER  SONIC (ADJ TO RES.)
CALWS  .IN    : CALIPER (CALSED)
CONDWS .MMHO  : CONDUCTIVITY (1000/DRESWS)
DRESWS .OHMM  : DEEP RESISTIVITY (ILDED)
DTED   .US/F  : DELTA TIME (ADJ TO RES.)
DTWS   .US/F  : DELTA TIME
GR1ED  .GAPI  : GAMMA RAY GAMMA RAY LOG (ADJ TO RES.)
GRED   .GAPI  : GAMMA RAY GAMMA RAY LOG (ADJ TO RES.)
GRSED  .GAPI  : GAMMA RAY  SONIC (ADJ TO RES.)
GRWS   .GAPI  : GAMMA RAY (GR1ED/GRSED @ 1957')
ILDED  .OHMM  : DEEP INDUCTION RESISTIVITY
ILMED  .OHMM  : MEDIUM INDUCTION RESISTIVITY
LL8ED  .OHMM  : LATEROLOG-8 RESISTIVITY
MRESWS .OHMM  : MEDIUM RESISTIVITY (ILMED)
NPODLWS.V/V   : NEUTRON POROSITY DOLOMITE (SNPDMED)
SNPDMED.V/V   : SIDEWALL NEUTRON  DOLOMITE (ADJ TO RES.)
SPRED  .MV    : Spontaneous Potential  DIL
SPWS   .MV    : SPONTANEOUS POTENTIAL BASELINE 0 MV (SPRED)
SRESWS .OHMM  : SHALLOW RESISTIVITY (LL8ED)
~Params ----------------------------------------------------
PD  .                     GL : PERMANENT DATUM
EPD .FT               3407.1 : ELEVATION PERMANENT DATUM
LMF .                     KB : LOG MEASURED FROM
DAPD.FT                 13.9 : FEET ABOVE PERMANENT DATUM
DMF .                     KB : DRILLING MEASURED FROM
EKB .FT                 3421 : KELLY BUSHING
EDF .FT                 3407 : DRILLING FLOOR
EGL .FT               3407.1 : GROUND LEVEL
DATE.               10/26/68 : RUN DATE
RUN .                      1 : RUN NUMBER
DD  .FT                11418 : DEPTH DRILLER
DL  .FT                11421 : DEPTH LOGGER
BLI .FT                11420 : BOTTOM LOG INTERVAL
TLI .FT                10900 : TOP LOG INTERVAL
CBD .FT                 2021 : CASING BOTTOM DRILLER
CBL .FT                 2021 : CASING BOTTOM LOGGER
BS  .IN                 8.75 : BIT SIZE
BSD .FT                11418 : BIT SIZE AT DEPTH
DFT .                    GEL : DRILLING FLUID TYPE
DFD .                    9.4 : DRILLING FLUID DENSITY
DFV .                    148 : DRILLING FLUID VISCOSITY
DFPH.                   11.5 : DRILLING FLUID PH
DFL .                    6.4 : DRILLING FLUID LOSS
RMS .OHMM                1.0 : RESISTIVITY MUD SAMPLE
MST .DEGF                 62 : MUD SAMPLE TEMPERATURE
RMF .OHMM               0.84 : RESISTIVITY MUD FILTRATE SAMPLE
MFST.DEGF                 70 : MUD FILTRATE SAMPLE TEMPERATURE
RMC .OHMM               1.22 : RESISTIVITY MUD CAKE
MCST.DEGF                 70 : MUD CAKE SAMPLE TEMPERATURE
TCS .HRS                 300 : TIME CIRCULATED STOPPED
LUN .                   7501 : LOGGING UNIT NUMBER
LUL .                    EDM : LOGGING UNIT LOCATION
ENGI.               STUEHMER : RECORDING ENGINEER
WITN.                HOVDEBO : WITNESSED BY
CLNT.                A2DTECH : CLIENT CODE
ORIG.        2" 5" 10" PRINT : ORIGIN OF DATA
UWI .       100103405818W500 : UNIQUE WELL ID
DICO. A2D Technologies, Inc. : DIGITIZING COMPANY
~Other -----------------------------------------------------
~ASCII -----------------------------------------------------
# ...
 2050.00000    -999.25   11.70100   11.70100  197.63630    5.05980   99.80910   99.80910   84.51110   55.87490   62.47230   62.47230    5.05980    4.46880    3.96410    4.46880    -999.25    -999.25 -107.99440   -7.55370    3.96410
 2100.00000    -999.25   12.06350   12.06350   79.71240   12.54510   85.80630   85.80630  104.29850   40.54550   43.97740   43.97740   12.54510    9.82770    7.39840    9.82770    -999.25    -999.25 -112.14480  -11.78610    7.39840
 2150.00000    -999.25   11.66930   11.66930   98.54450   10.14770   82.17910   82.17910   78.44630   39.66490   46.30140   46.30140   10.14770    8.92030    6.97680    8.92030    -999.25    -999.25 -111.04130  -10.85350    6.97680
 2200.00000    -999.25   13.14360   13.14360  158.71250    6.30070  101.71370  101.71370   99.82700   62.32300   59.29180   59.29180    6.30070    5.57820    4.96150    5.57820    -999.25    -999.25 -108.58800   -8.57110    4.96150
 2250.00000    -999.25   13.40100   13.40100  201.00910    4.97490   95.06740   95.06740   82.99090   51.48310   62.39090   62.39090    4.97490    4.54960    4.34500    4.54960    -999.25    -999.25 -108.91680   -9.07070    4.34500
 2300.00000    -999.25   12.32380   12.32380  192.44090    5.19640  101.30730  101.30730   89.73930   46.00110   55.58310   55.58310    5.19640    4.34990    3.67940    4.34990    -999.25    -999.25 -107.89450   -8.21930    3.67940
 2350.00000    -999.25   11.37660   11.37660  199.79220    5.00520   97.08540   97.08540   94.41410   54.84920   65.44460   65.44460    5.00520    4.33850    3.55790    4.33850    -999.25    -999.25 -106.91150   -7.40720    3.55790
 2400.00000    -999.25   12.44420   12.44420  230.70710    4.33450  107.98560  107.98560  108.60660   52.91100   58.90540   58.90540    4.33450    3.82010    3.02590    3.82010    -999.25    -999.25 -105.41560   -6.08220    3.02590
 2450.00000    -999.25   12.83780   12.83780  269.74540    3.70720   99.59230   99.59230  110.31840   55.66780   60.65570   60.65570    3.70720    3.43300    3.13660    3.43300    -999.25    -999.25 -101.74540   -2.58290    3.13660
 2500.00000    -999.25   13.53030   13.53030  327.39650    3.05440  102.76710  102.76710  107.42930   58.84430   65.59090   65.59090    3.05440    2.88810    3.03290    2.88810    -999.25    -999.25 -104.39060   -5.39890    3.03290
 2550.00000    -999.25   12.06390   12.06390   62.66880   15.95690   89.47050   89.47050   90.16140   49.22840   55.59570   55.59570   15.95690   12.42600   10.75660   12.42600    -999.25    -999.25 -111.68430  -12.86350   10.75660
 2600.00000    -999.25   13.15960   13.15960  204.24840    4.89600  100.40320  100.40320   95.55960   57.73400   62.72910   62.72910    4.89600    4.35980    3.78310    4.35980    -999.25    -999.25 -104.94090   -6.29100    3.78310
 2650.00000    -999.25   12.35320   12.35320  163.42270    6.11910   90.97140   90.97140   98.27670   42.85170   55.10800   55.10800    6.11910    5.02310    4.23340    5.02310    -999.25    -999.25 -107.61420   -9.13520    4.23340
 2700.00000    -999.25   13.78580   13.78580  336.28140    2.97370  130.57930  130.57930  109.15120   60.28880   64.98960   64.98960    2.97370    2.67960    2.70330    2.67960    -999.25    -999.25 -102.55670   -4.24850    2.70330
 2750.00000    -999.25   13.24000   13.24000  206.43670    4.84410   99.67180   99.67180   82.84980   47.87990   55.76010   55.76010    4.84410    4.16280    3.89130    4.16280    -999.25    -999.25 -106.55160   -8.41430    3.89130
 2800.00000    -999.25   14.33280   14.33280  283.87320    3.52270  100.10220  100.10220   90.33740   55.08550   60.77030   60.77030    3.52270    3.29770    2.88600    3.29770    -999.25    -999.25 -105.84310   -7.87670    2.88600
 2850.00000    -999.25   12.19160   12.19160  195.27440    5.12100  101.04560  101.04560   76.58330   49.82710   59.71630   59.71630    5.12100    4.55980    4.45640    4.55980    -999.25    -999.25 -109.33090  -11.53540    4.45640
 2900.00000    -999.25   12.38180   12.38180  184.69950    5.41420   91.40320   91.40320   77.86090   47.41730   53.86350   53.86350    5.41420    4.68940    3.85190    4.68940    -999.25    -999.25 -110.13890  -12.51420    3.85190
 2950.00000    -999.25   10.20900   10.20900   89.31600   11.19620   83.51300   83.51300   63.64870   35.38480   46.72960   46.72960   11.19620    9.89920    9.10330    9.89920    -999.25    -999.25 -111.60910  -14.15530    9.10330
 3000.00000    -999.25   12.10350   12.10350  186.19890    5.37060  100.40150  100.40150  107.01100   49.12600   62.57330   62.57330    5.37060    4.39470    3.89140    4.39470    -999.25    -999.25 -107.15220   -9.86930    3.89140
 3050.00000    -999.25   11.45380   11.45380  282.49390    3.53990   98.33190   98.33190  100.74390   66.45930   69.70710   69.70710    3.53990    3.30730    3.14680    3.30730    -999.25    -999.25 -108.15260  -11.04060    3.14680
 3100.00000    -999.25   14.28810   14.28810  238.84020    4.18690  115.32420  115.32420  106.52460   62.94750   63.25090   63.25090    4.18690    3.47750    3.14500    3.47750    -999.25    -999.25 -107.66690   -7.50910    3.14500
 3150.00000    -999.25   11.98010   11.98010  230.16550    4.34470  108.11460  108.11460   72.20340   55.09880   57.63490   57.63490    4.34470    3.37940    3.72000    3.37940    -999.25    -999.25 -111.78110   -7.96480    3.72000
 3200.00000    -999.25   11.32480   11.32480  262.47410    3.80990  108.77510  108.77510   97.95960   62.05660   71.92220   71.92220    3.80990    3.61160    3.04360    3.61160    -999.25    -999.25 -115.73120   -8.25650    3.04360
 3250.00000    -999.25   11.11690   11.11690   49.40780   20.23970   61.50000   61.50000   72.82490   39.42950   55.96820   55.96820   20.23970   13.69450   15.72060   13.69450    -999.25    -999.25 -121.94730  -10.81410   15.72060
 3300.00000    -999.25   11.02880   11.02880  248.24980    4.02820  101.55390  101.55390   92.60630   52.25060   64.54070   64.54070    4.02820    3.67360    3.18440    3.67360    -999.25    -999.25 -120.90750   -6.11580    3.18440
 3350.00000    -999.25   11.30480   11.30480  260.19980    3.84320  100.90160  100.90160   95.88190   57.36410   70.44810   70.44810    3.84320    3.46690    2.82180    3.46690    -999.25    -999.25 -122.89550   -4.44540    2.82180
 3400.00000    -999.25   11.25590   11.25590  197.04430    5.07500   85.24750   85.24750   65.23140   40.45730   51.44120   51.44120    5.07500    4.40420    4.21110    4.40420    -999.25    -999.25 -127.91100   -5.80240    4.21110
 3450.00000    -999.25   10.90650   10.90650  107.38260    9.31250   86.00760   86.00760   87.00770   45.30940   51.56180   51.56180    9.31250    7.90360    6.74710    7.90360    -999.25    -999.25 -131.59710   -5.83000    6.74710
 3500.00000    -999.25   11.15200   11.15200  157.77100    6.33830   88.73900   88.73900   97.31030   55.66250   54.88190   54.88190    6.33830    4.52540    4.97110    4.52540    -999.25    -999.25 -128.47070   -4.66040    4.97110
 3550.00000    -999.25    9.69820    9.69820   53.62330   18.64860   86.42510   86.42510   54.60370   30.18430   37.65590   37.65590   18.64860   14.40080   11.26970   14.40080    -999.25    -999.25 -138.91430  -17.75490   11.26970
 3600.00000    -999.25   10.65620   10.65620  168.35020    5.94000   85.55180   85.55180   79.04610   40.77190   55.08900   55.08900    5.94000    5.43330    4.68920    5.43330    -999.25    -999.25 -126.80250   -8.29390    4.68920
 3650.00000    -999.25   10.91440   10.91440  145.29820    6.88240   93.86390   93.86390  106.84860   55.26860   59.93970   59.93970    6.88240    5.53770    5.51880    5.53770    -999.25    -999.25 -122.68640   -6.82860    5.51880
 3700.00000    -999.25    9.88340    9.88340   78.70420   12.70580   84.18000   84.18000   70.88570   37.49110   38.18990   38.18990   12.70580   11.22020    9.64170   11.22020    -999.25    -999.25 -131.59380  -17.60850    9.64170
 3750.00000    -999.25    9.27040    9.27040   30.50200   32.78470   76.90570   76.90570   47.39300   28.78580   32.50740   32.50740   32.78470   27.65080   28.56900   27.65080    -999.25    -999.25 -126.99800  -14.50170   28.56900
