~Version ---------------------------------------------------
VERS.      2.0 : CWLS log ASCII Standard -VERSION 2.0
WRAP.       NO : One line per depth step
CREA. 10/26/17 : LAS Creation Date
~Well ------------------------------------------------------
STRT.FT                        1500.0 : START DEPTH
STOP.FT                       15000.0 : STOP DEPTH
STEP.FT                      50.00000 : STEP LENGTH
NULL.                         -999.25 : NULL VALUE
COMP.         UNO-TEX PETROLEUM CORP. : COMPANY
WELL. UNO-TEX NUMAC ANCONA 7-25-40-12 : WELL
FLD .                                 : FIELD
LOC .                                 : LOCATION
CTRY.                          CANADA : COUNTRY
SRVC.                         Unknown : SERVICE COMPANY
DATE.                     31-Dec-1970 : LOGDATE
PROV.                         Alberta : PROVINCE
UWI .                100072504012W500 : UNIQUE WELL ID
SLAT.WGS84                   52.47006 : SURFACE LATITUDE
SLON.WGS84                  -115.5904 : SURFACE LONGITUDE
~Curve Information -----------------------------------------
DEPT    .FT    : Depth Curve
CALDED  .IN    : CALIPER FROM DENSITY LOG [ADJ. TO RESISTIVITY LOG]
CALSED  .IN    : CALIPER FROM SONIC LOG [ADJ. TO RESISTIVITY LOG]
CALWS   .IN    : CALIPER [CALSED]
CILDED  .MMHO  : CONDUCTIVITY FROM RESISTIVITY LOG
DCORED  .G/C3  : DENSITY CORRECTION  FROM DENSITY LOG [ADJ. TO RESISTIVITY LOG]
DCORWS  .G/C3  : DENSITY CORRECTION [DCORED]
DENWS   .G/C3  : FORMATION BULK DENSITY [RHOBED]
DPHILSED.V/V   : DENSITY POROSITY LIMESTONE [M=2.71, F=1.00] FROM DENSITY LOG [ADJ. TO RESISTIVITY LOG]
DPOLSWS .V/V   : DENSITY POROSITY LIMESTONE [CALC. FROM DENWS,M=2.71, F=1.00]
DRESWS  .OHMM  : DEEP RESISTIVITY [1000/CILDED IF ILDED <=1, ILDED, SPL. TO ILDED @ 10781']
DTED    .US/F  : DELTA TIME FROM SONIC LOG [ADJ. TO RESISTIVITY LOG]
DTWS    .US/F  : COMPRESSIONAL SONIC [DTED]
GRDED   .GAPI  : GAMMA RAY FROM DENSITY LOG [ADJ. TO RESISTIVITY LOG]
GRSED   .GAPI  : GAMMA RAY FROM SONIC LOG [ADJ. TO RESISTIVITY LOG]
GRWS    .GAPI  : GAMMA RAY [GRDED]
ILDED   .OHMM  : DEEP INDUCTION RESISTIVITY FROM RESISTIVITY LOG
ILMED   .OHMM  : MEDIUM INDUCTION RESISTIVITY FROM RESISTIVITY LOG
LL8ED   .OHMM  : LATEROLOG-8 RESISTIVITY FROM RESISTIVITY LOG
MRESWS  .OHMM  : MEDIUM RESISTIVITY [ILMED]
RHOBED  .G/C3  : BULK DENSITY FROM DENSITY LOG [ADJ. TO RESISTIVITY LOG]
SNED    .OHMM  : SHORT NORMAL 16" FROM RESISTIVITY LOG
SPRED   .MV    : SPONTANEOUS POTENTIAL FROM RESISTIVITY LOG
SPWS    .MV    : SPONTANEOUS POTENTIAL [BASELINE 0 MV, SPRED]
SRESWS  .OHMM  : SHALLOW RESISTIVITY [LL8ED]
~Params ----------------------------------------------------
PD  .                     GL : PERMANENT DATUM
EPD .FT                 3930 : ELEVATION PERMANENT DATUM
LMF .                     KB : LOG MEASURED FROM
DAPD.FT                   19 : FEET ABOVE PERMANENT DATUM
EKB .FT                 3949 : KELLY BUSHING
EGL .FT                 3930 : GROUND LEVEL
DATE.               12/31/70 : RUN DATE
RUN .                      2 : RUN NUMBER
DD  .FT                15010 : DEPTH DRILLER
DL  .FT                15009 : DEPTH LOGGER
BLI .FT                15003 : BOTTOM LOG INTERVAL
TLI .FT                13473 : TOP LOG INTERVAL
CBD .FT                13473 : CASING BOTTOM DRILLER
CBL .FT                13473 : CASING BOTTOM LOGGER
BS  .IN                5.968 : BIT SIZE
BSD .FT                15010 : BIT SIZE AT DEPTH
DFT .                    GEL : DRILLING FLUID TYPE
DFD .                   11.3 : DRILLING FLUID DENSITY
DFV .                     55 : DRILLING FLUID VISCOSITY
DFPH.                   10.5 : DRILLING FLUID PH
DFL .                   11.5 : DRILLING FLUID LOSS
MSS .               FLOWLINE : MUD SAMPLE SOURCE
RMS .OHMM               0.84 : RESISTIVITY MUD SAMPLE
MST .DEGF                 68 : MUD SAMPLE TEMPERATURE
RMF .OHMM               0.47 : RESISTIVITY MUD FILTRATE SAMPLE
MFST.DEGF                 70 : MUD FILTRATE SAMPLE TEMPERATURE
RMC .OHMM               0.13 : RESISTIVITY MUD CAKE
MCST.DEGF                259 : MUD CAKE SAMPLE TEMPERATURE
TCS .HRS                   3 : TIME CIRCULATED STOPPED
LUN .                7002 RD : LOGGING UNIT NUMBER
ENGI.                 TALBOT : RECORDING ENGINEER
WITN.        BINNIE LEVEILLE : WITNESSED BY
CLNT.                A2DTECH : CLIENT CODE
ORIG.            2" 5" PRINT : ORIGIN OF DATA
UWI .       100072504012W500 : UNIQUE WELL ID
DICO. A2D Technologies, Inc. : DIGITIZING COMPANY
~Other -----------------------------------------------------
DIL-FDC-BHC TOO RUN
SP NOT RECORDED DUE TO SERIOUS DRIFTING HENCE BOTTOM PORTION DELETED
SP BASELINE QUESTIONABLE
SOME RESISTIVITY, SONIC CURVES ARE IN SMALL SCALE AND SOME ARE AT LARGE SCALE AT DIFFERENT DEPTHS
AND DCORED TOP TO BOTTOM FROM SMALL SECTION
~ASCII -----------------------------------------------------
# ...
 13100.00000   11.74270    9.57990    9.57990    -999.25   -0.12480   -0.12480    2.29100    0.24500    0.24500   75.99600   52.28620   52.28620    7.26960    5.56640    7.26960   75.99600  476.09050  369.14910  476.09050    2.29100    -999.25    -999.25    -999.25  369.14910
 13150.00000   11.06100    9.26650    9.26650    -999.25   -0.17870   -0.17870    2.51280    0.11520    0.11530 1232.70240   48.99200   48.99200   17.47300   16.69550   17.47300 1232.70240 1676.47720  513.93800 1676.47720    2.51280    -999.25    -999.25    -999.25  513.93800
 13200.00000    8.80140    8.80510    8.80510    -999.25   -0.15260   -0.15260    2.51880    0.08510    0.11180  104.60820   55.70630   55.70630   45.18660   40.80040   45.18660  104.60820  101.34810  229.82820  101.34810    2.51880    -999.25    -999.25    -999.25  229.82820
 13250.00000   13.01120    9.58610    9.58610    -999.25   -0.09580   -0.09580    2.27570    0.25730    0.25400   58.96200   55.47350   55.47350   19.64830   16.71660   19.64830   58.96200  155.74950  252.62940  155.74950    2.27570    -999.25    -999.25    -999.25  252.62940
 13300.00000    8.06430    8.58010    8.58010    -999.25   -0.06180   -0.06180    2.71360   -0.00770   -0.00210 1231.03940   48.63960   48.63960   58.80860   94.52080   58.80860 1231.03940 1570.24240  331.62100 1570.24240    2.71360    -999.25    -999.25    -999.25  331.62100
 13350.00000    7.48040    7.54430    7.54430    -999.25   -0.05500   -0.05500    2.53680    0.10050    0.10130  106.77690   47.36470   47.36470    7.92320    9.79360    7.92320  106.77690  191.28950  165.58920  191.28950    2.53680    -999.25    -999.25    -999.25  165.58920
 13400.00000    9.74750    8.77120    8.77120    -999.25   -0.12630   -0.12630    2.58580    0.07630    0.07260  929.39580   47.95740   47.95740   32.72480   30.54300   32.72480  929.39580  798.41790  584.87060  798.41790    2.58580    -999.25    -999.25    -999.25  584.87060
 13450.00000    9.79520    8.95300    8.95300    -999.25   -0.19480   -0.19480    2.36090    0.20500    0.20420  131.94260   47.26370   47.26370   15.53520   17.29100   15.53520  131.94260 1742.03890 1193.39010 1742.03890    2.36090    -999.25    -999.25    -999.25 1193.39010
 13500.00000    -999.25    6.39460    6.39460    -999.25    -999.25    -999.25    -999.25    -999.25    -999.25   76.54090   47.01110   47.01110    -999.25   23.03340    -999.25   76.54090  167.00840  282.24120  167.00840    -999.25    -999.25    -999.25    -999.25  282.24120
 13550.00000    -999.25    6.46870    6.46870    -999.25    -999.25    -999.25    -999.25    -999.25    -999.25    9.45030   56.62710   56.62710    -999.25   44.25890    -999.25    9.45030   12.95800   35.73140   12.95800    -999.25    -999.25    -999.25    -999.25   35.73140
 13600.00000    -999.25    6.47070    6.47070    -999.25    -999.25    -999.25    -999.25    -999.25    -999.25    5.90830   66.02740   66.02740    -999.25   69.02790    -999.25    5.90830    6.72380    9.15580    6.72380    -999.25    -999.25    -999.25    -999.25    9.15580
 13650.00000    -999.25    6.48660    6.48660    -999.25    -999.25    -999.25    -999.25    -999.25    -999.25    3.72610   71.95140   71.95140    -999.25   96.58950    -999.25    3.72610    4.11530    5.67910    4.11530    -999.25    -999.25    -999.25    -999.25    5.67910
 13700.00000    -999.25    6.41150    6.41150    -999.25    -999.25    -999.25    -999.25    -999.25    -999.25    2.78920   77.54830   77.54830    -999.25  111.08580    -999.25    2.78920    3.15260    4.20210    3.15260    -999.25    -999.25    -999.25    -999.25    4.20210
 13750.00000    -999.25    6.38300    6.38300    -999.25    -999.25    -999.25    -999.25    -999.25    -999.25    4.50070   68.20200   68.20200    -999.25   76.96400    -999.25    4.50070    5.23650    7.07350    5.23650    -999.25    -999.25    -999.25    -999.25    7.07350
 13800.00000    -999.25    6.38340    6.38340    -999.25    -999.25    -999.25    -999.25    -999.25    -999.25    3.62650   69.59120   69.59120    -999.25   74.72140    -999.25    3.62650    4.16760    6.51220    4.16760    -999.25    -999.25    -999.25    -999.25    6.51220
 13850.00000    -999.25    6.38110    6.38110    -999.25    -999.25    -999.25    -999.25    -999.25    -999.25    3.35240   73.95410   73.95410    -999.25  101.35220    -999.25    3.35240    3.70490    5.00640    3.70490    -999.25    -999.25    -999.25    -999.25    5.00640
 13900.00000    -999.25    6.38030    6.38030    -999.25    -999.25    -999.25    -999.25    -999.25    -999.25    3.83950   71.40920   71.40920    -999.25   91.52430    -999.25    3.83950    4.32300    5.92150    4.32300    -999.25    -999.25    -999.25    -999.25    5.92150
 13950.00000    -999.25    6.45350    6.45350    -999.25    -999.25    -999.25    -999.25    -999.25    -999.25    4.17600   70.71160   70.71160    -999.25   80.60920    -999.25    4.17600    4.66290    6.61800    4.66290    -999.25    -999.25    -999.25    -999.25    6.61800
 14000.00000    -999.25    6.45420    6.45420    -999.25    -999.25    -999.25    -999.25    -999.25    -999.25    4.33900   69.94090   69.94090    -999.25   77.82540    -999.25    4.33900    4.89180    6.70190    4.89180    -999.25    -999.25    -999.25    -999.25    6.70190
 14050.00000    -999.25    6.38930    6.38930    -999.25    -999.25    -999.25    -999.25    -999.25    -999.25    4.77100   68.15850   68.15850    -999.25   68.14590    -999.25    4.77100    5.26450    7.08380    5.26450    -999.25    -999.25    -999.25    -999.25    7.08380
 14100.00000    -999.25    6.45470    6.45470    -999.25    -999.25    -999.25    -999.25    -999.25    -999.25    3.70880   71.93470   71.93470    -999.25   78.59410    -999.25    3.70880    4.13370    5.51360    4.13370    -999.25    -999.25    -999.25    -999.25    5.51360
 14150.00000    -999.25    6.47600    6.47600    -999.25    -999.25    -999.25    -999.25    -999.25    -999.25    5.11010   71.78780   71.78780    -999.25   78.90860    -999.25    5.11010    5.74100    8.06850    5.74100    -999.25    -999.25    -999.25    -999.25    8.06850
 14200.00000    -999.25    6.56190    6.56190    -999.25    -999.25    -999.25    -999.25    -999.25    -999.25    4.60180   78.60830   78.60830    -999.25  101.57340    -999.25    4.60180    5.69150    5.95550    5.69150    -999.25    -999.25    -999.25    -999.25    5.95550
 14250.00000    -999.25    6.63770    6.63770    -999.25    -999.25    -999.25    -999.25    -999.25    -999.25    8.26630   85.65160   85.65160    -999.25   93.47110    -999.25    8.26630   12.39950   18.12950   12.39950    -999.25    -999.25    -999.25    -999.25   18.12950
 14300.00000    -999.25    6.34890    6.34890    -999.25    -999.25    -999.25    -999.25    -999.25    -999.25   18.42690   59.50250   59.50250    -999.25   32.47890    -999.25   18.42690   21.14900   36.68510   21.14900    -999.25    -999.25    -999.25    -999.25   36.68510
 14350.00000    -999.25    6.31480    6.31480    -999.25    -999.25    -999.25    -999.25    -999.25    -999.25   68.33860   55.65540   55.65540    -999.25   22.17940    -999.25   68.33860   92.32910  324.45620   92.32910    -999.25    -999.25    -999.25    -999.25  324.45620
 14400.00000    -999.25    6.28820    6.28820    -999.25    -999.25    -999.25    -999.25    -999.25    -999.25    8.49380   54.17080   54.17080    -999.25   57.63290    -999.25    8.49380   10.59440   21.52160   10.59440    -999.25    -999.25    -999.25    -999.25   21.52160
 14450.00000    -999.25    6.15400    6.15400    -999.25    -999.25    -999.25    -999.25    -999.25    -999.25   10.95310   60.92530   60.92530    -999.25   46.05230    -999.25   10.95310   12.10340   18.06870   12.10340    -999.25    -999.25    -999.25    -999.25   18.06870
 14500.00000    -999.25    6.10880    6.10880    -999.25    -999.25    -999.25    -999.25    -999.25    -999.25    5.96730   60.89870   60.89870    -999.25   59.53090    -999.25    5.96730    7.52580   10.21730    7.52580    -999.25    -999.25    -999.25    -999.25   10.21730
