~Version ---------------------------------------------------
VERS. 2.0 : CWLS log ASCII Standard -VERSION 2.0
WRAP.  NO : ONE LINE PER DEPTH STEP
~Well ------------------------------------------------------
STRT.F                                   347.3 : START DEPTH
STOP.F                                  9458.8 : STOP DEPTH
STEP.F                                 0.50000 : STEP LENGTH
NULL.                                  -999.25 : NULL VALUE
COMP. THE BRITISH AMERICAN OIL COMPANY LIMITED : COMPANY
WELL.              B.A. GOOSE RIVER 4-32-66-18 : WELL
FLD .                                          : FIELD
LOC .                                          : LOCATION
CTRY.                                   CANADA : COUNTRY
SRVC.                             Schlumberger : SERVICE COMPANY
DATE.                              02-Dec-1964 : LOGDATE
PROV.                                  Alberta : PROVINCE
UWI .                         100043206618W500 : UNIQUE WELL ID
SLAT.WGS84                            54.75185 : SURFACE LATITUDE
SLON.WGS84                           -116.6939 : SURFACE LONGITUDE
~Curve Information -----------------------------------------
DEPT.F    0   1   0  0 : 1 MEASURED DEPTH
GRN .GAPI 35 310 01 00 : GAMMA RAY FROM GRN LOG
NEUT.NAPI 35 330 01 00 : NEUTRON
GR  .GAPI 30 310 00 00 : GAMMA RAY
CILD.MMHO 05 110 46 00 : INDUCTION DEEP CONDUCTIVITY
ILD .OHMM 05 120 46 00 : INDUCTION DEEP RESISTIVITY
SN  .OHMM 05 040 16 00 : SHORT NORMAL RESISTIVITY
SPR .MV   05 010 01 00 : SPONTANEOUS POTENTIAL FROM RESISTIVITY LOG
GRS .GAPI 60 310 01 00 : GAMMA RAY FROM SONIC LOG
DT  .US/F 60 500 00 00 : DELTA-T (INTERVAL TRANSIT TIME)
CALS.IN   60 280 50 00 : CALIPER FROM SONIC LOG
DT_1.US/F 60 500 31 00 : DELTA-T (INTERVAL TRANSIT TIME)
~Params ----------------------------------------------------
PD  .                     GL : PERMANENT DATUM
EPD .FT                 2485 : ELEVATION PERMANENT DATUM
LMF .                     KB : LOG MEASURED FROM
DAPD.FT                   15 : FEET ABOVE PERMANENT DATUM
EKB .FT                 2500 : KELLY BUSHING
EGL .FT                 2485 : GROUND LEVEL
DATE.               12/02/64 : RUN DATE
RUN .                      1 : RUN NUMBER
DD  .FT                 9461 : DEPTH DRILLER
DL  .FT                 9460 : DEPTH LOGGER
BLI .FT                 9459 : BOTTOM LOG INTERVAL
TLI .FT                  781 : TOP LOG INTERVAL
CBD .FT                  784 : CASING BOTTOM DRILLER
CBL .FT                  781 : CASING BOTTOM LOGGER
BS  .IN                7.625 : BIT SIZE
BSD .FT                 9461 : BIT SIZE AT DEPTH
DFT .               GEL CHEM : DRILLING FLUID TYPE
DFD .                    9.8 : DRILLING FLUID DENSITY
DFV .                     95 : DRILLING FLUID VISCOSITY
DFPH.                    9.5 : DRILLING FLUID PH
DFL .                    7.4 : DRILLING FLUID LOSS
RMS .OHMM               2.38 : RESISTIVITY MUD SAMPLE
MST .DEGF                 64 : MUD SAMPLE TEMPERATURE
RMF .OHMM                2.1 : RESISTIVITY MUD FILTRATE SAMPLE
MFST.DEGF                 66 : MUD FILTRATE SAMPLE TEMPERATURE
RMC .OHMM               2.32 : RESISTIVITY MUD CAKE
MCST.DEGF                 66 : MUD CAKE SAMPLE TEMPERATURE
RMB .OHMM               0.84 : RESISTIVITY MUD AT BHT
TCS .HRS                   6 : TIME CIRCULATED STOPPED
LUN .                   3534 : LOGGING UNIT NUMBER
LUL .                    V V : LOGGING UNIT LOCATION
ENGI.               CHENOSKY : RECORDING ENGINEER
WITN.                  WEISS : WITNESSED BY
CLNT.                A2DTECH : CLIENT CODE
ORIG.            2" 5" PRINT : ORIGIN OF DATA
UWI .       100043206618W500 : UNIQUE WELL ID
DICO. A2D Technologies, Inc. : DIGITIZING COMPANY
~Other -----------------------------------------------------
~ASCII -----------------------------------------------------
# ...
 9436.30000    -999.25    -999.25    -999.25 1849.47610    0.23290    5.19680 -187.37140   48.70830   71.22380    7.25290   73.92690
 9436.80000    -999.25    -999.25    -999.25 1849.94020    0.24570    4.27200 -186.63010   51.33530   70.96840    7.23080   72.42580
 9437.30000    -999.25    -999.25    -999.25 1850.37120    0.25850    3.70970 -184.75700   51.37960   70.77910    7.24880   71.80080
 9437.80000    -999.25    -999.25    -999.25 1850.03720    0.27130    3.36400 -182.90020   46.10690   70.96920    7.26090   70.68670
 9438.30000    -999.25    -999.25    -999.25 1850.28250    0.28410    3.05280 -180.40070   45.20370   71.15300    7.26720   73.15840
 9438.80000    -999.25    -999.25    -999.25 1849.65360    0.29680    2.80910 -178.29330   46.50970   70.70840    7.24950   72.62920
 9439.30000    -999.25    -999.25    -999.25 1845.85470    0.30960    2.72370 -178.57030   46.66890   70.05620    7.20710   70.01410
 9439.80000    -999.25    -999.25    -999.25 1840.41970    0.32240    2.79030 -179.30980   46.73730   69.27170    7.18760   67.98300
 9440.30000    -999.25    -999.25    -999.25 1836.94620    0.33520    3.00340 -180.04510   49.42280   69.60550    7.17500   67.89820
 9440.80000    -999.25    -999.25    -999.25 1834.01940    0.56000    3.58280 -178.96460   54.28410   70.28350    7.13770   70.29430
 9441.30000    -999.25    -999.25    -999.25 1722.98240    0.79730    4.78250 -176.73930   56.92080   70.01710    7.09870   73.59730
 9441.80000    -999.25    -999.25    -999.25 1522.15410    1.05850    6.13450 -172.44060   56.41930   70.30000    7.05980   72.76710
 9442.30000    -999.25    -999.25    -999.25 1264.40230    1.12360    7.24040 -170.59790   56.05950   71.06120    7.07920   71.24880
 9442.80000    -999.25    -999.25    -999.25 1127.65000    1.12840    7.51810 -172.23400   55.55720   71.50210    7.11000   72.75400
 9443.30000    -999.25    -999.25    -999.25 1031.48900    1.15960    7.87820 -173.63290   52.09460   72.09800    7.16900   72.30330
 9443.80000    -999.25    -999.25    -999.25 1037.34290    1.22270    8.60960 -171.33260   45.54530   72.71380    7.23420   70.82540
 9444.30000    -999.25    -999.25    -999.25 1076.45860    1.09440    9.49630 -167.31990   46.66680   71.99050    7.30610   73.35380
 9444.80000    -999.25    -999.25    -999.25 1125.46010    1.09630   10.16750 -161.58760   47.18040   71.35520    7.29360   72.37790
 9445.30000    -999.25    -999.25    -999.25 1144.82400    1.09830   10.27840 -160.87790   43.82690   71.09830    7.26480   69.50620
 9445.80000    -999.25    -999.25    -999.25 1142.73140    1.10020    9.71350 -166.14030   39.52900   71.82420    7.23600   69.63360
 9446.30000    -999.25    -999.25    -999.25 1134.75020    1.10220    8.98360 -171.50900   37.86610   72.65950    7.20920   73.39820
 9446.80000    -999.25    -999.25    -999.25 1150.42240    1.10690    8.48530 -175.19750   23.30290   72.04530    7.21040   71.52000
 9447.30000    -999.25    -999.25    -999.25 1225.10790    1.11180    8.64670 -177.78080    3.99630   71.05700    7.22190   67.87640
 9447.80000    -999.25    -999.25    -999.25 1340.75340    1.01100    9.31150 -178.60150    0.33920   71.54630    7.24120   68.58900
 9448.30000    -999.25    -999.25    -999.25 1474.07170    0.85840    9.89990 -179.10790    0.28850   84.05150    7.25830   68.29720
 9448.80000    -999.25    -999.25    -999.25 1592.65300    0.68700    9.90200 -180.36590    0.44480  101.20810    7.26200   66.58980
 9449.30000    -999.25    -999.25    -999.25 1701.06490    0.51990    8.84310 -181.18880    0.58980  118.36460    7.26560   67.54540
 9449.80000    -999.25    -999.25    -999.25 1796.28520    0.35750    6.56380 -181.90940    0.66050  121.48620    7.26660   68.63630
 9450.30000    -999.25    -999.25    -999.25 1836.82910    0.27860    4.88800 -182.25490    0.51860  112.57300    7.25340   68.56770
 9450.80000    -999.25    -999.25    -999.25 1838.94930    0.27000    3.93650 -182.23900    0.38350   99.52020    7.24020   68.54550
 9451.30000    -999.25    -999.25    -999.25    -999.25    0.27750    3.80690 -182.20160    0.28310    -999.25    7.23610   68.06410
 9451.80000    -999.25    -999.25    -999.25    -999.25    0.28490    4.03530 -182.13640    0.38670    -999.25    7.23950   67.67850
 9452.30000    -999.25    -999.25    -999.25    -999.25    0.29240    4.16880 -181.52230    0.49020    -999.25    7.25650    -999.25
 9452.80000    -999.25    -999.25    -999.25    -999.25    0.29990    4.01460 -180.95720    0.59380    -999.25    7.25640    -999.25
 9453.30000    -999.25    -999.25    -999.25    -999.25    0.30740    3.74910 -179.89140    0.45640    -999.25    7.26300    -999.25
 9453.80000    -999.25    -999.25    -999.25    -999.25    0.31480    4.13980 -177.88600    0.16710    -999.25    7.30980    -999.25
 9454.30000    -999.25    -999.25    -999.25    -999.25    0.32230    5.72000 -172.76400   -0.12230    -999.25    7.19820    -999.25
 9454.80000    -999.25    -999.25    -999.25    -999.25    0.32980    9.89600 -162.23630   -0.38070    -999.25    6.98020    -999.25
 9455.30000    -999.25    -999.25    -999.25    -999.25    0.33730   15.68790 -145.32020   -0.14330    -999.25    7.83200    -999.25
 9455.80000    -999.25    -999.25    -999.25    -999.25    0.34480   21.14220 -123.78560    0.25960    -999.25    7.86950    -999.25
 9456.30000    -999.25    -999.25    -999.25    -999.25    0.35220   25.04050 -110.54150    0.74200    -999.25    7.87660    -999.25
 9456.80000    -999.25    -999.25    -999.25    -999.25    0.35970   27.51250  -99.05170    1.15310    -999.25    7.87940    -999.25
 9457.30000    -999.25    -999.25    -999.25    -999.25    0.36720   28.93460  -88.92320    -999.25    -999.25    -999.25    -999.25
 9457.80000    -999.25    -999.25    -999.25    -999.25    0.37470   29.43120  -81.71680    -999.25    -999.25    -999.25    -999.25
 9458.30000    -999.25    -999.25    -999.25    -999.25    0.38220   29.11680  -77.69540    -999.25    -999.25    -999.25    -999.25
 9458.80000    -999.25    -999.25    -999.25    -999.25    0.38960   28.75510  -75.45390    -999.25    -999.25    -999.25    -999.25
