~Version ---------------------------------------------------
VERS.      2.0 : CWLS log ASCII Standard -VERSION 2.0
WRAP.       NO : One line per depth step
CREA. 10/26/17 : LAS Creation Date
~Well ------------------------------------------------------
STRT.FT                          1100.0 : START DEPTH
STOP.FT                         10150.0 : STOP DEPTH
STEP.FT                        50.00000 : STEP LENGTH
NULL.                           -999.25 : NULL VALUE
COMP.              CHEVRON STANDARD LTD : COMPANY
WELL. CHEVRON GULF FOX CREEK 7-14-62-18 : WELL
FLD .                         FOX CREEK : FIELD
LOC .                                   : LOCATION
CTRY.                            CANADA : COUNTRY
SRVC.                      Schlumberger : SERVICE COMPANY
DATE.                       09-Dec-1976 : LOGDATE
PROV.                           Alberta : PROVINCE
UWI .                  100071406218W500 : UNIQUE WELL ID
SLAT.WGS84                     54.36034 : SURFACE LATITUDE
SLON.WGS84                    -116.5836 : SURFACE LONGITUDE
~Curve Information -----------------------------------------
DEPT    .FT    : Depth Curve
CALDED  .IN    : CALIPER FROM DENSITY LOG [ADJ. TO RESISTIVITY LOG]
CALSED  .IN    : CALIPER FROM SONIC LOG [ADJ. TO RESISTIVITY LOG]
CALWS   .IN    : CALIPER [CALSED]
CONDWS  .MMHO  : CONDUCTIVITY [1000/DRESWS]
DCORWS  .G/C3  : DENSITY CORRECTION [DRHOED]
DENWS   .G/C3  : FORMATION BULK DENSITY [CALC. FROM DPOLSWS M=2.71, F=1.00]
DPHILSED.V/V   : DENSITY POROSITY LIMESTONE [M=2.71, F=1.00] FROM DENSITY LOG [ADJ. TO RESISTIVITY LOG]
DPHISSED.V/V   : DENSITY POROSITY SANDSTONE [M=2.65, F=1.00] FROM DENSITY LOG [ADJ. TO RESISTIVITY LOG]
DPOLSWS .V/V   : DENSITY POROSITY LIMESTONE [DPHISSED CONVERTED TO LIMESTONE MATRIX, M=2.71, F=1.00, SPL. TO DPHILSED @ 9636']
DRESWS  .OHMM  : DEEP RESISTIVITY [ILDED]
DRHOED  .G/C3  : DENSITY CORRECTION FROM DENSITY LOG [ADJ. TO RESISTIVITY LOG/DPHISSED/DPHILSED]
DTED    .US/F  : DELTA TIME FROM SONIC LOG [ADJ. TO RESISTIVITY LOG]
DTWS    .US/F  : COMPRESSIONAL SONIC [DTED]
GRDED   .GAPI  : GAMMA RAY FROM DENSITY LOG [ADJ. TO RESISTIVITY LOG]
GRSED   .GAPI  : GAMMA RAY FROM SONIC LOG [ADJ. TO RESISTIVITY LOG]
GRWS    .GAPI  : GAMMA RAY [GRSED]
ILDED   .OHMM  : DEEP INDUCTION FROM RESISTIVITY LOG
ILMED   .OHMM  : MEDIUM INDUCTION FROM RESISTIVITY LOG
LL8ED   .OHMM  : 8 INCH LATEROLOG FROM RESISTIVITY LOG
MRESWS  .OHMM  : MEDIUM RESISTIVITY [ILMED]
NPHILSED.V/V   : NEUTRON POROSITY LIMESTONE FROM DENSITY LOG [ADJ. TO RESISTIVITY LOG]
NPHISSED.V/V   : NEUTRON POROSITY SANDSTONE FROM DENSITY LOG [ADJ. TO RESISTIVITY LOG]
NPOLSWS .V/V   : NEUTRON POROSITY LIMESTONE [NPHISSED MATRIX CONVERSION FOR LIMESTONE FROM SCHLUMBERGER (CNL), SPL. TO NPHILSED @ 9636']
RHOBED  .G/C3  : BULK DENSITY FROM DENSITY LOG [ADJ. TO RESISTIVITY LOG/DPHISSED/DPHILSED]
SPRED   .MV    : SPONTANEOUS POTENTIAL FROM RESISTIVITY LOG
SPWS    .MV    : SPONTANEOUS POTENTIAL [BASELINE 0 MV, SPRED]
SRESWS  .OHMM  : SHALLOW RESISTIVITY [LL8ED]
TENDED  .LBF   : TENSION FROM DENSITY LOG [ADJ. TO RESISTIVITY LOG]
TENSED  .LBF   : TENSION FROM SONIC LOG [ADJ. TO RESISTIVITY LOG]
~Params ----------------------------------------------------
PD  .                     GL : PERMANENT DATUM
EPD .FT               2939.3 : ELEVATION PERMANENT DATUM
LMF .                     KB : LOG MEASURED FROM
DAPD.FT                 14.7 : FEET ABOVE PERMANENT DATUM
EKB .FT                 2954 : KELLY BUSHING
EDF .FT                 2939 : DRILLING FLOOR
DATE.               12/09/76 : RUN DATE
RUN .                      1 : RUN NUMBER
DD  .FT                10196 : DEPTH DRILLER
DL  .FT                10201 : DEPTH LOGGER
BLI .FT                10195 : BOTTOM LOG INTERVAL
TLI .FT                 1133 : TOP LOG INTERVAL
CBD .FT                 1131 : CASING BOTTOM DRILLER
CBL .FT                 1133 : CASING BOTTOM LOGGER
BS  .IN                 8.75 : BIT SIZE
BSD .FT                10196 : BIT SIZE AT DEPTH
DFT .               GEL CHEM : DRILLING FLUID TYPE
DFD .                    8.9 : DRILLING FLUID DENSITY
DFV .                     84 : DRILLING FLUID VISCOSITY
DFPH.                   10.5 : DRILLING FLUID PH
DFL .                      9 : DRILLING FLUID LOSS
MSS .               FLOWLINE : MUD SAMPLE SOURCE
RMS .OHMM               2.18 : RESISTIVITY MUD SAMPLE
MST .DEGF                 95 : MUD SAMPLE TEMPERATURE
RMF .OHMM               2.63 : RESISTIVITY MUD FILTRATE SAMPLE
MFST.DEGF                 66 : MUD FILTRATE SAMPLE TEMPERATURE
RMC .OHMM               2.34 : RESISTIVITY MUD CAKE
MCST.DEGF                 56 : MUD CAKE SAMPLE TEMPERATURE
TCS .HRS                 6.5 : TIME CIRCULATED STOPPED
LUN .                   7691 : LOGGING UNIT NUMBER
LUL .                    WCT : LOGGING UNIT LOCATION
ENGI.                  LEGEE : RECORDING ENGINEER
WITN.             RICHARDSON : WITNESSED BY
CLNT.                A2DTECH : CLIENT CODE
ORIG.            2" 5" PRINT : ORIGIN OF DATA
UWI .       100071406218W500 : UNIQUE WELL ID
DICO. A2D Technologies, Inc. : DIGITIZING COMPANY
~Other -----------------------------------------------------
~ASCII -----------------------------------------------------
# ...
 6100.00000    9.67460    9.85910    9.85910  143.29730    0.07740    2.50660    -999.25    0.08690    0.11890    6.97850    0.07740   83.38590   83.38590   78.97780   97.67260   97.67260    6.97850    7.46700    8.52740    7.46700    -999.25    0.23980    0.19600    2.51180    0.85480  -30.85540    8.52740  787.32540 1489.47150
 6150.00000   12.91850   11.35400   11.35400  140.19100    0.17570    2.13650    -999.25    0.31120    0.33540    7.13810    0.17570   92.59860   92.59860   94.99760  115.55180  115.55180    7.13810    7.58740    8.44600    7.58740    -999.25    0.32070    0.27690    2.13010    0.49260  -31.09010    8.44600  655.90010 1409.55080
 6200.00000   11.35200    9.99870    9.99870  103.30900    0.03620    2.48460    -999.25    0.10030    0.13180    9.67970    0.03620   72.10980   72.10980  105.79990  130.39900  130.39900    9.67970   10.11950   12.71710   10.11950    -999.25    0.37210    0.32880    2.50320   17.33780  -14.11670   12.71710  718.79270 1563.94620
 6250.00000   12.12980   10.04190   10.04190   68.74320    0.20800    2.21410    -999.25    0.26420    0.29000   14.54690    0.20800   77.01110   77.01110   68.82740   86.10870   86.10870   14.54690   16.03740   26.41450   16.03740    -999.25    0.25460    0.21070    2.21450    1.40920  -29.91790   26.41450  510.46590 1660.26530
 6300.00000    8.88390    9.17410    9.17410   41.76580    0.11130    2.48710    -999.25    0.09870    0.13030   23.94310    0.11130   69.53810   69.53810   26.24970   29.09840   29.09840   23.94310   37.49090  109.82800   37.49090    -999.25    0.10650    0.06470    2.47600  -29.64550  -60.84510  109.82800  721.81370 1804.56400
 6350.00000   13.24780   11.72690   11.72690  287.95210    0.06920    2.32210    -999.25    0.19870    0.22680    3.47280    0.06920  102.03120  102.03120  111.22750  121.26400  121.26400    3.47280    3.70540    4.97320    3.70540    -999.25    0.42680    0.38450    2.31490   16.38250  -14.68890    4.97320  403.02350 1728.68870
 6400.00000   12.90390   11.69070   11.69070  234.19560    0.24680    2.12160    -999.25    0.32020    0.34410    4.27110    0.24680   96.81170   96.81170   85.57250  101.66220  101.66220    4.27110    4.49620    5.99490    4.49620    -999.25    0.42700    0.38470    2.13440   16.34020  -14.60390    5.99490  319.56990 1762.18570
 6450.00000   10.14160    9.59830    9.59830   47.75160    -999.25    -999.25    -999.25    -999.25    -999.25   20.94170    -999.25   76.29310   76.29310    -999.25  192.41380  192.41380   20.94170    6.98460   68.74940    6.98460    -999.25    -999.25    -999.25    -999.25   15.78550  -15.03030   68.74940  568.43080 1676.08930
 6500.00000    -999.25    9.79600    9.79600  111.94700    -999.25    -999.25    -999.25    -999.25    -999.25    8.93280    -999.25  109.09730  109.09730    -999.25  120.67730  120.67730    8.93280    7.79840   10.89130    7.79840    -999.25    -999.25    -999.25    -999.25   23.76590   -6.92240   10.89130    -999.25 1484.59870
 6550.00000    -999.25    9.34060    9.34060    4.57380    -999.25    -999.25    -999.25    -999.25    -999.25  218.63740    -999.25   60.21510   60.21510    -999.25   80.53830   80.53830  218.63740  353.21380  652.31590  353.21380    -999.25    -999.25    -999.25    -999.25  -10.93100  -42.24190  652.31590    -999.25 1600.30010
 6600.00000    -999.25    9.42220    9.42220  187.68770    -999.25    -999.25    -999.25    -999.25    -999.25    5.32800    -999.25   65.65350   65.65350    -999.25  125.70890  125.70890    5.32800    5.55780    6.93060    5.55780    -999.25    -999.25    -999.25    -999.25   15.13700  -22.39250    6.93060    -999.25 1570.66860
 6650.00000    -999.25    9.48140    9.48140   78.48240    -999.25    -999.25    -999.25    -999.25    -999.25   12.74940    -999.25   63.85420   63.85420    -999.25  125.64880  125.64880   12.74940   13.95150   19.79940   13.95150    -999.25    -999.25    -999.25    -999.25   24.88990  -18.81760   19.79940    -999.25 1631.73070
 6700.00000    -999.25    9.21480    9.21480  108.87550    -999.25    -999.25    -999.25    -999.25    -999.25    9.18480    -999.25   55.93270   55.93270    -999.25   33.14950   33.14950    9.18480   12.81340   71.33510   12.81340    -999.25    -999.25    -999.25    -999.25  -56.62540 -106.55160   71.33510    -999.25 1674.35320
 6750.00000    -999.25    9.42550    9.42550   44.81050    -999.25    -999.25    -999.25    -999.25    -999.25   22.31620    -999.25   55.12020   55.12020    -999.25   35.52640   35.52640   22.31620   31.80880  242.22050   31.80880    -999.25    -999.25    -999.25    -999.25  -17.01230  -73.11650  242.22050    -999.25 1704.44240
 6800.00000    -999.25    9.48540    9.48540   11.30180    -999.25    -999.25    -999.25    -999.25    -999.25   88.48160    -999.25   60.87740   60.87740    -999.25   75.04020   75.04020   88.48160   98.76090  266.60490   98.76090    -999.25    -999.25    -999.25    -999.25   26.74190  -35.54030  266.60490    -999.25 1861.92310
 6850.00000    -999.25    9.39420    9.39420  109.35420    -999.25    -999.25    -999.25    -999.25    -999.25    9.14460    -999.25   58.11340   58.11340    -999.25   76.93110   76.93110    9.14460   14.58360   34.48260   14.58360    -999.25    -999.25    -999.25    -999.25   -9.01390  -77.51470   34.48260    -999.25 1791.07180
 6900.00000    -999.25    9.57990    9.57990  107.95370    -999.25    -999.25    -999.25    -999.25    -999.25    9.28630    -999.25   51.28230   51.28230    -999.25   41.03310   41.03310    9.28630   16.30890   88.81640   16.30890    -999.25    -999.25    -999.25    -999.25  -35.06470 -109.74350   88.81640    -999.25 1730.98080
 6950.00000    -999.25    9.32000    9.32000   31.92450    -999.25    -999.25    -999.25    -999.25    -999.25   31.32390    -999.25   53.26150   53.26150    -999.25   36.54090   36.54090   31.32390   40.83910  220.60710   40.83910    -999.25    -999.25    -999.25    -999.25   -4.34770  -85.24510  220.60710    -999.25 1666.46420
 7000.00000    -999.25   10.33660   10.33660    5.51500    -999.25    -999.25    -999.25    -999.25    -999.25  181.32520    -999.25   51.68860   51.68860    -999.25   16.98070   16.98070  181.32520  232.53660 1472.91060  232.53660    -999.25    -999.25    -999.25    -999.25  -55.70210 -142.77750 1472.91060    -999.25 1635.63350
 7050.00000    -999.25    9.33180    9.33180   39.91120    -999.25    -999.25    -999.25    -999.25    -999.25   25.05580    -999.25   50.06170   50.06170    -999.25   17.50920   17.50920   25.05580   38.03830  186.98260   38.03830    -999.25    -999.25    -999.25    -999.25  -88.87700 -182.13040  186.98260    -999.25 2273.80370
 7100.00000    -999.25    9.53540    9.53540   18.64200    -999.25    -999.25    -999.25    -999.25    -999.25   53.64220    -999.25   49.66430   49.66430    -999.25   19.15350   19.15350   53.64220   73.71150  161.21980   73.71150    -999.25    -999.25    -999.25    -999.25  -49.00370 -148.47580  161.21980    -999.25 2225.82730
 7150.00000    -999.25    9.32460    9.32460  270.42470    -999.25    -999.25    -999.25    -999.25    -999.25    3.69840    -999.25   64.96130   64.96130    -999.25   98.44680   98.44680    3.69840    3.91750    5.78680    3.91750    -999.25    -999.25    -999.25    -999.25   35.99940  -69.65070    5.78680    -999.25 2145.28360
 7200.00000    -999.25    9.22240    9.22240  124.91410    -999.25    -999.25    -999.25    -999.25    -999.25    8.00550    -999.25   61.37710   61.37710    -999.25  103.36880  103.36880    8.00550    9.46980   12.74620    9.46980    -999.25    -999.25    -999.25    -999.25   57.26240  -54.60630   12.74620    -999.25 2118.73760
 7250.00000    -999.25    9.54260    9.54260  103.94360    -999.25    -999.25    -999.25    -999.25    -999.25    9.62060    -999.25   59.96820   59.96820    -999.25   70.09150   70.09150    9.62060   10.59750   12.82190   10.59750    -999.25    -999.25    -999.25    -999.25   86.13580  -31.91090   12.82190    -999.25 2031.92660
 7300.00000    -999.25    9.23320    9.23320   36.36370    -999.25    -999.25    -999.25    -999.25    -999.25   27.49990    -999.25   57.20540   57.20540    -999.25   75.83480   75.83480   27.49990   30.98540   69.98220   30.98540    -999.25    -999.25    -999.25    -999.25  113.45640  -10.76830   69.98220    -999.25 1980.56090
