~Version ---------------------------------------------------
VERS.      2.0 : CWLS log ASCII Standard -VERSION 2.0
WRAP.       NO : One line per depth step
CREA. 11/17/17 : LAS Creation Date
~Well ------------------------------------------------------
STRT.FT                            950.0 : START DEPTH
STOP.FT                           9400.0 : STOP DEPTH
STEP.FT                         50.00000 : STEP LENGTH
NULL.                            -999.25 : NULL VALUE
COMP.       CANADIAN HOMESTEAD OILS LTD. : COMPANY
WELL. HOMESTEAD ET AL SWEATH 10-34-68-19 : WELL
FLD .                                    : FIELD
LOC .                                    : LOCATION
CTRY.                             CANADA : COUNTRY
SRVC.                       Schlumberger : SERVICE COMPANY
DATE.                        03-Mar-1975 : LOGDATE
PROV.                            Alberta : PROVINCE
UWI .                   100103406819W500 : UNIQUE WELL ID
SLAT.WGS84                      54.93303 : SURFACE LATITUDE
SLON.WGS84                     -116.8066 : SURFACE LONGITUDE
~Curve Information -----------------------------------------
DEPT    .FT    : Depth Curve
CALSED  .IN    : CALIPER FROM SONIC LOG
CALWS   .IN    : CALIEPR [CALSED]
CONDWS  .MMHO  : CONDUCTIVITY [1000/DRESWS]
DRESWS  .OHMM  : DEEP RESISTIVITY [ILDED]
DTED    .US/F  : DELTA TIME FROM SONIC LOG
DTWS    .US/F  : COMPRESSIONAL SONIC [DTED]
GRSED   .GAPI  : GAMMA RAY FROM SONIC LOG
GRWS    .GAPI  : GAMMA RAY [GRSED]
ILDED   .OHMM  : DEEP INDUCTION RESISTIVITY FROM RESISTIVITY LOG
ILMED   .OHMM  : MEDIUM INDUCTION RESISTIVITY FROM RESISTIVITY LOG
LL8ED   .OHMM  : 8 INCH LATEROLOG RESISTIVITY FROM RESISTIVITY LOG
MRESWS  .OHMM  : MEDIUM RESISTIVITY [ILMED]
PORALSED.V/V   : SONIC POROSITY LIMESTONE [DTM=47.6, DTF=189] FROM SONIC LOG
SPOLSWS .V/V   : SONIC POROSITY LIMESTONE [PORALSED]
SPRED   .MV    : SPONTANEOUS POTENTIAL FROM RESISTIVITY LOG
SPWS    .MV    : SPONTANEOUS POTENTIAL [BASELINE 0 MV, SPRED]
SRESWS  .OHMM  : SHALLOW RESISTIVITY [LL8ED]
~Params ----------------------------------------------------
PD  .                     GL : PERMANENT DATUM
EPD .FT               2656.5 : ELEVATION PERMANENT DATUM
LMF .                     KB : LOG MEASURED FROM
DAPD.FT                 17.2 : FEET ABOVE PERMANENT DATUM
EKB .FT               2673.7 : KELLY BUSHING
EGL .FT               2656.5 : GROUND LEVEL
DATE.               03/03/75 : RUN DATE
RUN .                      1 : RUN NUMBER
DD  .FT                 9435 : DEPTH DRILLER
DL  .FT                 9447 : DEPTH LOGGER
BLI .FT                 9441 : BOTTOM LOG INTERVAL
TLI .FT                  970 : TOP LOG INTERVAL
CS  .IN                8.625 : CASING SIZE
CBD .FT                  970 : CASING BOTTOM DRILLER
CBL .FT                  970 : CASING BOTTOM LOGGER
BS  .IN                7.875 : BIT SIZE
BSD .FT                 9435 : BIT SIZE AT DEPTH
DFT .               GEL CHEM : DRILLING FLUID TYPE
DFD .                    9.1 : DRILLING FLUID DENSITY
DFV .                    100 : DRILLING FLUID VISCOSITY
DFPH.                    9.5 : DRILLING FLUID PH
DFL .                     12 : DRILLING FLUID LOSS
MSS .               FLOWLINE : MUD SAMPLE SOURCE
RMS .OHMM               2.56 : RESISTIVITY MUD SAMPLE
MST .DEGF                 66 : MUD SAMPLE TEMPERATURE
RMF .OHMM               2.28 : RESISTIVITY MUD FILTRATE SAMPLE
MFST.DEGF                 68 : MUD FILTRATE SAMPLE TEMPERATURE
RMC .OHMM               3.05 : RESISTIVITY MUD CAKE
MCST.DEGF                 67 : MUD CAKE SAMPLE TEMPERATURE
RMB .OHMM               0.76 : RESISTIVITY MUD AT BHT
TCS .HRS                 4.5 : TIME CIRCULATED STOPPED
LUN .                   7730 : LOGGING UNIT NUMBER
LUL .                    EDM : LOGGING UNIT LOCATION
ENGI.                 SMILEY : RECORDING ENGINEER
WITN.                 KENNEY : WITNESSED BY
CLNT.                A2DTECH : CLIENT CODE
ORIG.            2" 5" PRINT : ORIGIN OF DATA
UWI .       100103406819W500 : UNIQUE WELL ID
DICO. A2D Technologies, Inc. : DIGITIZING COMPANY
~Other -----------------------------------------------------
DIL-BCS LOG RUN.
SEVERE SP DRIFT DOWNHOLE. SEVERAL ELECTRICAL BASELINE SHIFTS.
SP BASELINE QUESTIONABLE
~ASCII -----------------------------------------------------
  950.00000    -999.25    -999.25    -999.25    -999.25    -999.25    -999.25   60.81980   60.81980    -999.25    -999.25    -999.25    -999.25    -999.25    -999.25    -999.25    -999.25    -999.25
 1000.00000    7.83640    7.83640  136.94130    7.30240  111.76660  111.76660   54.73820   54.73820    7.30240    7.45360    8.15430    7.45360    -999.25    -999.25  102.22710  -18.91130    8.15430
 1050.00000    9.04940    9.04940  139.99810    7.14550  114.56000  114.56000   71.54880   71.54880    7.14550    7.80570   10.23710    7.80570    0.44890    0.44890  105.48410  -15.81420   10.23710
 1100.00000   10.24280   10.24280  306.52280    3.26240  124.90730  124.90730   73.24900   73.24900    3.26240    3.50900    3.73890    3.50900    0.40020    0.40020  115.80260   -5.65660    3.73890
 1150.00000    8.45520    8.45520  209.75140    4.81840  117.12480  117.12480   47.71940   47.71940    4.81840    5.79050    6.26380    5.79050    0.45070    0.45070  112.32500   -9.29410    6.26380
 1200.00000   13.11790   13.11790  188.05120    5.31770  130.52310  130.52310   59.93150   59.93150    5.31770    5.79430    6.44510    5.79430    0.45000    0.45000  113.71320   -8.06690    6.44510
 1250.00000   10.92460   10.92460  245.77270    4.06880  115.49990  115.49990   66.99400   66.99400    4.06880    4.36510    4.77740    4.36510    0.45000    0.45000  117.03200   -4.90800    4.77740
 1300.00000    9.26260    9.26260  148.39990    6.74110  116.73240  116.73240   67.35270   67.35270    6.74110    7.51650    6.78980    7.51650    0.45000    0.45000  108.69920  -13.40060    6.78980
 1350.00000    8.44840    8.44840   93.37940   10.70900  111.94260  111.94260   64.66770   64.66770   10.70900   11.64410   13.00610   11.64410    0.45490    0.45490  108.09450  -14.16630   13.00610
 1400.00000   13.35480   13.35480  278.10250    3.59740  132.47280  132.47280   57.28010   57.28010    3.59740    4.01420    4.14380    4.01420    0.45000    0.45000  117.56190   -4.85880    4.14380
 1450.00000   14.58960   14.58960  278.90890    3.58540  138.14630  138.14630   47.48570   47.48570    3.58540    3.84550    4.32500    3.84550    0.45000    0.45000  117.68760   -4.74160    4.32500
 1500.00000   11.26190   11.26190  305.52080    3.27310  139.90530  139.90530   57.62080   57.62080    3.27310    3.58810    3.23750    3.58810    0.44900    0.44900  117.58700   -4.53880    3.23750
 1550.00000   11.86280   11.86280  338.76890    2.95260  141.53090  141.53090   64.27370   64.27370    2.95260    3.21220    3.67720    3.21220    0.45000    0.45000  117.57680   -4.24550    3.67720
 1600.00000   14.93820   14.93820  284.68130    3.51270  124.63080  124.63080   57.46450   57.46450    3.51270    3.94820    4.13130    3.94820    0.45000    0.45000  116.85800   -4.65890    4.13130
 1650.00000    8.45780    8.45780  128.55830    7.80010  106.18020  106.18020   47.57430   47.57430    7.80010    8.32560    8.69290    8.32560    0.41670    0.41670  105.47430  -15.73910    8.69290
 1700.00000   13.37520   13.37520  297.95600    3.35620  131.31850  131.31850   58.26690   58.26690    3.35620    3.64830    3.80190    3.64830    0.45000    0.45000  117.90880   -2.99920    3.80190
 1750.00000   12.37440   12.37440  295.27270    3.38670  122.46190  122.46190   56.76160   56.76160    3.38670    3.83570    3.52480    3.83570    0.45000    0.45000  117.25190   -3.35260    3.52480
 1800.00000   10.30150   10.30150  289.73200    3.45180  125.88400  125.88400   65.29800   65.29800    3.45180    3.74660    5.12720    3.74660    0.45000    0.45000  117.86820   -2.45800    5.12720
 1850.00000   12.66550   12.66550  277.90130    3.59840  127.46530  127.46530   60.69210   60.69210    3.59840    3.91260    4.59660    3.91260    0.45000    0.45000  117.75930   -2.31890    4.59660
 1900.00000    9.62970    9.62970  259.62800    3.85170  115.60750  115.60750   56.08220   56.08220    3.85170    4.01900    4.34230    4.01900    0.45040    0.45040  116.47810   -3.35370    4.34230
 1950.00000    9.52720    9.52720  285.77960    3.49920  104.15210  104.15210   63.70780   63.70780    3.49920    3.65880    3.81970    3.65880    0.39840    0.39840  116.85780   -2.72590    3.81970
 2000.00000    9.59910    9.59910  266.02110    3.75910  110.40640  110.40640   66.69920   66.69920    3.75910    3.92780    4.48060    3.92780    0.44900    0.44900  117.69430   -1.64300    4.48060
 2050.00000   10.94210   10.94210  297.83250    3.35760  121.12300  121.12300   66.66470   66.66470    3.35760    3.50230    4.33230    3.50230    0.45020    0.45020  118.10850   -0.98240    4.33230
 2100.00000    9.79910    9.79910  247.14550    4.04620  111.37210  111.37210   76.37740   76.37740    4.04620    4.23760    5.03960    4.23760    0.44980    0.44980  116.56840   -2.27450    5.03960
 2150.00000   11.19990   11.19990  163.56910    6.11430  112.93180  112.93180  100.42990  100.42990    6.11430    6.40910    7.28540    6.40910    0.44140    0.44140  112.75130   -5.84520    7.28540
 2200.00000   11.46440   11.46440  176.47580    5.66650  112.44900  112.44900  115.32180  115.32180    5.66650    5.97930    6.56520    5.97930    0.44840    0.44840  111.98230   -6.36620    6.56520
 2250.00000   12.20250   12.20250  184.37260    5.42380  122.78240  122.78240  132.90610  132.90610    5.42380    5.65470    7.07010    5.65470    0.44970    0.44970  115.63500   -2.46710    7.07010
 2300.00000    9.94120    9.94120  161.40710    6.19550  109.88500  109.88500  189.52200  189.52200    6.19550    6.65010    8.23330    6.65010    0.44030    0.44030  116.27890   -3.49110    8.23330
 2350.00000   12.00500   12.00500  181.59040    5.50690  114.53710  114.53710  116.06630  116.06630    5.50690    5.75260    7.30810    5.75260    0.45090    0.45090  115.19180   -4.02160    7.30810
 2400.00000   11.65250   11.65250  163.51390    6.11570  100.82330  100.82330  101.05670  101.05670    6.11570    6.37650    6.87730    6.37650    0.37000    0.37000  110.54030   -7.17590    6.87730
 2450.00000   12.78350   12.78350  109.26810    9.15180  101.85000  101.85000   88.93810   88.93810    9.15180    9.75060    9.86010    9.75060    0.37600    0.37600  107.15190   -9.05730    9.86010
 2500.00000   13.39780   13.39780  159.73930    6.26020  108.12180  108.12180  107.59620  107.59620    6.26020    6.58650    7.44560    6.58650    0.42690    0.42690  110.81110   -4.92410    7.44560
 2550.00000   10.19770   10.19770  162.48970    6.15470  109.49910  109.49910  106.79530  106.79530    6.15470    6.43500    6.83340    6.43500    0.43790    0.43790  110.31190   -5.80010    6.83340
 2600.00000   12.23440   12.23440  154.24010    6.48340   97.31490   97.31490  106.25440  106.25440    6.48340    6.80610    7.25510    6.80610    0.34300    0.34300  110.71570   -5.77560    7.25510
 2650.00000   12.97360   12.97360  174.09780    5.74410   94.62030   94.62030  100.77640  100.77640    5.74410    6.01970    7.01830    6.01970    0.33550    0.33550  112.09230   -4.77580    7.01830
 2700.00000   11.36260   11.36260  121.38430    8.23830   90.88690   90.88690  106.20860  106.20860    8.23830    8.59340    8.98920    8.59340    0.27530    0.27530  110.28820   -6.95910    8.98920
 2750.00000   10.13530   10.13530  169.10750    5.91340  117.67720  117.67720  127.06140  127.06140    5.91340    6.17040    7.08630    6.17040    0.45150    0.45150  112.75340   -4.87070    7.08630
 2800.00000   10.17750   10.17750  161.39440    6.19640  101.20160  101.20160  120.11760  120.11760    6.19640    6.47650    7.07720    6.47650    0.37030    0.37030  112.71960   -5.28130    7.07720
 2850.00000    9.06660    9.06660  176.68160    5.65990  105.18590  105.18590  128.85360  128.85360    5.65990    6.11450    7.02720    6.11450    0.40380    0.40380  114.64040   -3.73980    7.02720
 2900.00000    9.73560    9.73560  178.03430    5.61690  106.24280  106.24280  126.41720  126.41720    5.61690    5.91280    7.29090    5.91280    0.41470    0.41470  117.52630   -1.23070    7.29090
 2950.00000    8.96480    8.96480  167.77400    5.96040  104.86470  104.86470  123.92350  123.92350    5.96040    6.44580    7.58420    6.44580    0.39890    0.39890  117.77740   -1.35880    7.58420
