~Version ---------------------------------------------------
VERS.      2.0 : CWLS log ASCII Standard -VERSION 2.0
WRAP.       NO : One line per depth step
CREA. 11/16/17 : LAS Creation Date
~Well ------------------------------------------------------
STRT.FT                       1050.0 : START DEPTH
STOP.FT                      11200.0 : STOP DEPTH
STEP.FT                     50.00000 : STEP LENGTH
NULL.                        -999.25 : NULL VALUE
COMP.         CALIFORNIA STANDARD CO : COMPANY
WELL. CALSTAN B.A. KAYBOB 2-18-62-18 : WELL
FLD .                             WC : FIELD
LOC .                                : LOCATION
CTRY.                         CANADA : COUNTRY
SRVC.                   Schlumberger : SERVICE COMPANY
DATE.                    31-Mar-1959 : LOGDATE
PROV.                        Alberta : PROVINCE
UWI .               100021806218W500 : UNIQUE WELL ID
SLAT.WGS84                  54.35781 : SURFACE LATITUDE
SLON.WGS84                 -116.6847 : SURFACE LONGITUDE
~Curve Information -----------------------------------------
DEPT  .FT         : Depth Curve
CALWS .IN         : CALIPER [MCALED]
CILDED.MMHO       : CONDUCTIVITY FROM RESISTIVITY LOG
CONDWS.MMHO       : CONDUCTIVITY [1000/DRESWS]
DRESWS.OHMM       : DEEP RESISTIVITY [1000/CILDED IF ILDED < 1, ILDED]
DT1ED .US/F       : SONIC FROM SONIC LOG [ADJ TO RESISTIVITY LOG]
DTED  .US/F       : SONIC FROM SONIC LOG [ADJ TO RESISTIVITY LOG]
DTWS  .US/F       : COMPRESSIONAL SONIC [DTED]
GRSED .UgRa-Eq/T  : GAMMA RAY FROM SONIC LOG [ADJ TO RESISTIVITY LOG]
GRWS  .GAPI       : GAMMA RAY [GRSED*16.50]
ILDED .OHMM       : INDUCTION DEEP FROM RESISTIVITY LOG
MCALED.IN         : CALIPER FROM MICROLOG [ADJ TO RESISTIVITY LOG]
SNED  .OHMM       : SHORT NORMAL FROM RESISTIVITY LOG
SPRED .MV         : SPONTANEOUS POTENTIAL FROM RESISTIVITY LOG
SPWS  .MV         : SPONTANEOUS POTENTIAL [BASELINE 0 MV, SPRED]
SRESWS.OHMM       : SHALLOW RESISTIVITY [SNED]
~Params ----------------------------------------------------
LMF .                     KB : LOG MEASURED FROM
DMF .                     KB : DRILLING MEASURED FROM
EKB .FT                 2888 : KELLY BUSHING
EGL .FT                 2876 : GROUND LEVEL
DATE.               03/31/59 : RUN DATE
RUN .                      2 : RUN NUMBER
DD  .FT                11256 : DEPTH DRILLER
DL  .FT                11246 : DEPTH LOGGER
BLI .FT                11241 : BOTTOM LOG INTERVAL
TLI .FT                 2250 : TOP LOG INTERVAL
BS  .IN                    9 : BIT SIZE
BSD .FT                11256 : BIT SIZE AT DEPTH
DFT .               OIL EMUL : DRILLING FLUID TYPE
DFD .                   10.6 : DRILLING FLUID DENSITY
DFV .                    112 : DRILLING FLUID VISCOSITY
DFPH.                    9.5 : DRILLING FLUID PH
DFL .                    5.4 : DRILLING FLUID LOSS
RMS .OHMM                  3 : RESISTIVITY MUD SAMPLE
MST .DEGF                 64 : MUD SAMPLE TEMPERATURE
RMF .OHMM                  2 : RESISTIVITY MUD FILTRATE SAMPLE
MFST.DEGF                 77 : MUD FILTRATE SAMPLE TEMPERATURE
RMC .OHMM                3.3 : RESISTIVITY MUD CAKE
MCST.DEGF                 77 : MUD CAKE SAMPLE TEMPERATURE
RMB .OHMM               0.96 : RESISTIVITY MUD AT BHT
TCS .HRS                 7.5 : TIME CIRCULATED STOPPED
LUN .                   1573 : LOGGING UNIT NUMBER
LUL .                    W C : LOGGING UNIT LOCATION
ENGI.               SHERRIFF : RECORDING ENGINEER
WITN.                  SMITH : WITNESSED BY
CLNT.                A2DTECH : CLIENT CODE
ORIG.            2" 5" PRINT : ORIGIN OF DATA
UWI .       100021806218W500 : UNIQUE WELL ID
DICO. A2D Technologies, Inc. : DIGITIZING COMPANY
~Other -----------------------------------------------------
~ASCII -----------------------------------------------------
# ...
 7950.00000    9.64540    8.96090    2.00380  499.04020   50.63380   50.42800   50.42800    5.98160   98.69640  499.04020    9.64540  199.56750 -147.35400  -52.95630  199.56750
 8000.00000   10.13580    7.34240    2.00100  499.74010   53.50340   53.42130   53.42130    6.09790  100.61540  499.74010   10.13580  176.98390 -173.86630  -77.01720  176.98390
 8050.00000   10.64420    7.65670    2.02000  495.06130   54.13660   54.03200   54.03200    6.31070  104.12650  495.06130   10.64420  202.70830 -182.86630  -83.56580  202.70830
 8100.00000   11.86220    7.64720    2.03000  492.60610   53.78070   53.66090   53.66090    5.98530   98.75740  492.60610   11.86220  158.44720 -201.59600  -99.82800  158.44720
 8150.00000   11.72550    8.80230    2.09510  477.31140   52.43100   52.36530   52.36530    6.18520  102.05580  477.31140   11.72550  147.46960 -201.77320  -97.55380  147.46960
 8200.00000   13.57110    8.47570    2.38510  419.27010   54.64400   54.43330   54.43330    5.79320   95.58780  419.27010   13.57110  185.24470 -223.20480 -116.51780  185.24470
 8250.00000   11.59240    8.25280    3.38190  295.68770   52.35230   52.16330   52.16330    5.95910   98.32520  295.68770   11.59240  156.41040 -215.18240 -106.04400  156.41040
 8300.00000   11.77060    7.89680    2.97120  336.56890   51.74050   51.64120   51.64120    6.27990  103.61830  336.56890   11.77060  175.04180 -216.46560 -104.87580  175.04180
 8350.00000   11.54180    6.87860    2.00360  499.10710   51.67020   51.52780   51.52780    6.32080  104.29320  499.10710   11.54180  166.27920 -200.48750  -86.43020  166.27920
 8400.00000   11.33110    7.41880    2.31570  431.83450   54.52620   54.45630   54.45630    6.13820  101.28030  431.83450   11.33110  220.76000 -183.00060  -66.49190  220.76000
 8450.00000   10.95590    6.69100    2.03080  492.40620   49.95900   49.89650   49.89650    6.35350  104.83280  492.40620   10.95590  176.44640 -205.70530  -86.72900  176.44640
 8500.00000   10.25020   10.77260    5.56790  179.60040   51.80840   51.68860   51.68860    6.76200  111.57300  179.60040   10.25020  130.07840 -196.19670  -74.76900  130.07840
 8550.00000   11.57620    9.22540    3.39830  294.26340   55.62650   55.43520   55.43520    6.65490  109.80580  294.26340   11.57620  132.18210 -186.72350  -62.84440  132.18210
 8600.00000    9.64650   21.70840   16.25490   61.51980   52.10170   51.96890   51.96890    6.17480  101.88420   61.51980    9.64650   90.17940 -173.23290  -46.88630   90.17940
 8650.00000    9.41750   11.84430    7.42770  134.63200   50.92290   50.78250   50.78250    6.57490  108.48590  134.63200    9.41750  120.36220 -161.64710  -34.78850  120.36220
 8700.00000    9.40430    9.85640    4.61890  216.50190   50.03510   49.89090   49.89090    6.77890  111.85190  216.50190    9.40430  169.00100 -188.67360  -68.07480  169.00100
 8750.00000   11.35780   15.35710    8.50950  117.51600   49.68450   49.56500   49.56500    7.00250  115.54130  117.51600   11.35780  100.45890 -196.57240  -82.19250  100.45890
 8800.00000   10.61580   11.28480    6.49180  154.04050   51.40230   51.25280   51.25280    6.70640  110.65560  154.04050   10.61580   80.87860 -180.01330  -71.85230   80.87860
 8850.00000    9.21520   12.66490    8.54730  116.99550   54.92310   54.70830   54.70830    7.72520  127.46580  116.99550    9.21520  123.18680 -112.38750  -10.48640  123.18680
 8900.00000    9.16810   14.12540    8.97740  111.39120   54.85060   54.87700   54.87700    7.80620  128.80230  111.39120    9.16810  102.25800 -112.55130  -13.81700  102.25800
 8950.00000    9.20610    9.73630    4.93870  202.48430   55.28540   55.27000   55.27000    7.89040  130.19160  202.48430    9.20610  163.17000 -118.34810  -20.85230  163.17000
 9000.00000    9.18460   10.23420    5.62540  177.76500   54.66150   54.60710   54.60710    7.18230  118.50790  177.76500    9.18460  126.84660 -124.08580  -27.82050  126.84660
 9050.00000    9.18470   11.10960    6.78670  147.34800   53.21090   53.18100   53.18100    7.35160  121.30140  147.34800    9.18470  104.96380 -113.45460  -18.41980  104.96380
 9100.00000    9.29900   34.17230   30.09120   33.23230   58.33940   58.31570   58.31570    8.14740  134.43210   33.23230    9.29900   41.86780  -97.51190   -3.71570   41.86780
 9150.00000    9.56470   89.95970   94.82000   10.54630   67.77660   67.80770   67.80770    9.63570  158.98900   10.54630    9.56470   14.91610 -101.08860   -8.52290   14.91610
 9200.00000    9.20400   24.16900   17.57550   56.89730   57.31660   57.27440   57.27440    8.34760  137.73540   56.89730    9.20400    -999.25 -106.87850  -15.55140    -999.25
 9250.00000    9.30690   55.94120   52.12050   19.18630   65.88020   65.82900   65.82900    8.95730  147.79540   19.18630    9.30690   30.12120 -103.69480  -13.59810   30.12120
 9300.00000    9.18910   50.50900   47.77920   20.92960   65.17200   65.02550   65.02550    9.08550  149.91080   20.92960    9.18910   26.61280 -101.61610  -12.74990   26.61280
 9350.00000    9.17670   80.30930   82.70140   12.09170   71.22220   70.97900   70.97900   10.20990  168.46330   12.09170    9.17670   20.74500 -113.83070  -26.20310   20.74500
 9400.00000   10.11500   79.49880   80.29420   12.45420   61.59830   64.51070   64.51070    9.21210  151.99970   12.45420   10.11500   17.10970 -106.85340  -20.45630   17.10970
 9450.00000   15.76320  185.93080  215.92680    4.63120   78.58200   78.04120   78.04120    9.15890  151.12180    4.63120   15.76320    6.55770 -118.70710  -33.54860    6.55770
 9500.00000   14.22040  121.32180  133.06010    7.51540   76.06770   76.31650   76.31650   12.29650  202.89220    7.51540   14.22040   11.94310 -117.86270  -33.93470   11.94310
 9550.00000    9.40690   72.06810   71.74370   13.93850   65.91890   65.70650   65.70650    9.30190  153.48130   13.93850    9.40690   20.15050 -114.85900  -32.16150   20.15050
 9600.00000    9.23280   70.07650   68.98260   14.49640   67.43670   67.34380   67.34380   10.01000  165.16500   14.49640    9.23280   19.82450 -119.71940  -38.26040   19.82450
 9650.00000    9.28370   67.16880   66.64270   15.00540   69.12140   68.89180   68.89180    8.91330  147.06940   15.00540    9.28370   21.25160 -122.74500  -42.51650   21.25160
 9700.00000   11.44580   97.13310  102.89230    9.71890   80.02470   82.23570   82.23570   10.72700  176.99550    9.71890   11.44580   13.98690 -119.87510  -40.88520   13.98690
 9750.00000   11.67800   97.61650  102.27880    9.77720   74.40430   73.89550   73.89550   10.04560  165.75240    9.77720   11.67800   13.86230 -111.04090  -33.28150   13.86230
 9800.00000   12.93920  102.73960  109.40920    9.14000   70.09550   70.04050   70.04050    8.83080  145.70820    9.14000   12.93920   14.52560 -104.46740  -27.93850   14.52560
 9850.00000   12.37680   70.99270   62.84010   15.91340   76.95220   76.85840   76.85840    9.37060  154.61490   15.91340   12.37680   29.91410  -91.29380  -16.00350   29.91410
 9900.00000    9.14470    9.80790    6.31920  158.24800   79.25300   79.18950   79.18950   11.81900  195.01350  158.24800    9.14470  171.68180  -85.07710  -11.01720  171.68180
 9950.00000    9.05130    9.59880    5.36850  186.27250   79.63440   79.13530   79.13530   15.33810  253.07870  186.27250    9.05130  196.39580  -91.37710  -18.55580  196.39580
 10000.00000    9.22440   10.65990    7.92300  126.21550   50.88390   51.30150   51.30150    6.69900  110.53350  126.21550    9.22440  105.33860  -79.60530   -8.01450  105.33860
 10050.00000    8.78680   11.58120    7.58440  131.84980   54.26110   53.89780   53.89780    5.04130   83.18140  131.84980    8.78680  100.11720 -144.92790  -74.20330  100.11720
 10100.00000   11.55070   10.56840    6.61350  151.20690   50.83400   50.87350   50.87350    4.70710   77.66710  151.20690   11.55070  206.02350 -224.34740 -153.62280  206.02350
 10150.00000    9.63490    9.61360    5.42980  184.16790   50.40390   50.39300   50.39300    4.29040   70.79160  184.16790    9.63490  201.32040 -210.09000 -139.36540  201.32040
 10200.00000    9.99600    6.85900    4.30170  232.46870   53.54970   53.59970   53.59970    4.42610   73.03060  232.46870    9.99600  223.91780 -182.37460 -111.65000  223.91780
