~Version ---------------------------------------------------
VERS. 2.0 : CWLS log ASCII Standard -VERSION 2.0
WRAP.  NO : ONE LINE PER DEPTH STEP
~Well ------------------------------------------------------
STRT.F                        300.0 : START DEPTH
STOP.F                       9300.0 : STOP DEPTH
STEP.F                     50.00000 : STEP LENGTH
NULL.                       -999.25 : NULL VALUE
COMP. CANADIAN EXPORT OIL & GAS LTD : COMPANY
WELL. CEGO ET AL SUNSET 10-23-69-19 : WELL
FLD .                               : FIELD
LOC .                               : LOCATION
CTRY.                        CANADA : COUNTRY
SRVC.                       Unknown : SERVICE COMPANY
DATE.                   18-Jan-1973 : LOGDATE
PROV.                       Alberta : PROVINCE
UWI .              100102306919W500 : UNIQUE WELL ID
SLAT.WGS84                   54.992 : SURFACE LATITUDE
SLON.WGS84                -116.7783 : SURFACE LONGITUDE
~Curve Information -----------------------------------------
DEPT  .F                 : 
ASN   .OHMM 05 041 16 00 : AMPLIFIED SHORT NORMAL RESISTIVITY 16"
CILD_1.MMHO 07 110 46 00 : CONDUCTIVITY INDUCTION LOG DEEP
ILD_1 .None              : 
SPR_1 .M/V  00 000 00 01 : SPONTANEOUS POTENTIAL FROM RESISTIVITY
CALS  .IN                : CALIPER FROM SONIC LOG
DT    .US/F 60 520 00 00 : DELTA TIME FROM SONIC LOG
GRS   .GAPI              : GAMMA RAY FROM SONIC LOG
SPR   .MV   99 010 00 00 : SELF POTENTIAL
ASFL  .OHMM 06 221 01 00 : AMPLIFIED SHALLOW FOCUSED RESISTIVITY
CILD  .MMHO 07 110 00 00 : CONDUCTIVITY INDUCTION LOG
ILD   .OHMM 06 121 12 00 : INDUCTION LOG RESISTIVITY
GR    .GAPI              : GAMMA RAY FROM CEMENT BOND
~Params ----------------------------------------------------
PD  .                     GL : PERMANENT DATUM
EPD .FT                 2660 : ELEVATION PERMANENT DATUM
LMF .                     KB : LOG MEASURED FROM
DAPD.FT                 14.7 : FEET ABOVE PERMANENT DATUM
EKB .FT               2674.7 : KELLY BUSHING
EGL .FT                 2660 : GROUND LEVEL
DATE.               01/18/73 : RUN DATE
RUN .                      2 : RUN NUMBER
DD  .FT                 9336 : DEPTH DRILLER
DL  .FT                 9336 : DEPTH LOGGER
BLI .FT                 9325 : BOTTOM LOG INTERVAL
TLI .FT                 8800 : TOP LOG INTERVAL
CBD .FT                  944 : CASING BOTTOM DRILLER
CBL .FT                  941 : CASING BOTTOM LOGGER
BS  .IN                7.875 : BIT SIZE
BSD .FT                 9336 : BIT SIZE AT DEPTH
DFT .                    KCL : DRILLING FLUID TYPE
DFD .                    9.1 : DRILLING FLUID DENSITY
DFV .                     60 : DRILLING FLUID VISCOSITY
DFPH.                    9.0 : DRILLING FLUID PH
DFL .                    8.2 : DRILLING FLUID LOSS
RMS .OHMM               0.44 : RESISTIVITY MUD SAMPLE
MST .DEGF                 55 : MUD SAMPLE TEMPERATURE
RMF .OHMM                0.6 : RESISTIVITY MUD FILTRATE SAMPLE
MFST.DEGF                 60 : MUD FILTRATE SAMPLE TEMPERATURE
RMB .OHMM               0.14 : RESISTIVITY MUD AT BHT
TCS .HRS                   2 : TIME CIRCULATED STOPPED
LUN .                   7635 : LOGGING UNIT NUMBER
LUL .                    D C : LOGGING UNIT LOCATION
ENGI.                   HALL : RECORDING ENGINEER
WITN.         WIGGINS WILMER : WITNESSED BY
CLNT.                A2DTECH : CLIENT CODE
ORIG.            2" 5" PRINT : ORIGIN OF DATA
UWI .       100102306919W500 : UNIQUE WELL ID
DICO. A2D Technologies, Inc. : DIGITIZING COMPANY
~Other -----------------------------------------------------
~ASCII -----------------------------------------------------
  300.00000    -999.25    -999.25    -999.25    -999.25    -999.25    -999.25    -999.25    -999.25    -999.25    -999.25    -999.25   61.69420
  350.00000    -999.25    -999.25    -999.25    -999.25    -999.25    -999.25    -999.25    -999.25    -999.25    -999.25    -999.25   60.41360
  400.00000    -999.25    -999.25    -999.25    -999.25    -999.25    -999.25    -999.25    -999.25    -999.25    -999.25    -999.25   53.72040
  450.00000    -999.25    -999.25    -999.25    -999.25    -999.25    -999.25    -999.25    -999.25    -999.25    -999.25    -999.25   60.41670
  500.00000    -999.25    -999.25    -999.25    -999.25    -999.25    -999.25    -999.25    -999.25    -999.25    -999.25    -999.25   58.92140
  550.00000    -999.25    -999.25    -999.25    -999.25    -999.25    -999.25    -999.25    -999.25    -999.25    -999.25    -999.25   49.85770
  600.00000    -999.25    -999.25    -999.25    -999.25    -999.25    -999.25    -999.25    -999.25    -999.25    -999.25    -999.25   52.23640
  650.00000    -999.25    -999.25    -999.25    -999.25    -999.25    -999.25    -999.25    -999.25    -999.25    -999.25    -999.25   51.42260
  700.00000    -999.25    -999.25    -999.25    -999.25    -999.25    -999.25    -999.25    -999.25    -999.25    -999.25    -999.25   51.92100
  750.00000    -999.25    -999.25    -999.25    -999.25    -999.25    -999.25    -999.25    -999.25    -999.25    -999.25    -999.25   34.07170
  800.00000    -999.25    -999.25    -999.25    -999.25    -999.25    -999.25    -999.25    -999.25    -999.25    -999.25    -999.25   34.67090
  850.00000    -999.25    -999.25    -999.25    -999.25    -999.25    -999.25    -999.25    -999.25    -999.25    -999.25    -999.25   46.00980
  900.00000    -999.25    -999.25    -999.25    -999.25    -999.25    -999.25    -999.25    -999.25    -999.25    -999.25    -999.25   41.18310
  950.00000    -999.25    -999.25    -999.25    -999.25    8.20350  114.32900   58.93150  -22.30040    3.35490   44.34680    7.29180   54.49410
 1000.00000    -999.25    -999.25    -999.25    -999.25    8.59410  162.89580   64.94360  -29.91740    2.82840  226.16710    5.50550   57.47240
 1050.00000    -999.25    -999.25    -999.25    -999.25    8.17930  129.09200   62.38890  -24.37200    3.36000  188.82320    6.36260   55.73900
 1100.00000    -999.25    -999.25    -999.25    -999.25    7.57320  125.34410   42.70120    3.74320    4.45990   81.23910   15.20620   37.58420
 1150.00000    -999.25    -999.25    -999.25    -999.25    8.25490  165.69530   65.07900  -23.67950    2.40950  253.68050    4.93870   69.08400
 1200.00000    -999.25    -999.25    -999.25    -999.25    8.48470  125.54720   60.15040  -23.70890    2.37520  300.33810    4.21150   52.15010
 1250.00000    -999.25    -999.25    -999.25    -999.25    7.58210  117.72700   60.77150   -9.53000    2.69510  175.74700    6.86890   57.41170
 1300.00000    -999.25    -999.25    -999.25    -999.25    9.38890  156.07920   67.34710  -23.42620    2.13510  284.56200    4.55280   61.22470
 1350.00000    -999.25    -999.25    -999.25    -999.25    9.03220  117.90470   62.94770  -24.04460    3.06900  250.83380    4.99090   61.85930
 1400.00000    -999.25    -999.25    -999.25    -999.25    8.88730  148.14540   57.81280  -21.70520    2.20130  277.54140    4.50090   59.69190
 1450.00000    -999.25    -999.25    -999.25    -999.25    7.73710  116.08610   52.62040  -11.57330    2.94800  192.16750    6.70220   59.25540
 1500.00000    -999.25    -999.25    -999.25    -999.25    9.17450  138.72790   53.73780  -19.93150    2.10220  272.35610    4.91780   62.08040
 1550.00000    -999.25    -999.25    -999.25    -999.25    8.62110  120.71250   66.41560  -24.87890    2.43620  255.47480    4.74590   30.95040
 1600.00000    -999.25    -999.25    -999.25    -999.25    8.18650  113.39070   60.39030  -25.46010    3.91090  201.96620    5.93300   70.51820
 1650.00000    -999.25    -999.25    -999.25    -999.25    8.21620  173.04690   65.70780  -24.77830    3.34730  234.51000    5.27300   72.17630
 1700.00000    -999.25    -999.25    -999.25    -999.25    8.38010  115.91710   62.09580  -24.51930    4.20710  178.14600    6.66540   38.67000
 1750.00000    -999.25    -999.25    -999.25    -999.25    8.15440  138.35570   63.52100  -25.38920    2.22090  281.11870    4.53610   70.63790
 1800.00000    -999.25    -999.25    -999.25    -999.25    8.03440  125.09570   58.94500  -25.79460    3.52030  243.41620    5.12780   73.28310
 1850.00000    -999.25    -999.25    -999.25    -999.25    9.67030  112.95840   64.35830  -26.22720    3.11050  232.98980    5.35830   66.71160
 1900.00000    -999.25    -999.25    -999.25    -999.25    9.05680  113.65720   72.14900  -25.42700    2.84540  253.84130    5.01650   81.25530
 1950.00000    -999.25    -999.25    -999.25    -999.25    9.43560  111.53530   72.52270  -20.50310    3.36670  193.50870    6.13890   82.92310
 2000.00000    -999.25    -999.25    -999.25    -999.25   10.37710  117.27230   70.63710  -16.22470    3.61040  149.89870    7.94570  100.38240
 2050.00000    -999.25    -999.25    -999.25    -999.25    9.41820  155.15110   98.48500  -14.46610    2.75670  205.85390    5.86680  125.35370
 2100.00000    -999.25    -999.25    -999.25    -999.25    8.90560  120.76760  128.75890  -21.25910    3.58410  192.92330    6.13300  145.39300
 2150.00000    -999.25    -999.25    -999.25    -999.25   10.59620  126.92420  110.35270  -19.77640    2.66200  194.74090    6.20540  116.26450
 2200.00000    -999.25    -999.25    -999.25    -999.25   10.30010  113.15410   92.43250  -12.33850    2.14980  182.12360    6.53840  111.05720
 2250.00000    -999.25    -999.25    -999.25    -999.25    9.51250  118.69440   82.44850  -13.31530    1.74050  180.38250    6.66120  108.68790
 2300.00000    -999.25    -999.25    -999.25    -999.25    8.39580  119.49550   88.07300  -15.94620    1.83120  173.96700    6.76640  113.03630
 2350.00000    -999.25    -999.25    -999.25    -999.25    8.05210  115.67980  102.63420  -12.35130    1.76920  167.94820    7.10960  112.30620
 2400.00000    -999.25    -999.25    -999.25    -999.25    9.00200  130.08210   89.23630  -12.85760    1.99660  153.35460    7.79880  115.26900
 2450.00000    -999.25    -999.25    -999.25    -999.25   11.09860  128.02110   92.94260  -11.67640    1.99460  191.77150    6.26600  116.66210
 2500.00000    -999.25    -999.25    -999.25    -999.25   10.23730  116.08950   86.34840  -14.55570    2.59100  120.94930    9.73140  120.26170
 2550.00000    -999.25    -999.25    -999.25    -999.25   10.35320  144.05130   89.06440  -14.20790    2.62430  163.05120    7.28430  109.68470
 2600.00000    -999.25    -999.25    -999.25    -999.25   10.15310  125.49750   87.35060  -14.11090    2.70010  145.48810    8.28600  103.91030
 2650.00000    -999.25    -999.25    -999.25    -999.25   10.72740  124.62920   96.60830  -15.46560    1.97690  199.96720    5.97480  111.30030
 2700.00000    -999.25    -999.25    -999.25    -999.25   13.58220  116.32470   91.40400  -18.99700    2.01680  203.72800    5.90000  124.50580
 2750.00000    -999.25    -999.25    -999.25    -999.25   11.99930  123.56250   94.96860  -22.89140    3.14630  188.97610    6.26890  127.21780
 2800.00000    -999.25    -999.25    -999.25    -999.25   10.97360  116.18220  106.95700  -23.30070    4.85920  168.28140    7.11560  106.96770
 2850.00000    -999.25    -999.25    -999.25    -999.25    8.70770  117.70050  115.91840  -25.88260    8.54530  136.26930    8.69570  147.90920
 2900.00000    -999.25    -999.25    -999.25    -999.25    8.58860  115.10350  125.01900  -26.33130    8.23050  140.49970    7.90740  150.17000
 2950.00000    -999.25    -999.25    -999.25    -999.25   10.33840  106.06470   80.98020  -16.66350    3.90760  159.57220    7.30940   84.45030
 3000.00000    -999.25    -999.25    -999.25    -999.25    8.36960   73.28560   53.43830  -20.96250   17.17170   66.77560   17.74530   50.65540
 3050.00000    -999.25    -999.25    -999.25    -999.25   11.15070  106.38960   91.83050  -23.01840    3.98730  195.09110    6.13320  103.63500
