~Version ---------------------------------------------------
VERS. 2.0 : CWLS log ASCII Standard -VERSION 2.0
WRAP.  NO : ONE LINE PER DEPTH STEP
~Well ------------------------------------------------------
STRT.F                         1000.0 : START DEPTH
STOP.F                        10050.0 : STOP DEPTH
STEP.F                       50.00000 : STEP LENGTH
NULL.                         -999.25 : NULL VALUE
COMP.        SKELLY OIL OF CANADA LTD : COMPANY
WELL. SKELLY A2 TWO CREEK 10-20-62-16 : WELL
FLD .                              WC : FIELD
LOC .                                 : LOCATION
CTRY.                          CANADA : COUNTRY
SRVC.                   Dresser Atlas : SERVICE COMPANY
DATE.                     30-Jan-1976 : LOGDATE
PROV.                         Alberta : PROVINCE
UWI .                100102006216W500 : UNIQUE WELL ID
SLAT.WGS84                   54.38094 : SURFACE LATITUDE
SLON.WGS84                  -116.3576 : SURFACE LONGITUDE
~Curve Information -----------------------------------------
DEPT.F                 : 
AC  .US/F              : ACOUSTIC
CALS.IN   60 280 50 00 : CALIPER FROM SONIC LOG
GRS .GAPI 00 000 00 01 : GAMMA RAY FROM SONIC
ILD .OHMM              : DEEP INDUCTION RESISTIVITY
ILM .OHMM              : INDUCTION MEDIUM RESISTIVITY
SPR .MV                : SPONTANEOUS POTENTIAL FROM RESISTIVITY
SFL .OHMM              : SHALLOW FOCUS LOG
MCAL.IN                : MLT [MICROLOG] CALIPER
~Params ----------------------------------------------------
PD  .                     GL : PERMANENT DATUM
EPD .FT               3027.7 : ELEVATION PERMANENT DATUM
LMF .                     KB : LOG MEASURED FROM
DAPD.FT                 13.6 : FEET ABOVE PERMANENT DATUM
DMF .                     KB : DRILLING MEASURED FROM
EKB .FT               3041.3 : KELLY BUSHING
EGL .FT               3027.7 : GROUND LEVEL
DATE.               01/30/76 : RUN DATE
RUN .                      1 : RUN NUMBER
DD  .FT                10050 : DEPTH DRILLER
DL  .FT                10058 : DEPTH LOGGER
BLI .FT                10056 : BOTTOM LOG INTERVAL
TLI .FT                 1050 : TOP LOG INTERVAL
CS  .IN                9.625 : CASING SIZE
CBD .FT                 1062 : CASING BOTTOM DRILLER
CBL .FT                 1050 : CASING BOTTOM LOGGER
BS  .IN                  8.5 : BIT SIZE
BSD .FT                10050 : BIT SIZE AT DEPTH
DFT .           MUD GEL CHEM : DRILLING FLUID TYPE
DFD .                    9.1 : DRILLING FLUID DENSITY
DFV .                    100 : DRILLING FLUID VISCOSITY
DFPH.                     10 : DRILLING FLUID PH
DFL .                    7.8 : DRILLING FLUID LOSS
MSS .                   CIRC : MUD SAMPLE SOURCE
RMS .OHMM                2.2 : RESISTIVITY MUD SAMPLE
MST .DEGF                 62 : MUD SAMPLE TEMPERATURE
RMF .OHMM                1.8 : RESISTIVITY MUD FILTRATE SAMPLE
MFST.DEGF                 62 : MUD FILTRATE SAMPLE TEMPERATURE
RMC .OHMM                2.5 : RESISTIVITY MUD CAKE
MCST.DEGF                 60 : MUD CAKE SAMPLE TEMPERATURE
MFSS.                   MEAS : MUD FILTRATE SAMPLE SOURCE
MCSS.                   MEAS : MUD CAKE SAMPLE SOURCE
RMB .OHMM                0.8 : RESISTIVITY MUD AT BHT
TCS .HRS                   7 : TIME CIRCULATED STOPPED
LUN .                   6155 : LOGGING UNIT NUMBER
LUL .                    EDM : LOGGING UNIT LOCATION
ENGI.           HETHERINGTON : RECORDING ENGINEER
WITN.           BALL SHEDDON : WITNESSED BY
CLNT.                A2DTECH : CLIENT CODE
ORIG.        2" 5" 10" PRINT : ORIGIN OF DATA
UWI .       100102006216W500 : UNIQUE WELL ID
DICO. A2D Technologies, Inc. : DIGITIZING COMPANY
~Other -----------------------------------------------------
~ASCII -----------------------------------------------------
# ...
 5000.00000   93.06250   11.94210  117.22050    2.84850    2.66640  -67.96600    3.50160   11.27950
 5050.00000   90.21390   11.52960  123.96120    5.30600    5.05830  -70.57660    5.38850   12.02550
 5100.00000  110.63800   10.48960  134.85190    4.65630    4.70780  -77.44420    4.59290   10.56750
 5150.00000   79.84880    9.58600   91.01730   12.63160   13.13130  -86.17700   14.72080    9.40980
 5200.00000  160.89320   11.11520  103.15690    1.63910    1.55380  -75.51840    3.07840   12.46480
 5250.00000   76.34300    9.07730   56.15330   11.22060   14.36690 -118.06820   17.61020    9.02640
 5300.00000   91.38360    9.54850  119.95090    6.24560    5.87360  -86.73100    9.00800    9.60990
 5350.00000   79.51370    9.49790   74.77460   10.19000   10.68560 -101.15670   10.61770    9.56530
 5400.00000   76.63470    8.99730   98.52760   15.10650   15.45890  -92.35550   18.20370    9.04140
 5450.00000   71.53590    9.42190   85.80930   12.77720   13.62010  -92.03840   15.17290    9.39010
 5500.00000   79.97120   10.40250  107.71490    9.91050   10.45600  -88.74870   12.69450   10.24710
 5550.00000   75.79510   10.06250   92.05270   12.19960   13.39110 -113.88490   20.85900    9.46490
 5600.00000   74.70120    9.38720  113.79300   11.08810   12.29950  -96.44940   15.56580    9.26350
 5650.00000   76.20570    8.98150   90.31120    9.19760    9.61230 -114.85290   15.85970    8.97900
 5700.00000  122.85820   10.30390  103.72890   16.20640   17.31930  -89.64840   26.30430    9.55810
 5750.00000   77.83890    9.09900  103.30040    7.72280    8.95260 -101.15330   12.57820    8.95850
 5800.00000   76.88230    9.59220  115.74320   10.78440   11.65760  -97.07600   12.72940    9.38780
 5850.00000   79.90040    9.86040  110.87690    7.04280    6.74140  -97.68580   10.44820    9.07220
 5900.00000   77.52770    9.12130  110.60890   10.11520   10.70490  -85.66360   11.79060    9.34490
 5950.00000   72.28290    8.86120   76.03310   14.61550   17.00070 -117.38260   20.85920    8.88920
 6000.00000   65.49960    9.72780  111.68910   17.24970   19.54160  -83.38760   30.79990    9.85420
 6050.00000   69.40560    9.11250   92.21760   13.71860   14.78300  -96.39720   22.30250    8.42410
 6100.00000   99.31770   12.46210  112.99560    2.46710    2.56940  -75.67250    3.74260   12.70840
 6150.00000   79.36830    9.74860  104.67810    8.70740    8.21370  -74.07310   11.58190    8.48910
 6200.00000   95.06060   12.20010  113.57070    4.99800    4.66900  -68.03540    6.63370   13.63780
 6250.00000   72.80410   10.48810  125.90860    9.28670    9.72710  -69.05910   14.30940   10.51610
 6300.00000   58.05240    8.52640   31.33230 2346.08860 2861.38060 -112.74470 2512.12130    8.63340
 6350.00000   65.59510    9.02140  128.74770   33.72790   35.86850  -88.99580 1854.86980    9.29400
 6400.00000   61.39290    8.32370   49.08460   24.61120   54.51000 -249.01510  102.82810    8.25420
 6450.00000   57.32090    8.78370   58.08090   11.51130   11.97940 -115.56920   33.25470   10.22540
 6500.00000   62.72280    9.01710   54.84610    2.63760    3.22890 -183.38640   13.35720    9.11680
 6550.00000   57.14630    8.82120   66.30720    9.78520   10.22520 -149.01880   34.67100    -999.25
 6600.00000   52.52500    8.68960   29.49860  551.10250 2173.56320 -103.92530 1920.59300    -999.25
 6650.00000   56.65150    8.26410   14.71300   10.43940   23.52010 -235.10370 2485.65750    -999.25
 6700.00000   50.87290    8.14890   15.69440   27.53790   62.47720 -255.39890 2461.81350    -999.25
 6750.00000   50.37800    8.57560   31.27380  156.66080 2710.57620 -117.31690 2418.00220    -999.25
 6800.00000   66.79010    8.91210  103.03280    4.37970    4.74350  -49.51520    5.63730    -999.25
 6850.00000   62.92110    8.70710  103.15540   10.59330   11.57910  -38.37750   17.90060    -999.25
 6900.00000   61.66800    8.76560   70.30330    5.06830    5.37670 -125.84160   19.48240    -999.25
 6950.00000   53.48060    8.42070   31.19850  299.12530 1601.95700  -51.68470  442.74960    -999.25
 7000.00000   54.87430    8.66590   22.08580 2350.25100 2806.25590  -67.07170 2469.00020    -999.25
 7050.00000   54.10450    8.30950   46.08910  142.42360  151.28610  -63.78330  270.27070    -999.25
 7100.00000   88.24370    8.11470   26.99570 1571.16350 2806.62720 -131.34250 2423.55860    -999.25
 7150.00000   51.37500    8.32370   22.97320 2342.78470 2824.62700 -166.97380 2496.88180    -999.25
 7200.00000   51.96140    8.33720   45.77790 2340.59280 2738.10400 -163.13910 2462.54350    -999.25
 7250.00000   52.42000    8.33830   27.77690  966.27390 2730.98970 -199.21700  702.22850    -999.25
 7300.00000   55.20480    8.36870   64.31350 2305.36940 2813.96780 -118.93280 2443.67480    -999.25
 7350.00000   60.74950    8.67060  117.51310   20.53770   22.55620  -70.76420   71.38530    -999.25
 7400.00000   50.55500    8.58990   39.16210 2336.18850 2844.37060  -91.01220 2458.82710    -999.25
 7450.00000   48.27310    8.64600   17.20680 2374.43120 2860.24370 -182.77580 2473.54930    -999.25
 7500.00000   50.07830    8.64320   17.02720 2334.86250 2779.34550 -195.39080 2393.95290    -999.25
 7550.00000   49.92520    8.77350   13.14120 2336.64750 2895.83540 -240.80590 2445.87720    -999.25
 7600.00000   50.06690    8.78110   13.92710  379.44520 2467.43530 -215.08650 2448.82080    -999.25
 7650.00000   51.22290    8.48480   10.60970 2308.04250 2771.39230 -223.39180 2464.56250    -999.25
 7700.00000   58.15970    7.98060   10.82110    8.06520   15.35760 -210.07580 2464.39890    -999.25
 7750.00000   48.61560    8.54910   10.76830 2427.01780 2839.50120  -91.00400 2433.85840    -999.25
 7800.00000   49.25690    8.63850   10.36090 2356.32690 2869.35280  -48.84360 2476.93820    -999.25
 7850.00000   50.28790    8.85790   13.60980 2348.68020 2830.02390  -49.22110 2414.37720    -999.25
 7900.00000   49.73900    8.72320   13.98690 2336.15110 2870.78340  -77.64970 2402.76780    -999.25
 7950.00000   52.20360    9.08010    9.85190   93.28470  304.52360 -141.01120 2085.72020    -999.25
 8000.00000   50.88770    8.90500   10.66710   19.27320   39.89990 -200.87690 2370.41580    -999.25
 8050.00000   49.77880    8.62200   17.90450 2523.71190 2846.04810 -212.06280 2470.16480    -999.25
 8100.00000   50.16140    8.74940   16.08050 2279.95290 2748.88920 -240.47000 1982.37980    -999.25
 8150.00000   49.50840    8.64200   20.76630 2307.30660 2879.53390 -176.36120 2461.76880    -999.25
 8200.00000   48.44860    8.82990   18.04790 2369.33980 2790.04830 -251.41900 2514.26830    -999.25
 8250.00000   47.31050    8.69040   28.87720 2306.33010 2816.52250 -179.00760 2487.97560    -999.25
 8300.00000   50.46900    8.78440   28.86940   87.79660  121.96040 -141.58880  112.74580    -999.25
 8350.00000   52.34590    8.70130   42.88150  729.71810 1647.82130 -116.80680  882.52230    -999.25
 8400.00000   52.23090    8.69070   31.38830 2331.48120 2775.50930 -183.48310 2487.66160    -999.25
 8450.00000   50.92390    8.71400   37.95490 2325.71070 2768.08670 -176.17730 2433.57670    -999.25
 8500.00000   55.02220    8.73410   56.71670   63.42080   65.76960  -94.11690  155.14980    -999.25
 8550.00000   58.18710    8.90330   66.10610   29.28260   30.72200  -82.20940   44.96930    8.71660
 8600.00000   58.96110    9.02940   68.68270   27.63580   28.37550 -116.00910   40.09910    8.73510
 8650.00000   59.82680    9.07640   70.67720   19.54570   20.49590 -166.07810   36.51010    8.70640
 8700.00000   64.32080    9.25670   78.39120   11.14970   12.01790 -161.18620   18.67810    8.80770
 8750.00000   58.12130    9.06640   67.85530   22.38560   23.04230 -163.66460   29.11800    8.69620
 8800.00000   71.88070   10.00520  104.94740    9.79940   10.60990 -164.33070   17.14660    9.47540
 8850.00000   65.61780    9.23750  114.06060   19.50730   20.72850 -156.30540   43.31410    8.94480
 8900.00000   67.65350    9.22300   91.10710   10.73080   12.01650 -124.12710   20.79270    9.30360
 8950.00000   54.48420   10.37710   76.57550   12.99440   14.64160 -153.55730   25.43150    9.14310
