~Version ---------------------------------------------------
VERS. 2.0 : CWLS log ASCII Standard -VERSION 2.0
WRAP.  NO : ONE LINE PER DEPTH STEP
~Well ------------------------------------------------------
STRT.M                        600.0 : START DEPTH
STOP.M                       4650.0 : STOP DEPTH
STEP.M                     50.00000 : STEP LENGTH
NULL.                       -999.25 : NULL VALUE
COMP.     GULF CANADA RESOURCES INC : COMPANY
WELL. GULF ET AL HANLAN 11-25-47-18 : WELL
FLD .                        HANLAN : FIELD
LOC .                               : LOCATION
CTRY.                        CANADA : COUNTRY
SRVC.                  Schlumberger : SERVICE COMPANY
DATE.                   07-Oct-1981 : LOGDATE
PROV.                       Alberta : PROVINCE
UWI .              100112504718W500 : UNIQUE WELL ID
SLAT.WGS84                 53.08538 : SURFACE LATITUDE
SLON.WGS84                -116.5027 : SURFACE LONGITUDE
~Curve Information -----------------------------------------
DEPT   .M                  : 
NPHI_LS.DEC                : NEUTRON POROSITY IN SELECTED LITHOLOGY SANDSTONE
DPHI_LS.DEC   45 890 10 00 : DENSITY POROSITY LIMESTONE
GRD    .GAPI               : GAMMA RAY FROM DENSITY LOG
CALD   .MM    70 280 01 00 : CALIPER FROM DENSITY LOG
CORR   .KG/M3              : DENSITY CORRECTION
RHOB   .KG/M3 45 350 01 00 : BULK DENSITY
NPHI_SS.DEC                : NEUTRON POROSITY SANDSTONE
DPHI_SS.DEC   45 890 12 00 : DENSITY POROSITY SANDSTONE
PE     .B/E   45 358 01 00 : PHOTOELECTRIC FACTOR
ILD    .OHMM  06 121 12 00 : INDUCTION LOG RESISTIVITY
ILM    .OHMM  07 120 44 00 : INDUCTION LOG MEDIUM RESISTIVITY
SFL    .OHMM               : SHALLOW FOCUSED LOG
SPR    .MV                 : SPONTANEOUS POTENTIAL FROM RESISTIVITY
GRR    .GAPI               : GAMMA RAY FROM RESISTIVITY LOG
LLD    .OHMM               : LATEROLOG DEEP RESISTIVITY
LLS    .OHMM  00 000 00 01 : 9 LATEROLOG SHALLOW
GRS    .GAPI               : GAMMA RAY FROM SONIC LOG
DT     .US/M  60 520 00 00 : DELTA TIME FROM SONIC LOG
CALS   .MM                 : CALIPER FROM SONIC LOG
~Params ----------------------------------------------------
PD  .                         GL : PERMANENT DATUM
EPD .M                   1212.95 : ELEVATION PERMANENT DATUM
LMF .                         KB : LOG MEASURED FROM
DAPD.M                      9.93 : FEET ABOVE PERMANENT DATUM
DMF .                         KB : DRILLING MEASURED FROM
EKB .M                   1222.88 : KELLY BUSHING
EGL .M                   1212.95 : GROUND LEVEL
DATE.                   10/07/81 : RUN DATE
RUN .                          2 : RUN NUMBER
DD  .M                      4665 : DEPTH DRILLER
DL  .M                      4665 : DEPTH LOGGER
BLI .M                    4661.1 : BOTTOM LOG INTERVAL
TLI .M                    3235.5 : TOP LOG INTERVAL
CS  .MM                      244 : CASING SIZE
CBD .M                      3236 : CASING BOTTOM DRILLER
CBL .M                    3235.5 : CASING BOTTOM LOGGER
BS  .MM                      216 : BIT SIZE
BSD .M                      4665 : BIT SIZE AT DEPTH
DFT .                   GEL CHEM : DRILLING FLUID TYPE
DFD .                       1160 : DRILLING FLUID DENSITY
DFV .                         78 : DRILLING FLUID VISCOSITY
DFPH.                       10.5 : DRILLING FLUID PH
DFL .                          8 : DRILLING FLUID LOSS
MSS .                CIRCULATION : MUD SAMPLE SOURCE
RMS .OHMM                   0.84 : RESISTIVITY MUD SAMPLE
MST .DEGC                   23.3 : MUD SAMPLE TEMPERATURE
RMF .OHMM                   0.62 : RESISTIVITY MUD FILTRATE SAMPLE
MFST.DEGC                   23.9 : MUD FILTRATE SAMPLE TEMPERATURE
RMB .OHMM                   0.27 : RESISTIVITY MUD AT BHT
TCS .HRS                    1000 : TIME CIRCULATED STOPPED
TLAB.HRS                     830 : TIME LOGGER AT BOTTOM
LUN .                       8110 : LOGGING UNIT NUMBER
LUL .                        EDS : LOGGING UNIT LOCATION
ENGI.             BEBB LABRECQUB : RECORDING ENGINEER
WITN.                      PERRY : WITNESSED BY
CLNT.                    A2DTECH : CLIENT CODE
ORIG. 6.5"/100M 16.5"/100M PRINT : ORIGIN OF DATA
UWI .           100112504718W500 : UNIQUE WELL ID
DICO.     A2D Technologies, Inc. : DIGITIZING COMPANY
~Other -----------------------------------------------------
~ASCII -----------------------------------------------------
# ...
 2450.00000    -999.25    -999.25   81.34390  348.30570   49.18400 2575.44410    0.44000    0.04170    -999.25   19.36820   18.32130   22.93660  -90.78630    -999.25    -999.25    -999.25   85.46460  236.26190  346.54430
 2500.00000    -999.25    -999.25   79.51400  325.69840   11.01500 2610.61330    0.38300    0.01720    -999.25   17.16150   16.25960   19.01010  -91.21510    -999.25    -999.25    -999.25   76.97550  243.98760  333.38150
 2550.00000    -999.25    -999.25   88.45780  332.21400   23.40470 2555.76440    0.46300    0.05470    -999.25    9.04490    8.46310    9.18450  -88.08240    -999.25    -999.25    -999.25   91.38910  268.71220  335.59850
 2600.00000    -999.25    -999.25   85.10550  324.17540   17.88380 2600.36470    0.39200    0.02480    -999.25    9.50850    9.08080    9.59120  -79.93030    -999.25    -999.25    -999.25   90.41120  255.02470  330.68330
 2650.00000    -999.25    -999.25   78.29070  322.02140   20.79740 2617.02540    0.38150    0.02060    -999.25   11.41340   11.71380   13.16100  -79.03330    -999.25    -999.25    -999.25   74.94220  245.04950  334.13160
 2700.00000    -999.25    -999.25   88.18010  317.75440   31.62280 2628.78150    0.31250    0.01180    -999.25    9.16670    8.88000    9.57750  -81.50680    -999.25    -999.25    -999.25   79.11710  254.84800  336.51010
 2750.00000    -999.25    -999.25   32.30340  311.73190   17.37780 2420.87450    0.13380    0.14000    -999.25   60.19970   44.93380   53.54370 -114.49480    -999.25    -999.25    -999.25   26.16950  244.95810  321.89080
 2800.00000    -999.25    -999.25  104.08800  330.15900  131.18040 2527.16920    0.26460    0.07300    -999.25   10.84210   10.34630   10.82040  -75.31670    -999.25    -999.25    -999.25   94.07310  252.15620  326.41610
 2850.00000    -999.25    -999.25  100.20850  426.66220  113.61330 2197.13700    0.35630    0.27300    -999.25    9.08640    8.53470    9.41940  -73.06720    -999.25    -999.25    -999.25   93.80160  277.48570  339.02820
 2900.00000    -999.25    -999.25   94.52970  359.04220  212.21920 2415.59810    0.28210    0.14330    -999.25   10.64800   11.04090   12.59610  -71.96310    -999.25    -999.25    -999.25   93.32580  268.30260  324.72950
 2950.00000    -999.25    -999.25   85.61490  318.56490   16.70060 2457.33790    0.50030    0.11240    -999.25    9.67860    9.96260   11.18390  -68.33090    -999.25    -999.25    -999.25   84.10490  291.11690  335.01140
 3000.00000    -999.25    -999.25   84.83550  319.34610   68.74890 2571.63840    0.37610    0.03930    -999.25    8.53910    8.80150   10.40380  -64.12140    -999.25    -999.25    -999.25   93.83730  273.53110  331.70890
 3050.00000    -999.25    -999.25   93.11220  340.57750  112.29390 2331.77440    0.34870    0.16100    -999.25    4.76170    4.89910    5.46130  -62.29440    -999.25    -999.25    -999.25   88.67880  306.02300  358.35150
 3100.00000    -999.25    -999.25   70.87540  488.85420   80.71920 1937.51000    0.48560    0.40550    -999.25    5.62610    4.67400    5.25340  -68.92230    -999.25    -999.25    -999.25   71.18810  340.80020  380.52900
 3150.00000    -999.25    -999.25   58.01510  320.15820   21.13800 2500.05880    0.11560    0.08990    -999.25   15.33640   16.16590   22.72590  -63.62150    -999.25    -999.25    -999.25   42.67800  244.27510  316.95980
 3200.00000    -999.25    -999.25   76.97800  318.41200   13.15680 2598.86300    0.30030    0.03590    -999.25    8.49440    8.74760    9.41550  -50.02890    -999.25    -999.25    -999.25   69.26550  253.46990  312.75940
 3250.00000    -999.25    -999.25   82.34840  315.05320   90.66290 2127.21070    0.27250    0.26830    3.32140   11.56860   10.08030   12.62210 -163.37060   86.31980   13.90630   13.53590   82.47870  247.58290  268.73950
 3300.00000    -999.25    -999.25   62.18620  253.73130  -15.94290 2771.40890    0.23390   -0.06190    3.42670   15.25050   17.40790   19.32650 -148.96010   63.25780   34.08690   14.68370   52.84270  223.08370  277.74090
 3350.00000    -999.25    -999.25   81.81580  257.91970  106.31660 2482.00420    0.24820    0.11480    3.36770   12.42230   13.18100   14.12580 -156.20910   81.98320   14.45450   14.28580   77.40130  230.17100  271.38190
 3400.00000    -999.25    -999.25   96.10040  300.92260   66.29550 2157.25270    0.34570    0.31130    3.30520   10.71260   15.18680   13.18080 -192.81180  110.31680   15.02720   11.12980   99.67470  261.11250  270.96530
 3450.00000    -999.25    -999.25  109.18440  285.45060  135.84180 2342.51270    0.19460    0.16160    3.80150   19.34090   18.26050   31.80760 -169.84030  105.18790   37.16850   35.05820   90.75470  213.98100  262.68860
 3500.00000    -999.25    -999.25   28.19300  304.27110  154.83310 2418.98660    0.06310    0.15060    3.29490  200.50090   84.50140   95.80810 -211.29870   30.61670   83.47370   77.83390   38.95720  206.02920  245.54210
 3550.00000    -999.25    -999.25   28.75750  231.33090   10.19660 2638.95430    0.02620   -0.00090    2.72360 2004.71220 1709.43160 1325.65880 -201.03370   26.74380 2940.58910 2312.37870   26.47100  175.95720  236.88970
 3600.00000    0.03910    0.01050   21.13250  225.30890  131.00120 2683.17140    -999.25   -0.08800    4.68490   52.43120   80.94860  343.32850 -226.55140   23.72590  495.57280  465.09630   20.10250  153.19760  223.44830
 3650.00000    0.03160   -0.07530   17.16330  250.20200   15.92830 2822.03390    -999.25    -999.25    2.87340    6.13800    3.48890    6.11270 -145.15450   20.12620    7.13970   10.76580   15.58210  155.56680  239.02240
 3700.00000   -0.00590   -0.18710    9.71190  246.13820    0.92860 3033.92820    -999.25    -999.25    4.81590 1962.99380  422.94060 1422.24010 -186.03200    6.99590 11530.60160 4024.98020    8.63720  161.30330  259.78950
 3750.00000    0.02600   -0.06980   77.40710  233.17530   56.73970 2824.07910    -999.25    -999.25    4.00990   92.82830   76.92100  165.87140 -159.26220   86.37730  201.98000  191.87200   68.22140  173.46590  248.18560
 3800.00000    0.00750   -0.03740   21.00760  237.79660  -24.56040 2777.08940    -999.25    -999.25    4.26300  191.10930  292.21040  321.21560 -141.83490   22.75310  527.28670  496.53410   25.94350  164.52490  245.43120
 3850.00000    0.05410   -0.03320   58.96760  249.63420  -24.21920 2765.85250    -999.25    -999.25    3.62940   26.76930   26.16840   35.70450 -149.58590   59.47320   33.85610   34.74900   55.60350  190.16080  245.59720
 3900.00000    0.12570    0.12040  297.17400  235.73620  -40.69560 2507.10890    -999.25    -999.25    2.34130  151.67570  154.27600  283.61250 -132.28150  300.34980  285.88790  318.09710  299.99930  227.81020  242.83130
 3950.00000    0.02210    0.03340   13.57640  250.98550  124.16350 2677.07470    -999.25    -999.25    5.69370    -999.25  106.62100 1887.33130 -236.30310   16.28860 32099.78710 1036.74670   14.29400  160.50820  273.23010
 4000.00000    0.03020    0.14090   14.54650  291.13810  113.36940 2447.28960    -999.25    -999.25    7.58350  784.47250 2019.68790 1967.24960 -297.75670   10.22590 5204.75050 1202.87020   11.51690  160.98470  250.96210
 4050.00000    0.00810    0.64480   12.61830  427.66630  -80.38050 1599.30740    -999.25    -999.25    4.60410 1142.49580  725.57130  290.99740 -114.60280   14.05880 37078.79690   35.82830   11.40830  164.52750  268.76160
 4100.00000    0.10860    0.08470   11.84510  280.67400  173.66260 2570.58230    -999.25    -999.25    6.51200  173.54540  128.92290  431.95970 -227.78750   11.31540  192.46590  231.71130   13.53280  170.42620  249.12190
 4150.00000    0.01960   -0.02100   19.54520  319.66600  187.03280 2736.47240    -999.25    -999.25    4.62890 2023.51670  141.29910 1904.98680 -239.79310   16.42500 3674.94920  790.17700   20.86930  157.62730  245.92440
 4200.00000    0.02760   -0.04320   47.95850  250.16630  -16.80880 2781.40820    -999.25    -999.25    3.72340   42.34920   44.19790   61.68040  -26.32840   48.18220   55.07360   57.46620   41.38990  174.90280  251.18590
 4250.00000    0.04440   -0.01070   38.59840  257.10570  -26.21140 2732.59280    -999.25    -999.25    4.31660   43.64230   54.78560  172.81190  -67.07960   33.44200  102.00570  105.71160   38.37950  174.78410  252.10810
