~Version ---------------------------------------------------
VERS.      2.0 : CWLS log ASCII Standard -VERSION 2.0
WRAP.       NO : One line per depth step
CREA. 11/20/17 : LAS Creation Date
~Well ------------------------------------------------------
STRT.FT                         1450.0 : START DEPTH
STOP.FT                        13550.0 : STOP DEPTH
STEP.FT                       50.00000 : STEP LENGTH
NULL.                          -999.25 : NULL VALUE
COMP. AMOCO CANADA PETROLEUM CO., LTD. : COMPANY
WELL.            AMOCO TONY 7-16-62-24 : WELL
FLD .                                  : FIELD
LOC .                                  : LOCATION
CTRY.                           CANADA : COUNTRY
SRVC.                     Schlumberger : SERVICE COMPANY
DATE.                      27-Nov-1977 : LOGDATE
PROV.                          Alberta : PROVINCE
UWI .                 100071606224W500 : UNIQUE WELL ID
SLAT.WGS84                    54.36239 : SURFACE LATITUDE
SLON.WGS84                   -117.5361 : SURFACE LONGITUDE
~Curve Information -----------------------------------------
DEPT    .FT    : Depth Curve
CALDED  .IN    : CALIPER FROM DENSITY LOG [ADJ. TO RESISTIVITY LOG]
CALSED  .IN    : CALIPER FROM  SONIC LOG [ADJ. TO RESISTIVITY LOG]
CALWS   .IN    : CALIPER [CALDED]
CONDWS  .MMHO  : CONDUCTIVITY [1000/DRESWS]
DCORWS  .IN    : DENSITY CORRECTION [DRHOED]
DENWS   .IN    : FORMATION BULK DENSITY [CALC. FROM DPOLSWS M=2.71, F=1.00]
DPHILSED.V/V   : DENSITY POROSITY LIMESTONE [M=2.71, F=1.00] FROM DENSITY LOG [ADJ. TO RESISTIVITY LOG]
DPHISSED.V/V   : DENSITY POROSITY SANDSTONE [M=2.65, F=1.00] FROM DENSITY LOG [ADJ. TO RESISTIVITY LOG]
DPOLSWS .V/V   : DENSITY POROSITY LIMESTONE [DPHISSED MATRIX CONVERSION FOR LS, SPL. TO DPHILSED @8451' & SPL. TO CALC. FROM RHOBED M=2.71, F=1.00]
DRESWS  .OHMM  : DEEP RESISTIVITITY [ILDED]
DRHOED  .IN    : DENSITY CORRECTION FROM DENSITY LOG [ADJ. TO RESISTIVITY LOG]
DTED    .US/F  : DELTA TIME FROM SONIC LOG [ADJ. TO RESISTIVITY LOG]
DTWS    .US/F  : COMPRESSIONAL SONIC [DTED]
GRDED   .GAPI  : GAMMA RAY FROM DENSITY LOG [ADJ. TO RESISTIVITY LOG]
GRSED   .GAPI  : GAMMA RAY FROM SONIC LOG [ADJ. TO RESISTIVITY LOG]
GRWS    .GAPI  : GAMMA RAY [GRSED]
ILDED   .OHMM  : DEEP INDUCTION FROM RESISTIVITY LOG
ILMED   .OHMM  : MEDIUM INDUCTION FROM RESISTIVITY LOG
LL8ED   .OHMM  : 8 INCH LATEROLOG RESISTIVITY FROM RESISTIVITY LOG
MRESWS  .OHMM  : MEDIUM RESISTIVITY [ILMED]
NPHILSED.V/V   : NEUTRON POROSITY LIMESTONE FROM DENSITY LOG [ADJ. TO RESISTIVITY LOG]
NPHISSED.V/V   : NEUTRON POROSITY SANDSTONE FROM DENSITY LOG [ADJ. TO RESISTIVITY LOG]
NPOLSWS .V/V   : NEUTRON POROSITY LIMESTONE [NPHISSED MATRIX CONVERSION FOR LIMESTONE, SPL. TO NPHILSED @ 8424']
RHOBED  .IN    : BULK DENSITY FROM DENSITY LOG [ADJ. TO RESISTIVITY LOG]
SPRED   .MV    : SPONTANEOUS POTENTIAL FROM RESISTIVITY LOG
SPWS    .MV    : SPONTANEOUS POTENTIAL [BASELINE 0 MV,SPRED]
SRESWS  .OHMM  : SHALLOW RESISTIVITY [LL8ED]
~Params ----------------------------------------------------
PD  .                     GL : PERMANENT DATUM
EPD .FT                 5402 : ELEVATION PERMANENT DATUM
LMF .                     KB : LOG MEASURED FROM
DAPD.FT                   17 : FEET ABOVE PERMANENT DATUM
DATE.               11/27/77 : RUN DATE
RUN .                      2 : RUN NUMBER
DD  .FT                13685 : DEPTH DRILLER
DL  .FT                13579 : DEPTH LOGGER
BLI .FT                13573 : BOTTOM LOG INTERVAL
TLI .FT                 8448 : TOP LOG INTERVAL
CBD .FT                 8448 : CASING BOTTOM DRILLER
CBL .FT                 8448 : CASING BOTTOM LOGGER
BSD .FT                13685 : BIT SIZE AT DEPTH
DFT .                    8.6 : DRILLING FLUID TYPE
DFD .                     86 : DRILLING FLUID DENSITY
CLNT.                A2DTECH : CLIENT CODE
ORIG.          1" 2.5" PRINT : ORIGIN OF DATA
UWI .       100071606224W500 : UNIQUE WELL ID
DICO. A2D Technologies, Inc. : DIGITIZING COMPANY
~Other -----------------------------------------------------
DIL-BHC-CNL-FDC LOG RUN
RHOB & DRHO FROM 2" SCALE
~ASCII -----------------------------------------------------
# ...
 10550.00000   11.90290   10.08400   11.90290    0.69200    0.20320    2.37400    0.19650    -999.25    0.19650 1445.01160    0.20320   50.58880   50.58880   12.66460   12.35160   11.54920 1445.01160 1519.38400  808.19380 1519.38400    0.01610    -999.25    0.01610    2.40520  -82.55520  -92.67540  808.19380
 10600.00000   10.69200   10.16260   10.69200    0.67860    0.18810    2.36940    0.19920    -999.25    0.19920 1473.60620    0.18810   48.55470   48.55470   15.14290   15.17090   14.49820 1473.60620 1506.12240  430.55580 1506.12240    0.00740    -999.25    0.00740    2.36630  -75.26020  -85.72220  430.55580
 10650.00000   11.27600   10.09890   11.27600    0.65760    0.20960    2.36000    0.20470    -999.25    0.20470 1520.70170    0.20960   49.30410   49.30410   12.17170   11.12090    9.27700 1520.70170 1573.42920  153.73380 1573.42920    0.01210    -999.25    0.01210    2.34770  -77.55140  -88.35240  153.73380
 10700.00000   11.87040   10.10520   11.87040    0.84630    0.20100    2.51160    0.11600    -999.25    0.11600 1225.27430    0.20100   48.42040   48.42040   11.14550   11.05630    9.88240 1225.27430  219.80610  154.22690  219.80610    0.04130    -999.25    0.04130    2.45210  -84.12420  -95.26700  154.22690
 10750.00000   11.38930   10.23700   11.38930    0.65120    0.19820    2.39830    0.18230    -999.25    0.18230 1535.64890    0.19820   51.30340   51.30340   15.20210   13.83170   12.50890 1535.64890 1674.14580 1611.41600 1674.14580    0.01220    -999.25    0.01220    2.39510  -79.10980  -90.59240 1611.41600
 10800.00000   12.16130   10.24320   12.16130    0.68690    0.21480    2.39160    0.18620    -999.25    0.18620 1455.82070    0.21480   48.00080   48.00080   15.49580   15.06710   13.89770 1455.82070 1573.64940  277.13620 1573.64940    0.01670    -999.25    0.01670    2.39770 -106.61760 -118.43990  277.13620
 10850.00000   11.26720   10.16390   11.26720    0.66740    0.25000    2.39310    0.18530    -999.25    0.18530 1498.32190    0.25000   50.18710   50.18710   15.74620   14.72200   17.07140 1498.32190 1570.70360  150.89390 1570.70360    0.00980    -999.25    0.00980    2.39420  -78.46690  -90.63100  150.89390
 10900.00000   12.16800   10.08450   12.16800    0.67720    0.09610    2.35040    0.21030    -999.25    0.21030 1476.59850    0.09610   49.10120   49.10120   15.17640   12.26460   14.80760 1476.59850 1506.02730  183.48170 1506.02730    0.01560    -999.25    0.01560    2.37140  -76.75410  -89.25730  183.48170
 10950.00000   11.00380    9.99670   11.00380    2.22630    0.25030    2.31940    0.22840    -999.25    0.22840  449.50160    0.25030   49.81150   49.81150   12.42080    8.84020    8.81580  449.50160  511.06210  159.84910  511.06210    0.01430    -999.25    0.01430    2.32010  -85.23660  -98.08150  159.84910
 11000.00000   11.48970   10.26660   11.48970    0.69500    0.17480    2.27120    0.25660    -999.25    0.25660 1438.82860    0.17480   49.85790   49.85790   16.47090   14.64920   14.30050 1438.82860 1520.19170  237.93010 1520.19170    0.02270    -999.25    0.02270    2.28010  -65.00000  -78.18470  237.93010
 11050.00000   10.42630    9.96560   10.42630   17.58600    0.20220    2.67460    0.02070    -999.25    0.02070   56.86350    0.20220   50.39380   50.39380   10.75270    9.75510    9.14880   56.86350   61.42920  122.48420   61.42920    0.02930    -999.25    0.02930    2.67450  -85.82810  -99.35250  122.48420
 11100.00000   10.84210    9.97920   10.84210   40.83930    0.20540    2.29900    0.24030    -999.25    0.24030   24.55100    0.20540   50.68010   50.68010   22.87140   22.98860   24.82250   24.55100   33.60130   56.21070   33.60130    0.09630    -999.25    0.09630    2.30110  -92.28760 -106.15380   56.21070
 11150.00000   12.64280   10.17670   12.64280    6.06950    0.12560    2.34270    0.21480    -999.25    0.21480  164.75870    0.12560   49.55550   49.55550   24.59760   22.68380   19.29810  164.75870  287.11110  227.81640  287.11110    0.06500    -999.25    0.06500    2.34170 -102.03290 -116.23820  227.81640
 11200.00000    8.44410    9.03980    8.44410  106.86310    0.13050    2.64680    0.03690    -999.25    0.03690    9.35780    0.13050   54.39840   54.39840   17.50250   19.09370   20.23550    9.35780   15.20510  104.17400   15.20510    0.09000    -999.25    0.09000    2.66560 -102.02200 -116.56910  104.17400
 11250.00000   12.34920   10.58920   12.34920   13.89550    0.14900    2.44510    0.15490    -999.25    0.15490   71.96570    0.14900   52.20960   52.20960   28.49900   32.00810   29.10500   71.96570   60.89430   53.91960   60.89430    0.07250    -999.25    0.07250    2.47590  -43.99630  -58.88310   53.91960
 11300.00000   10.58380   10.10520   10.58380    2.29330    0.25000    2.50920    0.11740    -999.25    0.11740  436.04990    0.25000   50.35940   50.35940   25.44000   26.11600   26.48960  436.04990 1366.66360  134.42650 1366.66360    0.01190    -999.25    0.01190    2.48880  -40.52340  -55.75000  134.42650
 11350.00000    8.95650    9.51330    8.95650   89.52950    0.00140    2.68750    0.01320    -999.25    0.01320   11.17000    0.00140   57.64150   57.64150   52.96610   59.43770   56.98940   11.17000   12.21780   16.41810   12.21780    0.07010    -999.25    0.07010    2.68720  -20.34100  -35.90940   16.41810
 11400.00000    8.98020    9.50180    8.98020   49.79710    0.01080    2.70620    0.00220    -999.25    0.00220   20.08150    0.01080   54.81030   54.81030   44.35140   46.85770   47.98790   20.08150   22.25120   27.25260   22.25120    0.05380    -999.25    0.05380    2.71120  -27.66840  -43.57580   27.25260
 11450.00000    9.99950    9.76280    9.99950    5.33180    0.20370    2.66270    0.02770    -999.25    0.02770  187.81650    0.20370   50.77510   50.77510   25.17590   27.32160   27.04480  187.81650  430.18730  325.32960  430.18730    0.00630    -999.25    0.00630    2.65930  -23.56390  -39.81310  325.32960
 11500.00000    8.97070    9.73680    8.97070   13.98510    0.00530    2.71170   -0.00100    -999.25   -0.00100   71.50470    0.00530   52.55530   52.55530   30.67030   32.64910   32.14910   71.50470   76.86770   57.19870   76.86770    0.02860    -999.25    0.02860    2.70260   -9.81780  -26.40680   57.19870
 11550.00000    9.22150    9.84100    9.22150    8.96330    0.00820    2.68640    0.01380    -999.25    0.01380  111.56640    0.00820   52.14550   52.14550   26.25330   25.56340   26.67220  111.56640  136.25160   92.51410  136.25160    0.02930    -999.25    0.02930    2.64900   -5.82240  -22.75110   92.51410
 11600.00000    9.08030    9.70440    9.08030   29.88040    0.00080    2.71740   -0.00430    -999.25   -0.00430   33.49450    0.00080   56.83890   56.83890   42.78470   46.71750   45.22900   33.49450   36.45620   61.82940   36.45620    0.07390    -999.25    0.07390    2.70640  -14.35630  -31.62680   61.82940
 11650.00000    9.10620    9.70270    9.10620   10.36740   -0.01590    2.59390    0.06790    -999.25    0.06790   96.45660   -0.01590   54.32040   54.32040   33.42820   32.46780   35.87260   96.45660  138.04010  186.40690  138.04010    0.05060    -999.25    0.05060    2.61060   -9.88470  -27.49430  186.40690
 11700.00000    9.32690    9.86150    9.32690    9.99460   -0.01910    2.72120   -0.00660    -999.25   -0.00660  100.07190   -0.01910   53.18230   53.18230   32.48630   30.78930   32.29230  100.07190  122.56060  192.45760  122.56060    0.02150    -999.25    0.02150    2.72030  -21.12710  -39.07850  192.45760
 11750.00000    9.64490   10.04420    9.64490   33.98660   -0.01450    2.66490    0.02640    -999.25    0.02640   29.42340   -0.01450   61.49890   61.49890   59.30220   67.23780   68.26300   29.42340   32.41260   49.70770   32.41260    0.07620    -999.25    0.07620    2.66960    1.10750  -17.18360   49.70770
 11800.00000   10.11290   10.37420   10.11290   52.62940   -0.01080    2.59870    0.06510    -999.25    0.06510   19.00080   -0.01080   70.51200   70.51200   89.80460   98.01610   96.73710   19.00080   19.76000   24.24400   19.76000    0.16960    -999.25    0.16960    2.63280   -8.55090  -27.18170   24.24400
