~Version ---------------------------------------------------
VERS.      2.0 : CWLS log ASCII Standard -VERSION 2.0
WRAP.       NO : One line per depth step
CREA. 07/10/13 : LAS Creation Date
~Well ------------------------------------------------------
STRT.FT                         55.3 : START DEPTH
STOP.FT                      11119.8 : STOP DEPTH
STEP.FT                      0.50000 : STEP LENGTH
NULL.                        -999.25 : NULL VALUE
COMP.         PACIFIC PETROLEUMS LTD : COMPANY
WELL. PACIFIC ET AL TONY 10-18-63-21 : WELL
FLD .                     TONY TOWER : FIELD
LOC .                                : LOCATION
CTRY.                         CANADA : COUNTRY
SRVC.                   Schlumberger : SERVICE COMPANY
DATE.                    24-Sep-1975 : LOGDATE
PROV.                        Alberta : PROVINCE
UWI .               100101806321W500 : UNIQUE WELL ID
SLAT.WGS84                  54.45338 : SURFACE LATITUDE
SLON.WGS84                 -117.1585 : SURFACE LONGITUDE
~Curve Information -----------------------------------------
DEPT   .FT    : DEPTH FEET
CALD   .IN    : CALIPER FROM DENSITY LOG
DCOR   .G/C3  : DENSITY CORRECTION FROM DENSITY LOG
DPHI_LS.DEC   : DENSITY POROSITY LIMESTONE [M=2.71,F=1.0] FROM DENSITY LOG
DPHI_SS.DEC   : DENSITY POROSITY SANDSTONE [M=2.65,F=1.0] FROM DENSITY LOG
GRD    .GAPI  : GAMMA RAY FROM DENSITY LOG
ILD    .OHMM  : DEEP INDUCTION FROM RESISTIVITY LOG
ILM    .OHMM  : MEDIUM INDUCTION FROM RESISTIVITY LOG
LL8    .OHMM  : LATEROLOG FROM RESISTIVITY LOG
NPHI_LS.DEC   : NEUTRON POROSITY LIMESTONE FROM DENSITY LOG
NPHI_SS.DEC   : NEUTRON POROSITY SANDSTONE FROM DENSITY LOG
RHOB   .G/C3  : BULK DENSITY FROM DENSITY LOG
SPR    .MV    : SPONTANEOUS POTENTIAL FROM RESISTIVITY LOG
~Params ----------------------------------------------------
PD  .                     GL : PERMANENT DATUM
EPD .FT                 2714 : ELEVATION PERMANENT DATUM
LMF .                     KB : LOG MEASURED FROM
DAPD.FT                 13.7 : FEET ABOVE PERMANENT DATUM
EKB .FT               2727.7 : KELLY BUSHING
EGL .FT                 2714 : GROUND LEVEL
DATE.               09/24/75 : RUN DATE
RUN .                      1 : RUN NUMBER
DD  .FT                11125 : DEPTH DRILLER
DL  .FT                11121 : DEPTH LOGGER
BLI .FT                11115 : BOTTOM LOG INTERVAL
TLI .FT                 1125 : TOP LOG INTERVAL
CBD .FT                 1125 : CASING BOTTOM DRILLER
CBL .FT                 1125 : CASING BOTTOM LOGGER
BS  .IN                 8.75 : BIT SIZE
BSD .FT                11125 : BIT SIZE AT DEPTH
DFT .               GEL CHEM : DRILLING FLUID TYPE
DFD .                    9.3 : DRILLING FLUID DENSITY
DFV .                    147 : DRILLING FLUID VISCOSITY
DFPH.                    9.5 : DRILLING FLUID PH
DFL .                    9.2 : DRILLING FLUID LOSS
MSS .               FLOWLINE : MUD SAMPLE SOURCE
RMS .OHMM               1.62 : RESISTIVITY MUD SAMPLE
MST .DEGF                 72 : MUD SAMPLE TEMPERATURE
RMF .OHMM               1.26 : RESISTIVITY MUD FILTRATE SAMPLE
MFST.DEGF                 68 : MUD FILTRATE SAMPLE TEMPERATURE
RMB .OHMM               0.41 : RESISTIVITY MUD AT BHT
TCS .HRS                 3.5 : TIME CIRCULATED STOPPED
LUN .                   7691 : LOGGING UNIT NUMBER
LUL .                    EDM : LOGGING UNIT LOCATION
ENGI.              CROCKFORD : RECORDING ENGINEER
WITN.                   ROSS : WITNESSED BY
CLNT.                A2DTECH : CLIENT CODE
ORIG.            2" 5" PRINT : ORIGIN OF DATA
UWI .       100101806321W500 : UNIQUE WELL ID
DICO. A2D Technologies, Inc. : DIGITIZING COMPANY
~Other -----------------------------------------------------
~ASCII -----------------------------------------------------
# ...
 9099.30000   11.54290    0.24920    0.07890    -999.25   12.70050  172.87000  115.97210  176.34180    0.00280    -999.25    2.58060 -159.60320
 9099.80000   11.90730    0.24940    0.10470    -999.25   12.70260  169.72860  125.43450  174.42660    0.00300    -999.25    2.57110 -159.41590
 9100.30000   12.26820    0.21810    0.12660    -999.25   12.60790  159.08660  134.81780  174.12750    0.00330    -999.25    2.53170 -159.33730
 9100.80000   12.40360    0.22250    0.14530    -999.25   12.54350  150.32660  125.59870  176.34280    0.00280    -999.25    2.49400 -159.60730
 9101.30000   12.39740    0.23120    0.15560    -999.25   12.47270  148.72590  108.54520  178.57110    0.00230    -999.25    2.45640 -159.95810
 9101.80000   12.31210    0.20460    0.13460    -999.25   12.89360  150.27470  107.30370  179.58770    0.00240    -999.25    2.45630 -160.24220
 9102.30000   12.25310    0.16870    0.12890    -999.25   13.38830  160.15600  119.17370  176.86700    0.00300    -999.25    2.48850 -159.96680
 9102.80000   12.51620    0.13810    0.12150    -999.25   13.60760  170.68700  132.35670  174.18730    0.00360    -999.25    2.49360 -159.77690
 9103.30000   12.34230    0.16970    0.11730    -999.25   13.63930  181.91040  149.15540  178.90690    0.00410    -999.25    2.50990 -159.52820
 9103.80000   12.25640    0.18010    0.13320    -999.25   13.60240  193.87190  171.28200  196.48500    0.00410    -999.25    2.50740 -159.12090
 9104.30000   12.51430    0.16500    0.14620    -999.25   13.89260  207.01340  196.69080  234.57770    0.00390    -999.25    2.48150 -158.76490
 9104.80000   12.43950    0.18730    0.15620    -999.25   14.23500  222.71560  219.21650  264.69590    0.00340    -999.25    2.46320 -158.46720
 9105.30000   12.31030    0.20510    0.17670    -999.25   14.42900  239.60870  241.85680  275.36050    0.00240    -999.25    2.44020 -157.89390
 9105.80000   12.38090    0.17970    0.17960    -999.25   14.68740  236.04570  246.49980  281.65080    0.00140    -999.25    2.41960 -157.30880
 9106.30000   12.55350    0.15840    0.18010    -999.25   14.81240  225.57170  216.32570  280.66860    0.00100    -999.25    2.40750 -157.38830
 9106.80000   12.35850    0.15950    0.16430    -999.25   14.63700  215.47430  189.84510  258.78810    0.00090    -999.25    2.40850 -157.97610
 9107.30000   12.48940    0.18640    0.15310    -999.25   14.45100  205.82890  173.47600  228.77600    0.00080    -999.25    2.44380 -158.81640
 9107.80000   12.24370    0.20980    0.16540    -999.25   14.68460  196.61520  169.25950  208.61800    0.00070    -999.25    2.45100 -159.03730
 9108.30000   12.13130    0.19030    0.16450    -999.25   14.82970  187.81400  167.95250  188.54730    0.00060    -999.25    2.42820 -159.70670
 9108.80000   12.12830    0.17660    0.14690    -999.25   14.94660  179.40660  166.78610  170.38200    0.00070    -999.25    2.42830 -159.89100
 9109.30000   12.04630    0.20970    0.14830    -999.25   15.11520  172.20020  161.79780  159.65870    0.00090    -999.25    2.46830 -160.07890
 9109.80000   11.99740    0.22770    0.15910    -999.25   15.33510  166.56130  156.46380  158.53120    0.00110    -999.25    2.45860 -160.17750
 9110.30000   11.85230    0.19490    0.16210    -999.25   15.35690  164.04130  151.30560  163.10720    0.00130    -999.25    2.44740 -160.59050
 9110.80000   11.64940    0.22480    0.16070    -999.25   14.91740  164.41680  146.31760  177.06810    0.00150    -999.25    2.43650 -160.82660
 9111.30000   11.61100    0.24560    0.14760    -999.25   14.57430  173.98880  141.49390  192.42790    0.00170    -999.25    2.44100 -160.97940
 9111.80000   11.65210    0.23780    0.14570    -999.25   14.69810  186.79810  141.31490  209.12040    0.00190    -999.25    2.45880 -161.36070
 9112.30000   11.57430    0.23370    0.14660    -999.25   15.01960  202.70250  146.95770  227.23580    0.00210    -999.25    2.46490 -161.43850
 9112.80000   11.72050    0.23740    0.13060    -999.25   15.48180  220.92360  163.78910  246.93460    0.00230    -999.25    2.47070 -161.71210
 9113.30000   12.15180    0.21690    0.11670    -999.25   15.92500  240.78260  181.35300  259.47620    0.00260    -999.25    2.50010 -162.17760
 9113.80000   12.49340    0.18180    0.11950    -999.25   16.27460  252.12460  201.90560  263.75530    0.00330    -999.25    2.51510 -162.65000
 9114.30000   12.41730    0.17540    0.11710    -999.25   15.86370  250.07610  231.42290  262.29480    0.00380    -999.25    2.50750 -162.83350
 9114.80000   12.50280    0.18430    0.11720    -999.25   15.82010  247.18100  257.38730  259.08330    0.00370    -999.25    2.50310 -162.96190
 9115.30000   12.76760    0.17460    0.11710    -999.25   15.81600  243.66380  254.94230  256.72200    0.00290    -999.25    2.51320 -163.23610
 9115.80000   12.58700    0.19560    0.10910    -999.25   15.95430  240.19660  238.90530  267.73110    0.00260    -999.25    2.52600 -163.37470
 9116.30000   12.25710    0.21840    0.12020    -999.25   16.17870  242.51430  220.30200  285.91590    0.00230    -999.25    2.51760 -163.65300
 9116.80000   12.28390    0.22820    0.13740    -999.25   16.25610  246.64860  224.04900  301.68480    0.00200    -999.25    2.49820 -163.52320
 9117.30000   12.35240    0.22580    0.15240    -999.25   16.27670  249.66080  241.16110  292.76630    0.00180    -999.25    2.47670 -163.04150
 9117.80000   12.46250    0.18930    0.17110    -999.25   16.29270  247.98120  253.36290  273.77340    0.00160    -999.25    2.45020 -162.22180
 9118.30000   12.49430    0.19000    0.18550    -999.25   15.77830  243.58660  228.47790  255.90700    0.00110    -999.25    2.42120 -162.89990
 9118.80000   12.28690    0.20440    0.18630    -999.25   15.34840  235.00670  186.08020  232.02920    0.00080    -999.25    2.39420 -163.07100
 9119.30000   11.79320    0.21540    0.17770    -999.25   14.72710  225.82980  163.72780  210.27670    0.00040    -999.25    2.39400 -163.52180
 9119.80000   12.12890    0.22440    0.15480    -999.25   14.15280  217.01120  159.31710  201.98550    0.00010    -999.25    2.42430 -163.99860
 9120.30000   12.32200    0.24260    0.14020    -999.25   14.12040  208.61420  157.31350  199.90400   -0.00010    -999.25    2.45450 -165.17860
 9120.80000   11.98770    0.25250    0.15070    -999.25   13.99810  204.49450  155.76230  196.74950    0.00040    -999.25    2.47750 -165.59700
 9121.30000   12.04420    0.24420    0.14670    -999.25   13.73330  204.49450  140.52410  185.28930    0.00080    -999.25    2.47060 -166.13160
 9121.80000   12.17910    0.23460    0.15010    -999.25   13.64850  204.49450  121.35410  171.20950    0.00100    -999.25    2.45630 -166.76330
 9122.30000   12.15050    0.23700    0.15510    -999.25   13.71880  203.99630  127.55570  171.43620    0.00120    -999.25    2.44710 -167.23940
 9122.80000   12.11730    0.20080    0.14660    -999.25   13.78630  203.15240  150.26090  175.09460    0.00120    -999.25    2.45540 -167.49730
 9123.30000   12.21250    0.19870    0.14310    -999.25   13.73010  192.74210  181.30800  182.70910    0.00120    -999.25    2.46910 -167.38690
 9123.80000   12.33150    0.21170    0.14940    -999.25   13.72370  173.28490  186.38190  190.14790    0.00150    -999.25    2.46840 -167.62260
 9124.30000   12.51860    0.23790    0.16330    -999.25   13.68390  155.79190  158.70840  193.60750    0.00180    -999.25    2.45640 -167.36800
 9124.80000   12.50270    0.23710    0.16910    -999.25   13.74480  139.96480  132.74980  190.17180    0.00210    -999.25    2.43900 -167.04800
 9125.30000   12.40780    0.20180    0.16180    -999.25   13.72660  125.59730  112.42180  173.42460    0.00230    -999.25    2.42430 -166.76070
 9125.80000   12.27190    0.19520    0.14880    -999.25   13.48730  112.70470  103.88350  150.15830    0.00260    -999.25    2.43970 -166.70610
 9126.30000   12.29080    0.21510    0.15350    -999.25   13.26470  101.13550  101.50900  127.43890    0.00290    -999.25    2.46380 -166.81420
 9126.80000   12.19370    0.20730    0.17210    -999.25   13.76500   90.64690   97.23360  110.23770    0.00310    -999.25    2.44500 -166.88950
