~Version ---------------------------------------------------
VERS.      2.0 : CWLS log ASCII Standard -VERSION 2.0
WRAP.       NO : One line per depth step
CREA. 08/01/17 : LAS Creation Date
~Well ------------------------------------------------------
STRT.FT                       300.0 : START DEPTH
STOP.FT                     11500.0 : STOP DEPTH
STEP.FT                    50.00000 : STEP LENGTH
NULL.                       -999.25 : NULL VALUE
COMP.          MOBIL OIL CANADA LTD : COMPANY
WELL. MOBIL ET AL NE PINE 6-9-59-18 : WELL
FLD .                    CLARK LAKE : FIELD
LOC .                               : LOCATION
CTRY.                        CANADA : COUNTRY
SRVC.                  Schlumberger : SERVICE COMPANY
DATE.                   18-Jul-1968 : LOGDATE
PROV.                       Alberta : PROVINCE
UWI .              100060905918W500 : UNIQUE WELL ID
SLAT.WGS84                 54.08428 : SURFACE LATITUDE
SLON.WGS84                -116.6419 : SURFACE LONGITUDE
~Curve Information -----------------------------------------
DEPT  .FT    : Depth Curve
CALSED.IN    : CALIPER FROM SONIC LOG
CALWS .IN    : CALIPER [CALSED]
CILDED.MMHO  : CONDUCTIVITY FROM RESISTIVITY LOG
CONDWS.MMHO  : CONDUCTIVITY [1000/DRESWS]
DRESWS.OHMM  : DEEP RESISTIVITY [ILDED]
DTED  .US/F  : DELTA TIME FROM SONIC LOG
DTWS  .US/F  : DELTA TIME [DTED]
GRSED .GAPI  : GAMMA RAY FROM SONIC LOG
GRWS  .GAPI  : GAMMA RAY [GRSED]
ILDED .OHMM  : INDUCTION LOG DEEP RESISTIVITY
SNED  .OHMM  : 16 INCH SHORT NORMAL RESISTIVITY FROM IEL
SPRED .MV    : SPONTANEOUS POTENTIAL FROM RESISTIVITY LOG
SPWS  .MV    : SPONTANEOUS POTENTIAL [BASELINE 0 MV] [SPRED]
SRESWS.OHMM  : SHALLOW RESISTIVITY [SNED]
~Params ----------------------------------------------------
PD  .                     GL : PERMANENT DATUM
EPD .FT               3509.9 : ELEVATION PERMANENT DATUM
LMF .                     KB : LOG MEASURED FROM
DAPD.FT                16.06 : FEET ABOVE PERMANENT DATUM
EKB .FT              3525.96 : KELLY BUSHING
EGL .FT               3509.9 : GROUND LEVEL
DATE.               07/18/68 : RUN DATE
RUN .                      1 : RUN NUMBER
DD  .FT                11521 : DEPTH DRILLER
DL  .FT                11510 : DEPTH LOGGER
BLI .FT                11510 : BOTTOM LOG INTERVAL
TLI .FT                 1200 : TOP LOG INTERVAL
CBL .FT                 1215 : CASING BOTTOM LOGGER
BS  .IN                 8.75 : BIT SIZE
BSD .FT                11521 : BIT SIZE AT DEPTH
DFT .                    GEL : DRILLING FLUID TYPE
DFD .                   10.2 : DRILLING FLUID DENSITY
DFV .                     95 : DRILLING FLUID VISCOSITY
DFPH.                   10.5 : DRILLING FLUID PH
DFL .                      6 : DRILLING FLUID LOSS
RMS .OHMM               1.18 : RESISTIVITY MUD SAMPLE
MST .DEGF                 58 : MUD SAMPLE TEMPERATURE
RMF .OHMM              0.693 : RESISTIVITY MUD FILTRATE SAMPLE
MFST.DEGF                 60 : MUD FILTRATE SAMPLE TEMPERATURE
RMC .OHMM                1.4 : RESISTIVITY MUD CAKE
MCST.DEGF                 59 : MUD CAKE SAMPLE TEMPERATURE
RMB .OHMM               0.39 : RESISTIVITY MUD AT BHT
TCS .HRS                   3 : TIME CIRCULATED STOPPED
LUN .                   7501 : LOGGING UNIT NUMBER
LUL .                    EDM : LOGGING UNIT LOCATION
ENGI.               STUEHMER : RECORDING ENGINEER
WITN.                   HELM : WITNESSED BY
CLNT.                A2DTECH : CLIENT CODE
ORIG.            2" 5" PRINT : ORIGIN OF DATA
UWI .       100060905918W500 : UNIQUE WELL ID
DICO. A2D Technologies, Inc. : DIGITIZING COMPANY
~Other -----------------------------------------------------
~ASCII -----------------------------------------------------
# ...
 7650.00000   10.75680   10.75680   45.89110   42.94630   23.28490   83.72830   83.72830   46.70700   46.70700   23.28490   22.08260  -60.79360  -18.15620   22.08260
 7700.00000   10.72890   10.72890   68.49970   66.10210   15.12810   80.72100   80.72100   77.59450   77.59450   15.12810   17.75260  -42.53740   -4.29560   17.75260
 7750.00000   12.56440   12.56440  245.77790  240.91740    4.15080   92.86530   92.86530   85.32240   85.32240    4.15080    5.13810  -35.51980   -1.67360    5.13810
 7800.00000   12.79110   12.79110  259.90530  245.04720    4.08080   92.04890   92.04890   78.40910   78.40910    4.08080    4.83420  -31.38350   -1.91100    4.83420
 7850.00000    8.76520    8.76520    8.05440    4.06200  246.18440   98.77080   98.77080   12.94010   12.94010  246.18440   59.61100  -46.78470  -16.65330   59.61100
 7900.00000    8.94460    8.94460   14.01860   11.98840   83.41400   68.10820   68.10820   89.52490   89.52490   83.41400   94.14520  -32.31920   -0.23770   94.14520
 7950.00000    9.22740    9.22740   13.38750   12.31790   81.18260   61.20670   61.20670   79.85910   79.85910   81.18260   69.73760  -51.35280  -17.32130   69.73760
 8000.00000    9.15220    9.15220   83.28100   78.10730   12.80290   52.18980   52.18980   66.34230   66.34230   12.80290   23.56430  -47.40070  -11.41920   23.56430
 8050.00000    9.13070    9.13070   62.55600   60.47710   16.54960   62.37650   62.37650   80.99640   80.99640   16.54960   23.09600  -67.96080  -30.03900   23.09600
 8100.00000    9.31540    9.31540   51.53430   48.30660   20.70110   56.47000   56.47000   28.46600   28.46600   20.70110   26.93480  -81.75100  -41.86940   26.93480
 8150.00000    9.56670    9.56670   20.45340   19.37760   51.60600   57.70580   57.70580   44.90810   44.90810   51.60600   60.29590  -72.50000  -30.66840   60.29590
 8200.00000    9.09460    9.09460   43.63380   42.04490   23.78410   58.56480   58.56480   39.24060   39.24060   23.78410   30.77140  -95.19390  -51.41230   30.77140
 8250.00000    9.20570    9.20570   26.58970   23.83050   41.96300   57.69080   57.69080   51.48710   51.48710   41.96300   44.98210  -69.31240  -23.58080   44.98210
 8300.00000    9.38850    9.38850   21.14860   17.74610   56.48230   53.12370   53.12370   29.69920   29.69920   56.48230   57.77890  -47.98330   -0.31150   57.77890
 8350.00000    9.64990    9.64990   27.23660   26.29590   38.02880   54.47350   54.47350   11.95710   11.95710   38.02880   65.13390 -100.94890  -50.10590   65.13390
 8400.00000    9.40510    9.40510   19.67840   19.13850   52.25060   50.65030   50.65030    8.30960    8.30960   52.25060   68.84390 -171.84140 -117.71720   68.84390
 8450.00000    9.34610    9.34610  101.16010   96.19360   10.39570   58.09190   58.09190   45.17430   45.17430   10.39570   16.14990 -131.18030  -73.77490   16.14990
 8500.00000    9.07370    9.07370   91.73370   88.02580   11.36030   56.90150   56.90150   62.27530   62.27530   11.36030   15.74310  -90.49610  -29.80960   15.74310
 8550.00000    9.18200    9.18200   78.32730   76.53810   13.06740   60.57570   60.57570   68.36060   68.36060   13.06740   20.27390  -76.68420  -12.73290   20.27390
 8600.00000    9.19370    9.19370   29.77630   28.46650   35.12900   55.31600   55.31600   41.02750   41.02750   35.12900   46.00570  -73.78790   -7.68680   46.00570
 8650.00000    9.23920    9.23920    9.86600    7.63020  131.05740   52.60970   52.60970   16.26570   16.26570  131.05740   89.14960  -74.35450   -9.56320   89.14960
 8700.00000    9.63250    9.63250   25.70140   23.24270   43.02430   52.86590   52.86590   11.21790   11.21790   43.02430   70.22120 -123.09750  -59.61600   70.22120
 8750.00000    9.17360    9.17360   21.39990   19.86040   50.35150   56.28810   56.28810   43.65330   43.65330   50.35150   50.93150  -65.59820   -3.42650   50.93150
 8800.00000    9.28430    9.28430   12.29530   11.13270   89.82590   53.97970   53.97970   24.37420   24.37420   89.82590   86.01280  -72.36940  -11.50100   86.01280
 8850.00000    9.07490    9.07490   11.48710   10.11960   98.81850   53.77530   53.77530   23.37190   23.37190   98.81850   65.68230  -66.73220   -7.18020   65.68230
 8900.00000    9.01260    9.01260   21.58180   20.11510   49.71400   55.63090   55.63090   35.24600   35.24600   49.71400   50.14860  -59.90750   -1.66530   50.14860
 8950.00000    9.00280    9.00280   21.87190   20.44720   48.90640   56.56040   56.56040   44.79000   44.79000   48.90640   51.14070  -60.86550   -3.93310   51.14070
 9000.00000    9.01220    9.01220    4.76000    5.37350  186.09900   60.77660   60.77660   60.91040   60.91040  186.09900  103.86150  -58.59590   -2.90260  103.86150
 9050.00000    9.02450    9.02450   24.88640   22.78030   44.60440   77.53120   77.53120  221.52960  221.52960   44.60440   54.60120  -71.46750  -16.07200   54.60120
 9100.00000    9.77530    9.77530    2.03940    1.69280  590.75290   51.30170   51.30170   14.34160   14.34160  590.75290  147.22760  -91.52850  -36.43400  147.22760
 9150.00000    9.70760    9.70760    3.46470    2.35080  425.39280   49.94740   49.94740   12.30440   12.30440  425.39280  129.94560 -115.19080  -60.39570  129.94560
 9200.00000    9.70450    9.70450    3.38230    2.18270  458.15660   50.48660   50.48660   14.29330   14.29330  458.15660  168.55920 -119.10160  -64.60600  168.55920
 9250.00000   10.03720   10.03720    3.70310    2.38310  419.62220   50.79690   50.79690   10.51480   10.51480  419.62220  121.45380 -135.88300  -81.68680  121.45380
 9300.00000   10.07970   10.07970    3.82640    2.65440  376.91780   51.13360   51.13360   13.16600   13.16600  376.91780  124.21630 -130.92070  -77.02240  124.21630
 9350.00000   11.25930   11.25930    4.47220    3.48940  286.58230   61.26940   61.26940    9.92120    9.92120  286.58230  130.21690 -133.41900  -79.82160  130.21690
 9400.00000    8.88690    8.88690    7.07210    6.43090  155.49890   50.38270   50.38270    9.07990    9.07990  155.49890   87.22820 -153.58350 -100.28550   87.22820
 9450.00000   10.23300   10.23300    4.77590    3.39370  294.66090   54.35640   54.35640   12.05880   12.05880  294.66090   92.40240 -141.78530  -88.78680   92.40240
 9500.00000   10.16750   10.16750    3.59430    2.31440  432.06810   55.19200   55.19200   11.89370   11.89370  432.06810   93.69720 -129.63670  -76.93760   93.69720
 9550.00000   10.02570   10.02570    5.58910    4.55560  219.51290   52.67400   52.67400   12.34730   12.34730  219.51290   89.74950 -121.50760  -69.10640   89.74950
 9600.00000   10.90290   10.90290    4.80180    4.08590  244.74380   51.19060   51.19060   12.43720   12.43720  244.74380   87.92260 -122.68860  -70.58830   87.92260
 9650.00000   10.28240   10.28240    4.16160    2.86060  349.57220   54.21370   54.21370   14.49740   14.49740  349.57220   87.21520 -128.27420  -76.47340   87.21520
 9700.00000   10.65820   10.65820    4.64610    3.72910  268.15850   52.29880   52.29880   10.58150   10.58150  268.15850   81.53310 -129.36700  -77.86560   81.53310
 9750.00000   11.06610   11.06610    3.19300    2.44770  408.54430   55.60970   55.60970   14.53810   14.53810  408.54430   90.32380 -119.90770  -68.70570   90.32380
 9800.00000    9.05940    9.05940   27.28950   26.97010   37.07850   52.95860   52.95860   13.71430   13.71430   37.07850   62.36880 -131.20070  -80.29660   62.36880
 9850.00000    9.12560    9.12560   83.94210   80.67380   12.39560   55.01580   55.01580   18.03790   18.03790   12.39560   34.05000 -125.72400  -75.12080   34.05000
 9900.00000    9.77470    9.77470   11.69820   11.10420   90.05640   52.84600   52.84600   15.21560   15.21560   90.05640   51.54480 -117.84230  -67.53860   51.54480
 9950.00000   10.01590   10.01590    9.87380    9.12690  109.56680   55.12550   55.12550   15.34020   15.34020  109.56680   64.99440 -110.27950  -60.27520   64.99440
 10000.00000   10.42740   10.42740    3.69510    2.22990  448.44060   49.93810   49.93810   17.70400   17.70400  448.44060   87.03800  -75.82190  -26.11700   87.03800
 10050.00000    9.29790    9.29790    9.79070    8.94820  111.75450   51.29630   51.29630   27.73910   27.73910  111.75450   74.31260  -53.65200   -4.24500   74.31260
