~Version ---------------------------------------------------
VERS.      2.0 : CWLS log ASCII Standard -VERSION 2.0
WRAP.       NO : One line per depth step
CREA. 09/12/13 : LAS Creation Date
~Well ------------------------------------------------------
STRT.M                            400.0 : START DEPTH
STOP.M                           3300.0 : STOP DEPTH
STEP.M                         50.00000 : STEP LENGTH
NULL.                           -999.25 : NULL VALUE
COMP.             BONANZA OIL & GAS LTD : COMPANY
WELL. BONANZA ET AL ROSEVEAR 6-18-54-14 : WELL
FLD .                                WC : FIELD
LOC .                                   : LOCATION
CTRY.                            CANADA : COUNTRY
SRVC.                      Schlumberger : SERVICE COMPANY
DATE.                       05-Jan-1981 : LOGDATE
PROV.                           Alberta : PROVINCE
UWI .                  100061805414W500 : UNIQUE WELL ID
SLAT.WGS84                      53.6619 : SURFACE LATITUDE
SLON.WGS84                    -116.0574 : SURFACE LONGITUDE
~Curve Information -----------------------------------------
DEPT    .M      : DEPTH METER
CALDED  .MM     : CALIPER FROM DENSITY [ADJ.TO RESISTIVITY LOG]
CALSED  .MM     : CALIPER FROM SONIC LOG [ADJ. TO RESISTIVITY LOG]
CALWS   .MM     : CALIPER [CALDED]
CONDWS  .MMHO   : CONDUCTIVITY [1000/DRESWS]
DCORWS  .KG/M3  : DENSITY CORRECTION [DRHOED]
DENWS   .KG/M3  : FORMATION BULK DENSITY [CALC.FROM DPOLSWS ,M=2710,F=1000]
DPHILSED.V/V    : DENSITY POROSITY LIMESTONE [M=2710,F=1000]FROM DENSITY LOG [ADJ.TO RESISTIVITY LOG]
DPHISSED.V/V    : DENSITY POROSITY SANDSTONE [M=2650,F=1000] FROM DENSITY LOG [ADJ.TO RESISTIVITY LOG]
DPOLSWS .V/V    : DENSITY POROSITY LIMESTONE [DPHISSED CONVERTED TO LIMESTONE(M=2710,F=1000) & SPL.TO DPHILSED@2314M]
DRESWS  .OHMM   : DEEP RESISTIVITY [ILDED]
DRHOED  .KG/M3  : DENSITY CORRECTION FROM DENSITY LOG [ADJ.TO RESISTIVITY LOG]
DTED    .US/M   : DELTA TIME FROM SONIC LOG [ADJ. TO RESISTIVITY LOG]
DTWS    .US/M   : COMPRESSIONAL SONIC [DTED]
GRDED   .GAPI   : GAMMA RAY FROM DENSITY LOG [ADJ.TO RESISTIVITY LOG]
GRSED   .GAPI   : GAMMA RAY FROM SONIC LOG [ADJ. TO RESISTIVITY LOG]
GRWS    .GAPI   : GAMMA RAY [GRDED]
ILDED   .OHMM   : DEEP INDUCTION RESISTIVITY FROM RESISTIVITY LOG
ILMED   .OHMM   : MEDIUM INDUCTION RESISTIVITY FROM RESISTIVITY LOG
MCALED  .MM     : MICRO CALIPER FROM MICROLOG [ADJ.TO RESISTIVITY LOG]
MRESWS  .OHMM   : MEDIUM RESISTIVITY [MRESWS]
NPHILSED.V/V    : NEUTRON POROSITY LIMESTONE FROM DENSITY LOG [ADJ.TO RESISTIVITY LOG]
NPHISSED.V/V    : NEUTRON POROSITY SANDSTONE FROM DENSITY LOG [ADJ.TO RESISTIVITY LOG]
NPOLSWS .V/V    : NEUTRON POROSITY LIMESTONE [NPHISSED CONVERTED TO LIMESTONE MATRIX,SPL. TO NPHILSED @2309.6M ]
RHOBED  .KG/M3  : BULK DENSITY FROM DENSITY LOG [ADJ.TO RESISTIVITY LOG]
SFLED   .OHMM   : SPHERICALLY FOCUSED LOG FROM RESISTIVITY LOG
SPRED   .MV     : SPONTANEOUS POTENTIAL FROM RESISTIVITY LOG
SPWS    .MV     : SPONTANEOUS POTENTIAL [BASELINE 0 MV, SPRED]
SRESWS  .OHMM   : SHALLOW RESISTIVITY [SFLED]
~Params ----------------------------------------------------
EPD .M                    853.72 : ELEVATION PERMANENT DATUM
DAPD.M                       4.9 : FEET ABOVE PERMANENT DATUM
EKB .M                    858.62 : KELLY BUSHING
EGL .M                    853.72 : GROUND LEVEL
DATE.                   01/05/81 : RUN DATE
RUN .                          1 : RUN NUMBER
DD  .M                      3346 : DEPTH DRILLER
DL  .M                    3345.4 : DEPTH LOGGER
BLI .M                    3344.6 : BOTTOM LOG INTERVAL
TLI .M                     355.2 : TOP LOG INTERVAL
CS  .MM                      244 : CASING SIZE
CBD .M                       355 : CASING BOTTOM DRILLER
CBL .M                     355.2 : CASING BOTTOM LOGGER
BS  .MM                      222 : BIT SIZE
BSD .M                      3346 : BIT SIZE AT DEPTH
DFT .                   GEL CHEM : DRILLING FLUID TYPE
DFD .                       1090 : DRILLING FLUID DENSITY
DFV .                        140 : DRILLING FLUID VISCOSITY
DFPH.                       10.5 : DRILLING FLUID PH
DFL .                       10.8 : DRILLING FLUID LOSS
MSS .                CIRCULATION : MUD SAMPLE SOURCE
RMS .OHMM                   1.41 : RESISTIVITY MUD SAMPLE
MST .DEGC                   32.2 : MUD SAMPLE TEMPERATURE
RMF .OHMM                   1.21 : RESISTIVITY MUD FILTRATE SAMPLE
MFST.DEGC                   17.8 : MUD FILTRATE SAMPLE TEMPERATURE
MFSS.                      PRESS : MUD FILTRATE SAMPLE SOURCE
MCSS.                       MEAS : MUD CAKE SAMPLE SOURCE
RMB .OHMM                  0.665 : RESISTIVITY MUD AT BHT
TCS .HRS                    1900 : TIME CIRCULATED STOPPED
TLAB.HRS                     730 : TIME LOGGER AT BOTTOM
LUN .                       8112 : LOGGING UNIT NUMBER
LUL .                      EDSON : LOGGING UNIT LOCATION
ENGI.                    LIBLANC : RECORDING ENGINEER
WITN.                KIRKPATRICK : WITNESSED BY
CLNT.                    A2DTECH : CLIENT CODE
ORIG. 6.5"/100M 16.5"/100M PRINT : ORIGIN OF DATA
UWI .           100061805414W500 : UNIQUE WELL ID
DICO.     A2D Technologies, Inc. : DIGITIZING COMPANY
~Other -----------------------------------------------------
DILSFL-CND-BHC- ML LOG RUN
DISFL RUN IN COMBO WITH BHC-GR
SP JUMPS DUE TO RIG NOISE
NPHISSED CONVERTED TO LIMESTONE MATRIX USING SCHLUMBERGER CHART
~ASCII -----------------------------------------------------
  400.00000  268.72730    -999.25  268.72730  125.72290  140.65450 2268.52000    -999.25    0.23120    0.25820    7.95400  140.65450    -999.25    -999.25   65.47660    -999.25   65.47660    7.95400    7.71320    -999.25    7.71320    -999.25    0.31600    0.27210 2462.17940    8.07810 -104.77270  -10.91740    8.07810
  450.00000  258.48090    -999.25  258.48090   63.63790   63.39810 2291.29000    -999.25    0.21740    0.24490   15.71390   63.39810    -999.25    -999.25   54.04340    -999.25   54.04340   15.71390   12.83800    -999.25   12.83800    -999.25    0.33100    0.28720 2288.60330   12.79810 -108.01400  -17.59920   12.79810
  500.00000  344.17280    -999.25  344.17280  181.65960    3.09500 2424.28000    -999.25    0.13680    0.16710    5.50480    3.09500    -999.25    -999.25   76.59510    -999.25   76.59510    5.50480    4.77620    -999.25    4.77620    -999.25    0.27660    0.23260 2399.89480    3.84870  -94.90110   -5.67650    3.84870
  550.00000  266.64150    -999.25  266.64150  140.34300  189.35740 2478.56500    -999.25    0.10390    0.13530    7.12540  189.35740    -999.25    -999.25   75.87950    -999.25   75.87950    7.12540    7.55330    -999.25    7.55330    -999.25    0.23210    0.18830 2485.31570    7.71240  -96.89110   -5.94420    7.71240
  600.00000  274.97700    -999.25  274.97700  158.78060    3.42780 1848.76000    -999.25    0.48560    0.50360    6.29800    3.42780    -999.25    -999.25   82.39180    -999.25   82.39180    6.29800    5.16450    -999.25    5.16450    -999.25    0.50540    0.46590 1809.20680    5.46310  -92.87960   -1.84390    5.46310
  650.00000  314.23580    -999.25  314.23580  136.16740  145.09040 1661.32000    -999.25    0.59920    0.61330    7.34390  145.09040    -999.25    -999.25   75.38870    -999.25   75.38870    7.34390    5.67260    -999.25    5.67260    -999.25    0.47410    0.43320 1732.71290    4.87040  -93.89010   -4.93090    4.87040
  700.00000  280.11620    -999.25  280.11620  222.26670   72.91500 1665.44500    -999.25    0.59670    0.61090    4.49910   72.91500    -999.25    -999.25   81.71320    -999.25   81.71320    4.49910    3.84960    -999.25    3.84960    -999.25    0.43280    0.39070 1667.79660    3.65760  -91.04510   -4.16240    3.65760
  750.00000  245.16610    -999.25  245.16610  136.99010  213.07180 2382.37000    -999.25    0.16220    0.19160    7.29980  213.07180    -999.25    -999.25   92.77890    -999.25   92.77890    7.29980    6.61380    -999.25    6.61380    -999.25    0.34170    0.29800 2354.96630    8.79080  -88.50780   -3.61400    8.79080
  800.00000  308.70670    -999.25  308.70670  198.71230  123.78430 1909.31500    -999.25    0.44890    0.46820    5.03240  123.78430    -999.25    -999.25   91.48930    -999.25   91.48930    5.03240    4.66990    -999.25    4.66990    -999.25    0.35450    0.31090 1925.59860    4.53030  -86.88520   -3.62560    4.53030
  850.00000  341.30750    -999.25  341.30750  213.98160   73.33980 2284.52500    -999.25    0.22150    0.24880    4.67330   73.33980    -999.25    -999.25  104.52220    -999.25  104.52220    4.67330    3.95150    -999.25    3.95150    -999.25    0.36650    0.32310 2291.48390    3.50870  -85.83020   -3.36970    3.50870
  900.00000  313.81230    -999.25  313.81230  151.25850  137.80850 2110.78000    -999.25    0.32680    0.35040    6.61120  137.80850    -999.25    -999.25   90.58450    -999.25   90.58450    6.61120    5.99760    -999.25    5.99760    -999.25    0.40460    0.36180 2073.70630    5.79500  -84.32890   -1.59590    5.79500
  950.00000  245.83930    -999.25  245.83930   98.67380  152.50250 2315.21500    -999.25    0.20290    0.23090   10.13440  152.50250    -999.25    -999.25   58.92440    -999.25   58.92440   10.13440   10.15460    -999.25   10.15460    -999.25    0.29390    0.24990 2294.31880   10.36330  -87.43670   -4.43120   10.36330
 1000.00000  272.83470    -999.25  272.83470  105.13590   17.91680 2426.92000    -999.25    0.13520    0.16550    9.51150   17.91680    -999.25    -999.25   58.16350    -999.25   58.16350    9.51150    8.09800    -999.25    8.09800    -999.25    0.26580    0.22180 2429.35840    7.02170  -86.35220   -3.07410    7.02170
 1050.00000  258.23430    -999.25  258.23430   50.15720   47.71620 2331.88000    -999.25    0.19280    0.22110   19.93730   47.71620    -999.25    -999.25   48.72530    -999.25   48.72530   19.93730   17.82950    -999.25   17.82950    -999.25    0.28890    0.24490 2333.88550   15.62320  -93.25820  -10.09510   15.62320
 1100.00000  296.63160    -999.25  296.63160  171.66790   85.98740 2301.02500    -999.25    0.21150    0.23920    5.82520   85.98740    -999.25    -999.25   67.56660    -999.25   67.56660    5.82520    5.92720    -999.25    5.92720    -999.25    0.34270    0.29900 2294.51510    5.54530  -84.81640   -1.80190    5.54530
 1150.00000  277.98030    -999.25  277.98030   90.82570  176.08860 2181.23500    -999.25    0.28410    0.30920   11.01010  176.08860    -999.25    -999.25   60.93290    -999.25   60.93290   11.01010   10.29910    -999.25   10.29910    -999.25    0.28310    0.23910 2136.56180   10.16670  -84.57540   -1.70960   10.16670
 1200.00000  261.02110    -999.25  261.02110  150.47780   46.38200 2521.13500    -999.25    0.07810    0.11040    6.64550   46.38200    -999.25    -999.25   68.15330    -999.25   68.15330    6.64550    6.20170    -999.25    6.20170    -999.25    0.35860    0.31510 2518.42550    6.52670  -86.52960   -3.81240    6.52670
 1250.00000  262.42390    -999.25  262.42390   59.82330   38.07620 2447.05000    -999.25    0.12300    0.15380   16.71590   38.07620    -999.25    -999.25   43.82980    -999.25   43.82980   16.71590   16.71130    -999.25   16.71130    -999.25    0.27510    0.23110 2448.69190   17.93320 -100.52630  -17.95780   17.93320
 1300.00000  253.85790    -999.25  253.85790  102.95370  121.61640 2411.24500    -999.25    0.14470    0.17470    9.71310  121.61640    -999.25    -999.25   82.38650    -999.25   82.38650    9.71310    9.07960    -999.25    9.07960    -999.25    0.36390    0.32040 2410.23070    8.81250  -86.18470   -3.76480    8.81250
 1350.00000  286.96730    -999.25  286.96730   89.43980  154.68260 2232.05500    -999.25    0.25330    0.27950   11.18070  154.68260    -999.25    -999.25   99.61040    -999.25   99.61040   11.18070   10.86660    -999.25   10.86660    -999.25    0.31310    0.26920 2249.56860   10.59220  -86.51580   -4.56280   10.59220
 1400.00000  292.26550    -999.25  292.26550   61.64890  173.08840 2189.65000    -999.25    0.27900    0.30430   16.22090  173.08840    -999.25    -999.25   80.63540    -999.25   80.63540   16.22090   17.28080    -999.25   17.28080    -999.25    0.26740    0.22340 2195.61040   18.19110  -83.52370   -2.39630   18.19110
 1450.00000  360.91140    -999.25  360.91140  112.97650   51.66820 1721.38000    -999.25    0.56280    0.57810    8.85140   51.66820    -999.25    -999.25   89.19110    -999.25   89.19110    8.85140    8.04870    -999.25    8.04870    -999.25    0.47370    0.43280 1721.08740    7.66290  -84.92110   -4.61940    7.66290
 1500.00000  296.00510    -999.25  296.00510  113.34400  153.41850 2072.99500    -999.25    0.34970    0.37250    8.82270  153.41850    -999.25    -999.25  101.99860    -999.25  101.99860    8.82270    8.70230    -999.25    8.70230    -999.25    0.32170    0.27780 1977.46460    8.48980  -83.77820   -4.30210    8.48980
 1550.00000  467.33230    -999.25  467.33230  132.74040   54.14520 1583.77000    -999.25    0.64620    0.65860    7.53350   54.14520    -999.25    -999.25   84.20020    -999.25   84.20020    7.53350    6.68440    -999.25    6.68440    -999.25    0.39650    0.35360 1625.08590    6.45630  -82.52660   -3.87620    6.45630
 1600.00000  250.58790    -999.25  250.58790   81.52280  103.05240 2665.67500    -999.25   -0.00950    0.02590   12.26650  103.05240    -999.25    -999.25   87.87110    -999.25   87.87110   12.26650   13.80280    -999.25   13.80280    -999.25    0.24160    0.19770 2655.08420   13.74230  -80.75380   -2.92900   13.74230
