~Version ---------------------------------------------------
VERS.      2.0 : CWLS log ASCII Standard -VERSION 2.0
WRAP.       NO : One line per depth step
CREA. 12/07/17 : LAS Creation Date
~Well ------------------------------------------------------
STRT.FT                     1150.0 : START DEPTH
STOP.FT                    11250.0 : STOP DEPTH
STEP.FT                   50.00000 : STEP LENGTH
NULL.                      -999.25 : NULL VALUE
COMP. PAN AMERICAN PETROLEUM CORP. : COMPANY
WELL. PAN AM MOBIL ANTE 10-5-65-23 : WELL
FLD .                              : FIELD
LOC .                              : LOCATION
CTRY.                       CANADA : COUNTRY
SRVC.                        Welex : SERVICE COMPANY
DATE.                  21-Nov-1966 : LOGDATE
PROV.                      Alberta : PROVINCE
UWI .             100100506523W500 : UNIQUE WELL ID
SLAT.WGS84                54.59785 : SURFACE LATITUDE
SLON.WGS84               -117.4379 : SURFACE LONGITUDE
~Curve Information -----------------------------------------
DEPT  .FT    : Depth Curve
CALWS .IN    : CALIPER [MCALED]
CILDED.MMHO  : CONDUCTIVITY FROM RESISTIVITY LOG
CONDWS.MMHO  : CONDUCTIVITY [1000/DRESWS]
DRESWS.OHMM  : DEEP RESISTIVITY [1000/CILDED IF ILDED<1, ILDED]
DT1ED .US/F  : DELTA TIME (1' SPAN) FROM SONIC LOG [ADJ. TO RESISTIVITY LOG]
DTED  .US/F  : DELTA TIME (3' SPAN) FROM SONIC LOG [ADJ. TO RESISTIVITY LOG]
DTWS  .US/F  : COMPRESSIONAL SONIC [DTED]
GRED  .CU    : GAMMA RAY FROM GR LOG [ADJ. TO RESISTIVITY LOG]
GRSED .GAPI  : GAMMA RAY FROM SONIC LOG [ADJ. TO RESISTIVITY LOG]
GRWS  .GAPI  : GAMMA RAY [GRSED SPL. TO GRED @ 11256']
ILDED .OHMM  : DEEP INDUCTION FROM RESISTIVITY LOG
LT16ED.OHMM  : LATERAL 16' FROM RESISTIVITY LOG
MCALED.IN    : CALIPER FROM MICROLOG
SNED  .OHMM  : 18 INCH SHORT NORMAL RESISTIVITY FROM RESISTIVITY LOG
SPRED .MV    : SPONTANEOUS POTENTIAL FROM RESISTIVITY LOG
SPWS  .MV    : SPONTANEOUS POTENTIAL [BASELINE 0 MV, SPRED]
SRESWS.OHMM  : SHALLOW RESISTIVITY [SNED]
~Params ----------------------------------------------------
PD  .                     GL : PERMANENT DATUM
EPD .FT                 2595 : ELEVATION PERMANENT DATUM
LMF .                     KB : LOG MEASURED FROM
DAPD.FT                14.25 : FEET ABOVE PERMANENT DATUM
DMF .                     KB : DRILLING MEASURED FROM
EKB .FT              2609.25 : KELLY BUSHING
EGL .FT                 2595 : GROUND LEVEL
DATE.               10/21/66 : RUN DATE
RUN .                      1 : RUN NUMBER
DD  .FT                11278 : DEPTH DRILLER
DL  .FT                11279 : DEPTH LOGGER
BLI .FT                11274 : BOTTOM LOG INTERVAL
TLI .FT                 1125 : TOP LOG INTERVAL
CS  .IN                9.625 : CASING SIZE
CBD .FT                 1138 : CASING BOTTOM DRILLER
CBL .FT                 1125 : CASING BOTTOM LOGGER
BS  .IN                7.875 : BIT SIZE
BSD .FT                11278 : BIT SIZE AT DEPTH
DFT .             WATER BASE : DRILLING FLUID TYPE
DFD .                     10 : DRILLING FLUID DENSITY
DFV .                     94 : DRILLING FLUID VISCOSITY
DFPH.                     12 : DRILLING FLUID PH
DFL .                    9.6 : DRILLING FLUID LOSS
MSS .                   CIRC : MUD SAMPLE SOURCE
RMS .OHMM               1.48 : RESISTIVITY MUD SAMPLE
MST .DEGF                 84 : MUD SAMPLE TEMPERATURE
RMF .OHMM               1.35 : RESISTIVITY MUD FILTRATE SAMPLE
MFST.DEGF                 71 : MUD FILTRATE SAMPLE TEMPERATURE
RMC .OHMM                1.3 : RESISTIVITY MUD CAKE
MCST.DEGF                 61 : MUD CAKE SAMPLE TEMPERATURE
MFSS.                   MEAS : MUD FILTRATE SAMPLE SOURCE
MCSS.                   MEAS : MUD CAKE SAMPLE SOURCE
RMB .OHMM               0.72 : RESISTIVITY MUD AT BHT
TCS .HRS                   5 : TIME CIRCULATED STOPPED
ENGI.                 RLSTON : RECORDING ENGINEER
WITN.                WOOTTON : WITNESSED BY
CLNT.                A2DTECH : CLIENT CODE
ORIG.            2" 5" PRINT : ORIGIN OF DATA
UWI .       100100506523W500 : UNIQUE WELL ID
DICO. A2D Technologies, Inc. : DIGITIZING COMPANY
~Other -----------------------------------------------------
~ASCII -----------------------------------------------------
# ...
 3200.00000    -999.25  120.99400  137.96340    7.24830    -999.25    -999.25    -999.25    -999.25    -999.25    -999.25    7.24830   10.39980    -999.25    7.99960  -60.48160   -3.50590    7.99960
 3250.00000    -999.25  105.67910  120.04950    8.32990    -999.25    -999.25    -999.25    -999.25    -999.25    -999.25    8.32990    9.49340    -999.25    9.26490  -61.45990   -4.35570    9.26490
 3300.00000    -999.25  107.48540  121.87690    8.20500    -999.25    -999.25    -999.25    -999.25    -999.25    -999.25    8.20500   14.29920    -999.25    9.70300  -60.56710   -3.33350    9.70300
 3350.00000    -999.25  110.34380  126.03980    7.93400    -999.25    -999.25    -999.25    -999.25    -999.25    -999.25    7.93400   12.24160    -999.25    9.59110  -61.02990   -3.66700    9.59110
 3400.00000    -999.25  138.41710  164.41960    6.08200    -999.25    -999.25    -999.25    -999.25    -999.25    -999.25    6.08200   10.27940    -999.25    7.42820  -60.09260   -2.60030    7.42820
 3450.00000    -999.25  132.64240  154.27340    6.48200    -999.25    -999.25    -999.25    -999.25    -999.25    -999.25    6.48200    8.88180    -999.25    7.56630  -59.78840   -2.16680    7.56630
 3500.00000    -999.25  110.10290  124.22210    8.05010    -999.25    -999.25    -999.25    -999.25    -999.25    -999.25    8.05010   10.98230    -999.25    9.18260  -63.27450   -5.52350    9.18260
 3550.00000    -999.25   95.65720   99.01580   10.09940    -999.25    -999.25    -999.25    -999.25    -999.25    -999.25   10.09940   12.41300    -999.25   10.86140  -63.86970   -5.98940   10.86140
 3600.00000    -999.25  113.38800  127.66990    7.83270    -999.25    -999.25    -999.25    -999.25    -999.25    -999.25    7.83270    8.83960    -999.25    9.47670  -64.08620   -6.07650    9.47670
 3650.00000    -999.25  136.45370  157.12400    6.36440    -999.25    -999.25    -999.25    -999.25    -999.25    -999.25    6.36440    9.26860    -999.25    7.70630  -64.13450   -5.99540    7.70630
 3700.00000    -999.25  124.46710  141.95470    7.04450    -999.25    -999.25    -999.25    -999.25    -999.25    -999.25    7.04450    9.40440    -999.25    8.98920  -61.61390   -3.34550    8.98920
 3750.00000    -999.25   71.40490   80.33100   12.44850    -999.25    -999.25    -999.25    -999.25    -999.25    -999.25   12.44850   17.35350    -999.25   18.52080  -77.16500  -18.76440   18.52080
 3800.00000    -999.25   86.37240   94.78760   10.54990    -999.25    -999.25    -999.25    -999.25    -999.25    -999.25   10.54990   15.73990    -999.25   13.11570  -62.96950   -4.43400   13.11570
 3850.00000    -999.25   96.06820  105.73950    9.45720    -999.25    -999.25    -999.25    -999.25    -999.25    -999.25    9.45720   13.76480    -999.25   11.82740  -62.78580   -4.11540   11.82740
 3900.00000    -999.25   95.60590  106.86390    9.35770    -999.25    -999.25    -999.25    -999.25    -999.25    -999.25    9.35770   14.53560    -999.25   10.99340  -62.63530   -3.83000   10.99340
 3950.00000    -999.25   99.41470  112.66460    8.87590    -999.25    -999.25    -999.25    -999.25    -999.25    -999.25    8.87590   12.73260    -999.25    9.50020  -62.92270   -3.98250    9.50020
 4000.00000    -999.25  108.71530  123.92960    8.06910    -999.25    -999.25    -999.25    -999.25    -999.25    -999.25    8.06910   11.34650    -999.25    8.68910  -63.08170   -4.00660    8.68910
 4050.00000    -999.25  107.67080  121.36660    8.23950    -999.25    -999.25    -999.25    -999.25    -999.25    -999.25    8.23950   11.08860    -999.25    9.02430  -62.76060   -3.55060    9.02430
 4100.00000    -999.25  114.56750  127.71230    7.83010    -999.25    -999.25    -999.25    -999.25    -999.25    -999.25    7.83010    9.95860    -999.25   10.11900  -61.87820   -2.53330   10.11900
 4150.00000    -999.25  107.33480  117.55300    8.50680    -999.25    -999.25    -999.25    -999.25    -999.25    -999.25    8.50680    9.52830    -999.25    9.54830  -64.17960   -4.69980    9.54830
 4200.00000    -999.25   99.80490  111.88940    8.93740    -999.25    -999.25    -999.25    -999.25    -999.25    -999.25    8.93740   10.39490    -999.25    9.46810  -61.97230   -2.35760    9.46810
 4250.00000    -999.25   88.54010   95.02090   10.52400    -999.25    -999.25    -999.25    -999.25    -999.25    -999.25   10.52400   11.50370    -999.25   11.23000  -62.98470   -3.32320   11.23000
 4300.00000    -999.25   92.19480  103.28870    9.68160    -999.25    -999.25    -999.25    -999.25    -999.25    -999.25    9.68160   12.18250    -999.25   10.15970  -63.30670   -3.69360   10.15970
 4350.00000    -999.25   86.01440   93.58480   10.68550    -999.25    -999.25    -999.25    -999.25    -999.25    -999.25   10.68550   11.87380    -999.25   11.58580  -64.14160   -4.57700   11.58580
 4400.00000    -999.25   77.99690   83.06890   12.03820    -999.25    -999.25    -999.25    -999.25    -999.25    -999.25   12.03820   19.84550    -999.25   16.34350  -63.93770   -4.42160   16.34350
 4450.00000    -999.25   97.26280  107.73540    9.28200    -999.25    -999.25    -999.25    -999.25    -999.25    -999.25    9.28200   10.54720    -999.25   12.30920  -62.89170   -3.42400   12.30920
 4500.00000   11.00720   95.26940  104.82510    9.53970    -999.25   85.44710   85.44710    -999.25  103.10810  103.10810    9.53970   12.45740   11.00720   11.22630  -63.74720   -4.32800   11.22630
 4550.00000   10.66420  101.44200  115.81180    8.63470    -999.25   87.63460   87.63460    -999.25   85.44530   85.44530    8.63470    8.83160   10.66420   10.29090  -63.43030   -4.05960   10.29090
 4600.00000   10.47350  120.14680  136.35870    7.33360    -999.25   85.23430   85.23430    -999.25   99.93440   99.93440    7.33360    7.00050   10.47350    8.67340  -62.49040   -3.16810    8.67340
 4650.00000   11.06220   92.30230  101.86830    9.81660    -999.25   84.82390   84.82390    -999.25  108.99600  108.99600    9.81660    8.83880   11.06220   12.22890  -62.52460   -3.25080   12.22890
 4700.00000   10.07130   96.85000  107.73420    9.28210    -999.25   84.37880   84.37880    -999.25  108.69010  108.69010    9.28210    8.58580   10.07130   10.15510  -62.69250   -3.46710   10.15510
 4750.00000   11.23850  167.08420  203.33880    4.91790    -999.25   91.95860   91.95860    -999.25  110.46650  110.46650    4.91790    5.95420   11.23850    6.50360  -60.97200   -1.79510    6.50360
 4800.00000   11.69250  120.68420  129.37280    7.72960    -999.25   82.80880   82.80880    -999.25   92.78480   92.78480    7.72960    5.05380   11.69250    8.37230  -60.68050   -1.55210    8.37230
 4850.00000   13.17760  128.69710  144.01960    6.94350    -999.25   81.76570   81.76570    -999.25  106.95660  106.95660    6.94350    8.23920   13.17760    7.77150  -61.01060   -1.93060    7.77150
 4900.00000   15.62230  113.87770  128.64880    7.77310    -999.25   81.53120   81.53120    -999.25  105.17990  105.17990    7.77310    6.19730   15.62230    8.43560  -62.20920   -3.17770    8.43560
 4950.00000   15.82210  189.64270  229.30520    4.36100    -999.25  103.24550  103.24550    -999.25  158.98610  158.98610    4.36100    8.27170   15.82210    5.65680  -61.94960   -2.96660    5.65680
 5000.00000   15.58690  171.81540  203.28510    4.91920    -999.25  105.19350  105.19350    -999.25  213.51110  213.51110    4.91920    9.14140   15.58690    6.67990  -61.97230   -3.03770    6.67990
 5050.00000   15.65720  261.45070  355.06320    2.81640    -999.25  105.39880  105.39880    -999.25  104.42490  104.42490    2.81640    3.45250   15.65720    3.69630  -60.76020   -1.87410    3.69630
 5100.00000   12.37850  153.57800  187.94870    5.32060   81.44170   90.97940   90.97940    -999.25  103.26390  103.26390    5.32060    5.05660   12.37850    6.40330  -60.97850   -2.14090    6.40330
 5150.00000   12.03470  135.11710  152.49950    6.55740   94.03340   89.33950   89.33950    -999.25  107.57010  107.57010    6.55740    5.43710   12.03470    7.05020  -61.52030   -2.73110    7.05020
 5200.00000   10.03160   67.86470   69.81630   14.32330   68.35820   70.08240   70.08240    -999.25   79.42240   79.42240   14.32330   11.27690   10.03160   15.01910  -67.97830   -9.63340   15.01910
