~Version ---------------------------------------------------
VERS.      2.0 : CWLS log ASCII Standard -VERSION 2.0
WRAP.       NO : One line per depth step
CREA. 11/22/17 : LAS Creation Date
~Well ------------------------------------------------------
STRT.FT                              300.0 : START DEPTH
STOP.FT                            16950.0 : STOP DEPTH
STEP.FT                           50.00000 : STEP LENGTH
NULL.                              -999.25 : NULL VALUE
COMP.                        BANFF OIL LTD : COMPANY
WELL. BANFF AQUIT SIEBENS RAMR 14-21-37-11 : WELL
FLD .                                      : FIELD
LOC .                                      : LOCATION
CTRY.                               CANADA : COUNTRY
SRVC.                         Schlumberger : SERVICE COMPANY
DATE.                          21-Oct-1970 : LOGDATE
PROV.                              Alberta : PROVINCE
UWI .                     100142103711W500 : UNIQUE WELL ID
SLAT.WGS84                        52.19912 : SURFACE LATITUDE
SLON.WGS84                       -115.5164 : SURFACE LONGITUDE
~Curve Information -----------------------------------------
DEPT    .FT    : Depth Curve
CALDED  .IN    : CALIPER FROM DENSITY LOG [DEP. ADJ. TO ILMED]
CALNED  .IN    : CALIPER FROM NEUTRON LOG [DEP. ADJ. TO ILMED]
CALSED  .IN    : CALIPER FROM SONIC LOG [DEP. ADJ. TO ILMED]
CALWS   .IN    : CALIPER 148' CALSED 13012' CALNED 13190' CALDED 14980' CALSED 15315' CALDED 16246' CALSED]
CONDWS  .MMHO  : DEEP CONDUCTIVITY [1000/DRESWS]
DCORWS  .G/C3  : DENSITY CORRECTION [DRHOED]
DENWS   .G/C3  : BULK DENSITY [M=2.71, F=1.00] [RHOBED]
DPHILSED.V/V   : DENSITY POROSITY [M=2.71, F=1.00] FROM DENSITY LOG [DEP. ADJ. TO ILMED]
DPOLSWS .V/V   : DENSITY POROSITY [M=2.71, F=1.00] [CAL. FROM DENWS]
DRESWS  .OHMM  : DEEP RESISTIVITY [ILDED]
DRHOED  .G/C3  : DENSITY CORRECTION FROM DENSITY LOG [DEP. ADJ. TO ILMED]
DTED    .US/F  : DELTA TIME FROM SONIC LOG [DEP. ADJ. TO ILMED]
DTWS    .US/F  : DELTA TIME [DTED]
GRDED   .GAPI  : GAMMA RAY FROM DENSITY LOG [DEP. ADJ. TO ILMED]
GRNED   .GAPI  : GAMMA RAY FROM NEUTRON LOG [DEP. ADJ. TO ILMED]
GRSED   .GAPI  : GAMMA RAY FROM SONIC LOG [DEP. ADJ. TO ILMED]
GRWS    .GAPI  : GAMMA RAY [GRSED]
ILDED   .OHMM  : INDUCTION LOG DEEP RESISTIVITY
ILMED   .OHMM  : INDUCTION LOG MEDIUM RESISTIVITY
LL8ED   .OHMM  : 8 INCH LATEROLOG RESISTIVITY
MRESWS  .OHMM  : MEDIUM RESISTIVITY [ILMED]
NPOLSWS .V/V   : NEUTRON POROSITY LIMESTONE [SNPLSED]
RHOBED  .G/C3  : BULK DENSITY FROM DENSITY LOG [DEP. ADJ. TO ILMED]
SNPLSED .V/V   : SIDEWALL NEUTRON POROSITY [LIMESTONE] [DEP. ADJ. TO ILMED]
SPRED   .MV    : SPONTANEOUS POTENTIAL FROM RESIST. LOG [DIVIDED BY 2 BELOW 13778'], SHIFTS REMOVED, PATCHED]
SPWS    .MV    : SPONTANEOUS POTENTIAL [BASELINE 0 MV] [SPRED][PL. USE W/ RESERVATION]
SRESWS  .OHMM  : SHALLOW RESISTIVITY [LL8ED]
~Params ----------------------------------------------------
PD  .                     GL : PERMANENT DATUM
EPD .FT                 4914 : ELEVATION PERMANENT DATUM
LMF .                     KB : LOG MEASURED FROM
DAPD.FT                 18.7 : FEET ABOVE PERMANENT DATUM
EKB .FT               4932.7 : KELLY BUSHING
EGL .FT                 4914 : GROUND LEVEL
DATE.               10/21/70 : RUN DATE
RUN .                      4 : RUN NUMBER
DD  .FT                16960 : DEPTH DRILLER
DL  .FT                16960 : DEPTH LOGGER
BLI .FT                16954 : BOTTOM LOG INTERVAL
TLI .FT                16000 : TOP LOG INTERVAL
BS  .IN                8.375 : BIT SIZE
BSD .FT                16960 : BIT SIZE AT DEPTH
DFT .                    GEL : DRILLING FLUID TYPE
DFD .                   10.1 : DRILLING FLUID DENSITY
DFV .                     61 : DRILLING FLUID VISCOSITY
DFPH.                     10 : DRILLING FLUID PH
DFL .                    8.4 : DRILLING FLUID LOSS
MSS .               FLOWLINE : MUD SAMPLE SOURCE
RMS .OHMM               1.51 : RESISTIVITY MUD SAMPLE
MST .DEGF                 66 : MUD SAMPLE TEMPERATURE
RMF .OHMM               1.11 : RESISTIVITY MUD FILTRATE SAMPLE
MFST.DEGF                 70 : MUD FILTRATE SAMPLE TEMPERATURE
TCS .HRS                   4 : TIME CIRCULATED STOPPED
LUN .                   7002 : LOGGING UNIT NUMBER
LUL .                     RD : LOGGING UNIT LOCATION
ENGI.                 TALBOT : RECORDING ENGINEER
WITN.          LEMEE BRINKER : WITNESSED BY
CLNT.                A2DTECH : CLIENT CODE
ORIG.            2" 5" PRINT : ORIGIN OF DATA
UWI .       100142103711W500 : UNIQUE WELL ID
DICO. A2D Technologies, Inc. : DIGITIZING COMPANY
~Other -----------------------------------------------------
~ASCII -----------------------------------------------------
# ...
 12000.00000    -999.25    -999.25   14.52010   14.52010  295.31630    -999.25    -999.25    -999.25    -999.25    3.38620    -999.25   89.56830   89.56830    -999.25    -999.25   55.28410   55.28410    3.38620    3.50220    4.84220    3.50220    -999.25    -999.25    -999.25   78.75220   -7.35090    4.84220
 12050.00000    -999.25    -999.25    -999.25    -999.25    -999.25    -999.25    -999.25    -999.25    -999.25    -999.25    -999.25    -999.25    -999.25    -999.25    -999.25   57.10220   57.10220    -999.25    -999.25    -999.25    -999.25    -999.25    -999.25    -999.25    -999.25    -999.25    -999.25
 12100.00000    -999.25    -999.25    9.31950    9.31950  104.37540    -999.25    -999.25    -999.25    -999.25    9.58080    -999.25   75.40670   75.40670    -999.25    -999.25   56.25410   56.25410    9.58080    8.98670   10.86870    8.98670    -999.25    -999.25    -999.25   71.33520  -14.45890   10.86870
 12150.00000    -999.25    -999.25    9.20060    9.20060   16.13480    -999.25    -999.25    -999.25    -999.25   61.97790    -999.25   80.60140   80.60140    -999.25    -999.25   47.32930   47.32930   61.97790   23.35640   17.42080   23.35640    -999.25    -999.25    -999.25   71.94120  -13.69850   17.42080
 12200.00000    -999.25    -999.25    9.72710    9.72710   36.80460    -999.25    -999.25    -999.25    -999.25   27.17050    -999.25   71.50670   71.50670    -999.25    -999.25   45.50280   45.50280   27.17050   16.45830   10.95850   16.45830    -999.25    -999.25    -999.25   71.54720  -13.93800   10.95850
 12250.00000    -999.25    -999.25   10.68170   10.68170   32.72800    -999.25    -999.25    -999.25    -999.25   30.55490    -999.25   88.43230   88.43230    -999.25    -999.25   56.72290   56.72290   30.55490   12.39680    8.61540   12.39680    -999.25    -999.25    -999.25   69.53170  -15.79900    8.61540
 12300.00000    -999.25    -999.25   10.75300   10.75300   53.73970    -999.25    -999.25    -999.25    -999.25   18.60820    -999.25   69.77720   69.77720    -999.25    -999.25   56.33290   56.33290   18.60820   17.10610   19.99590   17.10610    -999.25    -999.25    -999.25   71.98710  -13.18910   19.99590
 12350.00000    -999.25    -999.25   10.10490   10.10490   42.27950    -999.25    -999.25    -999.25    -999.25   23.65210    -999.25   79.34150   79.34150    -999.25    -999.25   65.20220   65.20220   23.65210   12.75340   12.91480   12.75340    -999.25    -999.25    -999.25   68.05290  -16.96890   12.91480
 12400.00000    -999.25    -999.25    9.43780    9.43780   70.22770    -999.25    -999.25    -999.25    -999.25   14.23940    -999.25   74.20870   74.20870    -999.25    -999.25   51.20790   51.20790   14.23940   13.71880   15.53550   13.71880    -999.25    -999.25    -999.25   71.20680  -13.66050   15.53550
 12450.00000    -999.25    -999.25    9.89620    9.89620   68.18540    -999.25    -999.25    -999.25    -999.25   14.66590    -999.25   74.58420   74.58420    -999.25    -999.25   56.10420   56.10420   14.66590   14.06990   15.58670   14.06990    -999.25    -999.25    -999.25   66.00840  -18.70440   15.58670
 12500.00000    -999.25    -999.25   10.07330   10.07330   74.59290    -999.25    -999.25    -999.25    -999.25   13.40610    -999.25   76.39360   76.39360    -999.25    -999.25   67.26680   67.26680   13.40610   14.01290   14.50400   14.01290    -999.25    -999.25    -999.25   65.90070  -18.65770   14.50400
 12550.00000    -999.25    -999.25   12.50220   12.50220   52.06330    -999.25    -999.25    -999.25    -999.25   19.20740    -999.25   84.64040   84.64040    -999.25    -999.25   54.01810   54.01810   19.20740   12.93140   21.33020   12.93140    -999.25    -999.25    -999.25   49.13100  -35.27290   21.33020
 12600.00000    -999.25    -999.25   11.35230   11.35230   92.03100    -999.25    -999.25    -999.25    -999.25   10.86590    -999.25   79.94860   79.94860    -999.25    -999.25   63.80670   63.80670   10.86590    5.43460    9.87180    5.43460    -999.25    -999.25    -999.25   46.89960  -37.34980    9.87180
 12650.00000    -999.25    -999.25    8.99330    8.99330   31.86950    -999.25    -999.25    -999.25    -999.25   31.37800    -999.25   71.19170   71.19170    -999.25    -999.25   35.64510   35.64510   31.37800   38.43900   42.23050   38.43900    -999.25    -999.25    -999.25   52.53060  -31.56430   42.23050
 12700.00000    -999.25    -999.25    8.77800    8.77800   28.60670    -999.25    -999.25    -999.25    -999.25   34.95680    -999.25   71.80740   71.80740    -999.25    -999.25   54.21700   54.21700   34.95680   38.00300   40.20130   38.00300    -999.25    -999.25    -999.25   52.70870  -31.23180   40.20130
 12750.00000    -999.25    -999.25    9.22220    9.22220   43.35400    -999.25    -999.25    -999.25    -999.25   23.06590    -999.25   76.73260   76.73260    -999.25    -999.25   56.97970   56.97970   23.06590   21.74120   44.29850   21.74120    -999.25    -999.25    -999.25   64.72610  -19.05990   44.29850
 12800.00000    -999.25    -999.25   10.64620   10.64620   94.26050    -999.25    -999.25    -999.25    -999.25   10.60890    -999.25   81.12020   81.12020    -999.25    -999.25   69.30700   69.30700   10.60890    9.62170   11.13880    9.62170    -999.25    -999.25    -999.25   66.66230  -16.32810   11.13880
 12850.00000    -999.25    -999.25    8.70480    8.70480   47.89980    -999.25    -999.25    -999.25    -999.25   20.87690    -999.25   74.20280   74.20280    -999.25    -999.25   56.54640   56.54640   20.87690   11.09430   14.00540   11.09430    -999.25    -999.25    -999.25   52.48790  -28.40530   14.00540
 12900.00000    -999.25    -999.25    8.72320    8.72320   13.35710    -999.25    -999.25    -999.25    -999.25   74.86630    -999.25   70.50710   70.50710    -999.25    -999.25   33.33290   33.33290   74.86630   69.02250  146.65680   69.02250    -999.25    -999.25    -999.25   48.30970  -30.48630  146.65680
 12950.00000    -999.25    -999.25   10.47740   10.47740   89.73520    -999.25    -999.25    -999.25    -999.25   11.14390    -999.25   78.67410   78.67410    -999.25    -999.25   72.64210   72.64210   11.14390    6.69380    8.39930    6.69380    -999.25    -999.25    -999.25   51.33510  -25.36370    8.39930
 13000.00000    -999.25    -999.25    9.40560    9.40560   42.37520    -999.25    -999.25    -999.25    -999.25   23.59870    -999.25   69.92390   69.92390    -999.25    -999.25   75.17870   75.17870   23.59870   20.53830   27.55030   20.53830    -999.25    -999.25    -999.25   47.54220  -27.05940   27.55030
 13050.00000    -999.25   11.22330    9.14780   11.22330   24.55210    -999.25    -999.25    -999.25    -999.25   40.72970    -999.25   73.19940   73.19940    -999.25   31.29870   29.53830   29.53830   40.72970   48.68030   61.10070   48.68030    0.19540    -999.25    0.19540   44.68340  -27.82100   61.10070
 13100.00000    -999.25   10.52880    9.06490   10.52880   41.30010    -999.25    -999.25    -999.25    -999.25   24.21300    -999.25   78.08910   78.08910    -999.25   36.71540   76.43140   76.43140   24.21300   18.06200   28.44530   18.06200    0.29990    -999.25    0.29990   47.99500  -22.41220   28.44530
 13150.00000    -999.25   11.79150   10.35250   11.79150   78.62750    -999.25    -999.25    -999.25    -999.25   12.71820    -999.25   90.09280   90.09280    -999.25   80.06120   89.61590   89.61590   12.71820   10.99430   15.70670   10.99430    0.30000    -999.25    0.30000   45.18850  -23.12160   15.70670
 13200.00000    9.96070    9.04330    8.52200    9.96070   46.10760    0.23490    2.34350    0.21060    0.21430   21.68840    0.23490   63.61570   63.61570   41.43040   45.73840   49.35520   49.35520   21.68840   33.62790   24.59280   33.62790    0.14970    2.34350    0.14970   43.83270  -22.38020   24.59280
 13250.00000   13.74590   13.60940   11.41710   13.74590  136.68860    0.13370    2.11620    -999.25    0.34730    7.31590    0.13370   84.50870   84.50870   60.61960   70.03450   75.09080   75.09080    7.31590    5.36380    7.14410    5.36380    0.29980    2.11620    0.29980   44.15530  -19.96040    7.14410
