~Version ---------------------------------------------------
VERS.      2.0 : CWLS log ASCII Standard -VERSION 2.0
WRAP.       NO : One line per depth step
CREA. 08/04/17 : LAS Creation Date
~Well ------------------------------------------------------
STRT.FT                           300.0 : START DEPTH
STOP.FT                         10100.0 : STOP DEPTH
STEP.FT                        50.00000 : STEP LENGTH
NULL.                           -999.25 : NULL VALUE
COMP.             CANADIAN FINA OIL LTD : COMPANY
WELL. FINA ET AL HEAVYSOUND 10-14-62-16 : WELL
FLD .                                WC : FIELD
LOC .                                   : LOCATION
CTRY.                            CANADA : COUNTRY
SRVC.            Schlumberger of Canada : SERVICE COMPANY
DATE.                       08-Apr-1960 : LOGDATE
PROV.                           Alberta : PROVINCE
UWI .                  100101406216W500 : UNIQUE WELL ID
SLAT.WGS84                     54.36487 : SURFACE LATITUDE
SLON.WGS84                    -116.2841 : SURFACE LONGITUDE
~Curve Information -----------------------------------------
DEPT  .FT         : Depth Curve
CALWS .IN         : CALIPER [MCALED]
CILDED.MMHO       : DEEP INDUCTION CONDUCTIVITY FROM IEL LOG
CONDWS.MMHO       : CONDUCTIVITY [1000/DRESWS]
DRESWS.OHMM       : DEEP RESISTIVITY [ILDED]
GRNED .UgRa-Eq/T  : GAMMA RAY FROM GRN LOG
GRWS  .GAPI       : GAMMA RAY [GRNED*16.5 TO CONVERT MG/TON TO GAPI]
ILDED .OHMM       : DEEP INDUCTION  FROM IEL LOG
LLED  .OHMM       : LATEROLOG FROM LL LOG
MCALED.IN         : MLT (MICROLOG) CALIPER FROM MICRO LOG
NEUTED.CPS        : NEUTRON FROM GRN LOG
NEUTWS.CPS        : NEUTRON [NEUTED]
SNED  .OHMM       : SHORT NORMAL RESISTIVITY FROM IEL LOG
SPR1ED.MV         : SPONTANEOUS POTENTIAL FROM LL LOG
SPRED .MV         : SPONTANEOUS POTENTIAL FROM IEL LOG
SPWS  .MV         : SPONTANEOUS POTENTIAL [BASELINE 0 MV, SPRED]
SRESWS.OHMM       : SHALLOW RESISTIVITY [SNED]
~Params ----------------------------------------------------
LMF .                     KB : LOG MEASURED FROM
DMF .                     KB : DRILLING MEASURED FROM
EKB .FT              3183.62 : KELLY BUSHING
EGL .FT               3169.7 : GROUND LEVEL
DATE.               04/08/60 : RUN DATE
RUN .                      1 : RUN NUMBER
DD  .FT                10100 : DEPTH DRILLER
DL  .FT                10110 : DEPTH LOGGER
BLI .FT                10103 : BOTTOM LOG INTERVAL
TLI .FT                 1180 : TOP LOG INTERVAL
CBD .FT                 1172 : CASING BOTTOM DRILLER
CBL .FT                 1180 : CASING BOTTOM LOGGER
BS  .IN                    9 : BIT SIZE
BSD .FT                10100 : BIT SIZE AT DEPTH
DFT .                    GEL : DRILLING FLUID TYPE
DFD .                    9.9 : DRILLING FLUID DENSITY
DFV .                    146 : DRILLING FLUID VISCOSITY
DFPH.                   10.5 : DRILLING FLUID PH
DFL .                   10.5 : DRILLING FLUID LOSS
MSS .             CIRCULATED : MUD SAMPLE SOURCE
RMS .OHMM                3.5 : RESISTIVITY MUD SAMPLE
MST .DEGF                 67 : MUD SAMPLE TEMPERATURE
RMF .OHMM               2.36 : RESISTIVITY MUD FILTRATE SAMPLE
MFST.DEGF                 63 : MUD FILTRATE SAMPLE TEMPERATURE
RMC .OHMM                4.7 : RESISTIVITY MUD CAKE
MCST.DEGF                 62 : MUD CAKE SAMPLE TEMPERATURE
MFSS.                   MEAS : MUD FILTRATE SAMPLE SOURCE
MCSS.                   MEAS : MUD CAKE SAMPLE SOURCE
RMB .OHMM               1.14 : RESISTIVITY MUD AT BHT
TCS .HRS                 700 : TIME CIRCULATED STOPPED
LUN .                   1573 : LOGGING UNIT NUMBER
LUL .                   C WC : LOGGING UNIT LOCATION
ENGI.              HAUSEGGER : RECORDING ENGINEER
WITN.        WENDEBORN ANKLE : WITNESSED BY
CLNT.                A2DTECH : CLIENT CODE
ORIG.            2" 5" PRINT : ORIGIN OF DATA
UWI .       100101406216W500 : UNIQUE WELL ID
DICO. A2D Technologies, Inc. : DIGITIZING COMPANY
~Other -----------------------------------------------------
~ASCII -----------------------------------------------------
  300.00000    -999.25    -999.25    -999.25    -999.25    3.12510   51.56330    -999.25    -999.25    -999.25  148.69190  148.69190    -999.25    -999.25    -999.25    -999.25    -999.25
  350.00000    -999.25    -999.25    -999.25    -999.25    3.34560   55.20240    -999.25    -999.25    -999.25  164.65160  164.65160    -999.25    -999.25    -999.25    -999.25    -999.25
  400.00000    -999.25    -999.25    -999.25    -999.25    2.49740   41.20790    -999.25    -999.25    -999.25  140.15560  140.15560    -999.25    -999.25    -999.25    -999.25    -999.25
  450.00000    -999.25    -999.25    -999.25    -999.25    2.37050   39.11320    -999.25    -999.25    -999.25  176.85260  176.85260    -999.25    -999.25    -999.25    -999.25    -999.25
  500.00000    -999.25    -999.25    -999.25    -999.25    2.05920   33.97680    -999.25    -999.25    -999.25  160.69230  160.69230    -999.25    -999.25    -999.25    -999.25    -999.25
  550.00000    -999.25    -999.25    -999.25    -999.25    2.55320   42.12860    -999.25    -999.25    -999.25  160.95480  160.95480    -999.25    -999.25    -999.25    -999.25    -999.25
  600.00000    -999.25    -999.25    -999.25    -999.25    3.20460   52.87590    -999.25    -999.25    -999.25  156.70680  156.70680    -999.25    -999.25    -999.25    -999.25    -999.25
  650.00000    -999.25    -999.25    -999.25    -999.25    3.38420   55.83930    -999.25    -999.25    -999.25  157.80000  157.80000    -999.25    -999.25    -999.25    -999.25    -999.25
  700.00000    -999.25    -999.25    -999.25    -999.25    3.06740   50.61210    -999.25    -999.25    -999.25  163.30140  163.30140    -999.25    -999.25    -999.25    -999.25    -999.25
  750.00000    -999.25    -999.25    -999.25    -999.25    2.59170   42.76310    -999.25    -999.25    -999.25  157.18170  157.18170    -999.25    -999.25    -999.25    -999.25    -999.25
  800.00000    -999.25    -999.25    -999.25    -999.25    2.83140   46.71890    -999.25    -999.25    -999.25  158.51560  158.51560    -999.25    -999.25    -999.25    -999.25    -999.25
  850.00000    -999.25    -999.25    -999.25    -999.25    2.51280   41.46120    -999.25    -999.25    -999.25  165.50930  165.50930    -999.25    -999.25    -999.25    -999.25    -999.25
  900.00000    -999.25    -999.25    -999.25    -999.25    3.68870   60.86270    -999.25    -999.25    -999.25  163.84140  163.84140    -999.25    -999.25    -999.25    -999.25    -999.25
  950.00000    -999.25    -999.25    -999.25    -999.25    2.27790   37.58530    -999.25    -999.25    -999.25  170.14580  170.14580    -999.25    -999.25    -999.25    -999.25    -999.25
 1000.00000    -999.25    -999.25    -999.25    -999.25    2.39070   39.44650    -999.25    -999.25    -999.25  162.57010  162.57010    -999.25    -999.25    -999.25    -999.25    -999.25
 1050.00000    -999.25    -999.25    -999.25    -999.25    2.19480   36.21420    -999.25    -999.25    -999.25  159.94790  159.94790    -999.25    -999.25    -999.25    -999.25    -999.25
 1100.00000    -999.25    -999.25    -999.25    -999.25    2.51820   41.55030    -999.25    -999.25    -999.25  149.30930  149.30930    -999.25    -999.25    -999.25    -999.25    -999.25
 1150.00000   12.27680    -999.25    -999.25    -999.25    2.96480   48.91840    -999.25    -999.25   12.27680  153.62600  153.62600    -999.25    -999.25    -999.25    -999.25    -999.25
 1200.00000   15.76070  260.83730  287.86090    3.47390    5.18190   85.50140    3.47390    -999.25   15.76070  176.16120  176.16120    5.81630    -999.25  -82.47030   -2.30580    5.81630
 1250.00000   14.65000  173.58600  184.34880    5.42450    5.40320   89.15280    5.42450    -999.25   14.65000  199.64460  199.64460    7.08730    -999.25  -81.53090   -1.36640    7.08730
 1300.00000   13.71060  253.53390  279.26220    3.58200    4.49230   74.12380    3.58200    -999.25   13.71060  198.72330  198.72330    5.26160    -999.25  -81.16720   -1.03030    5.26160
 1350.00000   12.66410  185.15520  194.69270    5.13630    5.01500   82.74750    5.13630    -999.25   12.66410  200.05100  200.05100    6.91830    -999.25  -86.05920   -6.18610    6.91830
 1400.00000    9.50630  203.13860  212.33720    4.71220    3.59670   59.34640    4.71220    -999.25    9.50630  233.59300  233.59300    6.85400    -999.25  -82.71910   -3.10800    6.85400
 1450.00000    9.99930  243.90220  277.84720    3.59910    4.98030   82.17490    3.59910    -999.25    9.99930  189.29400  189.29400    7.28600    -999.25  -80.67920   -1.33190    7.28600
 1500.00000   12.03050  358.32530  413.66760    2.41740    4.75390   78.43930    2.41740    -999.25   12.03050  183.97800  183.97800    4.64260    -999.25  -80.56920   -1.48400    4.64260
 1550.00000   12.80430  335.31570  375.92080    2.66220    4.36780   72.06950    2.66220    -999.25   12.80430  180.58990  180.58990    4.16010    -999.25  -80.43800   -1.61480    4.16010
 1600.00000   12.66750  588.73440  589.17100    1.69730    4.28870   70.76360    1.69730    -999.25   12.66750  187.34390  187.34390    3.12870    -999.25  -80.36050   -1.80110    3.12870
 1650.00000   11.45320  383.46990  426.88690    2.34270    4.78500   78.95170    2.34270    -999.25   11.45320  192.24550  192.24550    3.66090    -999.25  -79.67430   -1.37700    3.66090
 1700.00000   12.01050  384.97380  432.30160    2.31320    5.04620   83.26230    2.31320    -999.25   12.01050  172.27010  172.27010    3.67300    -999.25  -79.80390   -1.77030    3.67300
 1750.00000   12.52450  386.27070  435.76780    2.29480    4.90090   80.86490    2.29480    -999.25   12.52450  182.78900  182.78900    3.54970    -999.25  -79.46200   -1.69050    3.54970
 1800.00000   10.33380  163.86110  167.37890    5.97840    3.55570   58.66910    5.97840    -999.25   10.33380  207.50500  207.50500    7.92760    -999.25  -80.08020   -2.57080    7.92760
 1850.00000   13.31260  356.93000  398.05750    2.51220    4.78830   79.00690    2.51220    -999.25   13.31260  183.85040  183.85040    3.84300    -999.25  -78.93810   -1.69240    3.84300
 1900.00000   11.08790  237.63460  266.01580    3.76050    4.68140   77.24230    3.76050    -999.25   11.08790  171.12330  171.12330    7.28840    -999.25  -79.43770   -2.45410    7.28840
 1950.00000   10.72350  276.64470  309.78930    3.22800    4.69550   77.47580    3.22800    -999.25   10.72350  190.64840  190.64840    4.78340    -999.25  -78.49360   -1.77380    4.78340
 2000.00000   10.41500  242.84410  269.36030    3.71250    3.95400   65.24100    3.71250    -999.25   10.41500  196.56970  196.56970    6.05770    -999.25  -79.07820   -2.62040    6.05770
 2050.00000   10.21800  188.04680  194.99940    5.13150    5.05330   83.37860    5.13150    -999.25   10.21800  219.23220  219.23220    7.48030    -999.25  -79.36470   -3.16900    7.48030
 2100.00000   11.65980  363.33580  407.54780    2.45370    4.67270   77.09950    2.45370    -999.25   11.65980  199.43630  199.43630    3.79870    -999.25  -77.96270   -2.03080    3.79870
 2150.00000   12.04080  322.13210  363.31620    2.75440    4.85830   80.16280    2.75440    -999.25   12.04080  216.56400  216.56400    4.12130    -999.25  -77.01350   -1.34360    4.12130
 2200.00000   11.32890  173.97560  180.18670    5.54980    5.03580   83.09070    5.54980    -999.25   11.32890  199.35110  199.35110    8.27010    -999.25  -78.98650   -3.58040    8.27010
 2250.00000   12.46220  285.83490  312.14880    3.20360    4.43060   73.10490    3.20360    -999.25   12.46220  183.49470  183.49470    4.42570    -999.25  -81.26580   -6.12180    4.42570
 2300.00000   13.24060  321.70920  362.39110    2.75950    4.81520   79.45160    2.75950    -999.25   13.24060  180.49660  180.49660    3.95050    -999.25  -76.98940   -2.10740    3.95050
 2350.00000    8.43380   91.47920   91.59610   10.91750    3.24710   53.57720   10.91750    -999.25    8.43380  207.76020  207.76020   13.48180    -999.25  -95.46110  -20.84290   13.48180
 2400.00000   11.42600  339.79440  383.42680    2.60980    5.69590   93.98230    2.60980    -999.25   11.42600  189.34560  189.34560    3.56100    -999.25  -79.12660   -4.77050    3.56100
