~Version ---------------------------------------------------
VERS.      2.0 : CWLS log ASCII Standard -VERSION 2.0
WRAP.       NO : One line per depth step
CREA. 09/28/13 : LAS Creation Date
~Well ------------------------------------------------------
STRT.M                         350.0 : START DEPTH
STOP.M                        2100.0 : STOP DEPTH
STEP.M                      50.00000 : STEP LENGTH
NULL.                        -999.25 : NULL VALUE
COMP.     MERLAND EXPLORATION LIMTED : COMPANY
WELL. MERLAND ET AL BRUCE 6-35-46-15 : WELL
FLD .                                : FIELD
LOC .                                : LOCATION
CTRY.                         CANADA : COUNTRY
SRVC.                        Unknown : SERVICE COMPANY
DATE.                    27-Jun-1983 : LOGDATE
PROV.                        Alberta : PROVINCE
UWI .               100063504615W400 : UNIQUE WELL ID
SLAT.WGS84                   53.0101 : SURFACE LATITUDE
SLON.WGS84                 -112.0762 : SURFACE LONGITUDE
~Curve Information -----------------------------------------
DEPT    .M      : DEPTH METER
CALDED  .MM     : CALIPER FROM DENSITY LOG [ADJ. TO RESISTIVITY LOG]
CALRED  .MM     : CALIPER FROM RESISTIVITY LOG
CALSED  .MM     : CALIPER FROM SONIC LOG [ADJ. TO RESISTIVITY LOG]
CALWS   .MM     : CALIPER [CALDED]
CONDWS  .MMHO   : CONDUCTIVITY [1000/DRESWS]
DCORWS  .KG/M3  : DENSITY CORRECTION [DRHOED]
DENWS   .KG/M3  : DENSITY POROSITY LIMESTONE [CALC FROM DPOLSWS, M=2710,F=1000]
DPHILSED.V/V    : DENSITY POROSITY LIMESTONE [M=2710,F=1000] FROM DENSITY LOG [ADJ. TO RESISTIVITY LOG]
DPHISSED.V/V    : DENSITY POROSITY SANDSTONE [M=2650,F=1000] FROM DENSITY LOG [ADJ. TO RESISTIVITY LOG]
DPOLSWS .V/V    : DENSITY POROSITY LIMESTONE [DPHISSED CONVERTED TO LIMESTONE MATRIX, M=2710,F=1000 & SPL TO DPHILSED @895M]
DRESWS  .OHMM   : DEEP RESISTIVITY [ILDED SPL. TO LLDED @1020M]
DRHOED  .KG/M3  : DENSITY CORRECTION FROM DENSITY LOG [ADJ. TO RESISTIVITY LOG]
DTED    .US/M   : DELTA TIME FROM SONIC LOG [ADJ. TO RESISTIVITY LOG]
DTWS    .US/M   : COMPRESSIONAL  SONIC [DTED]
GRRED   .GAPI   : GAMMA RAY FROM RESISTIVITY LOG
GRSED   .GAPI   : GAMMA RAY FROM SONIC LOG [ADJ. TO RESISTIVITY LOG]
GRWS    .GAPI   : GAMMA RAY [GRSED]
ILDED   .OHMM   : DEEP INDUCTION FROM RESISTIVITY LOG
ILMED   .OHMM   : MEDIUM INDUCTION FROM RESISTIVITY LOG
LLDED   .OHMM   : DEEP LATEROLOG RESISTIVITY FROM RESISTIVITY LOG
LLSED   .OHMM   : SHALLOW LATEROLOG RESISTIVITY FROM RESISTIVITY LOG
MRESWS  .OHMM   : MEDIUM RESISTIVITY [ILMED]
MSFLED  .OHMM   : MICROSPHERICALLY FOCUSED RESISTIVITY FROM RESISTIVITY LOG
NPHILSED.V/V    : NEUTRON POROSITY LIMESTONE FROM DENSITY LOG [ADJ. TO RESISTIVITY LOG]
NPHISSED.V/V    : NEUTRON POROSITY SANDSTONE FROM DENSITY LOG [ADJ. TO RESISTIVITY LOG]
NPOLSWS .V/V    : NEUTRON POROSITY LIMESTONE [NPHISSED MATRIX CONVERSION FOR LIMESTONE & SPL. TO NPHILSED @895M]
PEFED   .B/E    : PHOTOELECTRIC FACTOR FROM DENSITY LOG [ADJ. TO RESISTIVITY LOG]
PEFWS   .B/E    : PHOTOLELECTRIC FACTOR [PEFED]
RHOBED  .KG/M3  : BULK DENSITY FROM DENSITY LOG [ADJ. TO RESISTIVITY LOG]
SFLUED  .OHMM   : SPHERICALLY FOCUSED RESISTIVITY FROM RESISTIVITY LOG
SGRDDED .GAPI   : SPECTROSCOPY GAMMA RAY FROM DENSITY LOG [ADJ. TO RESISTIVITY LOG]
SPRED   .MV     : SPONTANEOUS POTENTIAL FROM RESISTIVITY LOG
SPWS    .MV     : SPONTANEOUS POTENTIAL [BASELINE 0 MV, SPRED]
SRESWS  .OHMM   : SHALLOW RESISTIVITY [SFLUED SPL. TO LLSED @1020M]
~Params ----------------------------------------------------
PD  .                           GL : PERMANENT DATUM
EPD .M                      703.69 : ELEVATION PERMANENT DATUM
LMF .                           KB : LOG MEASURED FROM
DAPD.M                        6.86 : FEET ABOVE PERMANENT DATUM
DMF .                           KB : DRILLING MEASURED FROM
EKB .M                      710.55 : KELLY BUSHING
EDF .M                      710.15 : DRILLING FLOOR
EGL .M                      703.69 : GROUND LEVEL
DATE.                     06/27/83 : RUN DATE
RUN .                            2 : RUN NUMBER
DD  .M                        2114 : DEPTH DRILLER
DL  .M                      2113.9 : DEPTH LOGGER
BLI .M                      2113.4 : BOTTOM LOG INTERVAL
TLI .M                         950 : TOP LOG INTERVAL
CS  .MM                        244 : CASING SIZE
CBD .M                       344.5 : CASING BOTTOM DRILLER
CBL .M                       344.2 : CASING BOTTOM LOGGER
BS  .MM                        222 : BIT SIZE
BSD .M                        2114 : BIT SIZE AT DEPTH
DFT .                         SALT : DRILLING FLUID TYPE
DFD .                         1290 : DRILLING FLUID DENSITY
DFV .                           54 : DRILLING FLUID VISCOSITY
DFPH.                            9 : DRILLING FLUID PH
DFL .                           29 : DRILLING FLUID LOSS
MSS .                     FLOWLINE : MUD SAMPLE SOURCE
RMS .OHMM                      0.1 : RESISTIVITY MUD SAMPLE
MST .DEGC                       21 : MUD SAMPLE TEMPERATURE
RMF .OHMM                     0.06 : RESISTIVITY MUD FILTRATE SAMPLE
MFST.DEGC                       21 : MUD FILTRATE SAMPLE TEMPERATURE
RMC .OHMM                    0.028 : RESISTIVITY MUD CAKE
MCST.DEGC                     66.6 : MUD CAKE SAMPLE TEMPERATURE
MFSS.                     MEASURED : MUD FILTRATE SAMPLE SOURCE
RMB .OHMM                    0.048 : RESISTIVITY MUD AT BHT
TCS .HRS                      1100 : TIME CIRCULATED STOPPED
TLAB.HRS                      1730 : TIME LOGGER AT BOTTOM
LUN .                         8108 : LOGGING UNIT NUMBER
LUL .                         WAIN : LOGGING UNIT LOCATION
ENGI.                       WEBBER : RECORDING ENGINEER
WITN.                        GAWNE : WITNESSED BY
CLNT.                      A2DTECH : CLIENT CODE
ORIG. 6.5" /100M 16.5" /100M PRINT : ORIGIN OF DATA
UWI .             100063504615W400 : UNIQUE WELL ID
DICO.       A2D Technologies, Inc. : DIGITIZING COMPANY
~Other -----------------------------------------------------
DIL-SFL-CNL-LDT-BCS LOG RAN
RHOB & DRHO HAVE BEEN VERIFIED FROM 2" SECTION @TOP-1050M.
NEUTRON CONVERSION USING SCHLUMBERGER CHART.
~ASCII -----------------------------------------------------
  350.00000  248.73530    -999.25  225.29050  248.73530  206.57320  -27.96260 2281.39000    -999.25    0.22340    0.25060    4.84090  -27.96260  378.97950  378.97950    -999.25   73.83130   73.83130    4.84090    4.44330    -999.25    -999.25    4.44330    -999.25    -999.25    0.44570    0.40390    3.15550    3.15550 2281.39000    5.02600   73.43110  -32.10920  -13.17250    5.02600
  400.00000  269.67430    -999.25  238.17380  269.67430  167.20450   17.06260 2311.58500    -999.25    0.20510    0.23300    5.98070   17.06260  359.38980  359.38980    -999.25  101.22240  101.22240    5.98070    5.71790    -999.25    -999.25    5.71790    -999.25    -999.25    0.39060    0.34760    2.75280    2.75280 2308.46000    6.11960   92.99900  -36.72270  -18.00000    6.11960
  450.00000  237.23540    -999.25  221.57640  237.23540  185.89430   20.37120 2329.73500    -999.25    0.19410    0.22240    5.37940   20.37120  377.86910  377.86910    -999.25  105.24760  105.24760    5.37940    4.69510    -999.25    -999.25    4.69510    -999.25    -999.25    0.47230    0.43130    2.69580    2.69580 2332.25710    5.09530  101.64160  -32.30390  -13.99270    5.09530
  500.00000  221.17890    -999.25  204.86330  221.17890  141.99500   86.54950 2370.82000    -999.25    0.16920    0.19840    7.04250   86.54950  357.64570  357.64570    -999.25  125.94230  125.94230    7.04250    6.63350    -999.25    -999.25    6.63350    -999.25    -999.25    0.44710    0.40530    2.70670    2.70670 2368.72780    7.20700  115.08140  -25.30580   -7.40610    7.20700
  550.00000  234.78980    -999.25  221.99820  234.78980  191.28510   18.98230 2314.55500    -999.25    0.20330    0.23130    5.22780   18.98230  352.93730  352.93730    -999.25  109.38530  109.38530    5.22780    5.05320    -999.25    -999.25    5.05320    -999.25    -999.25    0.42750    0.38520    2.61340    2.61340 2315.94630    5.39790  102.62790  -39.34100  -21.85270    5.39790
  600.00000  231.51070    -999.25  215.58820  231.51070  149.64680   40.79500 2355.64000    -999.25    0.17840    0.20720    6.68240   40.79500  320.79940  320.79940    -999.25   92.73840   92.73840    6.68240    6.42390    -999.25    -999.25    6.42390    -999.25    -999.25    0.35880    0.31530    2.43000    2.43000 2363.51660    7.73990   93.07810  -33.13330  -16.05650    7.73990
  650.00000  227.37300    -999.25  215.08700  227.37300  188.61520  -25.03490 2361.91000    -999.25    0.17460    0.20360    5.30180  -25.03490  343.82530  343.82530    -999.25  166.78060  166.78060    5.30180    5.12230    -999.25    -999.25    5.12230    -999.25    -999.25    0.40860    0.36590    2.77250    2.77250 2361.91000    5.85580  155.32600   -0.73660   -8.13320    5.85580
  700.00000  270.93880    -999.25  248.16530  270.93880  466.76620   62.50580 2322.14500    -999.25    0.19870    0.22680    2.14240   62.50580  395.81720  395.81720    -999.25  141.73090  141.73090    2.14240    2.07580    -999.25    -999.25    2.07580    -999.25    -999.25    0.51670    0.47770    2.44730    2.44730 2322.14500    2.53230  142.10770   -0.56510  -11.10720    2.53230
  750.00000  246.77920    -999.25  234.81790  246.77920  324.03360  103.61830 2429.39500    -999.25    0.13370    0.16410    3.08610  103.61830  337.86630  337.86630    -999.25   95.73260   95.73260    3.08610    3.00410    -999.25    -999.25    3.00410    -999.25    -999.25    0.41610    0.37360    2.63300    2.63300 2429.39500    4.43590   99.61340   -8.73790  -17.61800    4.43590
  800.00000  251.58700    -999.25  233.97640  251.58700  411.28570   92.44260 2415.53500    -999.25    0.14210    0.17220    2.43140   92.44260  356.26540  356.26540    -999.25   98.36410   98.36410    2.43140    2.36620    -999.25    -999.25    2.36620    -999.25    -999.25    0.48050    0.43990    2.76190    2.76190 2415.53500    2.59930   95.81110    1.02750   -5.35560    2.59930
  850.00000  220.95040    -999.25  215.12600  220.95040  396.03960    6.10220 2374.78000    -999.25    0.16680    0.19600    2.52500    6.10220  289.55900  289.55900    -999.25   67.12120   67.12120    2.52500    2.45730    -999.25    -999.25    2.45730    -999.25    -999.25    0.35350    0.30990    2.39330    2.39330 2374.78000    7.99060   63.42660  -65.88890  -69.77490    7.99060
  900.00000  227.18940    -999.25  221.71910  227.18940  266.07770   57.59080 2436.91300    0.15970    0.13280    0.15970    3.75830   57.59080  331.45430  331.45430    -999.25   98.99610   98.99610    3.75830    3.61960    -999.25    -999.25    3.61960    -999.25    0.33900    0.39450    0.33900    2.45970    2.45970 2436.91300    3.92650   91.46680   -5.18030   -9.84750    3.92650
  950.00000  218.23870  215.46050  211.23880  218.23870  605.65680   28.86280 2459.14300    0.14670    0.11910    0.14670    1.65110   28.86280  240.91930  240.91930   33.61190   33.12570   33.12570    1.65110    1.75640    1.61760    1.17400    1.75640    0.84880    0.33160    0.38520    0.33160    2.64240    2.64240 2459.14300    4.69660   35.54880  -86.53410  -92.54290    4.69660
 1000.00000  223.75110  232.47460  218.70810  223.75110  112.21710   32.66350 2722.31200   -0.00720   -0.04360   -0.00720    8.91130   32.66350  237.18520  237.18520   57.67450   55.55360   55.55360    8.91130    8.59660    8.21910    7.60090    8.59660    8.23850    0.21440    0.23310    0.21440    3.23370    3.23370 2722.31200    9.56950   60.79530    2.81290   -4.53960    9.56950
 1050.00000  254.48510  232.76430  242.28450  254.48510  141.35870   22.74640 2619.02800    0.05320    -999.25    0.05320    7.07420   22.74640  253.58720  253.58720   90.99760  100.54770  100.54770    -999.25    -999.25    7.07420    6.16170    -999.25    4.94660    0.19060    -999.25    0.19060    3.11620    3.11620 2619.02800    -999.25   97.95380  -72.27270  -81.00070    6.16170
 1100.00000  263.98650  250.22890  258.03940  263.98650  212.79310   56.42450 2576.96200    0.07780    -999.25    0.07780    4.69940   56.42450  302.20860  302.20860  105.64590  102.19440  102.19440    -999.25    -999.25    4.69940    4.58810    -999.25    4.51890    0.27450    -999.25    0.27450    3.26530    3.26530 2578.73610    -999.25  103.38590  -73.43160  -83.53500    4.58810
 1150.00000  247.84660  236.29260  240.06740  247.84660   29.27480  -12.30080 2722.82500   -0.00750    -999.25   -0.00750   34.15910  -12.30080  192.40730  192.40730   23.47750   28.28700   28.28700    -999.25    -999.25   34.15910   29.10570    -999.25   20.93340    0.03980    -999.25    0.03980    5.01290    5.01290 2719.79050    -999.25   25.65890  -72.10240  -83.58120   29.10570
 1200.00000  248.14400  233.78090  237.53590  248.14400   44.81390   -6.51300 2480.17600    0.13440    -999.25    0.13440   22.31450   -6.51300  269.28230  269.28230   74.96580   79.86430   79.86430    -999.25    -999.25   22.31450   18.33430    -999.25   14.56870    0.27550    -999.25    0.27550    3.44720    3.44720 2475.48220    -999.25   77.14260  -69.20250  -82.05680   18.33430
 1250.00000  240.46700  248.80550  237.08150  240.46700    8.71550  -10.55570 2673.23500    0.02150    -999.25    0.02150  114.73770  -10.55570  173.54120  173.54120   15.74020   15.86010   15.86010    -999.25    -999.25  114.73770   86.72910    -999.25   23.04610    0.01640    -999.25    0.01640    5.27930    5.27930 2673.38570    -999.25   16.98060  -61.55420  -75.78390   86.72910
 1300.00000  217.80200  199.80300  193.36800  217.80200  312.97920  119.35210 2550.45700    0.09330    -999.25    0.09330    3.19510  119.35210  192.13310  192.13310   18.59580   14.40340   14.40340    -999.25    -999.25    3.19510    3.34310    -999.25    1.74870    0.16540    -999.25    0.16540    4.03990    4.03990 2556.33690    -999.25   19.04110  -64.74370  -80.34890    3.34310
 1350.00000  251.81170  251.45630  256.91490  251.81170   61.26320    6.94140 2687.42800    0.01320    -999.25    0.01320   16.32300    6.94140  202.30180  202.30180   46.70700   44.84070   44.84070    -999.25    -999.25   16.32300   15.01450    -999.25    7.61750    0.09790    -999.25    0.09790    4.49860    4.49860 2688.37550    -999.25   40.75450  -62.80230  -79.78290   15.01450
