~Version ---------------------------------------------------
VERS.      2.0 : CWLS log ASCII Standard -VERSION 2.0
WRAP.       NO : One line per depth step
CREA. 03/07/13 : LAS Creation Date
~Well ------------------------------------------------------
STRT.FT                       1100.0 : START DEPTH
STOP.FT                      10650.0 : STOP DEPTH
STEP.FT                     50.00000 : STEP LENGTH
NULL.                        -999.25 : NULL VALUE
COMP.           PETROFINA CANADA LTD : COMPANY
WELL. FINA AMOCO HB PASSCK 10-6-61-1 : WELL
FLD .                             WC : FIELD
LOC .                                : LOCATION
CTRY.                         CANADA : COUNTRY
SRVC.                   Schlumberger : SERVICE COMPANY
DATE.                    16-Nov-1976 : LOGDATE
PROV.                        Alberta : PROVINCE
UWI .               100100606117W500 : UNIQUE WELL ID
SLAT.WGS84                  54.24964 : SURFACE LATITUDE
SLON.WGS84                 -116.5333 : SURFACE LONGITUDE
~Curve Information -----------------------------------------
DEPT   .FT    : DEPTH FEET
CALD   .IN    : CALIPER FROM DENSITY LOG
CALS   .IN    : CALIPER FROM SONIC LOG
CILD   .MMHO  : CONDUCTIVITY FROM RESISTIVITY LOG
DCOR   .G/C3  : DENSITY CORRECTION FROM DENSITY LOG
DPHI_LS.DEC   : DENSITY POROSITY LIME [M=2.71, F=1.0] FROM DENSITY LOG
DPHI_SS.DEC   : DENSITY POROSITY SAND [M=2.65, F=1.0] FROM DENSITY LOG
DT     .US/F  : DELTA TIME FROM SONIC LOG
GRD    .GAPI  : GAMMA RAY FROM DENSITY LOG
GRS    .GAPI  : GAMMA RAY FROM SONIC LOG
ILD    .OHMM  : DEEP INDUCTION RESISTIVITY FROM RESISTIVITY LOG
ILM    .OHMM  : MEDIUM INDUCTION RESISTIVITY FROM RESISTIVITY LOG
LL8    .OHMM  : 8 INCH LATEROLOG RESISTIVITY FROM RESISTIVITY LOG
NPHI_LS.DEC   : NEUTRON POROSITY LIME FROM DENSITY LOG
NPHI_SS.DEC   : NEUTRON POROSITY SAND FROM DENSITY LOG
RHOB   .G/C3  : BULK DENSITY FROM DENSITY LOG
SPR    .MV    : SPONTANEOUS POTENTIAL FROM RESISTIVITY LOG
~Params ----------------------------------------------------
PD  .                     GL : PERMANENT DATUM
EPD .FT                 3080 : ELEVATION PERMANENT DATUM
LMF .                     KB : LOG MEASURED FROM
DAPD.FT                   16 : FEET ABOVE PERMANENT DATUM
EKB .FT                 3096 : KELLY BUSHING
EGL .FT                 3080 : GROUND LEVEL
DATE.               11/16/76 : RUN DATE
RUN .                      2 : RUN NUMBER
DD  .FT                10680 : DEPTH DRILLER
DL  .FT                10679 : DEPTH LOGGER
BLI .FT                10673 : BOTTOM LOG INTERVAL
TLI .FT                 7468 : TOP LOG INTERVAL
CBD .FT                 1102 : CASING BOTTOM DRILLER
CBL .FT                 1102 : CASING BOTTOM LOGGER
BS  .IN                 8.75 : BIT SIZE
BSD .FT                10680 : BIT SIZE AT DEPTH
DFT .                    GEL : DRILLING FLUID TYPE
DFD .                    9.2 : DRILLING FLUID DENSITY
DFV .                     94 : DRILLING FLUID VISCOSITY
DFPH.                     10 : DRILLING FLUID PH
DFL .                    8.2 : DRILLING FLUID LOSS
MSS .               FLOWLINE : MUD SAMPLE SOURCE
RMS .OHMM               1.57 : RESISTIVITY MUD SAMPLE
MST .DEGF                 65 : MUD SAMPLE TEMPERATURE
RMF .OHMM               1.76 : RESISTIVITY MUD FILTRATE SAMPLE
MFST.DEGF                 68 : MUD FILTRATE SAMPLE TEMPERATURE
TCS .HRS                 2.5 : TIME CIRCULATED STOPPED
LUN .                   7800 : LOGGING UNIT NUMBER
LUL .                    EDM : LOGGING UNIT LOCATION
ENGI.     ROBELLI LEDUG BIGG : RECORDING ENGINEER
WITN.                CHARLES : WITNESSED BY
CLNT.                A2DTECH : CLIENT CODE
ORIG.            2" 5" PRINT : ORIGIN OF DATA
UWI .       100100606117W500 : UNIQUE WELL ID
DICO. A2D Technologies, Inc. : DIGITIZING COMPANY
~Other -----------------------------------------------------
~ASCII -----------------------------------------------------
# ...
 3250.00000   10.36600   10.18300    -999.25    0.09230    -999.25    0.19870   90.64010   63.65240   63.43980    6.11820    6.40620    6.19700    -999.25    0.35880    2.28090  -36.63450
 3300.00000    9.76170    9.12260    -999.25    0.17250    -999.25    0.21270   89.09640   38.63440   40.93430   32.99770   28.48690   27.00110    -999.25    0.33210    2.33080  -36.57930
 3350.00000   10.99060   10.41740    -999.25    0.16310    -999.25    0.18210   81.55650   58.11920   63.32730    8.91670    8.67310   11.28810    -999.25    0.29450    2.35500  -34.61630
 3400.00000   10.23140   10.27190    -999.25    0.06690    -999.25    0.12160   83.79940   48.65540   56.70250    9.10200    9.46580   11.25410    -999.25    0.28190    2.52560  -36.34110
 3450.00000   10.64840   11.33310    -999.25    0.05300    -999.25    0.12050   91.25230   59.68080   70.31110    6.58260    5.81680    6.22280    -999.25    0.34290    2.46200  -36.62830
 3500.00000   11.59950   10.67070    -999.25    0.20230    -999.25    0.13800   96.97850   63.39100   72.00550    5.11270    4.60570    5.22420    -999.25    0.41920    2.39210  -33.58720
 3550.00000    9.88590    9.15900    -999.25    0.13580    -999.25    0.08180   81.22710   38.62090   60.01070   18.66700   18.63290   20.06900    -999.25    0.26030    2.48700  -43.50610
 3600.00000    9.77090    9.29570    -999.25    0.05310    -999.25    0.12150   79.05500   43.96040   48.90370   13.97090   13.40290   16.65660    -999.25    0.26340    2.46060  -52.05890
 3650.00000   10.00270    9.60490    -999.25    0.10960    -999.25    0.09250   86.38110   60.96030   71.18980    7.75010    6.94010    7.75840    -999.25    0.34220    2.44310  -36.46080
 3700.00000    9.66170    9.20750    -999.25    0.06690    -999.25    0.11490   83.80510   54.63970   64.40400   11.69070   10.81980   10.14080    -999.25    0.31280    2.49210  -40.42330
 3750.00000   10.01810    9.89480    -999.25    0.16680    -999.25    0.10120   90.43820   75.36410   85.04240    6.58620    6.10550    7.24610    -999.25    0.35000    2.48860  -34.66550
 3800.00000   11.51980   10.58060    -999.25    0.20570    -999.25    0.34830   84.95560   85.90810   88.22960    8.70750    7.86520    8.19080    -999.25    0.30800    2.15940  -34.23810
 3850.00000   11.37720   10.16820    -999.25    0.22920    -999.25    0.35700   86.99870   85.18280  100.51200    8.38100    7.89300    8.04180    -999.25    0.37800    2.05800  -36.72390
 3900.00000   11.90950   10.45210    -999.25    0.20740    -999.25    0.30860   88.20730   85.39620   96.61660    8.38890    7.94580    9.05850    -999.25    0.35760    2.10380  -37.11700
 3950.00000   12.65490   10.82940    -999.25    0.20880    -999.25    0.35360   95.33640  102.75000  111.84300    7.32110    6.92200    8.18550    -999.25    0.36890    2.05160  -36.70390
 4000.00000   10.60940    9.45590    -999.25    0.25030    -999.25    0.13900   97.61690  130.21770  146.69780    8.80380    8.27740   11.92140    -999.25    0.35310    2.34710  -37.09680
 4050.00000   10.24850    9.90370    -999.25    0.14520    -999.25    0.07950   88.53210  107.92940  115.08360   11.40000   10.75250   12.95990    -999.25    0.31510    2.49800  -37.01360
 4100.00000   11.45280   10.51310    -999.25    0.07440    -999.25    0.07680   87.45430   98.06610  107.00610    8.70770    8.23310    9.56310    -999.25    0.28490    2.54080  -36.99500
 4150.00000   11.98640   10.51240    -999.25    0.17320    -999.25    0.12220   86.33500   98.53420  105.61630    6.64400    6.15660    6.97800    -999.25    0.34530    2.44930  -36.46290
 4200.00000   12.89560   10.86480    -999.25    0.14960    -999.25    0.26760   86.88760   91.04260  100.71390    7.73320    7.25020    7.88800    -999.25    0.33580    2.18910  -36.56690
 4250.00000   11.48510   10.49160    -999.25    0.20920    -999.25    0.35870   83.28720   87.28390   93.20830    8.79340    8.25210    8.81460    -999.25    0.34630    2.05440  -36.65930
 4300.00000   13.08620   10.61850    -999.25    0.18660    -999.25    0.25530   80.86120   88.47910   97.08360    9.73640    9.13580   10.08190    -999.25    0.25220    2.13890  -38.27510
 4350.00000   12.09310   10.39960    -999.25    0.25220    -999.25    0.23330   86.30310   98.42880  109.27500    8.33750    7.68700    9.27010    -999.25    0.30450    2.21880  -35.53200
 4400.00000   12.47760   10.43190    -999.25    0.21850    -999.25    0.26720   86.23760   99.47290  108.73170    7.45500    6.99130    8.56890    -999.25    0.31160    2.19440  -36.03010
 4450.00000   12.81320   10.73680    -999.25    0.22790    -999.25    0.32860   88.51870  100.46370  104.48280    6.63230    6.14450    6.83310    -999.25    0.35930    2.13050  -35.07910
 4500.00000   12.19370   10.34220    -999.25    0.21370    -999.25    0.27140   82.37910   88.23500   99.40780    9.30470    8.66050   10.04630    -999.25    0.29160    2.26710  -33.87530
 4550.00000    9.59370    9.35910    -999.25    0.12000    -999.25    0.08840   79.81320   78.95820   91.00930   15.13010   13.42880   15.89540    -999.25    0.22220    2.53150  -38.84680
 4600.00000   11.29360   10.11430    -999.25    0.21690    -999.25    0.15500   80.99310   91.52320  104.87560   10.41410    9.80840   11.04840    -999.25    0.29640    2.37870  -32.47720
 4650.00000   10.74100   10.23230    -999.25    0.23200    -999.25    0.17250   83.31000   88.46700  106.30080   10.52020    9.88590   13.02480    -999.25    0.28080    2.34480  -32.20880
 4700.00000   10.96510   10.29740    -999.25    0.22960    -999.25    0.21360   88.61580   94.06970  115.78930    8.26830    7.79320    9.06320    -999.25    0.31190    2.28760  -30.49420
 4750.00000   11.81490   10.30650    -999.25    0.24560    -999.25    0.16140   83.89990   96.95880  105.80060    9.49380    9.07370    9.46630    -999.25    0.28960    2.34480  -31.99940
 4800.00000   11.81620   10.16110    -999.25    0.23420    -999.25    0.14930   89.84020  104.36130  119.06430    7.85620    7.39790    8.59070    -999.25    0.34580    2.40800  -30.86070
 4850.00000   10.81130    9.91850    -999.25    0.22980    -999.25    0.14720   94.73570  111.57920  129.80490    7.31600    6.90210    8.42070    -999.25    0.35750    2.39310  -29.97850
 4900.00000   10.24710    9.47610    -999.25    0.19410    -999.25    0.08670   91.89900  119.43700  129.84270    8.69450    8.32760   11.19610    -999.25    0.34980    2.50900  -29.34820
 4950.00000   10.63700    9.52730    -999.25    0.16400    -999.25    0.08150   91.43160  124.98420  131.02000    9.23170    8.85610   12.40910    -999.25    0.31490    2.53820  -28.57640
 5000.00000    9.63280    9.41160    -999.25    0.03290    -999.25    0.01830   78.41840  122.05250  116.16350   18.19110   17.43680   35.81680    -999.25    0.29180    2.57650  -28.99080
 5050.00000    9.19600    9.50790    -999.25    0.14570    -999.25    0.11010   93.60370  122.33970  142.53500   12.59230   12.06610   17.94140    -999.25    0.35630    2.49950  -28.70690
 5100.00000   10.15580    9.80510    -999.25    0.12530    -999.25    0.07340   90.42960  112.44460  125.19540    9.79300    9.37910   12.34650    -999.25    0.34750    2.52420  -28.09260
 5150.00000    9.58570    9.48980    -999.25    0.04410    -999.25    0.15980  101.02480  157.61770  156.26480   14.86050   14.02350   31.76690    -999.25    0.44180    2.43910  -27.13110
 5200.00000   10.95190   10.16770    -999.25    0.25770    -999.25    0.17200   81.67020   85.44180   97.48700    7.42930    7.15710    8.71630    -999.25    0.25690    2.38840  -29.24380
 5250.00000   12.23060   10.29610    -999.25    0.25060    -999.25    0.13720   86.89590  102.40770  118.65940    6.01150    5.79000    7.29140    -999.25    0.32740    2.41280  -27.11090
 5300.00000   10.09800    9.70930    -999.25    0.08840    -999.25    0.02910   79.63450  107.75670  121.35880    9.99490    9.58760   11.77440    -999.25    0.31000    2.61590  -28.04370
 5350.00000   10.95400   10.06740    -999.25    0.21670    -999.25    0.06400   81.31150  101.29120  106.48970    6.77780    6.47980    9.96550    -999.25    0.28920    2.57910  -27.49970
