~Version ---------------------------------------------------
VERS.      2.0 : CWLS log ASCII Standard -VERSION 2.0
WRAP.       NO : One line per depth step
CREA. 08/31/17 : LAS Creation Date
~Well ------------------------------------------------------
STRT.FT                                       1500.0 : START DEPTH
STOP.FT                                      11100.0 : STOP DEPTH
STEP.FT                                     50.00000 : STEP LENGTH
NULL.                                        -999.25 : NULL VALUE
COMP. GREAT PLAINS DEVELOPMENT COMPANY OF CANADA LTD : COMPANY
WELL.                 GPD ET AL ROSEVEAR 10-14-54-16 : WELL
FLD .                                                : FIELD
LOC .                                                : LOCATION
CTRY.                                         CANADA : COUNTRY
SRVC.                                   Schlumberger : SERVICE COMPANY
DATE.                                    01-Feb-1978 : LOGDATE
PROV.                                        Alberta : PROVINCE
UWI .                               100101405416W500 : UNIQUE WELL ID
SLAT.WGS84                                  53.66484 : SURFACE LATITUDE
SLON.WGS84                                 -116.2439 : SURFACE LONGITUDE
~Curve Information -----------------------------------------
DEPT    .FT    : Depth Curve
CALDED  .IN    : CALIPER FROM DENSITY LOG
CALSED  .IN    : CALIPER FROM SONIC LOG [ADJ. TO RESISTIVITY LOG]
CALWS   .IN    : CALIPER [CALDED]
CONDWS  .MMHO  : CONDUCTIVITY [1000/DRESWS]
DCORWS  .G/C3  : DENSITY CORRECTION [DRHOED]
DENWS   .G/C3  : FORMATION BULK DENSITY [RHOBED]
DPHILSED.V/V   : DENSITY POROSITY LIME [M=2.71, F=1.0] FROM DENSITY LOG [ADJ. TO RHOBED]
DPHISSED.V/V   : DENSITY POROSITY SAND [M=2.65, F=1.0] FROM DENSITY LOG [ADJ. TO RHOBED]
DPOLSWS .V/V   : DENSITY POROSITY LIME [CALC FROM DENWS, M=2.71, F=1.0]
DRESWS  .OHMM  : DEEP RESISTIVITY [LLDED]
DRHOED  .G/C3  : DENSITY CORRECTION FROM DENSITY LOG
DTED    .US/F  : DELTA TIME FROM SONIC LOG [ADJ. TO RESISTIVITY LOG]
DTWS    .US/F  : COMPRESSIONAL SONIC [DTED]
GRDED   .GAPI  : GAMMA RAY FROM DENSITY LOG
GRSED   .GAPI  : GAMMA RAY FROM SONIC LOG [ADJ. TO RESISTIVITY LOG]
GRWS    .GAPI  : GAMMA RAY [GRSED]
LLDED   .OHMM  : LATEROLOG DEEP RESISTIVITY FROM RESISTIVITY LOG
LLSED   .OHMM  : LATEROLOG SHALLOW RESISTIVITY FROM RESISTIVITY LOG
NPHILSED.V/V   : NEUTRON POROSITY LIME FROM DENSITY LOG [ADJ. TO RHOBED]
NPOLSWS .V/V   : NEUTRON POROSITY LIME [SS MATRIX(SLB) CONVERTED TO LS, SPL. TO NPHILSED @ 7520']
NPORSSED.V/V   : NEUTRON POROSITY  SAND FROM DENSITY LOG [ADJ. TO RHOBED]
RHOBED  .G/C3  : BULK DENSITY FROM DENSITY LOG
SPRED   .MV    : SPONTANEOUS POTENTIAL FROM RESISTIVITY LOG
SPWS    .MV    : SPONTANEOUS POTENTIAL [BASELINE 0 MV, SPRED]
SRESWS  .OHMM  : SHALLOW RESISTIVITY [LLSED]
~Params ----------------------------------------------------
PD  .                     GL : PERMANENT DATUM
EPD .FT                 2743 : ELEVATION PERMANENT DATUM
LMF .                     KB : LOG MEASURED FROM
DAPD.FT                 21.4 : FEET ABOVE PERMANENT DATUM
EKB .FT               2764.4 : KELLY BUSHING
EGL .FT                 2743 : GROUND LEVEL
DATE.               02/01/78 : RUN DATE
RUN .                      1 : RUN NUMBER
DD  .FT                11140 : DEPTH DRILLER
DL  .FT                11134 : DEPTH LOGGER
BLI .FT                11133 : BOTTOM LOG INTERVAL
TLI .FT                 1512 : TOP LOG INTERVAL
CBD .FT                 1512 : CASING BOTTOM DRILLER
CBL .FT                 1512 : CASING BOTTOM LOGGER
BS  .IN                 8.75 : BIT SIZE
BSD .FT                11140 : BIT SIZE AT DEPTH
DFT .            KCL POLYMER : DRILLING FLUID TYPE
DFD .                    9.4 : DRILLING FLUID DENSITY
DFV .                     45 : DRILLING FLUID VISCOSITY
DFPH.                    9.5 : DRILLING FLUID PH
DFL .                     16 : DRILLING FLUID LOSS
RMS .OHMM              0.205 : RESISTIVITY MUD SAMPLE
MST .DEGF                 39 : MUD SAMPLE TEMPERATURE
RMF .OHMM              0.163 : RESISTIVITY MUD FILTRATE SAMPLE
MFST.DEGF                 38 : MUD FILTRATE SAMPLE TEMPERATURE
RMC .OHMM              0.032 : RESISTIVITY MUD CAKE
MCST.DEGF                118 : MUD CAKE SAMPLE TEMPERATURE
RMB .OHMM              0.032 : RESISTIVITY MUD AT BHT
TCS .HRS                   7 : TIME CIRCULATED STOPPED
LUN .                   7772 : LOGGING UNIT NUMBER
LUL .                    EDM : LOGGING UNIT LOCATION
ENGI.                BODYMAN : RECORDING ENGINEER
WITN.                  BATES : WITNESSED BY
CLNT.                A2DTECH : CLIENT CODE
ORIG.               5" PRINT : ORIGIN OF DATA
UWI .       100101405416W500 : UNIQUE WELL ID
DICO. A2D Technologies, Inc. : DIGITIZING COMPANY
~Other -----------------------------------------------------
~ASCII -----------------------------------------------------
# ...
 8500.00000    9.05970    8.73580    9.05970    2.06700    0.00920    2.73220   -0.01480    -999.25   -0.01290  483.82720    0.00920   51.21920   51.21920   39.82350   32.95490   32.95490  483.82720  348.32560    0.01620    0.01620    -999.25    2.73220  -72.71200   -4.51870  348.32560
 8550.00000   10.52310    9.26320   10.52310    1.42950    0.24840    2.69660    0.00580    -999.25    0.00510  699.53400    0.24840   48.48690   48.48690   29.83260   30.05860   30.05860  699.53400  412.42550    0.00690    0.00690    -999.25    2.69660  -82.45280  -14.51810  412.42550
 8600.00000    9.77710    9.02920    9.77710    1.99540    0.11410    2.78790   -0.04850    -999.25   -0.04240  502.55640    0.11410   48.67950   48.67950   21.78700   21.39550   21.39550  502.55640  414.01430    0.00580    0.00580    -999.25    2.78790  -79.63440  -11.96000  414.01430
 8650.00000   12.36750    9.49940   12.36750    0.55360    0.21230    2.61380    0.06360    -999.25    0.05720 1806.34580    0.21230   49.08550   49.08550   20.28100   22.82520   22.82520 1806.34580  786.90830   -0.00240   -0.00240    -999.25    2.61380  -77.84730  -10.43130  786.90830
 8700.00000   14.37350    9.66230   14.37350    0.30800    0.15450    2.57240    0.08480    -999.25    0.07920 3348.21160    0.15450   49.66550   49.66550   19.38710   17.08470   17.08470 3348.21160  441.18210    0.01120    0.01120    -999.25    2.57240  -73.84630   -6.69050  441.18210
 8750.00000   13.16630    9.47310   13.16630    1.13350    0.23500    2.56880    0.08440    -999.25    0.08160  885.49930    0.23500   48.47350   48.47350   23.93860   18.74140   18.74140  885.49930  217.28880    0.00140    0.00140    -999.25    2.56880  -74.49630   -7.59920  217.28880
 8800.00000   15.00310    9.84160   15.00310    0.09620    0.24320    2.25460    0.27420    -999.25    0.26380 10393.30470    0.24320   47.50240   47.50240   23.14310   27.86820   27.86820 10393.30470  260.01120    0.01540    0.01540    -999.25    2.25460  -75.98020   -9.34170  260.01120
 8850.00000   10.17650    8.79340   10.17650    4.66090    0.07560    2.73490   -0.01670    -999.25   -0.01140  214.65620    0.07560   47.77870   47.77870   15.47300   17.21580   17.21580  214.65620  186.48720    0.01360    0.01360    -999.25    2.73490  -79.09730  -12.71910  186.48720
 8900.00000   11.35170    9.71960   11.35170    3.82500    0.24830    2.67440    0.02130    -999.25    0.02250  261.43810    0.24830   48.90500   48.90500   20.96450   20.46270   20.46270  261.43810  167.98850    0.00820    0.00820    -999.25    2.67440  -79.35240  -13.23260  167.98850
 8950.00000   12.55390    9.69580   12.55390    5.78980    0.18100    2.56710    0.08850    -999.25    0.08360  172.98430    0.18100   49.64240   49.64240   21.31890   24.56850   24.56850  172.98430  136.17090    0.01090    0.01090    -999.25    2.56710  -78.17410  -12.31460  136.17090
 9000.00000   15.07230    9.89900   15.07230    1.72890    0.16500    2.56550    0.08070    -999.25    0.08120  580.64360    0.16500   53.77670   53.77670   24.11180   23.29650   23.29650  580.64360  125.93560    0.02110    0.02110    -999.25    2.56550  -74.75760   -9.15670  125.93560
 9050.00000   15.15610   10.73400   15.15610    0.22700    0.20160    2.32050    0.22730    -999.25    0.22700 4406.06200    0.20160   52.60130   52.60130   26.94870   20.73850   20.73850 4406.06200   59.71490    0.08820    0.08820    -999.25    2.32050  -74.96760   -9.62530   59.71490
 9100.00000   15.00000   12.19490   15.00000    2.73370    0.03920    1.58760    0.45000    -999.25    0.65140  368.55560    0.03920   66.96280   66.96280   36.15870   24.26460   24.26460  368.55560    7.39220    0.25760    0.25760    -999.25    1.58760  -73.71290   -8.63080    7.39220
 9150.00000   13.21950    9.53700   13.21950    0.99630    0.22260    2.61610    0.04760    -999.25    0.06440 1003.69100    0.22260   49.82300   49.82300   22.42930   21.94340   21.94340 1003.69100  392.22600    0.00840    0.00840    -999.25    2.61610  -55.34940    9.47420  392.22600
 9200.00000   10.03200    9.50050   10.03200    2.25270    0.13700    2.66860    0.02340    -999.25    0.01840  471.67950    0.13700   50.61830   50.61830   25.52050   23.26380   23.26380  471.67950  248.47040    0.04490    0.04490    -999.25    2.66860  -71.29090   -6.72760  248.47040
 9250.00000    9.89110    9.33070    9.89110    0.02820    0.03780    2.81030   -0.05980    -999.25   -0.05590 35489.95390    0.03780   48.15840   48.15840   19.99810   24.72970   24.72970 35489.95390  750.84950    0.00420    0.00420    -999.25    2.81030  -75.91240  -11.60770  750.84950
 9300.00000   15.02260    9.67720   15.02260    2.96020    0.25190    2.40690    0.18200    -999.25    0.17800  337.82070    0.25190   50.95270   50.95270   28.17540   28.27040   28.27040  337.82070   99.64520    0.10090    0.10090    -999.25    2.40690  -74.48120  -10.43520   99.64520
 9350.00000   15.03890   10.17590   15.03890    6.78680    0.08900    2.18130    0.30440    -999.25    0.30840  148.46070    0.08900   60.94640   60.94640   31.52180   36.04860   36.04860  148.46070   57.09280    0.15940    0.15940    -999.25    2.18130  -72.12570   -8.33990   57.09280
 9400.00000   10.61190    8.98880   10.61190    8.58540    0.17930    2.67900    0.01280    -999.25    0.02200  116.47640    0.17930   51.36580   51.36580   39.85090   44.69420   44.69420  116.47640  129.24880    0.04950    0.04950    -999.25    2.67900  -74.62690  -11.09960  129.24880
 9450.00000    9.58700    9.23050    9.58700   25.46660    0.01780    2.71850   -0.00540    -999.25   -0.00520   39.26770    0.01780   55.99150   55.99150   51.19900   47.09200   47.09200   39.26770   44.44810    0.06210    0.06210    -999.25    2.71850  -70.03660   -7.00410   44.44810
 9500.00000    9.40120    9.05140    9.40120   37.71920    0.01940    2.74040   -0.01890    -999.25   -0.01680   26.52090    0.01940   57.53950   57.53950   60.19230   55.17900   55.17900   26.52090   32.24020    0.07600    0.07600    -999.25    2.74040  -70.30230   -7.83310   32.24020
 9550.00000    9.60280    9.43460    9.60280   74.59850    0.06790    2.76950   -0.03670    -999.25   -0.03380   13.40510    0.06790   61.94110   61.94110   66.00080   62.90690   62.90690   13.40510   17.75950    0.11200    0.11200    -999.25    2.76950  -66.99060   -5.08460   17.75950
 9600.00000    9.45790    9.15630    9.45790   41.65720    0.01190    2.70850    0.00010    -999.25    0.00080   24.03370    0.01190   58.18080   58.18080   59.35640   58.84840   58.84840   24.03370   28.10150    0.09740    0.09740    -999.25    2.70850  -62.74890   -1.40990   28.10150
 9650.00000    9.30430    9.18160    9.30430   62.52620    0.05390    2.79960   -0.05850    -999.25   -0.04950   15.99330    0.05390   61.32780   61.32780   66.64270   65.17090   65.17090   15.99330   18.64780    0.11410    0.11410    -999.25    2.79960  -63.41850   -2.64270   18.64780
 9700.00000   14.68650   11.58340   14.68650  197.88700    0.15090    2.25250    0.27150    -999.25    0.26990    5.05870    0.15090   81.71240   81.71240  105.49100  104.15940  104.15940    5.05870    5.70580    0.29490    0.29490    -999.25    2.25250  -52.56640    7.64620    5.70580
 9750.00000    9.31710    8.86140    9.31710   30.96360    0.00880    2.70240    0.00490    -999.25    0.00550   32.32010    0.00880   68.42680   68.42680   94.78380   92.46420   92.46420   32.32010   35.73600    0.18440    0.18440    -999.25    2.70240  -62.87940   -3.15480   35.73600
 9800.00000    9.28970    8.95690    9.28970   55.41670    0.03740    2.80090   -0.05370    -999.25   -0.05260   18.04510    0.03740   64.29900   64.29900   85.19780   84.73790   84.73790   18.04510   23.83970    0.15210    0.15210    -999.25    2.80090  -63.97650   -4.74000   23.83970
 9850.00000   13.08090    9.67190   13.08090  123.60460    0.21390    2.62250    0.05320    -999.25    0.05120    8.09070    0.21390   76.07130   76.07130  105.91270  103.99420  103.99420    8.09070    8.64020    0.23400    0.23400    -999.25    2.62250  -64.19440   -5.44920    8.64020
