~Version ---------------------------------------------------
VERS.      2.0 : CWLS log ASCII Standard -VERSION 2.0
WRAP.       NO : One line per depth step
CREA. 11/20/17 : LAS Creation Date
~Well ------------------------------------------------------
STRT.FT                      1000.0 : START DEPTH
STOP.FT                      9200.0 : STOP DEPTH
STEP.FT                    50.00000 : STEP LENGTH
NULL.                       -999.25 : NULL VALUE
COMP. AMOCO CANADA PETROLEUM CO LTD : COMPANY
WELL.    AMOCO HB SAKWA 11-26-62-14 : WELL
FLD .                               : FIELD
LOC .                               : LOCATION
CTRY.                        CANADA : COUNTRY
SRVC.                       Unknown : SERVICE COMPANY
DATE.                   15-Jan-1977 : LOGDATE
PROV.                       Alberta : PROVINCE
UWI .              100112606214W500 : UNIQUE WELL ID
SLAT.WGS84                 54.39502 : SURFACE LATITUDE
SLON.WGS84                 -115.993 : SURFACE LONGITUDE
~Curve Information -----------------------------------------
DEPT    .FT    : Depth Curve
CALDED  .IN    : CALIPER FROM DENSITY LOG [ADJ. TO RESISTIVITY LOG]
CALSED  .IN    : CALIPER FROM SONIC LOG [ADJ. TO RESISTIVITY LOG]
CALWS   .IN    : CALIPER [CALDED]
CONDWS  .MMHO  : CONDUCTIVITY [1000/DRESWS]
DCORWS  .G/C3  : DENSITY CORRECTION [DRHOED]
DENWS   .G/C3  : FORMATION BULK DENSITY [CALC. FROM DPOLSWS,M=2.71, F=1.00]
DPHILSED.V/V   : DENSITY POROSITY LIMESTONE [M=2.71, F=1.00] FROM DENSITY LOG [ADJ. TO RESISTIVITY LOG/NPHILS/NPHISS]
DPHISSED.V/V   : DENSITY POROSITY SANDSTONE [M=2.65, F=1.00] FROM DENSITY LOG [ADJ. TO RESISTIVITY LOG/NPHILSED/NPHISSED]
DPOLSWS .V/V   : DENSITY POROSITY LIMESTONE [DPHISSED CONVERTED TO LIMESTONE MATRIX,M=2.71, F=1.00,SPL. TO DPHILSED @ 5507']
DRESWS  .OHMM  : DEEP RESISTIVITY [ILDED]
DRHOED  .G/C3  : DENSITY CORRECTION FROM DENSITY LOG [ADJ. TO RESISTIVITY LOG/NPHILSED/NPHISSED/DPHILSED/DPHISSED]
DTED    .US/F  : DELTA-T FROM SONIC LOG [ADJ. TO RESISTIVITY LOG]
DTWS    .US/F  : COMPRESSIONAL SONIC [DTED]
GRDED   .GAPI  : GAMMA RAY FROM DENSITY LOG [ADJ. TO RESISTIVITY LOG]
GRSED   .GAPI  : GAMMA RAY FROM SONIC LOG [ADJ. TO RESISTIVITY LOG]
GRWS    .GAPI  : GAMMA RAY [GRSED SPL. TO GRDED @ 1007']
ILDED   .OHMM  : DEEP INDUCTION RESISTIVITY FROM RESISTIVITY LOG
ILMED   .OHMM  : MEDIUM INDUCTION RESISTIVITY FROM RESISTIVITY LOG
LL8ED   .OHMM  : LATEROLOG 8 FROM RESISTIVITY LOG
MRESWS  .OHMM  : MEDIUM RESISTIVITY [ILMED]
NPHILSED.V/V   : NEUTRON POROSITY LIMESTONE FROM DENSITY LOG [ADJ. TO RESISTIVITY LOG]
NPHISSED.V/V   : NEUTRON POROSITY SANDSTONE FROM DENSITY LOG [ADJ. TO RESISTIVITY LOG]
NPOLSWS .V/V   : NEUTRON POROSITY LIMESTONE [NPHISSED MATRIX CONVERSION FOR LIMESTONE, SPL. TO NPHILSED @5597']
RHOBED  .G/C3  : BULK DENSITY FROM DENSITY LOG [ADJ. TO RESISTIVITY LOG/NPHILSED/NPHISSED/DPHILSED/DPHISSED]
SPRED   .MV    : SPONTANEOUS POTENTIAL FROM RESISTIVITY LOG
SPWS    .MV    : SPONTANEOUS POTENTIAL [BASELINE 0 MV,SPRED]
SRESWS  .OHMM  : SHALLOW RESISTIVITY [LL8ED]
~Params ----------------------------------------------------
PD  .                     GL : PERMANENT DATUM
EPD .FT                 2835 : ELEVATION PERMANENT DATUM
LMF .                     KB : LOG MEASURED FROM
DAPD.FT                 14.6 : FEET ABOVE PERMANENT DATUM
EKB .FT               2849.6 : KELLY BUSHING
EGL .FT               2835.0 : GROUND LEVEL
DATE.               01/15/77 : RUN DATE
RUN .                      1 : RUN NUMBER
DD  .FT                 9200 : DEPTH DRILLER
DL  .FT                 9205 : DEPTH LOGGER
BLI .FT                 9204 : BOTTOM LOG INTERVAL
TLI .FT                 1012 : TOP LOG INTERVAL
CBD .FT                 1015 : CASING BOTTOM DRILLER
CBL .FT                 1012 : CASING BOTTOM LOGGER
BS  .IN                 8.25 : BIT SIZE
BSD .FT                 9200 : BIT SIZE AT DEPTH
DFT .                    GEL : DRILLING FLUID TYPE
DFD .                    9.1 : DRILLING FLUID DENSITY
DFV .                    105 : DRILLING FLUID VISCOSITY
DFPH.                    9.5 : DRILLING FLUID PH
RMS .OHMM               3.85 : RESISTIVITY MUD SAMPLE
MST .DEGF                 48 : MUD SAMPLE TEMPERATURE
RMF .OHMM               3.25 : RESISTIVITY MUD FILTRATE SAMPLE
MFST.DEGF                 62 : MUD FILTRATE SAMPLE TEMPERATURE
TCS .HRS                   8 : TIME CIRCULATED STOPPED
LUN .                   7802 : LOGGING UNIT NUMBER
LUL .                    EDM : LOGGING UNIT LOCATION
ENGI.                   PIHM : RECORDING ENGINEER
WITN.            PHILLIPCHUK : WITNESSED BY
CLNT.                A2DTECH : CLIENT CODE
ORIG.            2" 5" PRINT : ORIGIN OF DATA
UWI .       100112606214W500 : UNIQUE WELL ID
DICO. A2D Technologies, Inc. : DIGITIZING COMPANY
~Other -----------------------------------------------------
DIL-CNFD-BHC LOG RUN.
RHOB & DRHO VERIFYED FROM 2" OF SCALE
~ASCII -----------------------------------------------------
# ...
 7500.00000    9.27760    9.86500    9.27760   14.12050    0.00650    2.69820    0.00690    -999.25    0.00690   70.81910    0.00650   54.21690   54.21690   40.91910   50.79880   40.91910   70.81910   48.54460   57.31790   48.54460    0.04170    -999.25    0.04170    2.69760  -96.57500  -12.30860   57.31790
 7550.00000    9.26720    9.84940    9.26720    4.69730    0.01370    2.67410    0.02100    -999.25    0.02100  213.17110    0.01370   52.34100   52.34100   36.00310   38.01610   36.00310  213.17110  113.32740  157.83180  113.32740    0.01610    -999.25    0.01610    2.67840  -92.42070   -8.83240  157.83180
 7600.00000    9.24920    9.82410    9.24920   10.98250    0.02020    2.70140    0.00500    -999.25    0.00500   91.05390    0.02020   53.80010   53.80010   33.51940   39.95880   33.51940   91.05390   65.64910   76.07610   65.64910    0.01940    -999.25    0.01940    2.70670  -94.74500  -11.84150   76.07610
 7650.00000    9.29900    9.88040    9.29900   24.61500    0.02150    2.70730    0.00160    -999.25    0.00160   40.62570    0.02150   55.38860   55.38860   35.98750   44.18420   35.98750   40.62570   35.41340   44.77660   35.41340    0.02910    -999.25    0.02910    2.70830  -89.70870   -7.48670   44.77660
 7700.00000    9.45120    9.88610    9.45120   60.68960    0.00420    2.64470    0.03820    -999.25    0.03820   16.47730    0.00420   59.76570   59.76570   52.67520   57.87220   52.67520   16.47730   15.74650   19.73790   15.74650    0.06010    -999.25    0.06010    2.64350  -88.27990   -6.73930   19.73790
 7750.00000    9.96620   10.18410    9.96620  113.45590    0.02260    2.61530    0.05540    -999.25    0.05540    8.81400    0.02260   67.35020   67.35020   64.22040   81.53590   64.22040    8.81400    8.64430   10.12480    8.64430    0.10740    -999.25    0.10740    2.63770  -84.45910   -3.60000   10.12480
 7800.00000   10.13990   10.20960   10.13990  160.62290    0.03300    2.61480    0.05570    -999.25    0.05570    6.22870    0.03300   71.82410   71.82410   76.07890   90.08100   76.07890    6.22870    5.92360    7.24090    5.92360    0.17720    -999.25    0.17720    2.61150  -89.20390   -9.02280    7.24090
 7850.00000    9.69620   10.03680    9.69620   89.85610    0.00030    2.65480    0.03230    -999.25    0.03230   11.12890    0.00030   63.06960   63.06960   60.14370   74.83550   60.14370   11.12890   10.39650   13.80380   10.39650    0.09980    -999.25    0.09980    2.65370  -83.91730   -4.42110   13.80380
 7900.00000   14.44930   11.29790   14.44930  158.77050    0.21090    2.51710    0.11280    -999.25    0.11280    6.29840    0.21090   72.60870   72.60870   68.34280   82.37010   68.34280    6.29840    6.12450    7.56010    6.12450    0.23390    -999.25    0.23390    2.52290 -101.29080  -22.09300    7.56010
 7950.00000    9.68450   10.03530    9.68450   70.01870    0.00930    2.60530    0.06120    -999.25    0.06120   14.28190    0.00930   72.97350   72.97350   91.36440  107.74160   91.36440   14.28190   13.74560   16.43070   13.74560    0.19360    -999.25    0.19360    2.60340  -85.78810   -6.81020   16.43070
 8000.00000    9.42250    9.98680    9.42250   65.69650    0.20710    2.61120    0.05780    -999.25    0.05780   15.22150    0.20710   59.87800   59.87800   57.31630   64.22940   57.31630   15.22150   15.38140   25.52690   15.38140    0.08030    -999.25    0.08030    2.61540  -85.63780   -6.87990   25.52690
 8050.00000   11.85550   10.82980   11.85550  113.02770    0.17770    2.54310    0.09760    -999.25    0.09760    8.84840    0.17770   68.09400   68.09400   54.40150   69.78400   54.40150    8.84840    8.46140   10.43570    8.46140    0.15470    -999.25    0.15470    2.54760  -93.14640  -14.60730   10.43570
 8100.00000   15.63480   13.16400   15.63480  212.12510    0.12460    2.32950    0.22250    -999.25    0.22250    4.71420    0.12460   81.67340   81.67340   80.44240  104.24730   80.44240    4.71420    4.46050    5.85210    4.46050    0.34950    -999.25    0.34950    2.33820  -95.28980  -16.97170    5.85210
 8150.00000   12.18560   11.04060   12.18560  117.35710    0.04430    2.58790    0.07140    -999.25    0.07140    8.52100    0.04430   67.01210   67.01210   77.30590   92.33670   77.30590    8.52100    8.02960   12.49210    8.02960    0.16910    -999.25    0.16910    2.55830  -85.18430   -7.08620   12.49210
 8200.00000   10.22440   10.29370   10.22440  132.07420    0.24940    2.53440    0.10270    -999.25    0.10270    7.57150    0.24940   71.49210   71.49210   85.58080  101.17360   85.58080    7.57150    7.30810    8.95800    7.30810    0.18380    -999.25    0.18380    2.54270  -91.35260  -13.79490    8.95800
 8250.00000   10.40060   10.09510   10.40060  117.07410    0.11020    2.66280    0.02760    -999.25    0.02760    8.54160    0.11020   67.75570   67.75570   87.41590  106.39220   87.41590    8.54160    8.13760   10.85110    8.13760    0.15980    -999.25    0.15980    2.66470  -82.53280   -5.95800   10.85110
 8300.00000    9.44420   10.13320    9.44420   78.81180    0.02860    2.62640    0.04890    -999.25    0.04890   12.68850    0.02860   63.20770   63.20770   64.52150   82.41390   64.52150   12.68850   12.01180   16.80810   12.01180    0.11050    -999.25    0.11050    2.62920  -77.63850   -2.04180   16.80810
 8350.00000   13.30050   11.63780   13.30050  190.03820    0.19400    2.54530    0.09630    -999.25    0.09630    5.26210    0.19400   77.09070   77.09070   95.78740  114.54010   95.78740    5.26210    5.08250    6.59060    5.08250    0.24940    -999.25    0.24940    2.50930 -105.13370  -30.52480    6.59060
 8400.00000   10.94060   10.30750   10.94060  145.30450    0.16620    2.58530    0.07290    -999.25    0.07290    6.88210    0.16620   74.07280   74.07280  108.28320  119.89600  108.28320    6.88210    6.61170    8.98010    6.61170    0.20070    -999.25    0.20070    2.60080  -91.55140  -18.02060    8.98010
 8450.00000   11.79900   10.49340   11.79900  176.71280    0.14770    2.58740    0.07170    -999.25    0.07170    5.65890    0.14770   76.55790   76.55790  101.77880  121.06060  101.77880    5.65890    5.43110    7.38760    5.43110    0.20850    -999.25    0.20850    2.59770  -95.46960  -26.09100    7.38760
 8500.00000   12.51210   11.21510   12.51210  208.74210    0.18190    2.59990    0.06440    -999.25    0.06440    4.79060    0.18190   78.19670   78.19670   96.02140  109.52050   96.02140    4.79060    4.57480    6.49960    4.57480    0.23230    -999.25    0.23230    2.61060  -98.34670  -33.12030    6.49960
 8550.00000   12.91120   11.57450   12.91120  229.67430    0.15360    2.58530    0.07300    -999.25    0.07300    4.35400    0.15360   84.41440   84.41440  116.09800  139.09860  116.09800    4.35400    4.22160    5.69610    4.22160    0.27170    -999.25    0.27170    2.58480 -104.05410  -42.95930    5.69610
 8600.00000   11.07600   10.48450   11.07600  223.21930    0.15680    2.60890    0.05910    -999.25    0.05910    4.47990    0.15680   79.80050   79.80050  104.40670  129.63130  104.40670    4.47990    4.29040    6.14910    4.29040    0.22700    -999.25    0.22700    2.60130  -94.05800  -37.13610    6.14910
 8650.00000    8.91790    9.81850    8.91790   19.45720    0.01030    2.56160    0.08680    -999.25    0.08680   51.39490    0.01030   75.17970   75.17970   90.84730  112.65730   90.84730   51.39490   47.00060   67.97650   47.00060    0.14520    -999.25    0.14520    2.56570  -58.34710   -4.77100   67.97650
 8700.00000    8.87960    9.78450    8.87960   23.82180    0.00050    2.63900    0.04150    -999.25    0.04150   41.97840    0.00050   59.80200   59.80200   46.22510   55.94050   46.22510   41.97840   40.67020   62.76190   40.67020    0.07280    -999.25    0.07280    2.62750  -60.78430   -8.25870   62.76190
 8750.00000   10.64660   10.65340   10.64660  171.46190    0.15000    2.58470    0.07330    -999.25    0.07330    5.83220    0.15000   77.25520   77.25520  102.19210  122.90550  102.19210    5.83220    5.96740    7.68360    5.96740    0.18180    -999.25    0.18180    2.59420  -82.70640  -31.23130    7.68360
