~Version ---------------------------------------------------
VERS.      2.0 : CWLS log ASCII Standard -VERSION 2.0
WRAP.       NO : One line per depth step
CREA. 09/04/14 : LAS Creation Date
~Well ------------------------------------------------------
STRT.FT                      650.0 : START DEPTH
STOP.FT                    10650.0 : STOP DEPTH
STEP.FT                   50.00000 : STEP LENGTH
NULL.                      -999.25 : NULL VALUE
COMP.              SUN OIL COMPANY : COMPANY
WELL. SUN SHELL ROSEVEAR 6-6-55-14 : WELL
FLD .                              : FIELD
LOC .                              : LOCATION
CTRY.                       CANADA : COUNTRY
SRVC.       Schlumberger of Canada : SERVICE COMPANY
DATE.                  23-Jun-1971 : LOGDATE
PROV.                      Alberta : PROVINCE
UWI .             100060605514W500 : UNIQUE WELL ID
SLAT.WGS84                53.72017 : SURFACE LATITUDE
SLON.WGS84                -116.074 : SURFACE LONGITUDE
~Curve Information -----------------------------------------
DEPT   .FT                : Depth Curve
CALD   .IN   45 280 00 00 : CALIPER FROM DENSITY LOG
CALN   .IN   41 280 60 00 : CALIPER FROM NEUTRON LOG
CALS   .IN   60 280 50 00 : CALIPER FROM SONIC LOG
CILD   .MMHO 07 110 46 00 : INDUCTION DEEP CONDUCTIVITY
CORR   .G/C3 45 356 01 00 : DENSITY CORRECTION
DPHI_LS.DEC  45 890 10 00 : DENSITY POROSITY LIMESTONE
DPHI_SS.DEC  45 890 12 00 : DENSITY POROSITY SANDSTONE
DT     .US/F 60 500 00 00 : DELTA-T (INTERVAL TRANSIT TIME)
GRN    .GAPI 41 310 01 00 : GAMMA RAY FROM GRN LOG
GRS    .GAPI 60 310 01 00 : GAMMA RAY FROM SONIC LOG
ILD    .OHMM 07 120 46 00 : INDUCTION DEEP RESISTIVITY
ILM    .OHMM 07 120 44 00 : INDUCTION MEDIUM RESISTIVITY
LL8    .OHMM 07 220 08 00 : LATEROLOG 8
RHOB   .G/C3 45 350 01 00 : BULK DENSITY
SNP1   .DEC  41 890 01 00 : 
SNP_LS .DEC  41 890 01 00 : SIDEWALL NEUTRON POROSITY [LIMESTONE]
SPR    .MV   07 010 01 00 : SPONTANEOUS POTENTIAL FROM RESISTIVITY LOG
~Params ----------------------------------------------------
PD  .                     GL : PERMANENT DATUM
EPD .FT                 2803 : ELEVATION PERMANENT DATUM
LMF .                     KB : LOG MEASURED FROM
DAPD.FT                   13 : FEET ABOVE PERMANENT DATUM
EKB .FT                 2816 : KELLY BUSHING
EGL .FT                 2803 : GROUND LEVEL
DATE.               07/14/71 : RUN DATE
RUN .                      2 : RUN NUMBER
DD  .FT                10687 : DEPTH DRILLER
DL  .FT                10692 : DEPTH LOGGER
BLI .FT                10686 : BOTTOM LOG INTERVAL
TLI .FT                 5078 : TOP LOG INTERVAL
CBD .FT                 5077 : CASING BOTTOM DRILLER
CBL .FT                 5078 : CASING BOTTOM LOGGER
BS  .IN                 8.75 : BIT SIZE
BSD .FT                10687 : BIT SIZE AT DEPTH
DFT .               GEL CHEM : DRILLING FLUID TYPE
DFD .                    9.8 : DRILLING FLUID DENSITY
DFV .                     80 : DRILLING FLUID VISCOSITY
DFPH.                     10 : DRILLING FLUID PH
DFL .                   10.2 : DRILLING FLUID LOSS
MSS .               FLOWLINE : MUD SAMPLE SOURCE
RMS .OHMM               2.12 : RESISTIVITY MUD SAMPLE
MST .DEGF                 76 : MUD SAMPLE TEMPERATURE
RMF .OHMM               1.66 : RESISTIVITY MUD FILTRATE SAMPLE
MFST.DEGF                 76 : MUD FILTRATE SAMPLE TEMPERATURE
RMB .OHMM               0.62 : RESISTIVITY MUD AT BHT
TCS .HRS                 3.5 : TIME CIRCULATED STOPPED
LUN .                   5628 : LOGGING UNIT NUMBER
LUL .                    EDM : LOGGING UNIT LOCATION
ENGI.                 HUTZAL : RECORDING ENGINEER
WITN.                   HERB : WITNESSED BY
CLNT.                A2DTECH : CLIENT CODE
ORIG.            2" 5" PRINT : ORIGIN OF DATA
UWI .       100060605514W500 : UNIQUE WELL ID
DICO. A2D Technologies, Inc. : DIGITIZING COMPANY
~Other -----------------------------------------------------
~ASCII -----------------------------------------------------
# ...
 8850.00000   13.06490   12.79020    9.28630    -999.25    0.21600    0.23910    -999.25   49.98740   28.20800   34.98880   82.30900   84.80290   55.20150    2.30180    0.13150    0.25420 -114.82170
 8900.00000   12.30580   11.36040    9.38870    -999.25    -999.25    0.08210    -999.25   51.59660   26.25090   25.34910  122.08150  110.10720   87.88110    2.57470    0.08800    0.20450 -101.85170
 8950.00000    9.16260    9.01810    8.94500    -999.25    0.04650   -0.06260    -999.25   52.77920   27.74550   32.32380  119.79070  213.40600  219.50120    2.80030   -0.09000    0.02910  -23.50280
 9000.00000    9.10110    9.10580    8.92480    -999.25    0.04730   -0.00880    -999.25   56.11430   35.29810   38.44040   40.23280   50.36280   59.81020    2.73560   -0.08170    0.03620  -26.19840
 9050.00000    9.42850    9.50770    9.31540    -999.25    0.04380   -0.02220    -999.25   65.56940   58.63220   60.07780   10.93290   11.94430   14.63150    2.76010   -0.04340    0.07400  -25.66400
 9100.00000    9.09610    9.20320    9.02770    -999.25    0.02660   -0.02690    -999.25   61.06680   46.87250   50.44520   42.21350   52.96180   25.37340    2.74020   -0.05440    0.06280  -30.46520
 9150.00000    9.08210    9.22120    8.77860    -999.25    0.02670   -0.01700    -999.25   59.96580   50.24350   43.90300   23.84500   28.33280   32.45300    2.74620   -0.04720    0.06970  -38.00400
 9200.00000   14.59760   14.81720   10.07610    -999.25    0.23140    0.13810    -999.25   75.98800   81.92510   79.40570    5.30510    5.89740    8.17130    2.32330    0.21600    0.29950  -35.25760
 9250.00000    9.03320    9.18620    9.00860    -999.25    0.02360    0.01710    -999.25   69.04880   72.97850   72.62860   44.74810   60.69790   72.63710    2.70060    0.01070    0.12590  -39.47190
 9300.00000    9.66210   10.18690    9.38190    -999.25    0.24710    0.09720    -999.25   68.13760   79.44140   56.55850   10.18600    9.00390   13.51780    2.61590    0.07300    0.18670  -50.24340
 9350.00000   14.25400   14.14710   11.16000    -999.25    0.24200    0.16850    -999.25   79.05860   82.38470   80.76020    6.06670    6.25500    8.56350    2.42670    0.23460    -999.25  -50.40500
 9400.00000    8.99850    9.28730    8.92800    -999.25    0.03630   -0.03070    -999.25   55.11910   40.78400   38.29850   43.96140   60.33100   77.87760    2.77410   -0.08070    0.03770  -43.23150
 9450.00000    9.08370   10.42110    9.06960    -999.25    0.02310   -0.03170    -999.25   66.49130   78.94680   68.09820    9.57050   10.42510   13.52030    2.75020    0.08140    0.19860  -42.26030
 9500.00000    9.14720    9.28830    8.95200    -999.25    0.03880   -0.05510    -999.25   64.95760   76.45200   69.49660   12.86170   14.53090   18.83870    2.78550   -0.01770    0.09740  -39.15500
 9550.00000    8.96520    9.13810    8.92890    -999.25    0.03810   -0.02010    -999.25   65.63830   63.29120   67.70950   15.70440   18.30070   24.05450    2.72440   -0.02110    0.09370  -40.77050
 9600.00000    9.02290    9.23490    8.93200    -999.25    0.05710   -0.06230    -999.25   68.22580   68.49620   71.98930    9.93470   11.01580   13.72610    2.79560    0.00470    0.11070  -44.16870
 9650.00000    9.00770    9.88290    9.22880    -999.25    0.02230   -0.02290    -999.25   69.91800   75.90900   78.64710    8.73760    9.85590   13.37850    2.73170    0.08930    0.20950  -41.84590
 9700.00000    9.02650    9.14680    9.13980    -999.25    0.01410   -0.01610    -999.25   70.32500   91.81100   85.10260    9.78280   10.87540   14.37460    2.73750    0.02170    0.13710  -41.15020
 9750.00000    8.94380    9.62880    8.87720    -999.25    0.03640   -0.02720    -999.25   65.75530   73.19110   68.17710    8.65140    9.97330   13.49720    2.74340    0.02170    0.13690  -39.96110
 9800.00000    8.93430    9.05850    8.80860    -999.25    0.04370   -0.03270    -999.25   68.60950   80.27260   79.35490   10.41950   11.97690   15.81330    2.77600    0.01020    0.12570  -36.48330
 9850.00000    8.93940    9.11660    8.77700    -999.25    0.01170   -0.02900    -999.25   65.47020   82.99580   74.56710   10.31210   12.10260   15.94540    2.74940   -0.00080    0.11500  -35.43110
 9900.00000    8.92660    8.96750    8.75430    -999.25    0.02170   -0.01500    -999.25   60.03700   45.10780   49.89800   26.46290   34.11670   46.58920    2.73510   -0.06110    0.05610  -33.31710
 9950.00000    9.02350    9.09770    8.76710    -999.25    0.01620   -0.01540    -999.25   63.61760   72.92540   61.93620   12.66770   14.65810   19.84770    2.71850   -0.01810    0.09760  -33.50340
 10000.00000    8.82530    9.02780    8.74080    -999.25    0.03770    0.05240    -999.25   68.07410   65.75700   77.53100  279.49650 1653.60740 1428.65770    2.60340   -0.04140    0.07400  -40.45790
 10050.00000    9.39110    9.46110    8.75380    -999.25    0.09120    0.10500    -999.25   83.83340  122.38620  155.07830   20.14710   23.79400   30.93740    2.56930    0.08530    0.20500  -45.35890
 10100.00000    9.63620    9.72850    8.94740    -999.25    0.16920    0.07600    -999.25   74.75280   92.29700  101.77310   14.95160   16.18330   22.60490    2.59330    0.09650    0.21700    -999.25
 10150.00000    8.83360    8.96670    8.76070    -999.25    0.04620   -0.03790    -999.25   49.41030    9.63790   12.09980 1528.22380 1702.76860 1386.23430    2.78390    -999.25    0.00870 -108.99810
 10200.00000    8.78570   10.18430    8.77600    -999.25    0.04990   -0.03850    -999.25   48.93270   11.36740   10.05580 1562.86360 1728.86850 1419.80770    2.77550   -0.06740    0.04770 -119.42320
 10250.00000    8.80330    8.94900    8.77560    -999.25    0.03530   -0.02590    -999.25   48.15050    8.62610    9.64220 1597.40450 1729.89290 1417.13990    2.74860    -999.25    0.01120  -81.69550
 10300.00000    9.61890    9.69310    8.76740    -999.25    0.20000    0.01670    -999.25   48.90650   11.54660    9.48190  183.47990  185.96250  352.99520    2.70850   -0.10310    0.01650  -71.35450
 10350.00000    8.81060    9.01110    8.91660    -999.25    0.04950   -0.02590    -999.25   49.39110   14.88270   13.82720   91.34560   84.48000  112.71050    2.73810   -0.09460    0.02390 -103.02350
 10400.00000    8.90140    9.07570    8.78920    -999.25    0.04660   -0.02960    -999.25   49.01750   21.00650   13.28620 1434.76950 1695.01640 1378.01170    2.74720   -0.10300    0.01430 -109.09650
 10450.00000    9.29640    9.39700    8.76250    -999.25    0.23760   -0.03240    -999.25   49.38410   15.26700   14.44690 1556.59670 1628.02150 1402.98030    2.79180   -0.09920    0.01950  -92.26430
 10500.00000    9.72390    9.97160    9.20900    -999.25    0.25060   -0.02540    -999.25   49.07420   15.77410   17.68830 1600.08580 1778.13880 1409.96110    2.72410   -0.08610    0.02740  -92.29690
 10550.00000    8.82380    9.00650    8.75250    -999.25    0.01940   -0.04800    -999.25   52.05210   51.00850   59.87460  308.05070 1668.67150  441.18850    2.78730   -0.07930    0.03860  -55.65810
 10600.00000    8.30060    8.24040    8.30710    -999.25    0.12280    0.10340    -999.25   62.92090   31.86840   29.91340    1.95440    2.92220   19.15250    2.56240    0.00250    0.11680 -153.50870
 10650.00000    8.73640    8.87100    8.74500    -999.25    0.06420   -0.03050    -999.25   56.74980  104.09630   89.73380   34.17550   40.57210   55.17000    2.76020   -0.06120    0.05470  -22.25720
