~Version ---------------------------------------------------
VERS.      2.0 : CWLS log ASCII Standard -VERSION 2.0
WRAP.       NO : One line per depth step
CREA. 09/28/17 : LAS Creation Date
~Well ------------------------------------------------------
STRT.FT                        750.0 : START DEPTH
STOP.FT                       7150.0 : STOP DEPTH
STEP.FT                     50.00000 : STEP LENGTH
NULL.                        -999.25 : NULL VALUE
COMP.     ALTANA EXPLORATION COMPANY : COMPANY
WELL. ALTANA ET AL KIRKPAT 2-4-30-21 : WELL
FLD .                                : FIELD
LOC .                                : LOCATION
CTRY.                         CANADA : COUNTRY
SRVC.                     Lane Wells : SERVICE COMPANY
DATE.                    31-Mar-1964 : LOGDATE
PROV.                        Alberta : PROVINCE
UWI .               100020403021W400 : UNIQUE WELL ID
SLAT.WGS84                  51.53364 : SURFACE LATITUDE
SLON.WGS84                 -112.8956 : SURFACE LONGITUDE
~Curve Information -----------------------------------------
DEPT  .FT    : Depth Curve
ACED  .US/F  : ACOUSTIC 3'  SPACING  FROM SONIC LOG
CALSED.IN    : CALIPER FROM SONIC LOG
CALWS .IN    : CALIPAR [CALSED]
CILDED.MMHO  : INDUCTION DEEP CONDUCTIVITY FROM RESISTIVITY LOG
CONDWS.MMHO  : CONDUCTIVITY [1000/DRESWS]
DRESWS.OHMM  : DEEP RESISTIVITY [1000/CILDED IF ILDED < 5, ILDED]
DTWS  .US/F  : COMPRESSIONAL SONIC [ACED]
GRSED .GAPI  : GAMMA RAY FROM SONIC LOG
GRWS  .GAPI  : GAMMA RAY [GRSED]
ILDED .OHMM  : INDUCTION DEEP FROM RESISTIVITY LOG
SNED  .OHMM  : SHORT NORMAL FROM RESISTIVITY LOG
SPRED .MV    : SPONTANEOUS POTENTIAL FROM RESISTIVITY LOG
SPWS  .MV    : SPONTANEOUS POTENTIAL [BASELNE 0 MV, SPRED]
SRESWS.OHMM  : SHALLOW RESISTIVITY [SNED]
~Params ----------------------------------------------------
LMF .                         KB : LOG MEASURED FROM
DAPD.FT                       12 : FEET ABOVE PERMANENT DATUM
DMF .                         KB : DRILLING MEASURED FROM
EKB .FT                     2303 : KELLY BUSHING
EGL .FT                     2291 : GROUND LEVEL
DATE.                   03/31/64 : RUN DATE
RUN .                          1 : RUN NUMBER
DD  .FT                     7160 : DEPTH DRILLER
DL  .FT                     7162 : DEPTH LOGGER
BLI .FT                     7158 : BOTTOM LOG INTERVAL
TLI .FT                      729 : TOP LOG INTERVAL
CS  .IN                    10.75 : CASING SIZE
CBD .FT                      729 : CASING BOTTOM DRILLER
CBL .FT                      729 : CASING BOTTOM LOGGER
BS  .IN                    7.875 : BIT SIZE
BSD .FT                     7160 : BIT SIZE AT DEPTH
DFT . MUD FERRO LIGNO SULPHONATE : DRILLING FLUID TYPE
DFD .                        9.6 : DRILLING FLUID DENSITY
DFV .                        128 : DRILLING FLUID VISCOSITY
DFPH.                        9.2 : DRILLING FLUID PH
DFL .                        4.9 : DRILLING FLUID LOSS
MSS .                       CIRC : MUD SAMPLE SOURCE
RMS .OHMM                    1.0 : RESISTIVITY MUD SAMPLE
MST .DEGF                     64 : MUD SAMPLE TEMPERATURE
RMF .OHMM                   0.04 : RESISTIVITY MUD FILTRATE SAMPLE
MFST.DEGF                     60 : MUD FILTRATE SAMPLE TEMPERATURE
RMC .OHMM                   0.01 : RESISTIVITY MUD CAKE
MCST.DEGF                     64 : MUD CAKE SAMPLE TEMPERATURE
MFSS.                       MEAS : MUD FILTRATE SAMPLE SOURCE
MCSS.                       MEAS : MUD CAKE SAMPLE SOURCE
RMB .OHMM                    0.5 : RESISTIVITY MUD AT BHT
TCS .HRS                       5 : TIME CIRCULATED STOPPED
LUN .                       8039 : LOGGING UNIT NUMBER
LUL .                        W C : LOGGING UNIT LOCATION
ENGI.                  MCFADZEAN : RECORDING ENGINEER
WITN.                   SERAFINI : WITNESSED BY
CLNT.                    A2DTECH : CLIENT CODE
ORIG.                2" 5" PRINT : ORIGIN OF DATA
UWI .           100020403021W400 : UNIQUE WELL ID
DICO.     A2D Technologies, Inc. : DIGITIZING COMPANY
~Other -----------------------------------------------------
~ASCII -----------------------------------------------------
# ...
 5650.00000   69.68840    7.67740    7.67740  201.52850  170.20410    5.87530   69.68840   17.22690   17.22690    5.87530   12.76070  -98.75090  -77.37440   12.76070
 5700.00000   68.50600    7.59890    7.59890  129.96130  117.33100    8.52290   68.50600   15.84310   15.84310    8.52290   18.20870  -89.99660  -69.11660   18.20870
 5750.00000   66.30890    7.53010    7.53010   29.69670   33.30240   30.02790   66.30890   14.42690   14.42690   30.02790   36.62950  -80.89190  -60.50510   36.62950
 5800.00000   58.08290    7.48950    7.48950   78.82420   74.07630   13.49960   58.08290   11.41980   11.41980   13.49960   43.42880  -79.69340  -59.79990   43.42880
 5850.00000   62.81320    7.49700    7.49700   82.20930   79.01770   12.65540   62.81320   14.62450   14.62450   12.65540   29.55350  -89.12850  -69.73140   29.55350
 5900.00000   66.64890    7.60600    7.60600   33.92870   37.08000   26.96870   66.64890   13.66490   13.66490   26.96870   59.14230  -79.42490  -60.52100   59.14230
 5950.00000   63.99430    7.35760    7.35760   86.16400   79.60770   12.56160   63.99430   12.60360   12.60360   12.56160   37.40070  -89.19410  -70.78670   37.40070
 6000.00000   63.68190    7.35460    7.35460   77.33710   74.63130   13.39920   63.68190   13.24420   13.24420   13.39920   35.23210  -89.16070  -71.24650   35.23210
 6050.00000   56.90320    7.80180    7.80180   21.49350   25.03140   39.94990   56.90320   18.51860   18.51860   39.94990   95.42600  -85.99990  -68.57890   95.42600
 6100.00000   64.00430    7.46940    7.46940   19.84900   25.65670   38.97610   64.00430   20.99670   20.99670   38.97610   77.80110  -89.41130  -72.48680   77.80110
 6150.00000   54.42020    7.87270    7.87270    3.49940    4.89200  204.41620   54.42020   19.08680   19.08680  204.41620  146.40560  -66.84380  -50.41250  146.40560
 6200.00000   60.04680    8.12140    8.12140    4.78820    6.82690  146.47920   60.04680   31.31570   31.31570  146.47920  118.10010  -35.90310  -19.96820  118.10010
 6250.00000   67.50730    7.92880    7.92880    3.92460    5.94510  168.20550   67.50730   21.69340   21.69340  168.20550  147.78880  -46.35650  -29.65430  147.78880
 6300.00000   54.10040    8.10490    8.10490    3.94600    6.73790  148.41430   54.10040   15.12140   15.12140  148.41430  147.21840  -55.43260  -37.39870  147.21840
 6350.00000   57.05070    7.92010    7.92010    6.84610    8.39110  119.17330   57.05070   17.50240   17.50240  119.17330  126.37840  -40.84180  -21.46740  126.37840
 6400.00000   61.29000    8.08570    8.08570   21.76520   26.35410   37.94470   61.29000   20.11030   20.11030   37.94470   65.78860  -61.33980  -40.63370   65.78860
 6450.00000   66.63410    8.10710    8.10710   13.96210   17.86530   55.97430   66.63410   59.62190   59.62190   55.97430   72.12100  -33.06290  -11.01630   72.12100
 6500.00000   74.54320    8.20120    8.20120   19.89640   24.35600   41.05770   74.54320   71.41170   71.41170   41.05770   62.97030  -51.09810  -27.71980   62.97030
 6550.00000   57.64410    8.05000    8.05000    4.63620    8.01160  124.81890   57.64410   21.52390   21.52390  124.81890   96.82460  -73.19240  -48.48240   96.82460
 6600.00000   59.20830    8.05900    8.05900   15.66090   20.33590   49.17410   59.20830   27.88970   27.88970   49.17410   60.26520  -70.17260  -44.12210   60.26520
 6650.00000   59.33660    8.30210    8.30210    6.60610   10.33480   96.76010   59.33660   17.47830   17.47830   96.76010   95.90620  -66.01160  -38.62940   95.90620
 6700.00000   61.44010    8.11280    8.11280   14.47450   16.48020   60.67900   61.44010   33.79840   33.79840   60.67900   79.36150  -44.83380  -16.11110   79.36150
 6750.00000   58.54620    8.04760    8.04760   12.66750   15.61950   64.02240   58.54620   11.79060   11.79060   64.02240  110.87440  -39.34750   -9.29310  110.87440
 6800.00000   77.21070    7.39300    7.39300  644.38430  644.38430    1.55190   77.21070   14.49360   14.49360    2.88520   10.85020  -77.61080  -46.22470   10.85020
 6850.00000   57.83520    8.05370    8.05370   22.87200   28.42670   35.17820   57.83520   16.96970   16.96970   35.17820   43.25470  -68.90230  -36.17560   43.25470
 6900.00000   60.27140    8.08350    8.08350    4.71490    6.59130  151.71420   60.27140   34.89480   34.89480  151.71420  158.04990  -57.56710  -23.50880  158.04990
 6950.00000   59.24900    8.05330    8.05330    1.75070    5.39180  185.46600   59.24900   21.60660   21.60660  185.46600  171.69650  -73.40270  -38.00390  171.69650
 7000.00000   64.36320    8.01420    8.01420   26.74340   30.44890   32.84190   64.36320   83.78790   83.78790   32.84190   46.22240  -67.35010  -30.61960   46.22240
 7050.00000   66.56020    8.01930    8.01930   17.82500   22.99380   43.48990   66.56020   21.89230   21.89230   43.48990   77.34840  -45.24840   -7.18620   77.34840
 7100.00000   66.29940    7.97860    7.97860   30.03630   33.81050   29.57660   66.29940   56.30280   56.30280   29.57660   62.83960  -79.60080  -29.13580   62.83960
 7150.00000  118.01620    8.00160    8.00160  174.84070  145.98750    6.84990  118.01620  170.43660  170.43660    6.84990   10.66230  -63.92110   -5.32420   10.66230
