~Version ---------------------------------------------------
VERS. 2.0 : CWLS log ASCII Standard -VERSION 2.0
WRAP.  NO : ONE LINE PER DEPTH STEP
~Well ------------------------------------------------------
STRT.F                         300.0 : START DEPTH
STOP.F                       17800.0 : STOP DEPTH
STEP.F                      50.00000 : STEP LENGTH
NULL.                        -999.25 : NULL VALUE
COMP.           BPOG OPERATIONS LTD. : COMPANY
WELL. BP MOBIL CREE ROUGH 4-21-38-12 : WELL
FLD .                                : FIELD
LOC .                                : LOCATION
CTRY.                         CANADA : COUNTRY
SRVC.                   Schlumberger : SERVICE COMPANY
DATE.                    26-Oct-1973 : LOGDATE
PROV.                        Alberta : PROVINCE
UWI .               100042103812W500 : UNIQUE WELL ID
SLAT.WGS84                  52.27739 : SURFACE LATITUDE
SLON.WGS84                 -115.6641 : SURFACE LONGITUDE
~Curve Information -----------------------------------------
DEPT.F    0   1   0  0 : 1 MEASURED DEPTH
NEUT.CU   35 330 22 00 : NEUTRON
GRN .CU   35 310 22 00 : GAMMA RAY FROM GRN LOG
ILD .OHMM 07 120 46 00 : INDUCTION DEEP RESISTIVITY
ILM .OHMM 07 120 44 00 : INDUCTION MEDIUM RESISTIVITY
LL8 .OHMM 07 220 08 00 : LATEROLOG 8
SPR .MV   07 010 01 00 : SPONTANEOUS POTENTIAL FROM RESISTIVITY LOG
CILD.MMHO 05 110 46 00 : INDUCTION DEEP CONDUCTIVITY
SN  .OHMM 05 040 16 00 : SHORT NORMAL RESISTIVITY
CALS.IN   60 280 50 00 : CALIPER FROM SONIC LOG
DT  .US/F 60 500 00 00 : DELTA-T (INTERVAL TRANSIT TIME)
GRS .GAPI 60 310 01 00 : GAMMA RAY FROM SONIC LOG
~Params ----------------------------------------------------
PD  .                     GL : PERMANENT DATUM
EPD .FT                 5371 : ELEVATION PERMANENT DATUM
LMF .                     KB : LOG MEASURED FROM
DAPD.FT                   24 : FEET ABOVE PERMANENT DATUM
EKB .FT                 5395 : KELLY BUSHING
EGL .FT                 5371 : GROUND LEVEL
DATE.               10/26/73 : RUN DATE
RUN .                      2 : RUN NUMBER
DD  .FT                17815 : DEPTH DRILLER
DL  .FT                17792 : DEPTH LOGGER
BLI .FT                17791 : BOTTOM LOG INTERVAL
TLI .FT                13299 : TOP LOG INTERVAL
CBD .FT                13265 : CASING BOTTOM DRILLER
CBL .FT                13299 : CASING BOTTOM LOGGER
BS  .IN                 8.25 : BIT SIZE
BSD .FT                17815 : BIT SIZE AT DEPTH
DFT .               GEL CHEM : DRILLING FLUID TYPE
DFD .                    8.9 : DRILLING FLUID DENSITY
DFV .                     41 : DRILLING FLUID VISCOSITY
DFPH.                    9.5 : DRILLING FLUID PH
DFL .                   11.9 : DRILLING FLUID LOSS
RMS .OHMM               1.05 : RESISTIVITY MUD SAMPLE
MST .DEGF                 72 : MUD SAMPLE TEMPERATURE
RMF .OHMM               0.76 : RESISTIVITY MUD FILTRATE SAMPLE
MFST.DEGF                 70 : MUD FILTRATE SAMPLE TEMPERATURE
RMB .OHMM               0.31 : RESISTIVITY MUD AT BHT
TCS .HRS                   5 : TIME CIRCULATED STOPPED
LUN .                   7640 : LOGGING UNIT NUMBER
LUL .                     RD : LOGGING UNIT LOCATION
ENGI.           NIXON KOVACS : RECORDING ENGINEER
WITN.      WILLIAMS COSTELLO : WITNESSED BY
CLNT.                A2DTECH : CLIENT CODE
ORIG.            2" 5" PRINT : ORIGIN OF DATA
UWI .       100042103812W500 : UNIQUE WELL ID
DICO. A2D Technologies, Inc. : DIGITIZING COMPANY
~Other -----------------------------------------------------
~ASCII -----------------------------------------------------
# ...
 12450.00000    -999.25    -999.25   12.79310    -999.25    -999.25    -999.25   75.55830    -999.25   12.06140   77.41730   85.53120
 12500.00000    -999.25    -999.25   11.53520    -999.25    -999.25    -999.25   85.29980    -999.25   12.18830   84.09780   96.10490
 12550.00000    -999.25    -999.25    7.11440    -999.25    -999.25    -999.25  135.17180    -999.25   12.31670   80.86810   92.17580
 12600.00000    -999.25    -999.25    7.04930    -999.25    -999.25    -999.25  132.69260    -999.25   12.22630   82.68620   88.50620
 12650.00000    -999.25    -999.25    5.98560    -999.25    -999.25    -999.25  158.39810    -999.25   12.20340   82.84030  108.79160
 12700.00000  309.75050   56.38880    4.59660    -999.25    -999.25    -999.25  204.91670    -999.25   12.15900   84.56600   92.82900
 12750.00000  462.97020   25.14900   24.27540    -999.25    -999.25    -999.25   41.19730    -999.25   12.53580   62.97490   47.25280
 12800.00000  262.39110   43.50300    6.45620    -999.25    -999.25    -999.25  145.88230    -999.25   12.20440   78.98440   62.63580
 12850.00000  346.02560   38.64300   11.96020    -999.25    -999.25    -999.25   81.48500    -999.25   12.09290   62.20050   38.28210
 12900.00000    -999.25    -999.25   13.23220    -999.25    -999.25    -999.25   74.51480    -999.25   12.07700   68.29250   36.51240
 12950.00000    -999.25    -999.25    9.46210    -999.25    -999.25    -999.25   98.91330    -999.25   12.06110   73.13300   74.24530
 13000.00000    -999.25    -999.25   12.88770    -999.25    -999.25    -999.25   76.34560    -999.25   12.50520   70.16630   50.68400
 13050.00000    -999.25    -999.25   10.59360    -999.25    -999.25    -999.25   94.23770    -999.25   12.40230   68.82790   62.74440
 13100.00000    -999.25    -999.25   14.82700    -999.25    -999.25    -999.25   66.05450    -999.25   12.18770   64.18650   59.85200
 13150.00000    -999.25    -999.25   15.93680    -999.25    -999.25    -999.25   62.76230    -999.25   12.15290   68.27870   58.31210
 13200.00000    -999.25    -999.25   13.31370    -999.25    -999.25    -999.25   73.65080    -999.25   12.20730   54.00110   28.55340
 13250.00000    -999.25    -999.25    -999.25    -999.25    -999.25    -999.25    -999.25    -999.25    -999.25    -999.25   31.03690
 13300.00000    -999.25    -999.25   15.21060    -999.25    -999.25  -72.71580    -999.25    2.99150    9.13060   73.91620    -999.25
 13350.00000    -999.25    -999.25   12.91030    -999.25    -999.25  -32.88500   84.74490    7.81360   10.35560  107.85160   75.68740
 13400.00000    -999.25    -999.25   18.26320    -999.25    -999.25  -31.60670   55.72570   17.26430    9.81320   63.27430   35.87260
 13450.00000    -999.25    -999.25   25.15120    -999.25    -999.25  -33.40530   42.78200   20.39160    9.57520   72.86840   57.80870
 13500.00000    -999.25    -999.25   17.46360    -999.25    -999.25  -36.04240   56.62280   15.88610    9.87870   60.68470   66.03620
 13550.00000    -999.25    -999.25    4.51050    -999.25    -999.25  -33.37070  200.76820    3.46290    -999.25   66.79070   28.97330
 13600.00000  295.75820   34.86060   34.15760    -999.25    -999.25  -36.66490   31.59260   12.80070   10.60140  103.08310   65.13030
 13650.00000  360.09900   34.37540    8.25100    -999.25    -999.25  -35.52700  117.92820   10.62550   10.57470   96.96450   72.95150
 13700.00000  353.99110   45.55150   45.23140    -999.25    -999.25  -38.14690   22.88640   37.83390    9.35070   59.71880   52.78960
 13750.00000  464.02830   25.45100  433.76990    -999.25    -999.25  -36.84110    7.11500   42.56560    9.63180   79.15540   39.41760
 13800.00000  275.82830   45.99420   12.47560    -999.25    -999.25  -36.46110   76.69680   14.30150    9.57870   74.49320   78.65900
 13850.00000  214.62620   49.42160   24.73920    -999.25    -999.25  -36.81320   40.61950   19.40710    9.16610   57.72440   80.16150
 13900.00000  415.01550   27.33600   10.52400    -999.25    -999.25  -31.73710   91.99450   11.75340    9.28360   80.60130   61.83820
 13950.00000  496.94370   36.21980   12.89470    -999.25    -999.25  -32.30740   71.53650   13.80120    9.13060   71.21660   71.21570
 14000.00000  159.45950   41.29450    4.89670    -999.25    -999.25  -32.46150  189.44390    5.96080   10.07290   88.85190   85.54450
 14050.00000  276.44430   36.33850   11.83030    -999.25    -999.25  -32.45250   84.59440   15.13000    9.04360   78.67160   52.50920
 14100.00000  203.68760   46.37840    7.54230    -999.25    -999.25  -32.10700  129.84700    8.31770    9.23380   84.10280   79.69040
 14150.00000  726.68980    9.52770 1103.63680    -999.25    -999.25  -34.33050    0.81140  194.94290    8.52490   56.41450    9.58820
 14200.00000  592.51620   21.83920 1090.22970    -999.25    -999.25  -45.09970    1.14640  148.73550    8.56430   55.09840   26.03480
 14250.00000  501.92360   11.26990  217.45240    -999.25    -999.25  -63.33970    7.82250  120.80610    9.18570   46.38890    9.90320
 14300.00000  336.42370    9.58890    3.00150    -999.25    -999.25  -69.32740  293.11760   18.79130    8.07410   61.15380    8.16370
 14350.00000  517.21770    9.21170  232.55720    -999.25    -999.25  -62.64870    5.79730  109.05570    8.66570   51.67030    6.42580
 14400.00000  327.27790   18.49300  156.66440    -999.25    -999.25  -46.85640    7.91490   70.21490    9.90910   56.20020   30.16880
 14450.00000  537.21290   15.90860  238.21720    -999.25    -999.25  -31.89090    4.50740  109.47120    9.01130   50.72620   22.93780
 14500.00000  553.82560   22.45580  472.61450    -999.25    -999.25  -35.17080    3.03070  114.17040    8.98660   52.10480   33.10740
 14550.00000  418.71100   14.36250   97.30220    -999.25    -999.25  -42.14690   11.87460  104.19210    8.85220   51.60280   16.15730
 14600.00000  699.09710    9.04590  613.99910    -999.25    -999.25  -50.79890    2.35600  107.16620    9.34400   48.36610    7.35320
 14650.00000  819.64570   10.30190 1045.23020    -999.25    -999.25  -62.33820    1.19470  151.32190    9.11050   48.60620    5.23330
 14700.00000  720.46580   12.46740   31.56320    -999.25    -999.25  -75.06990   31.67140   96.52860    8.82110   48.38670   10.48230
 14750.00000  452.22260   22.56770  138.36350    -999.25    -999.25  -47.95720    8.56270   40.98320    9.48930   51.59600   47.07200
 14800.00000    -999.25    -999.25  220.84950    -999.25    -999.25  -37.06040    5.13710    -999.25    9.38330   70.88890   51.29350
 14850.00000    -999.25    -999.25  424.01720    -999.25    -999.25  -31.08440    3.16150  119.40180    8.93580   55.06860   11.12830
 14900.00000    -999.25    -999.25  118.92730    -999.25    -999.25  -28.48430   10.09670    -999.25    8.76190   52.99210   40.18320
 14950.00000    -999.25    -999.25  129.57900    -999.25    -999.25  -31.09370    9.06940    -999.25    8.38730   51.37960   32.22990
 15000.00000    -999.25    -999.25  979.74020    -999.25    -999.25  -34.31850    1.71900  147.98600    8.32800   50.92360   22.07650
 15050.00000    -999.25    -999.25  289.02320    -999.25    -999.25  -29.22680    4.37840  129.28660    8.26460   51.58020   19.14490
 15100.00000    -999.25    -999.25  174.63960    -999.25    -999.25  -23.99000    6.76600  118.66760    8.28960   51.53260   19.88690
 15150.00000    -999.25    -999.25    8.22440    -999.25    -999.25  -23.46290  112.99820   18.71150    9.25950   70.90010   77.20900
 15200.00000    -999.25    -999.25   46.36370    -999.25    -999.25  -23.21090   22.47590   51.87840    8.78110   53.93690   28.59450
 15250.00000    -999.25    -999.25   51.50140    -999.25    -999.25  -22.49500   20.09010   53.66640    8.66060   55.82460   27.17340
 15300.00000   66.44910   46.94830    6.54220    -999.25    -999.25  -18.79160  141.66030   10.73510   10.02200   81.24090   75.50240
 15350.00000  618.30820   13.86300  264.95710    -999.25    -999.25  -28.82570    4.94490  147.88040    9.37910   49.21370   11.64480
 15400.00000  419.39060   15.99190  967.70390    -999.25    -999.25  -35.57750    1.54250    -999.25    9.04320   49.92790   18.51780
