~Version ---------------------------------------------------
VERS.      2.0 : CWLS log ASCII Standard -VERSION 2.0
WRAP.       NO : One line per depth step
CREA. 11/21/17 : LAS Creation Date
~Well ------------------------------------------------------
STRT.FT                             1050.0 : START DEPTH
STOP.FT                            10400.0 : STOP DEPTH
STEP.FT                           50.00000 : STEP LENGTH
NULL.                              -999.25 : NULL VALUE
COMP.               CHEVRON CANADA LIMITED : COMPANY
WELL. CHEVRON GULF ET AL FOXCK 10-21-62-18 : WELL
FLD .                                      : FIELD
LOC .                                      : LOCATION
CTRY.                               CANADA : COUNTRY
SRVC.                         Schlumberger : SERVICE COMPANY
DATE.                          28-Apr-1976 : LOGDATE
PROV.                              Alberta : PROVINCE
UWI .                     102102106218W500 : UNIQUE WELL ID
SLAT.WGS84                        54.37974 : SURFACE LATITUDE
SLON.WGS84                       -116.6321 : SURFACE LONGITUDE
~Curve Information -----------------------------------------
DEPT    .FT    : Depth Curve
CALDED  .IN    : CALIPER FROM DENSITY LOG
CALSED  .IN    : CALIPER FROM SONIC LOG
CALWS   .IN    : CALIPER [CALSED SPL. TO CALDED @ 10384']
CONDWS  .MMHO  : CONDUCTIVITY [1000/DRESWS]
DCORED  .G/C3  : DENSITY CORRECTION FROM DENSITY LOG
DCORWS  .G/C3  : DENSITY CORRECTION [DCORED]
DENWS   .G/C3  : FORMATION BULK DENSITY [RHOBED]
DPHILSED.V/V   : DENSITY POROSITY LIMESTONE [M=2.71, F=1.00] FROM DENSITY LOG
DPHISSED.V/V   : DENSITY POROSITY SANDSTONE [M=2.65, F=1.00] FROM DENSITY LOG
DPOLSWS .V/V   : DENSITY POROSITY LIMESTONE [CALC. FROM DENWS M=2.71, F=1.00]
DRESWS  .OHMM  : DEEP RESISTIVITY [ILDED]
DTED    .US/F  : DELTA-T FROM SONIC LOG
DTWS    .US/F  : COMPRESSIONAL SONIC [DTED]
GRDED   .GAPI  : GAMMA RAY FROM DENSITY LOG
GRSED   .GAPI  : GAMMA RAY FROM SONIC LOG
GRWS    .GAPI  : GAMMA RAY [GRSED SPL. TO GRDED@3031M]
ILDED   .OHMM  : DEEP INDUCTION FROM RESISTIVITY LOG
ILMED   .OHMM  : MEDIUM INDUCTION FROM RESISTIVITY LOG
LL8ED   .OHMM  : LATEROLOG-8 FROM RESISTIVITY LOG
MRESWS  .OHMM  : MEDIUM RESISTIVITY [ILMED]
NPHILSED.V/V   : NEUTRON POROSITY  SANDSTONE FROM DENSITY LOG
NPHISSED.V/V   : NEUTRON POROSITY SANDSTONE FROM DENSITY LOG
NPOLSWS .V/V   : NEUTRON POROSITY LIMESTONE [NPHISSED MATRIX CONVERSION FOR LIMESTONE, SPL. TO NPHILSED @ 6545']
RHOBED  .G/C3  : BULK DENSITY FROM DENSITY LOG
SPRED   .MV    : SPONTANEOUS POTENTIAL FROM RESISTIVITY LOG
SPWS    .MV    : SPONTANEOUS POTENTIAL [BASELINE 0 MV,SPRED]
SRESWS  .OHMM  : SHALLOW EWSISTIVITY [LL8ED]
TENDED  .LBF   : TENSION FROM DENSITY LOG
TENSED  .LBF   : TENSION FROM SONIC LOG
~Params ----------------------------------------------------
PD  .                     GL : PERMANENT DATUM
EPD .FT               2869.5 : ELEVATION PERMANENT DATUM
LMF .                     KB : LOG MEASURED FROM
DAPD.FT                 14.5 : FEET ABOVE PERMANENT DATUM
EKB .FT                 2884 : KELLY BUSHING
EGL .FT               2869.5 : GROUND LEVEL
DATE.               04/28/76 : RUN DATE
RUN .                      1 : RUN NUMBER
DD  .FT                10415 : DEPTH DRILLER
DL  .FT                10422 : DEPTH LOGGER
BLI .FT                10416 : BOTTOM LOG INTERVAL
TLI .FT                 1107 : TOP LOG INTERVAL
CBD .FT                 1108 : CASING BOTTOM DRILLER
CBL .FT                 1107 : CASING BOTTOM LOGGER
BS  .IN                 8.75 : BIT SIZE
BSD .FT                10415 : BIT SIZE AT DEPTH
DFT .               GEL CHEM : DRILLING FLUID TYPE
DFD .                    9.4 : DRILLING FLUID DENSITY
DFV .                     72 : DRILLING FLUID VISCOSITY
DFPH.                   10.5 : DRILLING FLUID PH
DFL .                   10.8 : DRILLING FLUID LOSS
MSS .             CIRCULATED : MUD SAMPLE SOURCE
RMS .OHMM               1.66 : RESISTIVITY MUD SAMPLE
MST .DEGF                 60 : MUD SAMPLE TEMPERATURE
RMF .OHMM                1.2 : RESISTIVITY MUD FILTRATE SAMPLE
MFST.DEGF                 60 : MUD FILTRATE SAMPLE TEMPERATURE
RMB .OHMM               0.52 : RESISTIVITY MUD AT BHT
TCS .HRS                 3.5 : TIME CIRCULATED STOPPED
LUN .                   7691 : LOGGING UNIT NUMBER
LUL .                    EDM : LOGGING UNIT LOCATION
ENGI.   CROCKFORD KREZANOSKI : RECORDING ENGINEER
WITN.                   WONG : WITNESSED BY
CLNT.                A2DTECH : CLIENT CODE
ORIG.            2" 5" PRINT : ORIGIN OF DATA
UWI .       102102106218W500 : UNIQUE WELL ID
DICO. A2D Technologies, Inc. : DIGITIZING COMPANY
~Other -----------------------------------------------------
DIL-LL-BHC-CNL-FDC LOG RUN
SCH.- CNL(NPHI) USED FOR NEUTRON MATRIX CONVERSION
~ASCII -----------------------------------------------------
# ...
 2300.00000    -999.25    9.64990    9.64990  153.23090    -999.25    -999.25    -999.25    -999.25    -999.25    -999.25    6.52610   94.13180   94.13180    -999.25   67.57090   67.57090    6.52610    6.18750    5.96650    6.18750    -999.25    -999.25    -999.25    -999.25  -59.22570   -7.28310    5.96650    -999.25  872.63530
 2350.00000    -999.25    9.65090    9.65090  240.02110    -999.25    -999.25    -999.25    -999.25    -999.25    -999.25    4.16630  102.75560  102.75560    -999.25   73.28700   73.28700    4.16630    3.88140    3.66130    3.88140    -999.25    -999.25    -999.25    -999.25  -56.45910   -4.21560    3.66130    -999.25  487.57030
 2400.00000    -999.25    9.48610    9.48610  172.43460    -999.25    -999.25    -999.25    -999.25    -999.25    -999.25    5.79930   96.52040   96.52040    -999.25   51.03550   51.03550    5.79930    5.32340    4.63990    5.32340    -999.25    -999.25    -999.25    -999.25  -60.73480   -7.81860    4.63990    -999.25  696.52360
 2450.00000    -999.25    8.92690    8.92690   65.74250    -999.25    -999.25    -999.25    -999.25    -999.25    -999.25   15.22680   71.31830   71.31830    -999.25   46.28360   46.28360   15.22680   14.48500   18.77180   14.48500    -999.25    -999.25    -999.25    -999.25  -59.84090   -6.32830   18.77180    -999.25  921.39920
 2500.00000    -999.25    8.95920    8.95920  190.34200    -999.25    -999.25    -999.25    -999.25    -999.25    -999.25    5.25370   96.78370   96.78370    -999.25   64.91320   64.91320    5.25370    4.52330    4.07380    4.52330    -999.25    -999.25    -999.25    -999.25  -56.93390   -3.09930    4.07380    -999.25 1039.71430
 2550.00000    -999.25    9.36050    9.36050  249.50720    -999.25    -999.25    -999.25    -999.25    -999.25    -999.25    4.00790  103.91810  103.91810    -999.25   58.61050   58.61050    4.00790    3.52440    4.01450    3.52440    -999.25    -999.25    -999.25    -999.25  -55.85990   -1.70330    4.01450    -999.25 1102.91140
 2600.00000    -999.25    9.33360    9.33360  157.65410    -999.25    -999.25    -999.25    -999.25    -999.25    -999.25    6.34300   97.43310   97.43310    -999.25   56.34220   56.34220    6.34300    5.51750    4.96060    5.51750    -999.25    -999.25    -999.25    -999.25  -60.17490   -5.84180    4.96060    -999.25 1196.99270
 2650.00000    -999.25    9.46830    9.46830  159.45150    -999.25    -999.25    -999.25    -999.25    -999.25    -999.25    6.27150  103.21670  103.21670    -999.25   47.35690   47.35690    6.27150    4.84810    4.80600    4.84810    -999.25    -999.25    -999.25    -999.25  -57.71210   -3.21840    4.80600    -999.25 1079.91500
 2700.00000    -999.25    9.68540    9.68540   60.03320    -999.25    -999.25    -999.25    -999.25    -999.25    -999.25   16.65950   92.09100   92.09100    -999.25   41.16380   41.16380   16.65950   13.65830   11.39770   13.65830    -999.25    -999.25    -999.25    -999.25  -67.36490  -12.70960   11.39770    -999.25  495.44760
 2750.00000    -999.25    9.00940    9.00940   36.10620    -999.25    -999.25    -999.25    -999.25    -999.25    -999.25   27.69610   64.52610   64.52610    -999.25   39.63320   39.63320   27.69610   31.34940   41.29420   31.34940    -999.25    -999.25    -999.25    -999.25  -63.98460   -9.16880   41.29420    -999.25  789.37240
 2800.00000    -999.25    9.48570    9.48570  234.06600    -999.25    -999.25    -999.25    -999.25    -999.25    -999.25    4.27230  109.87650  109.87650    -999.25   58.74670   58.74670    4.27230    3.96610    3.53090    3.96610    -999.25    -999.25    -999.25    -999.25  -59.10220   -4.19630    3.53090    -999.25  867.73430
 2850.00000    -999.25    8.47080    8.47080   54.51640    -999.25    -999.25    -999.25    -999.25    -999.25    -999.25   18.34310   93.05190   93.05190    -999.25   34.44470   34.44470   18.34310   16.64140   13.41330   16.64140    -999.25    -999.25    -999.25    -999.25  -69.55210  -14.75400   13.41330    -999.25  711.43030
 2900.00000    -999.25    9.29840    9.29840  159.75720    -999.25    -999.25    -999.25    -999.25    -999.25    -999.25    6.25950  105.71940  105.71940    -999.25   60.41900   60.41900    6.25950    4.98280    4.54900    4.98280    -999.25    -999.25    -999.25    -999.25  -59.75240   -5.06150    4.54900    -999.25 1091.85190
 2950.00000    -999.25    9.04510    9.04510   96.05860    -999.25    -999.25    -999.25    -999.25    -999.25    -999.25   10.43070   86.35480   86.35480    -999.25   47.25300   47.25300   10.43070    9.59730   11.85610    9.59730    -999.25    -999.25    -999.25    -999.25  -61.82360   -7.24050   11.85610    -999.25 1374.11700
 3000.00000    -999.25   10.58640   10.58640  194.08430    -999.25    -999.25    -999.25    -999.25    -999.25    -999.25    5.15240  114.67740  114.67740    -999.25   54.51230   54.51230    5.15240    3.96570    4.05480    3.96570    -999.25    -999.25    -999.25    -999.25  -59.41680   -4.94080    4.05480    -999.25  901.96640
 3050.00000    -999.25    9.63830    9.63830  159.69850    -999.25    -999.25    -999.25    -999.25    -999.25    -999.25    6.26180   89.37290   89.37290    -999.25   40.46720   40.46720    6.26180    5.81170    7.30010    5.81170    -999.25    -999.25    -999.25    -999.25  -59.27660   -4.90780    7.30010    -999.25  646.26420
 3100.00000    -999.25    9.15020    9.15020  173.66540    -999.25    -999.25    -999.25    -999.25    -999.25    -999.25    5.75820   95.63360   95.63360    -999.25   47.45140   47.45140    5.75820    5.38720    9.57710    5.38720    -999.25    -999.25    -999.25    -999.25  -58.63200   -4.37100    9.57710    -999.25  869.97340
 3150.00000    -999.25   10.16060   10.16060  209.15690    -999.25    -999.25    -999.25    -999.25    -999.25    -999.25    4.78110   93.80070   93.80070    -999.25   61.94660   61.94660    4.78110    5.34930    6.96900    5.34930    -999.25    -999.25    -999.25    -999.25  -57.78440   -3.51620    6.96900    -999.25  856.22350
 3200.00000    -999.25    8.62220    8.62220   59.94300    -999.25    -999.25    -999.25    -999.25    -999.25    -999.25   16.68850   94.41480   94.41480    -999.25   30.79270   30.79270   16.68850   14.86990   14.07820   14.86990    -999.25    -999.25    -999.25    -999.25  -87.14880  -32.60820   14.07820    -999.25  904.19080
 3250.00000    -999.25    9.58630    9.58630  137.26650    -999.25    -999.25    -999.25    -999.25    -999.25    -999.25    7.28510   87.86090   87.86090    -999.25   54.87280   54.87280    7.28510    6.94380    6.46700    6.94380    -999.25    -999.25    -999.25    -999.25  -60.81270   -6.00140    6.46700    -999.25 1190.94390
 3300.00000    -999.25   10.15290   10.15290  205.87990    -999.25    -999.25    -999.25    -999.25    -999.25    -999.25    4.85720   96.72400   96.72400    -999.25   66.03630   66.03630    4.85720    4.61810    4.58700    4.61810    -999.25    -999.25    -999.25    -999.25  -60.49400   -5.41200    4.58700    -999.25 1011.61710
 3350.00000    -999.25    9.25420    9.25420  166.68890    -999.25    -999.25    -999.25    -999.25    -999.25    -999.25    5.99920   94.04940   94.04940    -999.25   66.35210   66.35210    5.99920    5.82550    5.55310    5.82550    -999.25    -999.25    -999.25    -999.25  -60.76840   -5.41400    5.55310    -999.25 1465.18720
 3400.00000    -999.25   10.32110   10.32110  143.09840    -999.25    -999.25    -999.25    -999.25    -999.25    -999.25    6.98820   94.45890   94.45890    -999.25   85.32120   85.32120    6.98820    6.26220    5.93950    6.26220    -999.25    -999.25    -999.25    -999.25  -62.22370   -6.59860    5.93950    -999.25 1435.12810
 3450.00000    -999.25    9.94590    9.94590  125.92620    -999.25    -999.25    -999.25    -999.25    -999.25    -999.25    7.94300   91.71550   91.71550    -999.25   87.52150   87.52150    7.94300    7.27390    6.89930    7.27390    -999.25    -999.25    -999.25    -999.25  -61.24410   -5.34660    6.89930    -999.25 1762.23250
 3500.00000    -999.25    9.57190    9.57190  131.53220    -999.25    -999.25    -999.25    -999.25    -999.25    -999.25    7.60270   91.61950   91.61950    -999.25   86.38580   86.38580    7.60270    6.71680    7.04410    6.71680    -999.25    -999.25    -999.25    -999.25  -61.25150   -5.08340    7.04410    -999.25  692.60600
