~Version ---------------------------------------------------
VERS.      2.0 : CWLS log ASCII Standard -VERSION 2.0
WRAP.       NO : One line per depth step
CREA. 08/02/17 : LAS Creation Date
~Well ------------------------------------------------------
STRT.FT                       950.0 : START DEPTH
STOP.FT                     10400.0 : STOP DEPTH
STEP.FT                    50.00000 : STEP LENGTH
NULL.                       -999.25 : NULL VALUE
COMP.    THE CALIFORNIA STANDARD CO : COMPANY
WELL. CALSTAN BA KAYBOB 10-26-64-20 : WELL
FLD .                               : FIELD
LOC .                               : LOCATION
CTRY.                        CANADA : COUNTRY
SRVC.        Schlumberger of Canada : SERVICE COMPANY
DATE.                   15-Dec-1959 : LOGDATE
PROV.                       Alberta : PROVINCE
UWI .              100102606420W500 : UNIQUE WELL ID
SLAT.WGS84                 54.56885 : SURFACE LATITUDE
SLON.WGS84                -116.9082 : SURFACE LONGITUDE
~Curve Information -----------------------------------------
DEPT  .FT         : Depth Curve
CALWS .IN         : CALIPER [MCALED]
CILDED.MMHO       : DEEP INDUCTION CONDUCTIVITY FROM RESISTIVITY LOG
CONDWS.MMHO       : CONDUCTIVITY [1000/DRESWS]
DRESWS.OHMM       : DEEP RESISTIVITY [CALC FROM 1000/CILDED, IF ILDED<1, ILDED]
DTED  .US/F       : DELTA-T (INTERVAL TRANSIT TIME) FROM SONIC LOG
DTWS  .US/F       : COMPRESSIONAL SONIC [DTED]
GRSED .UgRa-Eq/T  : GAMMA RAY FROM SONIC LOG
GRWS  .GAPI       : GAMMA RAY [GRSED*16.5]
ILDED .OHMM       : DEEP INDUCTION FROM RESISTIVITY LOG
MCALED.IN         : MLT (MICROLOG) CALIPER FROM MICROLOG
SNED  .OHMM       : SHORT NORMAL FROM RESISTIVITY LOG
SPRED .MV         : SPONTANEOUS POTENTIAL FROM RESISTIVITY LOG
SPWS  .MV         : SPONTANEOUS POTENTIAL [BASELINE 0 MV, SPRED]
SRESWS.OHMM       : SHALLOW RESISTIVITY [SNED]
~Params ----------------------------------------------------
LMF .                     KB : LOG MEASURED FROM
DMF .                     KB : DRILLING MEASURED FROM
EKB .FT                 2600 : KELLY BUSHING
EGL .FT                 2587 : GROUND LEVEL
DATE.               12/15/59 : RUN DATE
RUN .                      2 : RUN NUMBER
DD  .FT                10482 : DEPTH DRILLER
DL  .FT                10441 : DEPTH LOGGER
BLI .FT                10436 : BOTTOM LOG INTERVAL
TLI .FT                 6426 : TOP LOG INTERVAL
CBD .FT                  998 : CASING BOTTOM DRILLER
CBL .FT                  994 : CASING BOTTOM LOGGER
BS  .IN                    9 : BIT SIZE
BSD .FT                10482 : BIT SIZE AT DEPTH
DFT .                    GEL : DRILLING FLUID TYPE
DFD .                   10.3 : DRILLING FLUID DENSITY
DFV .                    108 : DRILLING FLUID VISCOSITY
DFPH.                   10.5 : DRILLING FLUID PH
DFL .                    5.7 : DRILLING FLUID LOSS
MSS .            CIRCULATION : MUD SAMPLE SOURCE
RMS .OHMM               2.35 : RESISTIVITY MUD SAMPLE
MST .DEGF                 72 : MUD SAMPLE TEMPERATURE
RMF .OHMM               1.55 : RESISTIVITY MUD FILTRATE SAMPLE
MFST.DEGF                 67 : MUD FILTRATE SAMPLE TEMPERATURE
RMC .OHMM               2.81 : RESISTIVITY MUD CAKE
MCST.DEGF                 77 : MUD CAKE SAMPLE TEMPERATURE
RMB .OHMM               0.87 : RESISTIVITY MUD AT BHT
TCS .HRS                 300 : TIME CIRCULATED STOPPED
LUN .                  15730 : LOGGING UNIT NUMBER
LUL .                     WC : LOGGING UNIT LOCATION
ENGI.              HAUSEGGER : RECORDING ENGINEER
WITN.                  CHANT : WITNESSED BY
CLNT.                A2DTECH : CLIENT CODE
ORIG.            2" 5" PRINT : ORIGIN OF DATA
UWI .       100102606420W500 : UNIQUE WELL ID
DICO. A2D Technologies, Inc. : DIGITIZING COMPANY
~Other -----------------------------------------------------
~ASCII -----------------------------------------------------
# ...
 3400.00000   11.29830  151.36830  145.35520    6.87970   88.08220   88.08220    6.13500  101.22750    6.87970   11.29830    8.68400  -75.14420   -3.31430    8.68400
 3450.00000   11.64680  136.87970  133.27470    7.50330   70.11510   70.11510    6.26760  103.41540    7.50330   11.64680    9.32400  -75.34610   -4.20360    9.32400
 3500.00000   11.53860  127.69730  125.52880    7.96630   93.94270   93.94270    6.70870  110.69360    7.96630   11.53860    9.80070  -73.98660   -3.96200    9.80070
 3550.00000   11.49870  105.78700  101.62400    9.84020   91.12470   91.12470    5.33880   88.09020    9.84020   11.49870   12.22270  -73.76090   -4.85430   12.22270
 3600.00000   10.74630  124.42760  116.60580    8.57590   73.54220   73.54220    5.86520   96.77580    8.57590   10.74630   11.09490  -71.23350   -3.45220   11.09490
 3650.00000   10.53910  123.86920  120.06820    8.32860   81.04510   81.04510    6.39790  105.56540    8.32860   10.53910   10.73440  -70.33910   -3.67570   10.73440
 3700.00000    -999.25  123.27170  121.36510    8.23960   84.98280   84.98280    6.15420  101.54430    8.23960    -999.25   10.63380  -69.65290   -4.11480   10.63380
 3750.00000    -999.25  134.76440  127.27670    7.85690   94.13200   94.13200    6.64310  109.61110    7.85690    -999.25   10.01470  -66.82070   -2.40050   10.01470
 3800.00000    -999.25  133.58270  125.72290    7.95400   90.98520   90.98520    5.70210   94.08460    7.95400    -999.25   10.82510  -66.35960   -3.05730   10.82510
 3850.00000    -999.25  140.76950  131.14240    7.62530  102.14350  102.14350    5.83610   96.29560    7.62530    -999.25   10.20380  -64.25720   -2.08020   10.20380
 3900.00000    -999.25  121.81550  116.19670    8.60610   97.78170   97.78170    6.35880  104.92020    8.60610    -999.25   12.21380  -62.75530   -1.69630   12.21380
 3950.00000    -999.25  117.25980  109.60830    9.12340   91.92990   91.92990    6.12250  101.02120    9.12340    -999.25   13.01060  -63.03400   -3.10030   13.01060
 4000.00000    -999.25   67.93000   65.37740   15.29580   84.03020   84.03020    6.88910  113.67020   15.29580    -999.25   25.71840  -62.24390   -1.29130   25.71840
 4050.00000    -999.25  107.94410  103.55720    9.65650  104.32680  104.32680    6.61140  109.08810    9.65650    -999.25   14.94650  -61.91320   -1.56450   14.94650
 4100.00000    -999.25  130.30500  122.48150    8.16450   99.17500   99.17500    6.37290  105.15280    8.16450    -999.25   11.76050  -60.98060   -1.23980   11.76050
 4150.00000    -999.25  112.37650  103.95980    9.61910   88.25370   88.25370    5.92950   97.83670    9.61910    -999.25   12.66300  -63.00910   -3.87220   12.66300
 4200.00000    -999.25  127.70060  117.32270    8.52350   82.72500   82.72500    5.30050   87.45830    8.52350    -999.25   10.92310  -62.52340   -3.99430   10.92310
 4250.00000    -999.25  140.54680  129.07890    7.74720   77.95330   77.95330    5.51370   90.97610    7.74720    -999.25   10.76330  -60.96650   -3.04140   10.76330
 4300.00000    -999.25  144.29110  133.88850    7.46890   86.92530   86.92530    6.14090  101.32490    7.46890    -999.25    9.70130  -60.46740   -3.14610    9.70130
 4350.00000    -999.25  120.57990  110.14670    9.07880   87.77820   87.77820    4.50760   74.37540    9.07880    -999.25   12.87110  -59.14090   -2.01470   12.87110
 4400.00000    -999.25  149.17120  141.74750    7.05480   81.66330   81.66330    6.04530   99.74750    7.05480    -999.25    9.30460  -65.28220   -3.40880    9.30460
 4450.00000    -999.25  238.62380  226.19830    4.42090   94.65690   94.65690    5.39620   89.03730    4.42090    -999.25    6.23310  -63.58910   -2.50540    6.23310
 4500.00000    -999.25  142.96520  134.67290    7.42540   85.62540   85.62540    5.32400   87.84600    7.42540    -999.25    9.66750  -63.79700   -3.49770    9.66750
 4550.00000    -999.25  187.14420  179.31750    5.57670   91.57390   91.57390    5.48540   90.50990    5.57670    -999.25    7.81820  -61.75110   -2.23630    7.81820
 4600.00000    -999.25  312.95990  338.51260    2.95410  103.66550  103.66550    6.02870   99.47350    2.95410    -999.25    4.34220  -60.62680   -1.90160    4.34220
 4650.00000    -999.25  345.16090  362.72630    2.75690   97.27550   97.27550    5.29240   87.32460    2.75690    -999.25    4.05190  -60.22750   -1.79210    4.05190
 4700.00000   10.79220  278.47880  305.69820    3.27120  102.17560  102.17560    6.17460  101.88090    3.27120   10.79220    4.49320  -60.19030   -1.94840    4.49320
 4750.00000   10.44330  174.35870  169.23340    5.90900   90.87330   90.87330    6.00980   99.16170    5.90900   10.44330    8.38110  -60.22250   -2.17290    8.38110
 4800.00000    9.53320  121.74650  119.02350    8.40170   87.00810   87.00810    5.18780   85.59950    8.40170    9.53320   11.77390  -60.47710   -2.61990   11.77390
 4850.00000   10.41360  472.73720  470.94280    2.12340  114.58000  114.58000    5.39000   88.93500    2.12340   10.41360    2.91550  -58.88010   -1.21650    2.91550
 4900.00000    9.08870  381.21940  397.77250    2.51400  131.06480  131.06480    5.58800   92.20200    2.51400    9.08870    4.07210  -58.59450    0.92880    4.07210
 4950.00000    9.30590   82.93270   79.82880   12.52680   80.02850   80.02850    3.94250   65.05120   12.52680    9.30590   18.06050  -70.93260  -11.37670   18.06050
 5000.00000    9.57690  110.85630  111.21740    8.99140   87.73670   87.73670    4.92470   81.25750    8.99140    9.57690   11.69140  -62.61810   -3.23000   11.69140
 5050.00000    9.27370   63.35130   63.85370   15.66080   77.80800   77.80800    4.23850   69.93530   15.66080    9.27370   23.46340  -67.16250   -7.94230   23.46340
 5100.00000   11.15690  174.83060  178.30400    5.60840  105.28940  105.28940    5.11460   84.39090    5.60840   11.15690   15.38580  -68.37460   -9.32340   15.38580
 5150.00000    9.31330   72.92130   71.78180   13.93110   80.27000   80.27000    4.68990   77.38330   13.93110    9.31330   21.98520  -77.81920  -18.93590   21.98520
 5200.00000    9.52310   41.38560   36.84160   27.14320  115.08870  115.08870    4.46060   73.59990   27.14320    9.52310   55.75380  -87.44450  -28.73020   55.75380
 5250.00000    9.51750   73.99450   65.50460   15.26610  100.67010  100.67010    4.83740   79.81710   15.26610    9.51750   29.03440  -98.31600  -39.76950   29.03440
 5300.00000    9.34040  102.16870  100.49540    9.95070   76.00700   76.00700    3.94710   65.12720    9.95070    9.34040   16.74330  -94.34250  -35.96390   16.74330
 5350.00000    9.24880   97.33900   90.88760   11.00260   74.12770   74.12770    3.51280   57.96120   11.00260    9.24880   17.70090  -75.55890  -17.34930   17.70090
 5400.00000    8.68250   83.52960   80.59640   12.40750   73.68600   73.68600    2.76490   45.62080   12.40750    8.68250   32.84080 -104.08970  -49.92910   32.84080
 5450.00000    8.98340  131.36440  130.27790    7.67590   74.25150   74.25150    3.92080   64.69320    7.67590    8.98340   14.42760  -51.66190   -8.25320   14.42760
 5500.00000    9.16010  153.15040  155.55240    6.42870   82.24540   82.24540    4.20780   69.42870    6.42870    9.16010    8.57570  -48.04740   -9.25480    8.57570
 5550.00000    9.13210   82.61340   77.54580   12.89560   72.90640   72.90640    5.09580   84.07990   12.89560    9.13210   18.84900  -47.76950   -8.09500   18.84900
 5600.00000    9.41310  118.82090  117.16190    8.53520   79.96800   79.96800    4.63050   76.40330    8.53520    9.41310   11.61630  -35.90440   -2.24560   11.61630
 5650.00000    9.37670   55.54210   53.14960   18.81480   71.28120   71.28120    3.55740   58.69710   18.81480    9.37670   26.97310  -25.23010   -2.08330   26.97310
 5700.00000    8.47900  197.02490  202.24900    4.94440   78.61930   78.61930    2.47600   40.85400    4.94440    8.47900   21.38210  -84.30500  -67.45880   21.38210
 5750.00000    9.76340   55.45430   53.20030   18.79690  106.03020  106.03020    3.77280   62.25120   18.79690    9.76340   33.96300  -19.02620   -3.84370   33.96300
 5800.00000    9.41520   74.96940   72.31650   13.82810   74.23890   74.23890    3.23940   53.45090   13.82810    9.41520   19.62920  -31.18740  -10.23840   19.62920
