~Version ---------------------------------------------------
VERS.      2.0 : CWLS log ASCII Standard -VERSION 2.0
WRAP.       NO : One line per depth step
CREA. 10/24/17 : LAS Creation Date
~Well ------------------------------------------------------
STRT.FT                        1200.0 : START DEPTH
STOP.FT                       11700.0 : STOP DEPTH
STEP.FT                      50.00000 : STEP LENGTH
NULL.                         -999.25 : NULL VALUE
COMP.            MOBIL OIL CANADA LTD : COMPANY
WELL. MOBIL ICG MARSH HEAD 11-3-60-20 : WELL
FLD .                                 : FIELD
LOC .                                 : LOCATION
CTRY.                          CANADA : COUNTRY
SRVC.                    Schlumberger : SERVICE COMPANY
DATE.                     05-Jan-1976 : LOGDATE
PROV.                         Alberta : PROVINCE
UWI .                100110306020W500 : UNIQUE WELL ID
SLAT.WGS84                   54.15991 : SURFACE LATITUDE
SLON.WGS84                  -116.9171 : SURFACE LONGITUDE
~Curve Information -----------------------------------------
DEPT    .FT    : Depth Curve
CALDED  .IN    : CALIPER FROM DENSITY LOG [ADJ. TO RESISTIVITY LOG]
CALSED  .IN    : CALIPER FROM SONIC LOG [ADJ. TO RESISTIVITY LOG]
CALWS   .IN    : CALIPER [CALDED SPL. TO CALSED FROM 2516'-2535']
CONDWS  .MMHO  : CONDUCTIVITY [1000/DRESWS]
DCORWS  .G/C3  : DENSITY CORRECTION [DRHOED]
DENWS   .G/C3  : FORMATION BULK DENSITY [RHOBED]
DPHILSED.V/V   : DENSITY POROSITY LIMESTONE  FROM DENSITY LOG [ADJ. TO RESISTIVITY LOG]
DPOLSWS .V/V   : DENSITY POROSITY LIMESTONE [CALC FROM DENWS,M=2.71, F=1.00]
DRESWS  .OHMM  : DEEP RESISTIVITY [ILDED]
DRHOED  .G/C3  : DENSITY CORRECTION FROM DENSITY LOG [ADJ. TO RESISTIVITY LOG]
DTED    .US/F  : DELTA TIME FROM SONIC LOG [ADJ. TO RESISTIVITY LOG]
DTWS    .US/F  : COMPRESSIONAL SONIC [DTED]
GRDED   .GAPI  : GAMMA RAY FROM DENSITY LOG [ADJ. TO RESISTIVITY LOG]
GRSED   .GAPI  : GAMMA RAY FROM SONIC LOG [ADJ. TO RESISTIVITY LOG]
GRWS    .GAPI  : GAMMA RAY [GRDED SPL. TO GRSED FROM 2507'-2550']
ILDED   .OHMM  : DEEP INDUCTION RESISTIVITY FROM RESISTIVITY LOG
ILMED   .OHMM  : MEDIUM INDUCTION RESISTIVITY FROM RESISTIVITY LOG
LL8ED   .OHMM  : 8 INCH LATEROLOG RESISTIVITY FROM RESISTIVITY LOG
MRESWS  .OHMM  : MEDIUM RESISTIVITY [ILMED]
NPHILSED.V/V   : NEUTRON POROSITY LIMESTONE FROM DENSITY LOG [ADJ. TO RESISTIVITY LOG]
NPOLSWS .V/V   : NEUTRON POROSITY LIMESTONE [NPHILSED]
RHOBED  .G/C3  : BULK DENSITY FROM DENSITY LOG [ADJ. TO RESISTIVITY LOG]
SPRED   .MV    : SPONTANEOUS POTENTIAL FROM RESISTIVITY LOG
SPWS    .MV    : SPONTANEOUS POTENTIAL [BASELINE 0 MV, SPRED]
SRESWS  .OHMM  : SHALLOW RESISTIVITY [LL8ED]
~Params ----------------------------------------------------
PD  .                     GL : PERMANENT DATUM
EPD .FT               3132.5 : ELEVATION PERMANENT DATUM
LMF .                     KB : LOG MEASURED FROM
DAPD.FT                 14.5 : FEET ABOVE PERMANENT DATUM
EKB .FT                 3147 : KELLY BUSHING
EGL .FT               3132.5 : GROUND LEVEL
DATE.               01/05/76 : RUN DATE
RUN .                      1 : RUN NUMBER
DD  .FT                11725 : DEPTH DRILLER
DL  .FT                11730 : DEPTH LOGGER
BLI .FT                11724 : BOTTOM LOG INTERVAL
TLI .FT                 1203 : TOP LOG INTERVAL
CBD .FT                 1203 : CASING BOTTOM DRILLER
CBL .FT                 1203 : CASING BOTTOM LOGGER
BS  .IN                 8.75 : BIT SIZE
BSD .FT                11725 : BIT SIZE AT DEPTH
DFT .                    GEL : DRILLING FLUID TYPE
DFD .                    9.6 : DRILLING FLUID DENSITY
DFV .                    110 : DRILLING FLUID VISCOSITY
DFPH.                   10.5 : DRILLING FLUID PH
DFL .                    9.8 : DRILLING FLUID LOSS
MSS .               FLOWLINE : MUD SAMPLE SOURCE
RMS .OHMM               2.42 : RESISTIVITY MUD SAMPLE
MST .DEGF                 74 : MUD SAMPLE TEMPERATURE
RMF .OHMM               1.63 : RESISTIVITY MUD FILTRATE SAMPLE
MFST.DEGF                 74 : MUD FILTRATE SAMPLE TEMPERATURE
RMB .OHMM               0.67 : RESISTIVITY MUD AT BHT
TCS .HRS                   3 : TIME CIRCULATED STOPPED
LUN .                   7658 : LOGGING UNIT NUMBER
LUL .                     RD : LOGGING UNIT LOCATION
ENGI.              DODSWORTH : RECORDING ENGINEER
WITN.   OLINYK LINDENSCHMIDT : WITNESSED BY
CLNT.                A2DTECH : CLIENT CODE
ORIG.            2" 5" PRINT : ORIGIN OF DATA
UWI .       100110306020W500 : UNIQUE WELL ID
DICO. A2D Technologies, Inc. : DIGITIZING COMPANY
~Other -----------------------------------------------------
DIL-LL-CNFD-BHC LOG RUN
CNFD DATA MISSING AROUND 25256' (MAY BE DUE TO LOG SPLICING)
~ASCII -----------------------------------------------------
# ...
 5400.00000   13.10890   10.08100   13.10890   89.47260    0.21130    2.06830    0.38110    0.37530   11.17660    0.21130   77.10150   77.10150   95.84460   97.30960   95.84460   11.17660   10.17520   12.15390   10.17520    0.22340    0.22340    2.06830 -122.94170   -3.49920   12.15390
 5450.00000   12.23240    9.53480   12.23240  107.30300    0.13540    1.98860    0.42360    0.42190    9.31940    0.13540   81.62210   81.62210  103.89890   98.37910  103.89890    9.31940    8.85640   10.60220    8.85640    0.25420    0.25420    1.98860 -122.32890   -3.52610   10.60220
 5500.00000   11.78020    9.47600   11.78020   91.10290    0.20360    2.07520    0.37570    0.37120   10.97660    0.20360   80.81590   80.81590   98.70160   93.66660   98.70160   10.97660    9.81560   12.00130    9.81560    0.22640    0.22640    2.07520 -121.56650   -3.40340   12.00130
 5550.00000   11.14090    9.47320   11.14090  102.24290    0.17800    2.13340    0.34120    0.33720    9.78070    0.17800   89.14880   89.14880  120.14380  110.28090  120.14380    9.78070    8.57320   11.26800    8.57320    0.28750    0.28750    2.13340 -119.66080   -2.13420   11.26800
 5600.00000   10.45510    9.49470   10.45510   77.92960    0.24530    2.30850    0.23420    0.23480   12.83210    0.24530   87.17600   87.17600  121.53410  117.05350  121.53410   12.83210   11.71810   15.61950   11.71810    0.26000    0.26000    2.30850 -118.83360   -1.94990   15.61950
 5650.00000   10.64920    9.49350   10.64920   82.37640    0.21440    2.34540    0.21560    0.21320   12.13940    0.21440   87.95130   87.95130  118.89350  118.46480  118.89350   12.13940   11.50240   15.94670   11.50240    0.26130    0.26130    2.34540 -117.77880   -1.53480   15.94670
 5700.00000   10.72620    9.49610   10.72620   47.76800    0.22940    2.40450    0.18320    0.17870   20.93450    0.22940   88.66020   88.66020  115.89540  110.94160  115.89540   20.93450   21.04790   26.98310   21.04790    0.27220    0.27220    2.40450 -118.15990   -2.55560   26.98310
 5750.00000   10.77380    9.50030   10.77380   60.79360    0.23620    2.36070    0.20800    0.20430   16.44910    0.23620   90.32540   90.32540  119.80970  114.69560  119.80970   16.44910   15.18340   22.65110   15.18340    0.28060    0.28060    2.36070 -117.40280   -2.72110   22.65110
 5800.00000   11.36700    9.49050   11.36700   60.70260    0.23800    2.41520    0.17680    0.17240   16.47510    0.23800   90.21780   90.21780  129.70990  115.36340  129.70990   16.47510   13.21460   18.30340   13.21460    0.27610    0.27610    2.41520 -116.93400   -3.30880   18.30340
 5850.00000   10.46840    9.49330   10.46840   30.10040    0.01310    2.50300    0.12210    0.12110   33.22210    0.01310   83.90000   83.90000  114.64450  115.11780  114.64450   33.22210   28.02540   46.19030   28.02540    0.23030    0.23030    2.50300 -117.11300   -4.55510   46.19030
 5900.00000   11.23850    9.50930   11.23850   98.35650    0.10390    2.20210    0.30230    0.29700   10.16710    0.10390   89.95620   89.95620  104.76470  104.23280  104.76470   10.16710    9.78820   13.53670    9.78820    0.29580    0.29580    2.20210 -115.65430   -4.15830   13.53670
 5950.00000   10.96690    9.50870   10.96690   71.64300    0.19550    2.32050    0.23690    0.22780   13.95810    0.19550   80.56840   80.56840   91.53390  102.02530   91.53390   13.95810   13.47260   18.54200   13.47260    0.17930    0.17930    2.32050 -114.77700   -4.34290   18.54200
 6000.00000   11.51480    9.49790   11.51480   82.76710    0.20130    2.22080    0.29260    0.28610   12.08210    0.20130   76.94780   76.94780   90.11230   88.88870   90.11230   12.08210    8.56690   10.02850    8.56690    0.22450    0.22450    2.22080 -113.89340   -4.52110   10.02850
 6050.00000    9.67470    9.49750    9.67470  118.78470    0.02900    2.53500    0.10160    0.10230    8.42220    0.02900   72.77650   72.77650   89.72940   88.26920   89.72940    8.42220   10.93920   13.42970   10.93920    0.18090    0.18090    2.53500 -113.73060   -5.41500   13.42970
 6100.00000   10.28700    9.48620   10.28700  102.68100    0.06030    2.48440    0.13390    0.13190    9.73890    0.06030   81.02040   81.02040  109.05190  101.90590  109.05190    9.73890    9.23540   10.71330    9.23540    0.25470    0.25470    2.48440 -111.12630   -3.87780   10.71330
 6150.00000   10.34570    9.51760   10.34570   75.73230    0.03630    2.48450    0.13350    0.13190   13.20440    0.03630   77.18660   77.18660  104.62960  101.79900  104.62960   13.20440   10.57850   12.81360   10.57850    0.23160    0.23160    2.48450 -110.87260   -4.68600   12.81360
 6200.00000   10.10540    9.63130   10.10540   76.31840    0.03080    2.52800    0.10790    0.10640   13.10300    0.03080   76.01860   76.01860  105.96750   92.65710  105.96750   13.10300   11.21600   13.41190   11.21600    0.22160    0.22160    2.52800 -107.80780   -2.68310   13.41190
 6250.00000   11.27910   10.17490   11.27910  125.42490    0.10400    2.35090    0.21180    0.21000    7.97290    0.10400   87.17680   87.17680   95.86560   91.55040   95.86560    7.97290    5.93250    7.56550    5.93250    0.33010    0.33010    2.35090 -106.03470   -1.97190    7.56550
 6300.00000   12.08870   10.39000   12.08870  115.43640    0.12420    2.37640    0.19950    0.19510    8.66280    0.12420   81.26760   81.26760  103.93010  106.92950  103.93010    8.66280    8.21220    9.88860    8.21220    0.29500    0.29500    2.37640 -107.64470   -4.63850    9.88860
 6350.00000   13.96360    9.78320   13.96360  149.88010    0.16390    2.08110    0.37250    0.36780    6.67200    0.16390   90.91560   90.91560  118.27320  127.55460  118.27320    6.67200    6.40880    9.15360    6.40880    0.33290    0.33290    2.08110 -106.35820   -3.87760    9.15360
 6400.00000   15.00000    9.48400   15.00000  218.92380    0.04780    1.54950    0.45000    0.67870    4.56780    0.04780   85.05420   85.05420  102.38040  113.34460  102.38040    4.56780    4.88150    6.51280    4.88150    0.32720    0.32720    1.54950 -107.09360   -4.61300    6.51280
 6450.00000   15.00000   12.40740   15.00000  116.14000    0.04610    1.51760    0.45000    0.69730    8.61030    0.04610   84.22520   84.22520   89.34640   95.94520   89.34640    8.61030    6.21340    7.54050    6.21340    0.36380    0.36380    1.51760 -107.85510   -5.37450    7.54050
 6500.00000   11.00380    9.49660   11.00380   81.06290    0.12520    2.01800    0.40300    0.40470   12.33610    0.12520   76.53230   76.53230   79.92430   88.87920   79.92430   12.33610   14.25790   22.88690   14.25790    0.22580    0.22580    2.01800 -107.10890   -4.62830   22.88690
 6550.00000   11.17000    9.49050   11.17000   43.37350    0.07650    2.47410    0.14020    0.13800   23.05610    0.07650   67.76180   67.76180   69.97530   64.48960   69.97530   23.05610   20.00890   24.07440   20.00890    0.08840    0.08840    2.47410 -107.16240   -4.68170   24.07440
 6600.00000   11.06300    9.47110   11.06300   53.61300    0.01170    2.50450    0.11960    0.12020   18.65220    0.01170   71.24220   71.24220   65.00400   59.90260   65.00400   18.65220   19.69150   21.71500   19.69150    0.15130    0.15130    2.50450 -109.96360   -8.52260   21.71500
 6650.00000   10.93700    9.57480   10.93700   31.20170    0.02370    2.47280    0.14830    0.13870   32.04950    0.02370   61.53240   61.53240   30.19710   33.79100   30.19710   32.04950   29.21860   43.00370   29.21860    0.09050    0.09050    2.47280 -119.67000  -20.39480   43.00370
 6700.00000   11.57000    9.78630   11.57000   34.28330    0.00430    2.51700    0.12180    0.11290   29.16870    0.00430   68.57680   68.57680   47.54410   43.20300   47.54410   29.16870   22.22750   27.75070   22.22750    0.11780    0.11780    2.51700 -108.00760  -10.89810   27.75070
 6750.00000   11.87860    9.79290   11.87860   58.98900    0.00770    2.45850    0.13840    0.14710   16.95230    0.00770   68.86980   68.86980   62.31380   64.93840   62.31380   16.95230   14.89280   22.96920   14.89280    0.16770    0.16770    2.45850 -107.03160  -10.42030   22.96920
