~Version ---------------------------------------------------
VERS.      2.0 : CWLS log ASCII Standard -VERSION 2.0
WRAP.       NO : One line per depth step
CREA. 11/16/17 : LAS Creation Date
~Well ------------------------------------------------------
STRT.FT                       1100.0 : START DEPTH
STOP.FT                      10650.0 : STOP DEPTH
STEP.FT                     50.00000 : STEP LENGTH
NULL.                        -999.25 : NULL VALUE
COMP.           PETROFINA CANADA LTD : COMPANY
WELL. FINA AMOCO HB PASSCK 10-6-61-1 : WELL
FLD .                             WC : FIELD
LOC .                                : LOCATION
CTRY.                         CANADA : COUNTRY
SRVC.                   Schlumberger : SERVICE COMPANY
DATE.                    16-Nov-1976 : LOGDATE
PROV.                        Alberta : PROVINCE
UWI .               100100606117W500 : UNIQUE WELL ID
SLAT.WGS84                  54.24964 : SURFACE LATITUDE
SLON.WGS84                 -116.5333 : SURFACE LONGITUDE
~Curve Information -----------------------------------------
DEPT    .FT    : Depth Curve
CALDED  .IN    : CALIPER FROM DENSITY LOG
CALSED  .IN    : CALIPER FROM SONIC LOG [ADJ. TO GRDED]
CALWS   .IN    : CALIPER [CALSED SPL. TO CALDED @ 2270']
CILDED  .MMHO  : CONDUCTIVITY FROM RESISTIVITY LOG
CONDWS  .MMHO  : CONDUCTIVITY [1000/DRESWS]
DCORED  .G/C3  : DENSITY CORRECTION FROM DENSITY LOG
DCORWS  .G/C3  : DENSITY CORRECTION [DCORED]
DENWS   .G/C3  : FORMATION BULK DENSITY [RHOBED]
DPHILSED.V/V   : DENSITY POROSITY LIMESTONE [M=2.71, F=1.00] FROM DENSITY LOG [ADJ. TO RHOBED]
DPHISSED.V/V   : DENSITY POROSITY SANDSTONE [M=2.65, F=1.00] FROM DENSITY LOG [ADJ. TO RHOBED]
DPOLSWS .V/V   : DENSITY POROSITY LIMESTONE [CALC FROM DENWS, M=2.71, F=1.00]
DRESWS  .OHMM  : DEEP RESISTIVITY [1000/CILDED IF ILDED<=1.9, ILDED & SPL. TO ILDED @ 2250']
DTED    .US/F  : DELTA TIME FROM SONIC LOG [ADJ. TO GRDED]
DTWS    .US/F  : COMPRESSIONAL SONIC [DTED]
GRDED   .GAPI  : GAMMA RAY FROM DENSITY LOG
GRSED   .GAPI  : GAMMA RAY FROM SONIC LOG [ADJ. TO GRDED]
GRWS    .GAPI  : GAMMA RAY [GRSED SPL. TO GRDED @ 2276']
ILDED   .OHMM  : DEEP INDUCTION RESISTIVITY FROM RESISTIVITY LOG
ILMED   .OHMM  : MEDIUM INDUCTION RESISTIVITY FROM RESISTIVITY LOG
LL8ED   .OHMM  : 8 INCH LATEROLOG RESISTIVITY FROM RESISTIVITY LOG
MRESWS  .OHMM  : MEDIUM RESISTIVITY [ILMED]
NPHILSED.V/V   : NEUTRON POROSITY LIMESTONE FROM DENSITY LOG [ADJ. TO RHOBED]
NPHISSED.V/V   : NEUTRON POROSITY SANDSTONE FROM DENSITY LOG [ADJ. TO RHOBED]
NPOLSWS .V/V   : NEUTRON POROSITY LIMESTONE [SS CONVERTED TO  LS & SPL. TO NPHILSED @ 6854.5']
RHOBED  .G/C3  : BULK DENSITY FROM DENSITY LOG
SPRED   .MV    : SPONTANEOUS POTENTIAL FROM RESISTIVITY LOG
SPWS    .MV    : SPONTANEOUS POTENTIAL [BASELINE 0 MV, SPRED]
SRESWS  .OHMM  : SHALLOW RESISTIVITY [LL8ED]
~Params ----------------------------------------------------
PD  .                     GL : PERMANENT DATUM
EPD .FT                 3080 : ELEVATION PERMANENT DATUM
LMF .                     KB : LOG MEASURED FROM
DAPD.FT                   16 : FEET ABOVE PERMANENT DATUM
EKB .FT                 3096 : KELLY BUSHING
EGL .FT                 3080 : GROUND LEVEL
DATE.               11/16/76 : RUN DATE
RUN .                      2 : RUN NUMBER
DD  .FT                10680 : DEPTH DRILLER
DL  .FT                10679 : DEPTH LOGGER
BLI .FT                10673 : BOTTOM LOG INTERVAL
TLI .FT                 7468 : TOP LOG INTERVAL
CBD .FT                 1102 : CASING BOTTOM DRILLER
CBL .FT                 1102 : CASING BOTTOM LOGGER
BS  .IN                 8.75 : BIT SIZE
BSD .FT                10680 : BIT SIZE AT DEPTH
DFT .                    GEL : DRILLING FLUID TYPE
DFD .                    9.2 : DRILLING FLUID DENSITY
DFV .                     94 : DRILLING FLUID VISCOSITY
DFPH.                     10 : DRILLING FLUID PH
DFL .                    8.2 : DRILLING FLUID LOSS
MSS .               FLOWLINE : MUD SAMPLE SOURCE
RMS .OHMM               1.57 : RESISTIVITY MUD SAMPLE
MST .DEGF                 65 : MUD SAMPLE TEMPERATURE
RMF .OHMM               1.76 : RESISTIVITY MUD FILTRATE SAMPLE
MFST.DEGF                 68 : MUD FILTRATE SAMPLE TEMPERATURE
TCS .HRS                 2.5 : TIME CIRCULATED STOPPED
LUN .                   7800 : LOGGING UNIT NUMBER
LUL .                    EDM : LOGGING UNIT LOCATION
ENGI.     ROBELLI LEDUG BIGG : RECORDING ENGINEER
WITN.                CHARLES : WITNESSED BY
CLNT.                A2DTECH : CLIENT CODE
ORIG.            2" 5" PRINT : ORIGIN OF DATA
UWI .       100100606117W500 : UNIQUE WELL ID
DICO. A2D Technologies, Inc. : DIGITIZING COMPANY
~Other -----------------------------------------------------
~ASCII -----------------------------------------------------
# ...
 2350.00000    9.68490    9.37270    9.68490    -999.25   70.08640    0.08630    0.08630    2.14870    -999.25    0.31770    0.32820   14.26810   99.96790   99.96790   60.81010   61.82820   60.81010   14.26810   13.25590   13.69920   13.25590    -999.25    0.36690    0.32350    2.14870  -25.71390   -5.49430   13.69920
 2400.00000   10.55410    9.56450   10.55410    -999.25  280.51550    0.22620    0.22620    2.06790    -999.25    0.34410    0.37550    3.57180  104.02200  104.02200   89.74670  101.64560   89.74670    3.57180    3.16410    3.81690    3.16410    -999.25    0.42110    0.37860    2.06790  -24.11230   -5.17840    3.81690
 2450.00000   14.19400   10.41200   14.19400    -999.25  221.25850    0.15890    0.15890    1.75850    -999.25    0.47580    0.55640    4.51960  118.55540  118.55540   86.42990   89.92060   86.42990    4.51960    4.18470    3.88500    4.18470    -999.25    0.45710    0.41560    1.75850  -20.36530   -2.11460    3.88500
 2500.00000    9.68330    9.35960    9.68330    -999.25   85.87300    0.15410    0.15410    2.32950    -999.25    0.20290    0.22250   11.77530   89.32410   89.32410   80.92610   81.42970   80.92610   11.77530   13.59900   15.85390   13.59900    -999.25    0.27950    0.23550    2.32950  -23.46450   -5.89260   15.85390
 2550.00000   11.76300    9.60340   11.76300    -999.25  235.44600    0.21650    0.21650    2.09860    -999.25    0.32440    0.35750    4.24810  101.47030  101.47030   74.50880   94.16510   74.50880    4.24810    3.71370    4.10510    3.71370    -999.25    0.39680    0.35390    2.09860  -24.91910   -8.02610    4.10510
 2600.00000   10.52650    9.49180   10.52650    -999.25  210.78370    0.17740    0.17740    2.08790    -999.25    0.32520    0.36380    4.74420   98.85320   98.85320   84.96600   85.65230   84.96600    4.74420    4.15870    4.53000    4.15870    -999.25    0.36540    0.32190    2.08790  -23.39070   -7.18110    4.53000
 2650.00000    9.67770    9.46950    9.67770    -999.25  157.81040    0.18930    0.18930    2.26680    -999.25    0.23360    0.25910    6.33670   93.35400   93.35400   65.21920   71.54340   65.21920    6.33670    7.16200    6.71050    7.16200    -999.25    0.35100    0.30740    2.26680  -21.19360   -5.30360    6.71050
 2700.00000    9.68370    9.29560    9.68370    -999.25   77.12600    0.07250    0.07250    2.29290    -999.25    0.21980    0.24390   12.96580   90.00030   90.00030   47.52410   57.86930   47.52410   12.96580   12.51700   11.25760   12.51700    -999.25    0.31100    0.26710    2.29290  -27.53560  -11.95510   11.25760
 2750.00000   11.50590   10.14900   11.50590    -999.25  226.31850    0.14410    0.14410    1.97350    -999.25    0.44070    0.43070    4.44000   94.88730   94.88730   80.96300   88.61630   80.96300    4.44000    4.76040    5.88000    4.76040    -999.25    0.44590    0.40420    1.97350  -21.92360   -6.65060    5.88000
 2800.00000   12.09280   10.08070   12.09280    -999.25  184.60450    0.20310    0.20310    2.21450    -999.25    0.26170    0.28970    5.41700   92.40940   92.40940   76.23150   85.33460   76.23150    5.41700    5.06710    5.32170    5.06710    -999.25    0.33570    0.29190    2.21450  -23.06950   -8.10400    5.32170
 2850.00000   11.88040    9.67900   11.88040    -999.25  320.10240    0.22020    0.22020    2.26760    -999.25    0.25460    0.25870    3.12400  101.54790  101.54790   91.01820  108.59620   91.01820    3.12400    3.27370    3.69890    3.27370    -999.25    0.41130    0.36870    2.26760  -23.98150   -9.32540    3.69890
 2900.00000   14.31510   11.28650   14.31510    -999.25  194.92870    0.16750    0.16750    1.92200    -999.25    0.45610    0.46090    5.13410  108.78620  108.78620   68.13730   64.18980   68.13730    5.13410    5.94080    5.64420    5.94080    -999.25    0.47760    0.43690    1.92200  -19.58790   -5.23920    5.64420
 2950.00000   10.14650   10.17810   10.14650    -999.25  145.93000    0.09370    0.09370    2.24910    -999.25    0.22090    0.26950    6.85260   88.90540   88.90540   58.53290   61.16370   58.53290    6.85260    4.63760    4.34120    4.63760    -999.25    0.36310    0.31960    2.24910  -19.07590   -5.03670    4.34120
 3000.00000   10.73020   11.01510   10.73020    -999.25  136.15950    0.17600    0.17600    2.30320    -999.25    0.22090    0.23790    7.37840  110.47790  110.47790   59.36410   66.93880   59.36410    7.37840    7.37570    8.66180    7.37570    -999.25    0.44300    0.40120    2.30320  -19.86150   -6.12980    8.66180
 3050.00000   11.08180   10.05500   11.08180    -999.25  170.45820    0.13240    0.13240    2.04840    -999.25    0.39740    0.38690    5.86750  104.23530  104.23530   60.07890   66.78650   60.07890    5.86750    5.24130    6.68300    5.24130    -999.25    0.46580    0.42470    2.04840  -17.60710   -4.18280    6.68300
 3100.00000   10.85640   10.33830   10.85640    -999.25  151.52430    0.23410    0.23410    2.28350    -999.25    0.24200    0.24940    6.59960   98.09750   98.09750   61.08270   67.29330   61.08270    6.59960    7.26350    7.63050    7.26350    -999.25    0.36270    0.31920    2.28350  -19.01360   -5.89880    7.63050
 3150.00000   12.97090   10.82560   12.97090    -999.25  184.01470    0.17390    0.17390    2.15000    -999.25    0.32310    0.32750    5.43430   95.70640   95.70640   61.71420   65.27250   61.71420    5.43430    4.90830    5.39250    4.90830    -999.25    0.39960    0.35680    2.15000  -19.41170   -6.60440    5.39250
 3200.00000   12.34180   10.62180   12.34180    -999.25  181.95710    0.22930    0.22930    2.30680    -999.25    0.21250    0.23580    5.49580   92.34000   92.34000   63.15120   72.71040   63.15120    5.49580    5.20050    5.07430    5.20050    -999.25    0.37270    0.32940    2.30680  -18.08930   -5.59140    5.07430
 3250.00000   10.54120    9.95560   10.54120    -999.25  163.45080    0.11570    0.11570    2.29040    -999.25    0.22420    0.24550    6.11810   90.95860   90.95860   62.12760   69.33780   62.12760    6.11810    6.41480    6.03300    6.41480    -999.25    0.38020    0.33700    2.29040  -18.58110   -6.39070    6.03300
 3300.00000    9.73860    9.11160    9.73860    -999.25   30.76290    0.18120    0.18120    2.32470    -999.25    0.19830    0.22540   32.51380   87.97900   87.97900   38.51110   41.29420   38.51110   32.51380   28.10770   26.61570   28.10770    -999.25    0.33250    0.28870    2.32470  -18.28130   -6.39840   26.61570
 3350.00000   10.99060   10.40610   10.99060    -999.25  112.14910    0.16310    0.16310    2.35500    -999.25    0.18910    0.20760    8.91670   87.36500   87.36500   57.13460   64.65990   57.13460    8.91670    8.67310   11.28810    8.67310    -999.25    0.35210    0.30850    2.35500  -16.61630   -5.04280   11.28810
 3400.00000   10.24850   10.05780   10.24850    -999.25  113.29430    0.08000    0.08000    2.50970    -999.25    0.07430    0.11710    8.89670   73.30010   73.30010   47.20560   58.74080   47.20560    8.89670    9.16550   11.29340    9.16550    -999.25    0.23610    0.19230    2.50970  -18.29150   -6.65990   11.29340
 3450.00000   10.64840   10.71800   10.64840    -999.25  151.91570    0.05300    0.05300    2.46200    -999.25    0.11300    0.14500    6.58260   87.89880   87.89880   60.31020   68.81690   60.31020    6.58260    5.81680    6.22280    5.81680    -999.25    0.33690    0.29310    2.46200  -18.62830   -6.41840    6.22280
 3500.00000   11.57570   10.94110   11.57570    -999.25  193.82570    0.19490    0.19490    2.39640    -999.25    0.16470    0.18340    5.15990  100.26250  100.26250   63.57680   72.66680   63.57680    5.15990    4.67460    5.20280    4.67460    -999.25    0.42480    0.38250    2.39640  -15.60330   -2.81880    5.20280
 3550.00000    9.96290    9.06080    9.96290    -999.25   59.32570    0.14520    0.14520    2.49640    -999.25    0.09570    0.12490   17.01620   75.70910   75.70910   43.52130   45.81070   43.52130   17.01620   17.46490   18.55100   17.46490    -999.25    0.21800    0.17440    2.49640  -25.18480  -11.82590   18.55100
