~Version ---------------------------------------------------
VERS. 2.0 : CWLS log ASCII Standard -VERSION 2.0
WRAP.  NO : ONE LINE PER DEPTH STEP
~Well ------------------------------------------------------
STRT.F                          1250.0 : START DEPTH
STOP.F                         11000.0 : STOP DEPTH
STEP.F                        50.00000 : STEP LENGTH
NULL.                          -999.25 : NULL VALUE
COMP.             MOBIL OIL CANADA LTD : COMPANY
WELL. MOBIL ET AL ROSEVEAR 10-19-53-14 : WELL
FLD .                                  : FIELD
LOC .                                  : LOCATION
CTRY.                           CANADA : COUNTRY
SRVC.                     Schlumberger : SERVICE COMPANY
DATE.                      04-Mar-1978 : LOGDATE
PROV.                          Alberta : PROVINCE
UWI .                 100101905314W500 : UNIQUE WELL ID
SLAT.WGS84                    53.59265 : SURFACE LATITUDE
SLON.WGS84                   -116.0472 : SURFACE LONGITUDE
~Curve Information -----------------------------------------
DEPT   .F    0   1   0  0 : 1 MEASURED DEPTH
GRD    .GAPI 45 310 01 00 : GAMMA RAY FROM DENSITY LOG
DRHO   .G/C3 45 356 01 00 : BULK DENSITY CORRECTION
RHOB   .G/C3 45 350 01 00 : BULK DENSITY
NPHI_SS.DEC  42 890 03 00 : NEUTRON POROSITY SANDSTONE
DPHI_SS.DEC  45 890 12 00 : DENSITY POROSITY SANDSTONE
CALD   .IN   45 280 60 00 : CALIPER FROM DENSITY LOG
NPHI_LS.DEC  42 890 01 00 : NEUTRON POROSITY LIMESTONE
DPHI_LS.DEC  45 890 10 00 : DENSITY POROSITY LIMESTONE
DT     .US/F 60 500 00 00 : DELTA-T (INTERVAL TRANSIT TIME)
SPR    .MV   07 010 01 00 : SPONTANEOUS POTENTIAL FROM RESISTIVITY LOG
ILD    .OHMM 07 120 46 00 : INDUCTION DEEP RESISTIVITY
ILM    .OHMM 07 120 44 00 : INDUCTION MEDIUM RESISTIVITY
LL8    .OHMM 07 220 08 00 : LATEROLOG 8
~Params ----------------------------------------------------
PD  .                     GL : PERMANENT DATUM
EPD .FT               2885.2 : ELEVATION PERMANENT DATUM
LMF .                     KB : LOG MEASURED FROM
DAPD.FT                 13.8 : FEET ABOVE PERMANENT DATUM
EKB .FT                 2899 : KELLY BUSHING
EGL .FT               2885.2 : GROUND LEVEL
DATE.               03/04/78 : RUN DATE
RUN .                      1 : RUN NUMBER
DD  .FT                11010 : DEPTH DRILLER
DL  .FT                11002 : DEPTH LOGGER
BLI .FT                10999 : BOTTOM LOG INTERVAL
TLI .FT                 1207 : TOP LOG INTERVAL
CBD .FT                 1205 : CASING BOTTOM DRILLER
CBL .FT                 1207 : CASING BOTTOM LOGGER
BS  .IN                 8.75 : BIT SIZE
BSD .FT                11010 : BIT SIZE AT DEPTH
DFT .               GEL CHEM : DRILLING FLUID TYPE
DFD .                    9.2 : DRILLING FLUID DENSITY
DFV .                    132 : DRILLING FLUID VISCOSITY
DFPH.                     10 : DRILLING FLUID PH
DFL .                    9.4 : DRILLING FLUID LOSS
MSS .               FLOWLINE : MUD SAMPLE SOURCE
RMS .OHMM               1.94 : RESISTIVITY MUD SAMPLE
MST .DEGF                 64 : MUD SAMPLE TEMPERATURE
RMF .OHMM               2.12 : RESISTIVITY MUD FILTRATE SAMPLE
MFST.DEGF                 59 : MUD FILTRATE SAMPLE TEMPERATURE
RMB .OHMM               0.65 : RESISTIVITY MUD AT BHT
TCS .HRS                   3 : TIME CIRCULATED STOPPED
LUN .                   7730 : LOGGING UNIT NUMBER
LUL .                    EDM : LOGGING UNIT LOCATION
ENGI.               CAMPBELL : RECORDING ENGINEER
WITN.              MATHEWSON : WITNESSED BY
CLNT.                A2DTECH : CLIENT CODE
ORIG.            2" 5" PRINT : ORIGIN OF DATA
UWI .       100101905314W500 : UNIQUE WELL ID
DICO. A2D Technologies, Inc. : DIGITIZING COMPANY
~Other -----------------------------------------------------
~ASCII -----------------------------------------------------
# ...
 6450.00000  105.98030    0.10640    1.74370    0.49990    0.53980   14.71380    -999.25    -999.25   82.05480  -33.65110    7.06780    7.40040    8.45310
 6500.00000   46.50100    0.01700    2.51690    0.20970    0.07940    8.78390    -999.25    -999.25   68.72770  -62.85350   27.63450   28.75250   31.82520
 6550.00000   63.25450    0.26170    2.44560    0.19810    0.07110    8.77730    -999.25    -999.25   65.16170  -39.93070   20.74850   22.63910   23.25170
 6600.00000  106.48130    0.14790    2.09290    -999.25    0.34630   11.28460    -999.25    -999.25   94.70280  -86.96270    3.39600    2.66860    4.04270
 6650.00000   96.05200    0.20610    2.14560    0.40900    0.30640   10.00650    -999.25    -999.25   67.40630  -92.01340   14.48420   14.35840   16.62990
 6700.00000   83.50370    0.23390    2.56460    0.31930    0.09670    9.73990    -999.25    -999.25   66.47600  -91.69550   13.40130   12.96340   16.79620
 6750.00000   94.89280    0.24710    2.22760    0.45330    0.28370   10.01910    -999.25    -999.25   69.74150  -90.80550   15.87570   17.88700   16.37780
 6800.00000   97.28260    0.00280    2.61040    0.31700    0.00580   11.36630    -999.25    -999.25   68.27920  -91.34570   17.49500   18.31670   22.18020
 6850.00000   67.64270    0.00080    2.55600    0.26180    0.04990    9.70320    -999.25    -999.25   63.28360  -99.22270   16.30240   17.37800   20.55380
 6900.00000   50.45620   -0.00050    2.54140    0.25930    0.05020   10.25360    -999.25    -999.25   67.34360 -104.60710   15.04020   16.10970   20.72110
 6950.00000   89.21350    0.16660    1.90830    0.53060    0.51310   12.20660    -999.25    -999.25   79.30950  -90.24790   13.10700   15.81410   17.81610
 7000.00000   57.82780    0.00590    2.56710    0.27100    0.05700   10.71570    -999.25    -999.25   67.58610  -99.30150   14.25300   15.52910   16.64480
 7050.00000   67.65360    0.00660    2.47440    0.24190    0.09520    9.85980    -999.25    -999.25   71.56190  -92.69170    9.14400    9.92540   10.20760
 7100.00000   85.87530   -0.00110    2.59030    0.35730    0.04290   12.06150    -999.25    -999.25   74.33780  -86.86500   11.02340   11.68300   13.05070
 7150.00000   90.60290    0.23040    2.50730    0.34490    0.07240   10.95290    -999.25    -999.25   69.44480  -86.41160   14.23520   15.12840   17.93270
 7200.00000   82.95710    0.11210    2.42610    0.49250    0.17500   10.15040    -999.25    -999.25   73.35660  -85.93640   25.10110   21.10180   38.50100
 7250.00000  104.11130    0.11000    2.00250    0.59420    0.38170   10.56420    -999.25    -999.25   91.41640  -87.15560   14.84590   18.10460   17.35540
 7300.00000   89.25480    0.01560    2.42910    0.54580    0.38180   10.20400    -999.25    -999.25   63.80240  -85.51890   28.72830   42.13240   69.23840
 7350.00000   61.04530    0.01280    2.47910    0.23300    0.09600   10.14610    -999.25    -999.25   59.41300  -92.10670   67.44600   60.44050   83.93550
 7400.00000   43.07880    0.23290    2.24700    0.22980    0.24400   10.00730    -999.25    -999.25   69.72070 -112.61190   20.05080   18.77480   23.88850
 7450.00000   26.26970    0.23120    2.52110    0.15010    0.06270    9.58510    -999.25    -999.25   55.53650 -113.70000  505.02610  156.38150  843.73140
 7500.00000  118.81870    0.24610    2.23460    0.36420    0.23250    9.75920    0.25390    0.16640   73.40480  -83.06290   10.67060   11.32370   17.36090
 7550.00000   26.42260    0.02660    2.57110    -999.25    -999.25    8.97890    0.04990    0.11950   53.97770 -129.38650  247.24280  332.17290  352.10720
 7600.00000   21.05180    0.08370    2.62220    -999.25    -999.25    8.97500    0.06360    0.08760   53.04100 -153.33510   53.41530   94.02080  230.74650
 7650.00000   18.82580   -0.00580    2.59950    -999.25    -999.25    8.89210    0.04650    0.07390   52.69500 -169.48520 1471.25160 1581.47680 1013.80240
 7700.00000   25.64820    0.00600    2.56380    -999.25    -999.25    8.77640    0.06470    0.07640   53.30620 -152.02570   61.03630   82.06610  248.07530
 7750.00000   32.30810    0.13760    2.55630    -999.25    -999.25    9.48930    0.13220    0.08700   51.69650 -122.99820   54.94480   55.90080   72.44310
 7800.00000   16.38630    0.20440    2.61200    -999.25    -999.25    9.44050    0.05670    0.05190   50.58300 -137.23470  271.58860  781.20120 1170.08590
 7850.00000   10.99040    0.11140    2.49910    -999.25    -999.25   10.02170    0.05600    0.11910   53.13120 -171.45860  208.13290  119.09780  370.74120
 7900.00000   73.19820    0.01000    2.69970    -999.25    -999.25    9.19760    0.19000   -0.00910   58.91130 -101.34780    8.82410    9.39950   12.86890
 7950.00000   80.03750   -0.00890    2.69380    -999.25    -999.25    9.19300    0.20240    0.01170   59.75530  -92.67210    6.00190    6.29860    8.28060
 8000.00000   65.22390    0.01810    2.69750    -999.25    -999.25    9.10390    0.15570   -0.00100   58.40630  -98.29670   11.15300   10.39590   16.60130
 8050.00000   33.20800    0.06870    2.64970    -999.25    -999.25    9.26100    0.06470    0.03850   51.26320  -74.69060  105.18240  114.23670  463.50230
 8100.00000   20.82760    0.00240    2.67960    -999.25    -999.25    9.32300    0.05150    0.02070   52.15560 -136.06120  110.09120  131.15780  128.55690
 8150.00000   40.56710    0.01640    2.66870    -999.25    -999.25    9.20170    0.08810    0.02070   55.04450  -68.05790   25.26420   26.90220   40.58760
 8200.00000   47.15290    0.00530    2.69330    -999.25    -999.25    9.20810    0.09820    0.01190   56.13980  -63.84680   28.17220   29.91370   41.14150
 8250.00000   42.03690   -0.00310    2.68100    -999.25    -999.25    9.14480    0.09390    0.01540   55.82070  -66.33680   39.74500   41.72500   50.95620
 8300.00000   58.78280   -0.01010    2.67260    -999.25    -999.25    9.10860    0.12550    0.01590   58.87110  -64.43030   17.48830   18.63980   25.09780
 8350.00000   51.51320   -0.00470    2.67640    -999.25    -999.25    8.99000    0.08310    0.02340   54.73520  -86.21530 1528.12480  898.54900  643.44190
 8400.00000   37.60070    0.00590    2.70720    -999.25    -999.25    9.07930    0.07300    0.00470   51.81940 -103.24840  422.33550  349.52580  351.58670
 8450.00000   29.22640    0.22260    2.67540    -999.25    -999.25    9.44720    0.03290    0.01890   48.67260 -132.98250 1278.74190  196.07590  440.61880
 8500.00000   16.89080    0.17780    2.67640    -999.25    -999.25    9.36720    0.02150   -0.00470   48.42890 -175.86230 1617.93480 1291.95690  772.16110
 8550.00000   15.77090    0.20050    2.56740    -999.25    -999.25    9.65190    0.06340    0.08020   47.92750 -171.74930 1534.94430  731.71500  727.79610
 8600.00000   11.82690    0.26490    2.47340    -999.25    -999.25    9.78120    0.05230    0.14550   48.28540 -176.14430 1579.78040  980.50070  505.03690
 8650.00000   11.43450    0.21340    2.55670    -999.25    -999.25    9.71800    0.06580    0.07340   46.49920 -170.21410 1513.00990 1158.03300  478.14090
 8700.00000   17.91380    0.24700    2.44490    -999.25    -999.25    9.78860    0.06660    0.15690   48.10370 -163.79370  545.45440  259.88420  807.66870
 8750.00000    9.02250    0.21750    2.57940    -999.25    -999.25    9.36810    0.04220    0.08600   47.92110 -168.78280  368.18090  222.23560  277.91260
 8800.00000   11.34710   -0.00430    2.70740    -999.25    -999.25    8.71770    0.05520    0.00110   48.35310 -159.98320   98.69130   87.96470  158.58330
 8850.00000   12.22730   -0.00620    2.65990    -999.25    -999.25    9.15570    0.04200    0.02510   49.15940 -150.57310  168.57040  134.58250  156.25580
 8900.00000   17.95080    0.24090    2.54730    -999.25    -999.25    9.63440    0.06660    0.09930   50.05630 -156.12230 1588.94960  266.31550  927.65800
 8950.00000   10.85070    0.20020    2.40490    -999.25    -999.25    9.93950    0.02650    0.16740   47.66240 -156.79680 1692.16390 1456.59770  652.22630
 9000.00000   16.34520   -0.00470    2.73270    -999.25    -999.25    9.16430    0.08970   -0.01980   51.87400 -142.95530   29.13290   25.67100   85.35670
