~Version ---------------------------------------------------
VERS.      2.0 : CWLS log ASCII Standard -VERSION 2.0
WRAP.       NO : One line per depth step
CREA. 10/27/17 : LAS Creation Date
~Well ------------------------------------------------------
STRT.FT                           1200.0 : START DEPTH
STOP.FT                          14850.0 : STOP DEPTH
STEP.FT                         50.00000 : STEP LENGTH
NULL.                            -999.25 : NULL VALUE
COMP.   SOCONY MOBIL OIL OF CANADA, LTD. : COMPANY
WELL. MOBIL SCURRY PEM RIVER A6-15-47-16 : WELL
FLD .                                    : FIELD
LOC .                                    : LOCATION
CTRY.                             CANADA : COUNTRY
SRVC.             Schlumberger of Canada : SERVICE COMPANY
DATE.                        26-Jul-1962 : LOGDATE
PROV.                            Alberta : PROVINCE
UWI .                   102061504716W500 : UNIQUE WELL ID
SLAT.WGS84                      53.05247 : SURFACE LATITUDE
SLON.WGS84                     -116.2582 : SURFACE LONGITUDE
~Curve Information -----------------------------------------
DEPT  .FT    : Depth Curve
CALWS .IN    : CALIPER [MCALED]
CILDED.MMHO  : DEEP INDUCTION CONDUCTIVITY FROM RESISTIVITY LOG [ADJ. TO ILDED]
CONDWS.MMHO  : CONDUCTIVITY [1000/DRESWS]
DRESWS.OHMM  : DEEP RESISTIVITY [1000/CILDED,IF ILDED<5,ILDED]
DT1ED .US/F  : DELTA TIME (3' SPACING- 1' PICKUP SPAN) FROM SONIC LOG
DTED  .US/F  : DELTA TIME (3' SPACING- 3' PICKUP SPAN) FROM SONIC LOG
DTWS  .US/F  : COMPRESSIONAL SONIC [DTED]
GRNED .GAPI  : GAMMA RAY GRN LOG
GRSED .GAPI  : GAMMA RAY FROM SONIC LOG
GRWS  .GAPI  : GAMMA RAY [SPLICED GRSED/GRNED FROM 11818' TO 12795']
ILDED .OHMM  : DEEP INDUCTION RESISTIVITY FROM RESISTIVITY LOG
MCALED.IN    : CALIPER FROM MICRO LOG
NEUTED.NAPI  : NEUTRON FROM GRN LOG
NEUTWS.NAPI  : NEUTRON [NEUTED]
SNED  .OHMM  : 16 INCH  SHORT NORMAL FROM RESISTIVITY LOG
SPRED .MV    : SPONTANEOUS POTENTIAL FROM RESISTIVITY LOG
SPWS  .MV    : SPONTANEOUS POTENTIAL [BASELINE 0 MV,SPRED]
SRESWS.OHMM  : SHALLOW RESISTIVITY [SNED]
~Params ----------------------------------------------------
PD  .                     GL : PERMANENT DATUM
LMF .                     KB : LOG MEASURED FROM
EKB .FT                 4176 : KELLY BUSHING
DATE.               07/26/62 : RUN DATE
RUN .                      3 : RUN NUMBER
DD  .FT                14885 : DEPTH DRILLER
DL  .FT                14889 : DEPTH LOGGER
BLI .FT                14888 : BOTTOM LOG INTERVAL
TLI .FT                12790 : TOP LOG INTERVAL
CBD .FT                12971 : CASING BOTTOM DRILLER
CBL .FT                12790 : CASING BOTTOM LOGGER
BS  .IN                    9 : BIT SIZE
BSD .FT                14885 : BIT SIZE AT DEPTH
DFT .              LIME BASE : DRILLING FLUID TYPE
DFD .                   14.7 : DRILLING FLUID DENSITY
DFV .                     50 : DRILLING FLUID VISCOSITY
DFPH.                     14 : DRILLING FLUID PH
DFL .                      4 : DRILLING FLUID LOSS
RMS .OHMM               0.44 : RESISTIVITY MUD SAMPLE
MST .DEGF                 71 : MUD SAMPLE TEMPERATURE
RMF .OHMM               0.24 : RESISTIVITY MUD FILTRATE SAMPLE
MFST.DEGF                 76 : MUD FILTRATE SAMPLE TEMPERATURE
RMC .OHMM                1.1 : RESISTIVITY MUD CAKE
MCST.DEGF                 77 : MUD CAKE SAMPLE TEMPERATURE
RMB .OHMM               0.12 : RESISTIVITY MUD AT BHT
TCS .HRS                   3 : TIME CIRCULATED STOPPED
LUN .                   1576 : LOGGING UNIT NUMBER
LUL .                     DV : LOGGING UNIT LOCATION
ENGI.               HATLELID : RECORDING ENGINEER
WITN.                 CARSON : WITNESSED BY
CLNT.                A2DTECH : CLIENT CODE
ORIG.            2" 5" PRINT : ORIGIN OF DATA
UWI .       102061504716W500 : UNIQUE WELL ID
DICO. A2D Technologies, Inc. : DIGITIZING COMPANY
~Other -----------------------------------------------------
GRN-IEL-ML-SONIC USED
NO SP RECORDED DUE TO EXCESSIVE TELLURIC CURRENTS, SP BELOW 3610M IS NOT LOOK VALID
~ASCII -----------------------------------------------------
# ...
 12850.00000    5.33400    7.95970    5.28900  189.09090   49.01740   49.80080   49.80080    6.35080    5.14690    5.14690  189.09090    5.33400 1951.04870 1951.04870   97.06220    -999.25    -999.25   97.06220
 12900.00000    5.62140   12.13810    8.79520  113.69780   48.62270   51.18910   51.18910    8.31810    9.37620    9.37620  113.69780    5.62140 1613.72220 1613.72220   60.14890    -999.25    -999.25   60.14890
 12950.00000    5.75500   11.29670    8.75470  114.38140   49.39520   49.83810   49.83810    6.62080    6.02140    6.02140  114.38140    5.75500 1614.58830 1614.58830   98.31200    -999.25    -999.25   98.31200
 13000.00000    5.77370    5.35790    1.99380  501.54270   48.09340   47.79460   47.79460    8.31620    6.96040    6.96040  501.54270    5.77370 1621.62820 1621.62820  111.41570    -999.25    -999.25  111.41570
 13050.00000    5.40820   38.37690   36.02890   27.75550   58.01140   62.09230   62.09230   45.34900   47.09580   47.09580   27.75550    5.40820  981.48770  981.48770   49.10610    -999.25    -999.25   49.10610
 13100.00000    5.81720   12.84670    9.87800  101.46800   56.34400   51.93150   51.93150    6.26150    7.08560    7.08560  101.46800    5.81720 1226.42030 1226.42030   60.33890    -999.25    -999.25   60.33890
 13150.00000    7.52380    6.51130    3.79490  263.51380   52.17150   48.34080   48.34080    4.86120    5.60750    5.60750  263.51380    7.52380 1689.42600 1689.42600   55.81510    -999.25    -999.25   55.81510
 13200.00000    8.22570   30.59040   22.58080   44.77430   50.50000   50.13130   50.13130   13.88520   14.01370   14.01370   44.77430    8.22570 1672.38220 1672.38220   28.28330    -999.25    -999.25   28.28330
 13250.00000    8.08840    8.44460    5.46540  182.96920   50.01810   51.31990   51.31990    7.09870    7.69500    7.69500  182.96920    8.08840 1979.78880 1979.78880   43.63670    -999.25    -999.25   43.63670
 13300.00000    7.86140  169.36400  176.52250    5.66500   76.01830   70.67090   70.67090   36.70750   36.94740   36.94740    5.66500    7.86140  729.76380  729.76380    8.94200    -999.25    -999.25    8.94200
 13350.00000    7.06680  242.37620  248.11100    4.03070    -999.25   76.19940   76.19940   36.95510   36.86750   36.86750    4.03070    7.06680  673.71650  673.71650    5.69750    -999.25    -999.25    5.69750
 13400.00000    8.39880   58.86200   56.53580   17.68790    -999.25   62.95020   62.95020   22.92370   21.31220   21.31220   17.68790    8.39880 1491.93770 1491.93770   15.07780    -999.25    -999.25   15.07780
 13450.00000    7.67880   71.18170   70.82010   14.12340    -999.25   59.30650   59.30650   26.54470   28.41470   28.41470   14.12340    7.67880 1548.26350 1548.26350   18.31640    -999.25    -999.25   18.31640
 13500.00000    8.35120   64.93190   65.33300   15.30620    -999.25   55.05060   55.05060   23.76300   24.07520   24.07520   15.30620    8.35120 1438.64010 1438.64010   15.79650    -999.25    -999.25   15.79650
 13550.00000    7.67530   25.43860   24.03220   41.61090    -999.25   52.85380   52.85380   13.74010   14.49720   14.49720   41.61090    7.67530 1830.59610 1830.59610   20.55900    -999.25    -999.25   20.55900
 13600.00000    7.75460  139.02300  139.19530    7.18420    -999.25   65.95410   65.95410   36.65660   36.98670   36.98670    7.18420    7.75460  927.90220  927.90220    6.74310    -999.25    -999.25    6.74310
 13650.00000    8.15640  188.64020  193.33380    5.17240    -999.25   71.71150   71.71150   35.46580   36.99480   36.99480    5.17240    8.15640 1061.98940 1061.98940    6.28570    -999.25    -999.25    6.28570
 13700.00000    7.28550  204.61840  204.61840    4.88740    -999.25   73.48930   73.48930   36.07420   35.75450   35.75450    4.93580    7.28550  630.05480  630.05480    5.82780    -999.25    -999.25    5.82780
 13750.00000    8.72260  236.16510  234.75280    4.25980    -999.25   71.50570   71.50570   42.33660   42.33100   42.33100    4.25980    8.72260  734.92850  734.92850    4.90050    -999.25    -999.25    4.90050
 13800.00000    7.91960  181.38110  182.23570    5.48740    -999.25   74.48130   74.48130   42.78170   44.33600   44.33600    5.48740    7.91960 1007.28250 1007.28250    6.79260    -999.25    -999.25    6.79260
 13850.00000    8.12550  187.88120  193.59600    5.16600   68.94630   71.25450   71.25450   32.54300   32.84820   32.84820    5.16600    8.12550  761.11340  761.11340    6.00980    -999.25    -999.25    6.00980
 13900.00000    8.36180  215.34440  215.34440    4.64370   79.31590   77.34490   77.34490   35.66390   35.01050   35.01050    4.54880    8.36180  614.79460  614.79460    5.24830    4.78220   -8.51050    5.24830
 13950.00000    7.41030  147.23100  148.90650    6.71660   70.33610   65.34700   65.34700   32.24510   32.51720   32.51720    6.71660    7.41030  927.75310  927.75310    6.83890  -48.28580  -66.24600    6.83890
 14000.00000    6.32920  169.31860  170.91970    5.85070   69.32450   69.50280   69.50280   41.14980   41.15220   41.15220    5.85070    6.32920 1146.06950 1146.06950    8.70170   -9.29870  -31.53870    8.70170
 14050.00000    6.14540  256.82770  256.82770    3.89370    -999.25   75.48620   75.48620   49.94770   49.41130   49.41130    3.88060    6.14540 1027.84700 1027.84700    6.41790    -999.25    -999.25    6.41790
 14100.00000    6.23810  106.73660  103.32260    9.68230    -999.25   63.38220   63.38220   31.06060   30.20390   30.20390    9.68230    6.23810 1577.69910 1577.69910   12.22460    -999.25    -999.25   12.22460
 14150.00000    6.30130  140.63300  140.29570    7.12780    -999.25   76.05890   76.05890   45.63490   46.22440   46.22440    7.12780    6.30130  995.88070  995.88070    8.50180    -999.25    -999.25    8.50180
 14200.00000    6.33840   22.18410   20.03820   50.16990    -999.25  107.44170  107.44170   70.30750   72.33910   72.33910   50.16990    6.33840 1041.34270 1041.34270   35.17770    -999.25    -999.25   35.17770
 14250.00000    6.44280   23.89630   20.70490   48.29770    -999.25   90.72640   90.72640   61.43920   62.53670   62.53670   48.29770    6.44280  975.20310  975.20310   39.80950    -999.25    -999.25   39.80950
 14300.00000    6.11900  245.69020  245.69020    4.07020    -999.25  113.09910  113.09910   41.48320   42.97710   42.97710    4.04510    6.11900  644.46860  644.46860    6.39870    -999.25    -999.25    6.39870
 14350.00000    5.99470   19.51310   16.42110   64.06860    -999.25   50.88370   50.88370    7.39530    7.84590    7.84590   64.06860    5.99470 3078.59670 3078.59670   43.36120    -999.25    -999.25   43.36120
 14400.00000    6.00050   68.83370   57.45310   17.40550    -999.25   53.31290   53.31290   16.11470   14.32840   14.32840   17.40550    6.00050 2418.56200 2418.56200   22.10610    -999.25    -999.25   22.10610
 14450.00000    6.22070  221.59370  221.59370    4.51400    -999.25   71.87020   71.87020   35.19270   34.98410   34.98410    4.66710    6.22070  992.90740  992.90740    7.12140    -999.25    -999.25    7.12140
 14500.00000    5.71340   16.92000   15.23300   65.64680    -999.25   53.04850   53.04850   10.36570   11.16370   11.16370   65.64680    5.71340 2691.46220 2691.46220   52.42890    -999.25    -999.25   52.42890
 14550.00000    5.87530   33.43690   31.44250   31.80410    -999.25   54.80550   54.80550   16.79080   16.72420   16.72420   31.80410    5.87530 2353.80810 2353.80810   27.92830    -999.25    -999.25   27.92830
 14600.00000    5.78770   30.48000   27.76780   36.01670    -999.25   53.25220   53.25220   16.84730   16.38520   16.38520   36.01670    5.78770 2412.44700 2412.44700   32.43990    -999.25    -999.25   32.43990
 14650.00000    5.68200    9.16170    7.05850  141.67370    -999.25   54.48770   54.48770   18.60740   19.44700   19.44700  141.67370    5.68200 2601.44680 2601.44680   64.17320    -999.25    -999.25   64.17320
 14700.00000    5.79980    5.83120    3.58240  279.14850    -999.25   52.79220   52.79220   16.52050   16.00440   16.00440  279.14850    5.79980 2688.51740 2688.51740  143.52410    -999.25    -999.25  143.52410
