~Version ---------------------------------------------------
VERS.      2.0 : CWLS log ASCII Standard -VERSION 2.0
WRAP.       NO : One line per depth step
CREA. 01/04/18 : LAS Creation Date
~Well ------------------------------------------------------
STRT.FT                            1100.0 : START DEPTH
STOP.FT                           10550.0 : STOP DEPTH
STEP.FT                          50.00000 : STEP LENGTH
NULL.                             -999.25 : NULL VALUE
COMP.                CHEVRON STANDARD LTD : COMPANY
WELL. CHEVRON GULF SHININGBANK 3-13-56-15 : WELL
FLD .                                     : FIELD
LOC .                                     : LOCATION
CTRY.                              CANADA : COUNTRY
SRVC.              Schlumberger of Canada : SERVICE COMPANY
DATE.                         25-Oct-1976 : LOGDATE
PROV.                             Alberta : PROVINCE
UWI .                    100031305615W500 : UNIQUE WELL ID
SLAT.WGS84                       53.83559 : SURFACE LATITUDE
SLON.WGS84                      -116.0977 : SURFACE LONGITUDE
~Curve Information -----------------------------------------
DEPT    .FT    : Depth Curve
CALDED  .IN    : CALIPER FROM DENSITY LOG
CALSED  .IN    : CALIPER FROM SONIC LOG [ADJ. TO RESISTIVITY LOG]
CALWS   .IN    : CALIPER [CALSED]
CONDWS  .MMHO  : CONDUCTIVITY [1000/DRESWS]
DCORED  .G/C3  : DENSITY CORRECTION FROM DENSITY LOG
DCORWS  .G/C3  : DENSITY CORRECTION [DCORED]
DENWS   .G/C3  : FORMATION BULK DENSITY [M=2.71 F=1.00] [RHOBED AND SPL. CALC DPHISSED FROM TOP TO 1142']
DPHILSED.V/V   : DENSITY POROSITY LIME [M=2.71 F=1.00] FROM DENSITY LOG [ADJ. TO RHOBED]
DPHISSED.V/V   : DENSITY POROSITY SAND [M=2.65 F=1.00] FROM DENSITY LOG [ADJ. TO RHOBED]
DPOLSWS .V/V   : DENSITY POROSITY [M=2.71 F=1.00] [CALC FROM DENWS]
DRESWS  .OHMM  : DEEP RESISTIVITY [ILDED]
DTED    .US/F  : DELTA-T FROM SONIC LOG [ADJ. TO RESISTIVITY LOG]
DTWS    .US/F  : COMPRESSIONAL SONIC [DTED]
GRDED   .GAPI  : GAMMA RAY FROM DENSITY LOG
GRSED   .GAPI  : GAMMA RAY FROM SONIC LOG [ADJ. TO GRDED]
GRWS    .GAPI  : GAMMA RAY [GRSED]
ILDED   .OHMM  : DEEP INDUCTION FROM RESISTIVITY LOG
ILMED   .OHMM  : MEDIUM INDUCTION FROM RESISTIVITY LOG
LL8ED   .OHMM  : LATEROLOG 8 FROM RESISTIVITY LOG
MRESWS  .OHMM  : MEDIUM RESISTIVITY [ILMED]
NPHILSED.V/V   : NEUTRON POROSITY LIME FROM DENSITY LOG [ADJ. TO RHOBED]
NPHISSED.V/V   : NEUTRON POROSITY SAND FROM DENSITY LOG [ADJ. TO RHOBED]
NPOLSWS .V/V   : NEUTRON POROSITY LIME [SS MATRIX(SLB) CONVERTED TO LIME, SPL. TO NPHILSED @ 2164']
RHOBED  .G/C3  : BULK DENSITY FROM DENSITY LOG
SPRED   .MV    : SPONTANEOUS POTENTIAL FROM RESISTIVITY LOG
SPWS    .MV    : SPONTANEOUS POTENTIAL [BASELINE 0 MV, SPRED]
SRESWS  .OHMM  : SHALLOW RESISTIVITY [LL8ED]
TENDED  .LBF   : TENSION FROM DENSITY LOG
TENSED  .LBF   : TENSION FROM SONIC LOG [ADJ. TO RESISTIVITY LOG]
~Params ----------------------------------------------------
EKB .FT               2889.7 : KELLY BUSHING
EGL .FT               2873.6 : GROUND LEVEL
DATE.               10/25/76 : RUN DATE
RUN .                      1 : RUN NUMBER
DD  .FT                10595 : DEPTH DRILLER
DL  .FT                10593 : DEPTH LOGGER
BLI .FT                10592 : BOTTOM LOG INTERVAL
TLI .FT                 1094 : TOP LOG INTERVAL
CBD .FT               1094.6 : CASING BOTTOM DRILLER
CBL .FT                 1094 : CASING BOTTOM LOGGER
BS  .IN                 8.75 : BIT SIZE
BSD .FT                10595 : BIT SIZE AT DEPTH
DFT .               GEL CHEM : DRILLING FLUID TYPE
DFD .                    9.5 : DRILLING FLUID DENSITY
DFV .                    124 : DRILLING FLUID VISCOSITY
DFPH.                   10.5 : DRILLING FLUID PH
DFL .                     10 : DRILLING FLUID LOSS
RMC .OHMM               2.04 : RESISTIVITY MUD CAKE
MCST.DEGF                 56 : MUD CAKE SAMPLE TEMPERATURE
RMB .OHMM               0.41 : RESISTIVITY MUD AT BHT
TCS .HRS                   5 : TIME CIRCULATED STOPPED
LUN .                   7691 : LOGGING UNIT NUMBER
LUL .                    WCT : LOGGING UNIT LOCATION
ENGI.              CROCKFORD : RECORDING ENGINEER
WITN.        WONG RICHARDSON : WITNESSED BY
CLNT.                A2DTECH : CLIENT CODE
ORIG.            2" 5" PRINT : ORIGIN OF DATA
UWI .       100031305615W500 : UNIQUE WELL ID
DICO. A2D Technologies, Inc. : DIGITIZING COMPANY
~Other -----------------------------------------------------
~ASCII -----------------------------------------------------
 1100.00000   11.30620   11.60210   11.60210    -999.25    -999.25    -999.25    1.82750    -999.25    0.49850    0.51610    -999.25   98.77920   98.77920   76.40690   73.68920   73.68920    -999.25    -999.25    -999.25    -999.25    -999.25    0.53110    0.48940    -999.25    -999.25    -999.25    -999.25    -999.25 2219.32480
 1150.00000    -999.25    9.98400    9.98400   23.40030    -999.25    -999.25    -999.25    -999.25    -999.25    -999.25   42.73450  128.58810  128.58810    -999.25   65.97540   65.97540   42.73450   60.99690   72.69330   60.99690    -999.25    -999.25    -999.25    -999.25  -36.34750   -7.30890   72.69330    -999.25 1148.87880
 1200.00000    -999.25   10.70720   10.70720  124.04080    -999.25    -999.25    -999.25    -999.25    -999.25    -999.25    8.07370   91.06810   91.06810    -999.25   60.41340   60.41340    8.07370    6.74290    7.68610    6.74290    -999.25    -999.25    -999.25    -999.25  -33.94590   -4.66850    7.68610    -999.25 1625.02830
 1250.00000    -999.25   10.85560   10.85560  186.73790    -999.25    -999.25    -999.25    -999.25    -999.25    -999.25    5.35510  114.67860  114.67860    -999.25   70.76470   70.76470    5.35510    4.26340    4.90280    4.26340    -999.25    -999.25    -999.25    -999.25  -32.91770   -3.40300    4.90280    -999.25 1840.40370
 1300.00000    -999.25   10.62050   10.62050   70.16760    -999.25    -999.25    -999.25    -999.25    -999.25    -999.25   14.25160  101.13290  101.13290    -999.25   57.15500   57.15500   14.25160   12.23450   10.44800   12.23450    -999.25    -999.25    -999.25    -999.25  -35.71770   -5.96570   10.44800    -999.25 1637.19360
 1350.00000    -999.25   13.86520   13.86520  225.86670    -999.25    -999.25    -999.25    -999.25    -999.25    -999.25    4.42830  147.55220  147.55220    -999.25   59.43240   59.43240    4.42830    3.80520    3.37120    3.80520    -999.25    -999.25    -999.25    -999.25  -32.62280   -2.63200    3.37120    -999.25 1723.76070
 1400.00000    -999.25   10.35330   10.35330  154.52130    -999.25    -999.25    -999.25    -999.25    -999.25    -999.25    6.47160   93.66930   93.66930    -999.25   78.20660   78.20660    6.47160    5.18480    5.23270    5.18480    -999.25    -999.25    -999.25    -999.25  -33.23180   -3.22070    5.23270    -999.25 2122.58380
 1450.00000    -999.25   10.56660   10.56660  167.38010    -999.25    -999.25    -999.25    -999.25    -999.25    -999.25    5.97460  101.71620  101.71620    -999.25   80.84720   80.84720    5.97460    4.68010    5.34810    4.68010    -999.25    -999.25    -999.25    -999.25  -30.74250   -0.73140    5.34810    -999.25 2267.63090
 1500.00000    -999.25   10.75740   10.75740  204.36940    -999.25    -999.25    -999.25    -999.25    -999.25    -999.25    4.89310  100.44370  100.44370    -999.25   77.38230   77.38230    4.89310    4.00730    4.32190    4.00730    -999.25    -999.25    -999.25    -999.25  -35.55440   -5.54330    4.32190    -999.25 1565.74030
 1550.00000    -999.25   10.33860   10.33860  148.71440    -999.25    -999.25    -999.25    -999.25    -999.25    -999.25    6.72430   91.29430   91.29430    -999.25   92.21310   92.21310    6.72430    5.58290    5.76060    5.58290    -999.25    -999.25    -999.25    -999.25  -34.78770   -4.77660    5.76060    -999.25 1559.95000
 1600.00000    -999.25   10.50060   10.50060  180.09120    -999.25    -999.25    -999.25    -999.25    -999.25    -999.25    5.55910   88.91030   88.91030    -999.25   76.08460   76.08460    5.55910    4.82200    5.87350    4.82200    -999.25    -999.25    -999.25    -999.25  -34.08490   -4.07380    5.87350    -999.25 1824.40020
 1650.00000    -999.25   10.67900   10.67900  176.03770    -999.25    -999.25    -999.25    -999.25    -999.25    -999.25    5.68060   93.29050   93.29050    -999.25   76.24070   76.24070    5.68060    4.90840    5.27110    4.90840    -999.25    -999.25    -999.25    -999.25  -36.26380   -6.25270    5.27110    -999.25 2086.98560
 1700.00000    -999.25   10.78380   10.78380  181.23100    -999.25    -999.25    -999.25    -999.25    -999.25    -999.25    5.51800   93.77460   93.77460    -999.25   80.34760   80.34760    5.51800    4.62250    4.75460    4.62250    -999.25    -999.25    -999.25    -999.25  -34.67430   -4.66320    4.75460    -999.25 1655.13290
 1750.00000    -999.25    9.47740    9.47740  132.81620    -999.25    -999.25    -999.25    -999.25    -999.25    -999.25    7.52920   88.94330   88.94330    -999.25   80.56340   80.56340    7.52920    6.65220    6.44090    6.65220    -999.25    -999.25    -999.25    -999.25  -34.40570   -4.39460    6.44090    -999.25 1674.45470
 1800.00000    -999.25    9.81180    9.81180  210.23420    -999.25    -999.25    -999.25    -999.25    -999.25    -999.25    4.75660   89.36670   89.36670    -999.25   70.39510   70.39510    4.75660    3.85880    4.65100    3.85880    -999.25    -999.25    -999.25    -999.25  -34.38480   -4.37370    4.65100    -999.25 1879.57230
 1850.00000    -999.25    9.94220    9.94220  197.24120    -999.25    -999.25    -999.25    -999.25    -999.25    -999.25    5.07480  113.52670  113.52670    -999.25   64.21780   64.21780    5.07480    4.06570    6.78430    4.06570    -999.25    -999.25    -999.25    -999.25  -33.39040   -3.37930    6.78430    -999.25 1829.24680
 1900.00000    -999.25   10.56770   10.56770  181.47170    -999.25    -999.25    -999.25    -999.25    -999.25    -999.25    5.51050   99.94660   99.94660    -999.25   73.59200   73.59200    5.51050    4.51830    6.52230    4.51830    -999.25    -999.25    -999.25    -999.25  -34.29620   -4.28510    6.52230    -999.25 1961.46170
 1950.00000    -999.25   10.55150   10.55150  183.33350    -999.25    -999.25    -999.25    -999.25    -999.25    -999.25    5.45690   96.40500   96.40500    -999.25   70.74080   70.74080    5.45690    4.20340    4.38720    4.20340    -999.25    -999.25    -999.25    -999.25  -35.69500   -5.68390    4.38720    -999.25 2198.41420
 2000.00000    -999.25   10.17110   10.17110  219.21650    -999.25    -999.25    -999.25    -999.25    -999.25    -999.25    4.56170  101.69300  101.69300    -999.25   81.05940   81.05940    4.56170    3.61350    3.69780    3.61350    -999.25    -999.25    -999.25    -999.25  -33.09510   -3.08400    3.69780    -999.25 2089.23460
 2050.00000    -999.25    9.82520    9.82520  220.88220    -999.25    -999.25    -999.25    -999.25    -999.25    -999.25    4.52730  101.66080  101.66080    -999.25   81.92410   81.92410    4.52730    3.40050    3.92880    3.40050    -999.25    -999.25    -999.25    -999.25  -34.09750   -4.08640    3.92880    -999.25 1517.69100
 2100.00000    -999.25   11.57400   11.57400  272.34620    -999.25    -999.25    -999.25    -999.25    -999.25    -999.25    3.67180  114.59000  114.59000    -999.25   67.95450   67.95450    3.67180    2.90340    3.32580    2.90340    -999.25    -999.25    -999.25    -999.25  -33.62400   -3.61290    3.32580    -999.25 1505.42820
 2150.00000    -999.25   10.38210   10.38210  318.52210    -999.25    -999.25    -999.25    -999.25    -999.25    -999.25    3.13950  140.93390  140.93390    -999.25   79.35470   79.35470    3.13950    2.27210    3.17880    2.27210    -999.25    -999.25    -999.25    -999.25  -32.86820   -2.85710    3.17880    -999.25 1821.55180
 2200.00000    -999.25   10.32650   10.32650  143.46130    -999.25    -999.25    -999.25    -999.25    -999.25    -999.25    7.01200   87.54330   87.54330    -999.25   67.88440   67.88440    7.01200    6.56270    8.15190    6.56270    -999.25    -999.25    -999.25    -999.25  -34.42800   -4.41690    8.15190    -999.25 1849.25060
 2250.00000    -999.25   11.69540   11.69540  219.73680    -999.25    -999.25    -999.25    -999.25    -999.25    -999.25    4.55090   95.43430   95.43430    -999.25   74.20420   74.20420    4.55090    3.87080    4.06780    3.87080    -999.25    -999.25    -999.25    -999.25  -32.61460   -2.60350    4.06780    -999.25 1894.89740
 2300.00000    -999.25   10.55120   10.55120  356.32840    -999.25    -999.25    -999.25    -999.25    -999.25    -999.25    2.80640  107.38020  107.38020    -999.25   90.23720   90.23720    2.80640    2.33320    2.84010    2.33320    -999.25    -999.25    -999.25    -999.25  -32.56630   -2.55520    2.84010    -999.25 1729.14080
