~Version ---------------------------------------------------
VERS.      2.0 : CWLS log ASCII Standard -VERSION 2.0
WRAP.       NO : One line per depth step
CREA. 08/31/17 : LAS Creation Date
~Well ------------------------------------------------------
STRT.FT                         1000.0 : START DEPTH
STOP.FT                        10100.0 : STOP DEPTH
STEP.FT                       50.00000 : STEP LENGTH
NULL.                          -999.25 : NULL VALUE
COMP.             PETROFINA CANADA LTD : COMPANY
WELL. FINA AMOCO HB PASS CK 6-33-62-17 : WELL
FLD .                                  : FIELD
LOC .                                  : LOCATION
CTRY.                           CANADA : COUNTRY
SRVC.                     Schlumberger : SERVICE COMPANY
DATE.                      14-Feb-1977 : LOGDATE
PROV.                          Alberta : PROVINCE
UWI .                 100063306217W500 : UNIQUE WELL ID
SLAT.WGS84                    54.40414 : SURFACE LATITUDE
SLON.WGS84                   -116.4922 : SURFACE LONGITUDE
~Curve Information -----------------------------------------
DEPT    .FT    : Depth Curve
CALDED  .IN    : CALIPER FROM CNFD LOG
CALSED  .IN    : CALIPER FROM BCS LOG [ADJ.TO GRDED]
CALWS   .IN    : CALIPER [CALSED]
CILDED  .MMHO  : CONDUCTIVITY FROM DIL-LAT LOG
CONDWS  .MMHO  : CONDUCTIVITY [CILDED SPL.TO 1000/ILDED @ 1035.5' TO 1151.5' & 4943' TO 10143']
DCORED  .G/C3  : DENSITY CORRECTION FROM CNFD LOG
DCORWS  .G/C3  : DENSITY CORRECTION [DCORED]
DENWS   .G/C3  : FORMATION BULK DENSITY [RHOBED]
DPHILSED.V/V   : DENSITY POROSITY LIMESTONE [M=2.71, F=1.0] FROM CNFD LOG [ADJ.TO RHOBED]
DPHISSED.V/V   : DENSITY POROSITY SANDSTONE [M=2.65, F=1.0] FROM CNFD LOG [ADJ.TO RHOBED]
DPOLSWS .V/V   : DENSITY POROSITY LIMESTONE [CALCULATED FROM DENWS, M=2.71, F=1.0]
DRESWS  .OHMM  : DEEP RESISTIVITY [1000/CONDWS, IF ILDED <=4 THEN ILDED]
DTED    .US/F  : DELTA-T FROM BCS LOG [ADJ.TO GRDED]
DTWS    .US/F  : COMPRESSIONAL SONIC [DTED]
GRDED   .GAPI  : GAMMA RAY FROM CNFD LOG
GRSED   .GAPI  : GAMMA RAY FROM SONIC LOG [ADJ.TO GRDED]
GRWS    .GAPI  : GAMMA RAY [GRSED]
ILDED   .OHMM  : DEEP INDUCTION FROM DIL-LAT LOG
ILMED   .OHMM  : MEDIUM INDUCTION FROM DIL-LAT LOG
LL8ED   .OHMM  : LATEROLOG 8 FROM DIL-LAT LOG
MRESWS  .OHMM  : MEDIUM RESISTIVITY [ILMED]
NPHILSED.V/V   : NEUTRON POROSITY LIMESTONE FROM CNFD LOG [ADJ.TO RHOBED]
NPHISSED.V/V   : NEUTRON POROSITY SANDSTONE FROM CNFD LOG [ADJ.TO RHOBED]
NPOLSWS .V/V   : NEUTRON POROSITY LIMESTONE [NPHISSED CONVERTED TO LIMESTONE MATRIX & SPL.TO NPHILSED @ 6299.5']
RHOBED  .G/C3  : FORMATION BULK DENSITY FROM CNFD LOG
SPHIED  .V/V   : SONIC POROSITY [DTM=55.6, DTF=189 & DTM=45.5 @ 6250 TO TD] FROM BCS LOG [ADJ.TO GRDED]
SPOWS   .V/V   : SONIC POROSITY [SPHIED]
SPRED   .MV    : SPONTANEOUS POTENTIAL FROM DIL-LAT LOG
SPWS    .MV    : SPONTANEOUS POTENTIAL [BASELINE 0 MV, SPRED]
SRESWS  .OHMM  : SHALLOW RESISTIVITY [LL8ED]
~Params ----------------------------------------------------
PD  .                     GL : PERMANENT DATUM
EPD .FT                 2942 : ELEVATION PERMANENT DATUM
LMF .                     KB : LOG MEASURED FROM
DAPD.FT                13.15 : FEET ABOVE PERMANENT DATUM
DMF .                     KB : DRILLING MEASURED FROM
EKB .FT              2955.15 : KELLY BUSHING
EGL .FT               2942.0 : GROUND LEVEL
DATE.               02/14/77 : RUN DATE
RUN .                      1 : RUN NUMBER
DD  .FT                10160 : DEPTH DRILLER
DL  .FT                10155 : DEPTH LOGGER
BLI .FT                10149 : BOTTOM LOG INTERVAL
TLI .FT                 1027 : TOP LOG INTERVAL
CBD .FT                 1028 : CASING BOTTOM DRILLER
CBL .FT                 1027 : CASING BOTTOM LOGGER
BS  .IN                 8.75 : BIT SIZE
BSD .FT                10160 : BIT SIZE AT DEPTH
DFT .               GEL CHEM : DRILLING FLUID TYPE
DFD .                    9.0 : DRILLING FLUID DENSITY
DFV .                     93 : DRILLING FLUID VISCOSITY
DFPH.                   11.0 : DRILLING FLUID PH
DFL .                    5.6 : DRILLING FLUID LOSS
RMF .OHMM               2.08 : RESISTIVITY MUD FILTRATE SAMPLE
MFST.DEGF                 70 : MUD FILTRATE SAMPLE TEMPERATURE
RMC .OHMM               0.94 : RESISTIVITY MUD CAKE
MCST.DEGF                 70 : MUD CAKE SAMPLE TEMPERATURE
RMB .OHMM               0.85 : RESISTIVITY MUD AT BHT
TCS .HRS                 3.5 : TIME CIRCULATED STOPPED
LUN .                   7803 : LOGGING UNIT NUMBER
LUL .                     DC : LOGGING UNIT LOCATION
ENGI.                   WATT : RECORDING ENGINEER
WITN.                 NELSON : WITNESSED BY
CLNT.                A2DTECH : CLIENT CODE
ORIG.            2" 5" PRINT : ORIGIN OF DATA
UWI .       100063306217W500 : UNIQUE WELL ID
DICO. A2D Technologies, Inc. : DIGITIZING COMPANY
~Other -----------------------------------------------------
~ASCII -----------------------------------------------------
 1000.00000    -999.25    -999.25    -999.25    -999.25    -999.25    -999.25    -999.25    -999.25    -999.25    -999.25    -999.25    -999.25    -999.25    -999.25    -999.25   61.85510   61.85510    -999.25    -999.25    -999.25    -999.25    -999.25    -999.25    -999.25    -999.25    -999.25    -999.25    -999.25    -999.25    -999.25
 1050.00000    -999.25    9.04680    9.04680    -999.25  182.46840    -999.25    -999.25    -999.25    -999.25    -999.25    -999.25    5.48040  104.79410  104.79410    -999.25  102.17690  102.17690    5.48040    4.30930    4.70530    4.30930    -999.25    -999.25    -999.25    -999.25    0.36880    0.36880  -67.51560   -3.71310    4.70530
 1100.00000    -999.25    8.98360    8.98360    -999.25  259.00030    -999.25    -999.25    -999.25    -999.25    -999.25    -999.25    3.86100  111.81180  111.81180    -999.25  133.02300  133.02300    3.86100    3.22940    3.47610    3.22940    -999.25    -999.25    -999.25    -999.25    0.42140    0.42140  -66.78470   -3.04500    3.47610
 1150.00000    -999.25    9.25880    9.25880    -999.25  296.32260    -999.25    -999.25    -999.25    -999.25    -999.25    -999.25    3.37470  115.06280  115.06280    -999.25  106.52520  106.52520    3.37470    2.92970    3.45120    2.92970    -999.25    -999.25    -999.25    -999.25    0.44570    0.44570  -66.35180   -2.69470    3.45120
 1200.00000    -999.25    9.02010    9.02010  242.09370  242.09370    -999.25    -999.25    -999.25    -999.25    -999.25    -999.25    4.48540  118.61160  118.61160    -999.25  124.99300  124.99300    4.48540    -999.25    4.07070    -999.25    -999.25    -999.25    -999.25    -999.25    0.47240    0.47240  -66.54080   -2.96670    4.07070
 1250.00000    -999.25    9.50520    9.50520  225.85590  225.85590    -999.25    -999.25    -999.25    -999.25    -999.25    -999.25    4.38220  108.38830  108.38830    -999.25  137.01660  137.01660    4.38220    -999.25    4.97310    -999.25    -999.25    -999.25    -999.25    -999.25    0.38450    0.38450  -66.45790   -2.96600    4.97310
 1300.00000    -999.25    9.92380    9.92380  250.85930  250.85930    -999.25    -999.25    -999.25    -999.25    -999.25    -999.25    3.98630  114.58920  114.58920    -999.25  107.83200  107.83200    3.77490    -999.25    4.25120    -999.25    -999.25    -999.25    -999.25    -999.25    0.46400    0.46400  -65.91180   -2.50250    4.25120
 1350.00000    -999.25    9.30600    9.30600   59.05020   59.05020    -999.25    -999.25    -999.25    -999.25    -999.25    -999.25   17.75330  104.92040  104.92040    -999.25   96.43980   96.43980   17.75330    -999.25   13.80170    -999.25    -999.25    -999.25    -999.25    -999.25    0.37510    0.37510  -72.67690   -9.35020   13.80170
 1400.00000    -999.25    9.47270    9.47270  278.46270  278.46270    -999.25    -999.25    -999.25    -999.25    -999.25    -999.25    3.59110  104.05570  104.05570    -999.25  125.53700  125.53700    3.60750    -999.25    4.14550    -999.25    -999.25    -999.25    -999.25    -999.25    0.35880    0.35880  -65.39960   -2.15550    4.14550
 1450.00000    -999.25    9.08190    9.08190  228.62670  228.62670    -999.25    -999.25    -999.25    -999.25    -999.25    -999.25    4.36410  104.22510  104.22510    -999.25   92.99060   92.99060    4.36410    -999.25    4.59820    -999.25    -999.25    -999.25    -999.25    -999.25    0.39640    0.39640  -67.31030   -4.14920    4.59820
 1500.00000    -999.25    8.44570    8.44570  316.88950  316.88950    -999.25    -999.25    -999.25    -999.25    -999.25    -999.25    3.15570  118.05340  118.05340    -999.25  111.26370  111.26370    3.19960    -999.25    3.72850    -999.25    -999.25    -999.25    -999.25    -999.25    0.51060    0.51060  -64.19530   -1.11640    3.72850
 1550.00000    -999.25    9.20820    9.20820  170.83300  170.83300    -999.25    -999.25    -999.25    -999.25    -999.25    -999.25    6.97880   93.28760   93.28760    -999.25   95.52240   95.52240    6.97880    -999.25    5.89140    -999.25    -999.25    -999.25    -999.25    -999.25    0.29220    0.29220  -65.48940   -2.49310    5.89140
 1600.00000    -999.25    9.33730    9.33730  245.08450  245.08450    -999.25    -999.25    -999.25    -999.25    -999.25    -999.25    4.08020  102.23470  102.23470    -999.25  108.67580  108.67580    3.57350    -999.25    3.83870    -999.25    -999.25    -999.25    -999.25    -999.25    0.36570    0.36570  -65.87840   -2.96470    3.83870
 1650.00000    -999.25    9.25480    9.25480  225.70360  225.70360    -999.25    -999.25    -999.25    -999.25    -999.25    -999.25    4.50100  102.55120  102.55120    -999.25  106.08920  106.08920    4.50100    -999.25    5.10250    -999.25    -999.25    -999.25    -999.25    -999.25    0.35910    0.35910  -65.56050   -2.72940    5.10250
 1700.00000    -999.25    9.16870    9.16870  239.49780  239.49780    -999.25    -999.25    -999.25    -999.25    -999.25    -999.25    4.16850  102.60650  102.60650    -999.25  121.94770  121.94770    4.16850    -999.25    4.56950    -999.25    -999.25    -999.25    -999.25    -999.25    0.36570    0.36570  -65.69760   -2.94950    4.56950
 1750.00000    -999.25    9.08560    9.08560  356.93220  356.93220    -999.25    -999.25    -999.25    -999.25    -999.25    -999.25    2.80170  108.40980  108.40980    -999.25  116.56540  116.56540    2.82500    -999.25    3.46020    -999.25    -999.25    -999.25    -999.25    -999.25    0.46530    0.46530  -63.78200   -1.11610    3.46020
 1800.00000    -999.25    9.25740    9.25740  152.86980  152.86980    -999.25    -999.25    -999.25    -999.25    -999.25    -999.25    6.70220   97.54520   97.54520    -999.25   99.30570   99.30570    6.70220    -999.25    5.68000    -999.25    -999.25    -999.25    -999.25    -999.25    0.33960    0.33960  -66.71570   -4.13240    5.68000
 1850.00000    -999.25    9.25730    9.25730  105.14270  105.14270    -999.25    -999.25    -999.25    -999.25    -999.25    -999.25   10.42530   94.08130   94.08130    -999.25  128.67020  128.67020   10.42530    -999.25    9.13770    -999.25    -999.25    -999.25    -999.25    -999.25    0.27900    0.27900  -68.36700   -5.86630    9.13770
 1900.00000    -999.25    9.22530    9.22530  319.81740  319.81740    -999.25    -999.25    -999.25    -999.25    -999.25    -999.25    3.12680  108.58640  108.58640    -999.25  123.65660  123.65660    3.12740    -999.25    3.49930    -999.25    -999.25    -999.25    -999.25    -999.25    0.38690    0.38690  -65.59240   -3.17430    3.49930
 1950.00000    -999.25    9.03220    9.03220  178.70090  178.70090    -999.25    -999.25    -999.25    -999.25    -999.25    -999.25    5.87280  100.12920  100.12920    -999.25  136.89520  136.89520    5.87280    -999.25    5.47470    -999.25    -999.25    -999.25    -999.25    -999.25    0.33660    0.33660  -66.27560   -3.79750    5.47470
 2000.00000    -999.25    9.27640    9.27640  162.77840  162.77840    -999.25    -999.25    -999.25    -999.25    -999.25    -999.25    6.20510  108.74320  108.74320    -999.25  126.71710  126.71710    6.20510    -999.25    6.73250    -999.25    -999.25    -999.25    -999.25    -999.25    0.31250    0.31250  -67.73730   -5.17700    6.73250
 2050.00000    -999.25    8.56450    8.56450  361.19200  361.19200    -999.25    -999.25    -999.25    -999.25    -999.25    -999.25    2.76860  107.41130  107.41130    -999.25  121.79440  121.79440    2.76730    -999.25    3.15250    -999.25    -999.25    -999.25    -999.25    -999.25    0.37380    0.37380  -64.58790   -1.94490    3.15250
 2100.00000    -999.25    8.79880    8.79880  295.74010  295.74010    -999.25    -999.25    -999.25    -999.25    -999.25    -999.25    3.38130   89.90830   89.90830    -999.25  106.35420  106.35420    3.37240    -999.25    4.40740    -999.25    -999.25    -999.25    -999.25    -999.25    0.25960    0.25960  -66.21060   -3.48490    4.40740
 2150.00000    -999.25    9.28340    9.28340  400.97600  400.97600    -999.25    -999.25    -999.25    -999.25    -999.25    -999.25    2.49390  107.91600  107.91600    -999.25  116.26620  116.26620    2.43600    -999.25    2.98600    -999.25    -999.25    -999.25    -999.25    -999.25    0.37600    0.37600  -65.44700   -2.63870    2.98600
