~Version ---------------------------------------------------
VERS.      2.0 : CWLS log ASCII Standard -VERSION 2.0
WRAP.       NO : One line per depth step
CREA. 09/27/17 : LAS Creation Date
~Well ------------------------------------------------------
STRT.FT                    300.0 : START DEPTH
STOP.FT                  13950.0 : STOP DEPTH
STEP.FT                 50.00000 : STEP LENGTH
NULL.                    -999.25 : NULL VALUE
COMP.   PENN WEST PETROLEUM LTD. : COMPANY
WELL. CONOCO WEB PECO 6-26-47-15 : WELL
FLD .                       PECO : FIELD
LOC .                            : LOCATION
CTRY.                     CANADA : COUNTRY
SRVC.     Schlumberger of Canada : SERVICE COMPANY
DATE.                03-May-1960 : LOGDATE
PROV.                    Alberta : PROVINCE
UWI .           100062604715W500 : UNIQUE WELL ID
SLAT.WGS84         53.0817985535 : SURFACE LATITUDE
SLON.WGS84       -116.0888900757 : SURFACE LONGITUDE
~Curve Information -----------------------------------------
DEPT  .FT         : Depth Curve
CALMED.IN         : CALIPER FROM MICRO LOG [ADJ. TO EL LOG]
CALWS .IN         : CALIPER [MCALED SPL. TO CALMED @ 9383']
CILDED.MMHO       : CONDUCTIVITY FROM IL LOG
CONDWS.MMHO       : CONDUCTIVITY [1000/DRESWS]
DRESWS.OHMM       : DEEP RESISTIVITY [LNED]
DT1ED .US/F       : DELTA-T 1 FEET SPACING FROM SONIC LOG [ADJ. TO EL LOG/DTED]
DTED  .US/F       : DELTA-T 3 FEET SPACING FROM SONIC LOG [ADJ. TO EL LOG]
DTWS  .US/F       : COMPRESSIONAL SONIC [DTED]
GRSED .UgRa-Eq/T  : GAMMA RAY FROM SONIC LOG [ADJ. TO EL LOG]
GRWS  .GAPI       : GAMMA RAY [GRSED*16.50, GRWS (CSG+15) @ 9354'-9407']
ILDED .OHMM       : DEEP INDUCTION FROM IL LOG
LNED  .OHMM       : LONG NORMAL FROM EL LOG
LT18ED.OHMM       : LATERAL 18 FROM EL LOG
MCALED.IN         : CALIPER FROM MICRO LOG [ADJ. TO EL LOG]
MLLED .OHMM       : CALIPER FROM MICRO LOG [ADJ. TO EL LOG]
SNED  .OHMM       : SHORT NORMAL FROM EL LOG
SPR1ED.MV         : SPONTANEOUS POTENTIAL FROM IL LOG
SPRED .MV         : SPONTANEOUS POTENTIAL FROM EL LOG
SPWS  .MV         : SPONTANEOUS POTENTIAL [SPRED SPL. TO SPR1ED @ 9383', BASELINE 0 MV]
SRESWS.OHMM       : SHALLOW RESISTIVITY [SNED]
~Params ----------------------------------------------------
PD  .                    GND : PERMANENT DATUM
LMF .                    GND : LOG MEASURED FROM
DMF .                    GND : DRILLING MEASURED FROM
EGL .FT                 3857 : GROUND LEVEL
DATE.               05/03/60 : RUN DATE
RUN .                      2 : RUN NUMBER
DD  .FT                13975 : DEPTH DRILLER
DL  .FT                13965 : DEPTH LOGGER
BLI .FT                13960 : BOTTOM LOG INTERVAL
TLI .FT                 9389 : TOP LOG INTERVAL
CBD .FT                 9386 : CASING BOTTOM DRILLER
CBL .FT                 9389 : CASING BOTTOM LOGGER
BS  .IN                8.875 : BIT SIZE
BSD .FT                13975 : BIT SIZE AT DEPTH
DFT .                   LIME : DRILLING FLUID TYPE
DFD .                     10 : DRILLING FLUID DENSITY
DFV .                     96 : DRILLING FLUID VISCOSITY
DFPH.                     13 : DRILLING FLUID PH
RMS .OHMM               0.69 : RESISTIVITY MUD SAMPLE
MST .DEGF                 58 : MUD SAMPLE TEMPERATURE
RMF .OHMM                0.4 : RESISTIVITY MUD FILTRATE SAMPLE
MFST.DEGF                 70 : MUD FILTRATE SAMPLE TEMPERATURE
RMC .OHMM                0.7 : RESISTIVITY MUD CAKE
MCST.DEGF                 70 : MUD CAKE SAMPLE TEMPERATURE
RMB .OHMM               0.16 : RESISTIVITY MUD AT BHT
TCS .HRS                   5 : TIME CIRCULATED STOPPED
LUN .               DSU C 72 : LOGGING UNIT NUMBER
ENGI.                  JAMES : RECORDING ENGINEER
WITN.               SHERRIFF : WITNESSED BY
CLNT.                A2DTECH : CLIENT CODE
ORIG.            2" 5" PRINT : ORIGIN OF DATA
UWI .       100062604715W500 : UNIQUE WELL ID
DICO. A2D Technologies, Inc. : DIGITIZING COMPANY
~Other -----------------------------------------------------
TOOL RAN: IL-EL-SONIC-ML-MLL LOG RAN.
EL LOG ARE FROM SMALL SECTION @FR-5350'& 680'0-7600',8200'-8900'
SONIC LOG ARE FROM SMALL SECTION @ FR-5000'& 6800'-7900',8200'-9000'
~ASCII -----------------------------------------------------
# ...
 12550.00000    8.78070    8.78070   32.06830   17.75390   56.33020   53.04780   55.09080   55.09080    1.57190   25.93550   31.58170   56.33020  150.26700    -999.25  162.43900   19.09680  -36.53670    -999.25  -19.82350   19.09680
 12600.00000    9.90210    9.90210  138.77640   87.63090   11.41150    -999.25   69.20040   69.20040    4.69500   77.46750    7.34070   11.41150   12.09070    -999.25    3.30670    7.41680  -25.80430 -190.25690   -9.77490    7.41680
 12650.00000    9.14940    9.14940  152.24440  117.25550    8.52850    -999.25   73.27890   73.27890    4.79660   79.14390    6.87060    8.52850    6.96220    -999.25    4.70040    6.78230  -19.59260 -130.76050   -5.06300    6.78230
 12700.00000    8.78090    8.78090  128.04840   85.72290   11.66550    -999.25   69.69880   69.69880    4.75240   78.41460    7.97370   11.66550    9.74230    -999.25    7.09940    8.33110  -18.46320  -77.68070   -5.44320    8.33110
 12750.00000    9.91750    9.91750  168.33030  124.76610    8.01500    -999.25   77.12880   77.12880    4.57070   75.41660    6.01940    8.01500    8.75310    -999.25    6.28210    6.42660  -15.25060 -144.08160   -3.73040    6.42660
 12800.00000   12.46990   12.46990  287.37110  176.28300    5.67270    -999.25   76.04180   76.04180    5.20000   85.80080    4.20670    5.67270    6.12690    -999.25    2.06300    3.49160  -12.67830 -158.69930   -2.65790    3.49160
 12850.00000   10.12510   10.12510  155.37200  110.50460    9.04940    -999.25   74.86040   74.86040    4.87540   80.44410    6.62130    9.04940    8.32730    -999.25    4.08520    6.87850   -9.84510 -106.48870   -1.33440    6.87850
 12900.00000   12.08110   12.08110  246.61210  164.86010    6.06580    -999.25   76.36650   76.36650    4.35390   71.83930    4.78850    6.06580    6.29950    -999.25    2.26240    3.89840   -9.15160 -113.41040   -2.14070    3.89840
 12950.00000   12.83330   12.83330  271.93300  159.70610    6.26150    -999.25   74.60660   74.60660    4.56370   75.30110    4.62950    6.26150    6.67630    -999.25    1.18360    4.04900   -9.25970  -25.94690   -3.75840    4.04900
 13000.00000   11.39150   11.39150  296.85180  171.08640    5.84500    -999.25   83.46330   83.46330    5.12030   84.48490    4.09780    5.84500    6.29230    -999.25    1.32760    4.21980   -8.32240    0.03360   -4.32090    4.21980
 13050.00000    8.79950    8.79950  162.29920  101.64930    9.83800    -999.25   70.37020   70.37020    4.87870   80.49860    6.49050    9.83800    7.90910    -999.25    5.05490    7.54560   -9.36920  -47.41440   -6.86750    7.54560
 13100.00000    8.40630    8.40630  113.97940   77.42930   12.91500    -999.25   70.05650   70.05650    4.69460   77.46090    9.25810   12.91500    6.47120    -999.25    5.76700    7.94730  -10.35400 -195.73120   -9.36200    7.94730
 13150.00000    8.55980    8.55980  183.08500  110.62110    9.04010    -999.25   72.55140   72.55140    5.04760   83.28540    5.73740    9.04010    9.46260    -999.25    4.52920    6.53410   -6.00470  -86.84980   -6.51250    6.53410
 13200.00000    8.86310    8.86310   20.34460   17.06540   58.59800   82.22240   81.61720   81.61720    3.91640   64.62060   49.42990   58.59800   24.34380    -999.25   56.37700   23.04370  -33.14260 -195.63100  -34.21280   23.04370
 13250.00000    9.03180    9.03180   47.65190   13.05780   76.58250   79.42850   78.45050   78.45050    4.79170   79.06300   31.29640   76.58250  142.61260    -999.25   46.06430   21.83370  -26.31610  -77.21390  -27.38630   21.83370
 13300.00000   13.43650   13.43650  199.52200   68.75180   14.55070   79.93190   79.49490   79.49490    9.93960  164.00340    5.43750   14.55070   88.05040    -999.25    1.36260    5.44610   -2.72930  -15.16500   -3.79950    5.44610
 13350.00000    8.68150    8.68150   30.04360   17.76390   56.29390   60.58290   56.56730   56.56730    6.03500   99.57750   31.19090   56.29390   24.84370    -999.25  136.94130   23.27880  -38.19630   -8.33690  -39.26650   23.27880
 13400.00000    9.57510    9.57510   27.39580   13.70350   72.98190   52.49890   52.29290   52.29290    2.19390   36.19940   40.70210   72.98190  150.94400    -999.25   14.22050   23.34490  -26.40250  -38.94210  -27.47270   23.34490
 13450.00000    8.74660    8.74660   28.90350   11.88890   84.11230   60.85430   57.18380   57.18380    3.57210   58.93970   36.94850   84.11230   68.60720    -999.25   11.65550   32.49910  -44.00340  -74.90550  -45.07360   32.49910
 13500.00000    8.78840    8.78840   16.11050    7.23520  138.21410   52.18640   52.39470   52.39470    0.74440   12.28260   70.86140  138.21410  177.12920    -999.25    7.45010   36.85840  -48.45470 -136.97140  -49.52490   36.85840
 13550.00000    8.29800    8.29800   25.33510   12.29950   81.30540   56.81510   55.70670   55.70670    3.01730   49.78460   41.48220   81.30540  103.22310    -999.25   33.70170   26.79840  -36.02870  -40.36880  -37.09890   26.79840
 13600.00000    8.42540    8.42540   30.88190   12.74220   78.47960   58.13610   58.46990   58.46990    2.59390   42.79940   33.32020   78.47960  102.96440    -999.25   27.40680   25.19910  -33.15060 -147.64770  -34.22080   25.19910
 13650.00000    8.34080    8.34080   10.55200    4.97150  201.15170   51.81050   52.28930   52.28930    2.39180   39.46550  101.78670  201.15170  249.73910    -999.25  117.48610   43.18280  -59.23220 -113.42000  -60.30240   43.18280
 13700.00000    8.31640    8.31640    8.66750    4.10890  243.37160   54.82280   57.15590   57.15590    1.33130   21.96640  105.78310  243.37160  260.47270    -999.25   61.31680   45.17280  -63.50590 -154.67700  -64.57610   45.17280
 13750.00000    8.74590    8.74590    1.81270    2.00190  499.52410   50.20710   50.69660   50.69660    1.46940   24.24510  499.19650  499.52410  397.42300    -999.25    7.96500   71.09820  -94.60410 -144.35470  -95.67430   71.09820
 13800.00000    7.93970    7.93970    3.46710    2.51800  397.15050   52.64970   51.33200   51.33200    1.30690   21.56470  326.95490  397.15050  486.09080    -999.25  213.28130   44.43510  -81.19470 -148.05750  -82.26490   44.43510
 13850.00000    8.33670    8.33670    2.98430    6.13720  162.94130   48.83280   48.76110   48.76110    2.46200   40.62300  185.00370  162.94130  227.13210    -999.25   76.83820   30.75130 -109.63350  -98.23220 -110.70370   30.75130
 13900.00000    7.91670    7.91670   24.94390    9.40980  106.27850   49.91330   49.25520   49.25520    1.42430   23.50090   45.08230  106.27850  182.49710    -999.25    6.75450   30.04360 -118.47020 -110.43840 -119.54040   30.04360
 13950.00000    8.30960    8.30960    1.64080    2.14720  465.72340    -999.25    -999.25    -999.25    -999.25    -999.25  380.08650  465.72340   55.45430    -999.25    4.10610   94.75620 -175.10100 -112.44130 -176.17120   94.75620
