~Version ---------------------------------------------------
VERS.      2.0 : CWLS log ASCII Standard -VERSION 2.0
WRAP.       NO : One line per depth step
CREA. 09/26/17 : LAS Creation Date
~Well ------------------------------------------------------
STRT.FT                        1200.0 : START DEPTH
STOP.FT                       11400.0 : STOP DEPTH
STEP.FT                      50.00000 : STEP LENGTH
NULL.                         -999.25 : NULL VALUE
COMP.   THE ATLANTIC REFINING COMPANY : COMPANY
WELL. ATLANTIC ANTE CREEK 10-30-64-23 : WELL
FLD .                                 : FIELD
LOC .                                 : LOCATION
CTRY.                          CANADA : COUNTRY
SRVC.                    Schlumberger : SERVICE COMPANY
DATE.                     27-Mar-1963 : LOGDATE
PROV.                         Alberta : PROVINCE
UWI .                100103006423W500 : UNIQUE WELL ID
SLAT.WGS84                   54.56828 : SURFACE LATITUDE
SLON.WGS84                  -117.4641 : SURFACE LONGITUDE
~Curve Information -----------------------------------------
DEPT  .FT    : Depth Curve
CALSED.IN    : CALIPER FROM SONIC LOG
CALWS .IN    : CALIPER [CALSED]
CILDED.MMHO  : CONDUCTIVITY FROM RESISTIVITY LOG
CONDWS.MMHO  : CONDUCTIVITY [1000/DRESWS]
DRESWS.OHMM  : DEEP RESISTIVITY [1000/CILDED IF ILDED <= 5, ILDED]
DTED  .US/F  : DELTA TIME FROM SONIC LOG
DTWS  .US/F  : COMPRESSIONAL SONIC [DTED]
GRSED .GAPI  : GAMMA RAY FROM SONIC LOG
GRWS  .GAPI  : GAMMA RAY [GRSED]
ILDED .OHMM  : DEEP INDUCTION RESISTIVITY FROM RESISTIVITY LOG
MCALED.IN    : CALIPER FROM MICROLOG
SNED  .OHMM  : 16 INCH SHORT NORMAL FROM EL LOG
SPRED .MV    : SPONTANEOUS POTENTIAL FROM RESISTIVITY LOG
SPWS  .MV    : SPONTANEOUS POTENTIAL [BASELINE 0 MV, SPRED]
SRESWS.OHMM  : SHALLOW RESISTIVITY [SNED]
~Params ----------------------------------------------------
PD  .                     GL : PERMANENT DATUM
EPD .FT                 2707 : ELEVATION PERMANENT DATUM
LMF .                     KB : LOG MEASURED FROM
DAPD.FT                 14.5 : FEET ABOVE PERMANENT DATUM
EKB .FT               2722.3 : KELLY BUSHING
EGL .FT               2707.8 : GROUND LEVEL
DATE.               03/27/63 : RUN DATE
RUN .                      1 : RUN NUMBER
DD  .FT                11449 : DEPTH DRILLER
DL  .FT                11449 : DEPTH LOGGER
BLI .FT                11448 : BOTTOM LOG INTERVAL
TLI .FT                 1197 : TOP LOG INTERVAL
CBD .FT                 1197 : CASING BOTTOM DRILLER
CBL .FT                 1197 : CASING BOTTOM LOGGER
BS  .IN                 8.75 : BIT SIZE
BSD .FT                11449 : BIT SIZE AT DEPTH
DFT .               GEL CHEM : DRILLING FLUID TYPE
DFD .                    9.5 : DRILLING FLUID DENSITY
DFV .                     60 : DRILLING FLUID VISCOSITY
DFPH.                   10.5 : DRILLING FLUID PH
DFL .                    5.6 : DRILLING FLUID LOSS
RMS .OHMM               2.09 : RESISTIVITY MUD SAMPLE
MST .DEGF                 58 : MUD SAMPLE TEMPERATURE
RMF .OHMM               1.46 : RESISTIVITY MUD FILTRATE SAMPLE
MFST.DEGF                 67 : MUD FILTRATE SAMPLE TEMPERATURE
RMC .OHMM               2.43 : RESISTIVITY MUD CAKE
MCST.DEGF                 67 : MUD CAKE SAMPLE TEMPERATURE
TCS .HRS                   4 : TIME CIRCULATED STOPPED
LUN .                OSU 8 9 : LOGGING UNIT NUMBER
LUL .                     DC : LOGGING UNIT LOCATION
ENGI.                  MILLS : RECORDING ENGINEER
WITN.            COWAN SCOTT : WITNESSED BY
CLNT.                A2DTECH : CLIENT CODE
ORIG.            2" 5" PRINT : ORIGIN OF DATA
UWI .       100103006423W500 : UNIQUE WELL ID
DICO. A2D Technologies, Inc. : DIGITIZING COMPANY
~Other -----------------------------------------------------
IEL-ML-BHC LOG RUN
DATA FROM 1" LOG
~ASCII -----------------------------------------------------
 1200.00000   10.36670   10.36670    -999.25    -999.25    -999.25   63.15710   63.15710   57.34260   57.34260    -999.25   13.42750    5.88160  -79.77180   -3.67860    5.88160
 1250.00000    9.07460    9.07460  255.62110  255.62110    3.91200   69.46360   69.46360   71.50360   71.50360    3.83660   12.31870    4.77460  -80.89720   -4.78860    4.77460
 1300.00000    9.27590    9.27590  215.09750  215.09750    4.64910   68.59830   68.59830   78.61850   78.61850    4.21940   14.25280    5.06280  -81.63010   -5.48600    5.06280
 1350.00000    9.96760    9.96760  242.46390  242.46390    4.12480   69.20390   69.20390   65.26950   65.26950    3.72980   15.38900    4.45880  -83.47050   -7.29070    4.45880
 1400.00000    9.46230    9.46230  221.34920  221.34920    4.51770   67.67610   67.67610   68.89780   68.89780    4.20190   16.55550    4.73020  -83.59060   -7.37540    4.73020
 1450.00000    9.60270    9.60270  297.05420  297.05420    3.36640   69.92540   69.92540   75.52220   75.52220    2.96870   15.94810    3.99480  -84.06100   -7.81010    3.99480
 1500.00000   12.90980   12.90980  282.71240  282.71240    3.53720   72.90190   72.90190   74.05140   74.05140    3.04470   13.91230    3.69220  -83.74570   -7.45930    3.69220
 1550.00000   11.33680   11.33680  371.27390  371.27390    2.69340   72.88380   72.88380   84.53490   84.53490    2.30860   12.00710    3.38220  -83.13770   -6.81590    3.38220
 1600.00000    9.49600    9.49600  138.16510  147.55250    6.77730   64.56440   64.56440  103.64520  103.64520    6.77730   13.95170    7.54560  -82.79920   -6.44170    7.54560
 1650.00000   11.60320   11.60320  316.84130  316.84130    3.15620   63.38040   63.38040   79.65820   79.65820    2.58060   13.87830    3.72280  -80.02750   -3.63450    3.72280
 1700.00000   11.70810   11.70810  294.86300  294.86300    3.39360   71.20200   71.20200   75.46470   75.46470    2.69010   14.99830    3.51200  -80.86560   -4.43690    3.51200
 1750.00000   10.76100   10.76100   95.70790  112.68620    8.87420   59.76650   59.76650   71.96040   71.96040    8.87420   11.27640   10.31160  -88.87730  -12.41310   10.31160
 1800.00000   11.25180   11.25180  170.21990  183.62440    5.44590   64.07600   64.07600   69.87480   69.87480    5.44590   10.92150    6.30140  -82.03790   -5.53830    6.30140
 1850.00000   10.94000   10.94000  439.40110  439.40110    2.27950   68.19170   68.19170   81.23880   81.23880    1.59760   12.69640    2.78430  -81.80570   -5.27040    2.78430
 1900.00000   11.32490   11.32490  241.37730  241.37730    4.14290   60.39800   60.39800   73.95430   73.95430    3.61020   16.05590    4.34880  -81.72810   -5.15730    4.34880
 1950.00000    8.50190    8.50190  121.24220  123.95350    8.10280   68.96870   68.96870   76.81200   76.81200    8.10280    9.62200   11.24540  -85.66250   -9.05600   11.24540
 2000.00000    8.74670    8.74670   82.44820   79.81870   12.52840   60.75710   60.75710   59.08710   59.08710   12.52840    9.99360   12.14350  -93.31890  -16.67700   12.14350
 2050.00000    8.44450    8.44450  132.28260  120.32100    8.31110   62.51610   62.51610   55.61460   55.61460    8.31110    9.37840    7.51590  -83.34130   -6.66390    7.51590
 2100.00000    8.32450    8.32450   98.55270  100.04920    9.99510   65.57770   65.57770   56.07150   56.07150    9.99510    8.53250    9.86330  -89.91520  -13.20210    9.86330
 2150.00000    8.26040    8.26040  115.01250  102.65680    9.74120   64.90300   64.90300   61.69260   61.69260    9.74120    8.79390    8.88460  -92.41260  -15.66400    8.88460
 2200.00000   11.98600   11.98600  234.64550  234.64550    4.26430   63.41030   63.41030   76.04440   76.04440    3.48870   12.59360    3.82740  -80.54660   -3.76230    3.82740
 2250.00000    8.44980    8.44980   73.19470   73.28420   13.64550   63.83470   63.83470   55.51880   55.51880   13.64550    9.65100   11.38360  -95.70010  -18.88040   11.38360
 2300.00000    9.14840    9.14840  201.20800  189.58780    5.27460   70.21160   70.21160   60.04700   60.04700    5.27460    9.82660    5.96500  -82.21480   -5.35960    5.96500
 2350.00000   11.34490   11.34490  187.53650  199.07120    5.02350   64.49090   64.49090   64.08010   64.08010    4.77680   13.41770    4.69650  -82.43040   -5.53950    4.69650
 2400.00000   10.21230   10.21230  209.37290  209.37290    4.77620   69.32140   69.32140   58.22540   58.22540    4.54920   15.42910    4.99970  -81.13170   -4.20540    4.99970
 2450.00000    8.07060    8.07060   91.94180   84.46160   11.84020   61.30240   61.30240   65.07420   65.07420   11.84020    9.01720    9.87730  -88.77020  -11.80820    9.87730
 2500.00000   11.64390   11.64390  288.02960  288.02960    3.47190   69.50830   69.50830   56.27070   56.27070    3.15800   14.95170    4.47990  -80.68820   -3.69070    4.47990
 2550.00000    9.26520    9.26520  126.17820  139.48750    7.16910   59.61370   59.61370   62.35040   62.35040    7.16910   10.88720    7.92270  -79.65040   -2.61740    7.92270
 2600.00000   10.64390   10.64390  243.16190  243.16200    4.11400   63.22100   63.22100   58.07410   58.07410    3.56980   12.55650    4.62850  -81.16760   -4.09890    4.62850
 2650.00000    9.23960    9.23960  112.35620  131.46310    7.60670   59.90610   59.90610   60.13610   60.13610    7.60670   10.78300    8.67620  -82.46700   -5.36290    8.67620
 2700.00000   10.60930   10.60930  227.40300  227.40300    4.40110   59.24500   59.24500   62.09230   62.09230    4.13400   12.24610    4.90870  -80.20970   -3.06990    4.90870
 2750.00000   10.52970   10.52970  265.33680  265.33680    3.76880   65.34900   65.34900   59.64840   59.64840    3.37570   12.63110    4.36290  -80.77430   -3.59900    4.36290
 2800.00000    9.10630    9.10630   92.22170   96.02090   10.41440   64.41190   64.41190   52.59030   52.59030   10.41440    9.64050    9.82960  -87.47910  -10.26840    9.82960
 2850.00000    9.82650    9.82650  214.24720  214.24720    4.66790   62.06830   62.06830   66.33160   66.33160    4.30630   13.61720    4.72510  -80.31540   -3.06900    4.72510
 2900.00000    9.10950    9.10950  151.99030  126.89870    7.88030   63.56200   63.56200   51.02080   51.02080    7.88030    9.35180    7.09150  -82.93430   -5.65240    7.09150
 2950.00000    9.15650    9.15650  160.02550  163.80280    6.10550   66.05510   66.05510   67.72000   67.72000    6.10550   10.85690    7.05770  -81.55430   -4.23670    7.05770
 3000.00000    8.70920    8.70920   65.85630   64.59200   15.48180   60.47440   60.47440   48.18940   48.18940   15.48180    9.62630   15.65270  -90.92160  -13.56850   15.65270
 3050.00000    8.48700    8.48700   50.67120   50.97620   19.61700   61.52850   61.52850   43.72420   43.72420   19.61700    9.29190   13.92780  -93.92580  -16.53730   13.92780
 3100.00000   13.11420   13.11420  279.38090  279.38090    3.58040   79.30120   79.30120   59.43790   59.43790    3.29820   19.75100    4.38450  -81.05130   -3.62710    4.38450
 3150.00000   10.12650   10.12650  157.11040  161.19410    6.20370   59.66120   59.66120   53.29880   53.29880    6.20370   10.50090    7.51370  -80.41590   -2.95620    7.51370
 3200.00000   11.83030   11.83030  241.61080  241.61080    4.14040   68.00380   68.00380   63.23650   63.23650    3.98770   14.84060    5.08350  -80.11340   -2.59110    5.08350
 3250.00000   10.49210   10.49210  228.77340  228.77340    4.37110   67.49600   67.49600   79.85540   79.85540    4.02480   13.43090    5.65550  -79.56450   -1.75070    5.65550
 3300.00000   10.07430   10.07430  166.13400  178.43440    5.60430   64.91250   64.91250   75.42610   75.42610    5.60430   13.06260    7.15010  -79.70450   -1.59920    7.15010
 3350.00000   10.93190   10.93190  123.43530  130.41370    7.66810   60.94240   60.94240   76.44680   76.44680    7.66810   12.40230    8.25310  -82.04030   -3.64160    8.25310
 3400.00000   10.90340   10.90340  130.26240  134.24440    7.44910   60.45160   60.45160   93.28740   93.28740    7.44910   12.34480    8.40160  -81.84890   -3.15870    8.40160
 3450.00000   10.81300   10.81300  112.43530  115.84230    8.63250   63.57880   63.57880  104.68310  104.68310    8.63250   14.73680   10.20250  -81.94230   -2.95870   10.20250
