~Version ---------------------------------------------------
VERS.      2.0 : CWLS log ASCII Standard -VERSION 2.0
WRAP.       NO : One line per depth step
CREA. 11/13/17 : LAS Creation Date
~Well ------------------------------------------------------
STRT.FT                     900.0 : START DEPTH
STOP.FT                   12300.0 : STOP DEPTH
STEP.FT                  50.00000 : STEP LENGTH
NULL.                     -999.25 : NULL VALUE
COMP.        TALISMAN ENERGY INC. : COMPANY
WELL. TRIAD C&E DEBOLT 11-11-68-3 : WELL
FLD .                          WC : FIELD
LOC .                             : LOCATION
CTRY.                      CANADA : COUNTRY
SRVC.      Schlumberger of Canada : SERVICE COMPANY
DATE.                 22-Oct-1959 : LOGDATE
PROV.                     Alberta : PROVINCE
UWI .            100111106803W600 : UNIQUE WELL ID
SLAT.WGS84          54.8741972951 : SURFACE LATITUDE
SLON.WGS84        -118.3466714855 : SURFACE LONGITUDE
~Curve Information -----------------------------------------
DEPT  .FT         : Depth Curve
CALWS .IN         : CALIPER [MCALED]
CILDED.MMHO       : CONDUCTIVITY FROM RESISTIVITY LOG
CONDWS.MMHO       : CONDUCTIVITY [1000/DRESWS]
DRESWS.OHMM       : DEEP RESISTIVITY [1000/CILDED IF 1LDED<5 ,ILDED]
GRNED .UgRa-Eq/T  : GAMMA RAY  FROM GRN LOG  [ADJ. TO RESISTIVITY]
GRWS  .GAPI       : GAMMA RAY [GRNED*16.5 TO CONVERT TO GAPI]
ILDED .OHMM       : DEEP INDUCTION FROM RESISTIVITY LOG
MCALED.IN         : CALIPER FROM MICROLOG
NEUTED.CPS        : NEUTRON FROM GRN LOG [ADJ. TO RESISTIVITY]
NEUTWS.CPS        : NEUTRON [NEUTED]
SNED  .OHMM       : SHORT NORMAL FROM RESISTIVITY LOG
SPRED .MV         : SPONTANEOUS POTENTIAL FROM RESISTIVITY LOG
SPWS  .MV         : SPONTANEOUS POTENTIAL [BASELINE 0 MV,SPRED]
SRESWS.OHMM       : SHALLOW RESISTIVITY [SNED]
~Params ----------------------------------------------------
LMF .                     KB : LOG MEASURED FROM
DMF .                     KB : DRILLING MEASURED FROM
EKB .FT                 2343 : KELLY BUSHING
DATE.               10/22/59 : RUN DATE
RUN .                      2 : RUN NUMBER
DD  .FT                12312 : DEPTH DRILLER
DL  .FT                12312 : DEPTH LOGGER
BLI .FT                12304 : BOTTOM LOG INTERVAL
TLI .FT                 7822 : TOP LOG INTERVAL
BS  .IN                    9 : BIT SIZE
BSD .FT                12312 : BIT SIZE AT DEPTH
DFT .              LIME BASE : DRILLING FLUID TYPE
DFD .                     10 : DRILLING FLUID DENSITY
DFV .                    164 : DRILLING FLUID VISCOSITY
DFPH.                   12.5 : DRILLING FLUID PH
DFL .                     12 : DRILLING FLUID LOSS
RMS .OHMM               0.72 : RESISTIVITY MUD SAMPLE
MST .DEGF                 88 : MUD SAMPLE TEMPERATURE
RMF .OHMM               0.46 : RESISTIVITY MUD FILTRATE SAMPLE
MFST.DEGF                 78 : MUD FILTRATE SAMPLE TEMPERATURE
RMC .OHMM               1.49 : RESISTIVITY MUD CAKE
MCST.DEGF                 78 : MUD CAKE SAMPLE TEMPERATURE
RMB .OHMM                0.3 : RESISTIVITY MUD AT BHT
TCS .HRS                   5 : TIME CIRCULATED STOPPED
LUN .                 1573WC : LOGGING UNIT NUMBER
ENGI.              HAUSEGGER : RECORDING ENGINEER
WITN.              HENDERSON : WITNESSED BY
CLNT.                A2DTECH : CLIENT CODE
ORIG.            2" 5" PRINT : ORIGIN OF DATA
UWI .       100111106803W600 : UNIQUE WELL ID
DICO. A2D Technologies, Inc. : DIGITIZING COMPANY
~Other -----------------------------------------------------
IEL-ML-GRN LOG RAN
ALL RESISTIVITY CURVES 2" (FROM TOP TO 2477'] ON LOG IMAGE
~ASCII -----------------------------------------------------
# ...
 8250.00000    9.49490   23.69760   20.82800   48.01230    1.11830   18.45110   48.01230    9.49490  344.51170  344.51170   42.04110    -999.25    -999.25   42.04110
 8300.00000    9.77520   46.72720   40.28200   24.90060    2.67840   44.19360   24.32240    9.77520  313.01320  313.01320   28.93690    -999.25    -999.25   28.93690
 8350.00000    9.09970   93.51160   85.03980   11.75920    1.78840   29.50860   11.75920    9.09970  262.21500  262.21500   21.52240    -999.25    -999.25   21.52240
 8400.00000    8.78280   35.77290   31.97030   31.27900    1.05900   17.47350   31.27900    8.78280  308.66330  308.66330   21.80350    -999.25    -999.25   21.80350
 8450.00000   10.70250   19.29880   15.09780   66.23480    1.47140   24.27810   66.23480   10.70250  331.64500  331.64500   49.65380    -999.25    -999.25   49.65380
 8500.00000    9.10690   43.45560   33.31630   30.01530    2.81990   46.52840   30.01530    9.10690  267.01060  267.01060   31.46760    -999.25    -999.25   31.46760
 8550.00000   10.18060   21.18960   12.77550   84.02140    1.44290   23.80790   88.17180   10.18060  348.14870  348.14870   59.42050    -999.25    -999.25   59.42050
 8600.00000   12.18340   27.00300   22.76730   43.92260    0.97680   16.11720   43.92260   12.18340  281.63420  281.63420   31.20040    -999.25    -999.25   31.20040
 8650.00000    9.28800   18.35790   12.19230   82.01910    1.49260   24.62790   82.01910    9.28800  405.38720  405.38720   38.21770    -999.25    -999.25   38.21770
 8700.00000   10.02500   16.45410   10.10560   98.95530    2.63160   43.42180   98.95530   10.02500  389.48860  389.48860   35.00650    -999.25    -999.25   35.00650
 8750.00000   12.14860   69.10140   62.56800   15.98260    1.38950   22.92670   15.98260   12.14860  322.59350  322.59350   20.78470    -999.25    -999.25   20.78470
 8800.00000   12.14660   53.27370   37.78600   26.87060    2.19970   36.29510   28.40370   12.14660  285.46130  285.46130   27.06330    -999.25    -999.25   27.06330
 8850.00000    9.64580   29.52710   23.58460   42.40050    3.38370   55.83110   42.40050    9.64580  282.20330  282.20330   38.21770    -999.25    -999.25   38.21770
 8900.00000   11.17330   30.36720   25.05290   39.91560    3.94280   65.05620   39.91560   11.17330  234.34160  234.34160   41.54200    -999.25    -999.25   41.54200
 8950.00000   12.12140   31.29650   23.17490   43.15010    3.50600   57.84920   43.15010   12.12140  251.95610  251.95610   36.89560    -999.25    -999.25   36.89560
 9000.00000   11.13690   26.80880   20.94590   47.74210    1.13040   18.65240   47.74210   11.13690  335.77050  335.77050   45.13180    -999.25    -999.25   45.13180
 9050.00000   11.44610   28.08930   22.84890   43.78780    0.90770   14.97700   44.02010   11.44610  404.39850  404.39850   57.07310    -999.25    -999.25   57.07310
 9100.00000   12.89110   31.53330   27.76840   36.01210    1.24960   20.61920   36.01210   12.89110  294.36980  294.36980   42.59860    -999.25    -999.25   42.59860
 9150.00000   11.03220  132.97850  120.17500    8.32120    5.33690   88.05890    8.32120   11.03220  206.50090  206.50090   11.25950    -999.25    -999.25   11.25950
 9200.00000   10.28860   49.59930   40.00880   24.99450    2.48310   40.97200   24.99450   10.28860  287.73700  287.73700   21.36930    -999.25    -999.25   21.36930
 9250.00000   10.78310   66.79740   63.74910   15.68650    3.72200   61.41300   15.68650   10.78310  280.30100  280.30100   17.75820    -999.25    -999.25   17.75820
 9300.00000   10.76790  129.94840  122.49610    8.31220    3.47140   57.27730    7.94160   10.76790  236.89710  236.89710    9.96390    -999.25    -999.25    9.96390
 9350.00000   11.57500   28.25660   23.66600   42.25470    1.41120   23.28560   42.25470   11.57500  319.21200  319.21200   30.12460    -999.25    -999.25   30.12460
 9400.00000   11.16000   32.69980   27.85160   35.90460    2.01870   33.30850   35.90460   11.16000  273.26930  273.26930   32.19620    -999.25    -999.25   32.19620
 9450.00000   11.13780   57.87420   50.54970   19.78250    1.91300   31.56370   19.78250   11.13780  232.75110  232.75110   19.44260    -999.25    -999.25   19.44260
 9500.00000   10.22560   65.87370   57.68010   17.33700    2.54020   41.91330   17.33700   10.22560  237.72760  237.72760   17.84640    -999.25    -999.25   17.84640
 9550.00000    9.17360   33.92280   29.52450   33.87010    1.99750   32.95880   33.86550    9.17360  298.82020  298.82020   32.89450    -999.25    -999.25   32.89450
 9600.00000    8.97200   35.48120   29.93530   33.40540    2.26660   37.39970   33.40540    8.97200  304.18400  304.18400   30.20020    -999.25    -999.25   30.20020
 9650.00000   10.39290   60.40860   53.26090   18.77550    3.29930   54.43850   18.77550   10.39290  262.13960  262.13960   16.19210    -999.25    -999.25   16.19210
 9700.00000    9.85830   39.26670   35.82730   27.91170    3.17590   52.40150   27.91170    9.85830  289.76940  289.76940   24.28590    -999.25    -999.25   24.28590
 9750.00000    9.39110   38.52080   31.42240   31.82440    2.74720   45.32880   31.82440    9.39110  307.31420  307.31420   27.99700    -999.25    -999.25   27.99700
 9800.00000   10.96700   65.16090   55.57750   17.99310    6.49670  107.19560   17.49900   10.96700  213.31230  213.31230   23.80850    -999.25    -999.25   23.80850
 9850.00000    9.33500   65.55820   60.72120   16.46870    3.93330   64.89950   16.46870    9.33500  279.01500  279.01500   17.34670    -999.25    -999.25   17.34670
 9900.00000    9.61600   17.09470   11.99620   83.35980    1.17820   19.44030   83.35980    9.61600  340.44640  340.44640   68.73740    -999.25    -999.25   68.73740
 9950.00000    9.12700   15.76450   11.68730   85.56320    0.92270   15.22540   85.56320    9.12700  358.07940  358.07940   68.35800    -999.25    -999.25   68.35800
 10000.00000   10.10940   11.46420    7.95870  125.64790    1.04550   17.25080  125.64790   10.10940  393.39460  393.39460   80.74430    -999.25    -999.25   80.74430
 10050.00000   10.29510   15.64000   11.12270   89.90760    0.81470   13.44250   89.14840   10.29510  417.77840  417.77840   78.92660    -999.25    -999.25   78.92660
 10100.00000    9.40390   15.98640   11.85910   84.32310    0.97700   16.12050   84.32310    9.40390  404.68140  404.68140   73.04400    -999.25    -999.25   73.04400
 10150.00000    9.18830   21.82970   17.16580   58.25530    0.93230   15.38300   58.25530    9.18830  393.73040  393.73040   56.44340    -999.25    -999.25   56.44340
 10200.00000    9.18020   17.27400   14.58050   68.58460    0.71260   11.75790   68.58460    9.18020  374.29630  374.29630   66.95050    -999.25    -999.25   66.95050
 10250.00000    9.09840   22.63640   17.09920   58.48220    0.88810   14.65370   58.48220    9.09840  341.91360  341.91360   62.34470    -999.25    -999.25   62.34470
 10300.00000   10.06950   18.43840   13.34130   75.24610    0.83390   13.75940   76.43500   10.06950  330.61920  330.61920   82.39050    -999.25    -999.25   82.39050
 10350.00000    9.61570   16.57520   12.35040   80.96880    0.89050   14.69320   80.96880    9.61570  341.48790  341.48790   75.37170    -999.25    -999.25   75.37170
 10400.00000    9.28610   14.71450   11.21080   89.19990    1.00760   16.62540   89.19990    9.28610  311.34110  311.34110   81.69480    -999.25    -999.25   81.69480
 10450.00000    9.21400   17.61870   11.80750   84.69180    1.10750   18.27460   84.69180    9.21400  307.86390  307.86390   89.52200    -999.25    -999.25   89.52200
 10500.00000   10.43400   13.16460    9.78680  102.17810    1.06390   17.55430  102.17810   10.43400  307.28890  307.28890   80.09570    -999.25    -999.25   80.09570
 10550.00000    9.09810   14.09680    7.62620  131.89100    0.67700   11.17050  128.54370    9.09810  335.91400  335.91400   62.98390    -999.25    -999.25   62.98390
 10600.00000    9.73530   12.27360    9.08200  110.10820    0.82360   13.58860  110.10820    9.73530  346.95420  346.95420   68.45890    -999.25    -999.25   68.45890
 10650.00000    9.26230   15.19550   10.71660   93.31310    0.86550   14.28080   93.31310    9.26230  371.69020  371.69020   60.48690    -999.25    -999.25   60.48690
