~Version ---------------------------------------------------
VERS.      2.0 : CWLS log ASCII Standard -VERSION 2.0
WRAP.       NO : One line per depth step
CREA. 11/20/17 : LAS Creation Date
~Well ------------------------------------------------------
STRT.FT                          850.0 : START DEPTH
STOP.FT                         9050.0 : STOP DEPTH
STEP.FT                       50.00000 : STEP LENGTH
NULL.                          -999.25 : NULL VALUE
COMP.      BLUEMOUNT RESOURCES LIMITED : COMPANY
WELL. BLUEMOUNT WHITECOURT 10-36-59-13 : WELL
FLD .                                  : FIELD
LOC .                                  : LOCATION
CTRY.                           CANADA : COUNTRY
SRVC.                          Unknown : SERVICE COMPANY
DATE.                      30-Jan-1973 : LOGDATE
PROV.                          Alberta : PROVINCE
UWI .                 100103605913W500 : UNIQUE WELL ID
SLAT.WGS84                    54.14792 : SURFACE LATITUDE
SLON.WGS84                   -115.8081 : SURFACE LONGITUDE
~Curve Information -----------------------------------------
DEPT    .FT    : Depth Curve
CALDED  .IN    : CALIPER FROM DENSITY LOG [ADJ. TO RESISTIVITY LOG]
CALSED  .IN    : CALIPER FROM SONIC LOG [ADJ. TO RESISTIVITY LOG]
CALWS   .IN    : CALIPER [CALSED SPL. TO CALDED @ 2283']
CONDWS  .MMHO  : CONDUCTIVITY [1000/DRESWS]
DCORED  .G/C3  : DENSITY CORRECTION FROM DENSITY LOG [ADJ. TO RESISTIVITY LOG]
DCORWS  .G/C3  : DENSITY CORRECTION [DCORED]
DENWS   .G/C3  : FORMATION BULK DENSITY [CALC. FROM DPOLSWS, M=2.71, F=1.00]
DPHILSED.V/V   : DENSITY POROSITY LIMESTONE [M=2.71, F=1.00] FROM DENSITY LOG [ADJ. TO RESISTIVITY LOG]
DPOLSWS .V/V   : DENSITY POROSITY LIMESTONE [DPHILSED]
DRESWS  .OHMM  : DEEP RESISTIVITY [ILDED]
DTED    .US/F  : DELTA-T FROM SONIC LOG [ADJ. TO RESISTIVITY LOG]
DTWS    .US/F  : COMPRESSIONAL SONIC [DTED]
GRDED   .GAPI  : GAMMA RAY FROM DENSITY LOG [ADJ. TO RESISTIVITY LOG]
GRSED   .GAPI  : GAMMA RAY FROM SONIC LOG [ADJ. TO RESISTIVITY LOG]
GRWS    .GAPI  : GAMMA RAY [GRSED SPL. TO GRDED @ 2280'] GRSED IN CSG TOP-914' ADDED 40 GAPI
ILDED   .OHMM  : DEEP INDUCTION RESISTIVITY FROM RESISTIVITY LOG
ILMED   .OHMM  : MEDIUM INDUCTION RESISTIVITY FROM RESISTIVITY LOG
LL8ED   .OHMM  : LATEROLOG 8 RESISTIVITY FROM RESISTIVITY LOG
MRESWS  .OHMM  : MEDIUM RESISTIVITY [ILMED]
NPHILSED.V/V   : NEUTRON POROSITY LIMESTONE FROM DENSITY LOG [ADJ. TO RESISTIVITY LOG]
NPOLSWS .V/V   : NEUTRON POROSITY LIMESTONE [NPHILSED]
RHOBED  .G/C3  : BULK DENSITY FROM DENSITY LOG [ADJ. TO RESISTIVITY LOG]
SPRED   .MV    : SPONTANEOUS POTENTIAL FROM RESISTIVITY LOG
SPWS    .MV    : SPONTANEOUS POTENTIAL [BASELINE 0 MV, SPRED]
SRESWS  .OHMM  : SHALLOW RESISTIVITY [LL8ED]
~Params ----------------------------------------------------
PD  .                     GL : PERMANENT DATUM
EPD .FT                 2542 : ELEVATION PERMANENT DATUM
LMF .                     KB : LOG MEASURED FROM
DAPD.FT                 17.3 : FEET ABOVE PERMANENT DATUM
EKB .FT               2559.3 : KELLY BUSHING
EGL .FT                 2542 : GROUND LEVEL
DATE.               01/30/73 : RUN DATE
RUN .                      1 : RUN NUMBER
DD  .FT                 9060 : DEPTH DRILLER
DL  .FT                 9056 : DEPTH LOGGER
BLI .FT                 9053 : BOTTOM LOG INTERVAL
TLI .FT                  911 : TOP LOG INTERVAL
CBD .FT                  912 : CASING BOTTOM DRILLER
CBL .FT                  911 : CASING BOTTOM LOGGER
BS  .IN                 8.75 : BIT SIZE
BSD .FT                 9060 : BIT SIZE AT DEPTH
DFT .               GEL CHEM : DRILLING FLUID TYPE
DFD .                    9.2 : DRILLING FLUID DENSITY
DFV .                     80 : DRILLING FLUID VISCOSITY
DFPH.                   10.5 : DRILLING FLUID PH
DFL .                    8.8 : DRILLING FLUID LOSS
MSS .             CIRCULATED : MUD SAMPLE SOURCE
RMS .OHMM               1.83 : RESISTIVITY MUD SAMPLE
MST .DEGF                 76 : MUD SAMPLE TEMPERATURE
RMF .OHMM               1.59 : RESISTIVITY MUD FILTRATE SAMPLE
MFST.DEGF                 57 : MUD FILTRATE SAMPLE TEMPERATURE
RMC .OHMM                3.6 : RESISTIVITY MUD CAKE
MCST.DEGF                 76 : MUD CAKE SAMPLE TEMPERATURE
RMB .OHMM                0.9 : RESISTIVITY MUD AT BHT
TCS .HRS                   4 : TIME CIRCULATED STOPPED
LUN .                   5671 : LOGGING UNIT NUMBER
LUL .                    EDM : LOGGING UNIT LOCATION
ENGI.                 CALVIN : RECORDING ENGINEER
WITN.         SCHWAB DRYDALE : WITNESSED BY
CLNT.                A2DTECH : CLIENT CODE
ORIG.            2" 5" PRINT : ORIGIN OF DATA
UWI .       100103605913W500 : UNIQUE WELL ID
DICO. A2D Technologies, Inc. : DIGITIZING COMPANY
~Other -----------------------------------------------------
DI-LL-CNFD-SONIC LOG RUN
RHOBED & DCORED FROM 2" LOG
~ASCII -----------------------------------------------------
# ...
 3650.00000   10.24340    9.95190   10.24340  100.89190    0.18960    0.18960    2.30830    0.23490    0.23490    9.91160   84.19190   84.19190   83.90200  114.29380   83.90200    9.91160   10.35870   11.72190   10.35870    0.25470    0.25470    2.30780  -51.04140   -8.35400   11.72190
 3700.00000   10.73880   10.37520   10.73880  143.37310    0.09170    0.09170    2.39010    0.18710    0.18710    6.97490   87.12180   87.12180  102.49820  135.65410  102.49820    6.97490    7.29040    8.64330    7.29040    0.30850    0.30850    2.38930  -48.90040   -6.34280    8.64330
 3750.00000   11.56890   10.74030   11.56890  141.20700    0.08780    0.08780    2.42150    0.16870    0.16870    7.08180   93.49100   93.49100  103.91740  133.67010  103.91740    7.08180    7.36370    8.78010    7.36370    0.30710    0.30710    2.42890  -49.02420   -6.59500    8.78010
 3800.00000   12.00500   10.56000   12.00500  150.24720    0.07680    0.07680    2.45080    0.15160    0.15160    6.65570   98.74890   98.74890  105.12250  134.56240  105.12250    6.65570    6.87770    8.41060    6.87770    0.30540    0.30540    2.44650  -48.77030   -6.47020    8.41060
 3850.00000   13.05680   10.66560   13.05680  152.66010    0.19480    0.19480    2.34730    0.21210    0.21210    6.55050   93.91520   93.91520  100.92170  135.47760  100.92170    6.55050    6.78410    8.87710    6.78410    0.34530    0.34530    2.35130  -47.59610   -5.42510    8.87710
 3900.00000   12.36100   10.72050   12.36100  160.81050    0.18350    0.18350    2.27890    0.25210    0.25210    6.21850   96.59560   96.59560  104.42110  135.59980  104.42110    6.21850    6.48130    8.60560    6.48130    0.35830    0.35830    2.29080  -46.80810   -4.76620    8.60560
 3950.00000   10.39470    9.68810   10.39470  128.15730    0.15530    0.15530    2.49680    0.12460    0.12460    7.80310   95.65160   95.65160  118.23350  157.90490  118.23350    7.80310    8.14030   11.80040    8.14030    0.31270    0.31270    2.49860  -46.73830   -4.82620   11.80040
 4000.00000   11.03030   10.01180   11.03030  135.01290    0.26910    0.26910    2.30110    0.23910    0.23910    7.40670   95.36250   95.36250  114.53870  149.17220  114.53870    7.40670    7.75100   10.95220    7.75100    0.33900    0.33900    2.30970  -46.11410   -4.33050   10.95220
 4050.00000    9.99420   10.10450    9.99420  110.57910    0.29250    0.29250    2.26180    0.26210    0.26210    9.04330   95.12570   95.12570  119.07130  154.02150  119.07130    9.04330    9.42730   13.48350    9.42730    0.34290    0.34290    2.26980  -46.36340   -4.70890   13.48350
 4100.00000    8.21820    8.97900    8.21820   65.41330    0.00890    0.00890    2.55540    0.09040    0.09040   15.28740   89.78650   89.78650  113.88500  144.41550  113.88500   15.28740   16.81530   27.24130   16.81530    0.33740    0.33740    2.55740  -46.67250   -5.14710   27.24130
 4150.00000    8.14320    9.20660    8.14320   94.07070    0.08750    0.08750    2.52480    0.10830    0.10830   10.63030   93.14940   93.14940  140.11600  189.86080  140.11600   10.63030   11.10400   16.46710   11.10400    0.31060    0.31060    2.55300  -46.46190   -5.06560   16.46710
 4200.00000    8.81090   10.03520    8.81090  126.68900    0.23140    0.23140    2.55610    0.09000    0.09000    7.89460   81.30130   81.30130   84.92790  103.49820   84.92790    7.89460    8.49270   11.08140    8.49270    0.24050    0.24050    2.56670  -48.23300   -6.96650   11.08140
 4250.00000   10.80560   10.83260   10.80560  178.53950    0.30220    0.30220    2.31170    0.23290    0.23290    5.60100   86.20810   86.20810   93.53640  124.77570   93.53640    5.60100    5.83890    8.01580    5.83890    0.27890    0.27890    2.30800  -45.69910   -4.56100    8.01580
 4300.00000   11.71750   10.84390   11.71750  211.89580    0.24920    0.24920    2.22030    0.28640    0.28640    4.71930   98.23470   98.23470   96.50180  125.13940   96.50180    4.71930    4.92040    6.70400    4.92040    0.40010    0.40010    2.22770  -44.83710   -3.82810    6.70400
 4350.00000    9.80180   10.26110    9.80180  148.63920    0.27320    0.27320    2.43860    0.15870    0.15870    6.72770   83.66450   83.66450   92.32430  115.34390   92.32430    6.72770    7.03640    9.20770    7.03640    0.27450    0.27450    2.44340  -45.73810   -4.85820    9.20770
 4400.00000   11.56270   10.30960   11.56270  212.26920    0.27790    0.27790    2.23670    0.27680    0.27680    4.71100   91.59620   91.59620   93.95720  124.57750   93.95720    4.71100    4.91030    7.00650    4.91030    0.38270    0.38270    2.24440  -43.67610   -2.92530    7.00650
 4450.00000   11.49230   10.17270   11.49230  172.08740    0.29880    0.29880    2.25760    0.26460    0.26460    5.81100   95.04690   95.04690  122.24840  162.97030  122.24840    5.81100    6.05680    8.39160    6.05680    0.38450    0.38450    2.26060  -44.48010   -3.85910    8.39160
 4500.00000   13.94160   11.31110   13.94160  374.04150    0.14110    0.14110    2.27930    0.25190    0.25190    2.67350  101.43600  101.43600   89.79330  126.64180   89.79330    2.67350    2.79710    4.04180    2.79710    0.46240    0.46240    2.28570  -44.02310   -3.53050    4.04180
 4550.00000   12.39130   10.99950   12.39130  339.01750    0.16900    0.16900    2.33260    0.22070    0.22070    2.94970  103.54630  103.54630   93.85020  139.98600   93.85020    2.94970    3.09330    4.62200    3.09330    0.43790    0.43790    2.34380  -44.00660   -3.65660    4.62200
 4600.00000   10.58440   10.03010   10.58440  221.83280    0.29520    0.29520    2.28660    0.24760    0.24760    4.50790   93.37050   93.37050  101.56720  140.39220  101.56720    4.50790    4.73790    6.45460    4.73790    0.31870    0.31870    2.29140  -44.37850   -4.20580    6.45460
 4650.00000    8.20110    9.05700    8.20110   92.86600    0.12180    0.12180    2.51980    0.11130    0.11130   10.76820   76.18920   76.18920   47.20050   59.27060   47.20050   10.76820   13.33570   18.17510   13.33570    0.18930    0.18930    2.52210  -73.27480  -33.27930   18.17510
 4700.00000   10.08800   11.12020   10.08800  167.16040    0.09440    0.09440    2.50420    0.12030    0.12030    5.98250   87.09960   87.09960   71.66770   94.37640   71.66770    5.98250    6.70140    7.57750    6.70140    0.29090    0.29090    2.50540  -47.51890   -7.70150    7.57750
 4750.00000   10.24940   10.73320   10.24940  215.55440    0.15100    0.15100    2.23960    0.27510    0.27510    4.63920   93.17820   93.17820   76.26620  110.28750   76.26620    4.63920    5.06700    6.74140    5.06700    0.41490    0.41490    2.23800  -45.09160   -5.45060    6.74140
 4800.00000    9.75640   10.74390    9.75640   63.72550    0.07140    0.07140    1.97080    0.43230    0.43230   15.69230  101.08260  101.08260   65.96450   97.55120   65.96450   15.69230   16.81210   36.95940   16.81210    0.53510    0.53510    1.89950  -45.84790   -6.38410   36.95940
 4850.00000    9.13760    9.90740    9.13760  113.92900    0.06650    0.06650    2.40960    0.17570    0.17570    8.77740   83.97480   83.97480   68.75700  103.80850   68.75700    8.77740    9.58550   20.30980    9.58550    0.34350    0.34350    2.32550  -49.06940   -9.78280   20.30980
 4900.00000    9.24760   10.37200    9.24760  136.33270    0.04380    0.04380    2.50770    0.11830    0.11830    7.33500   76.08910   76.08910   63.67920   75.81070   63.67920    7.33500    7.87880   12.69410    7.87880    0.26390    0.26390    2.51590  -59.39070  -20.28130   12.69410
 4950.00000    9.67390   10.72950    9.67390  108.68010    0.05190    0.05190    2.50190    0.12170    0.12170    9.20130   92.01280   92.01280   65.91870   86.23480   65.91870    9.20130   11.00350   14.10800   11.00350    0.37190    0.37190    2.48530  -46.15430   -7.22310   14.10800
 5000.00000    9.68920   10.54110    9.68920  104.58940    0.04620    0.04620    2.59000    0.07020    0.07020    9.56120   75.83860   75.83860   81.87050  121.08870   81.87050    9.56120    9.97570   14.19530    9.97570    0.24230    0.24230    2.58660  -43.90850   -5.15360   14.19530
