~Version ---------------------------------------------------
VERS.      2.0 : CWLS log ASCII Standard -VERSION 2.0
WRAP.       NO : One line per depth step
CREA. 11/22/17 : LAS Creation Date
~Well ------------------------------------------------------
STRT.FT                              300.0 : START DEPTH
STOP.FT                            16950.0 : STOP DEPTH
STEP.FT                           50.00000 : STEP LENGTH
NULL.                              -999.25 : NULL VALUE
COMP.                        BANFF OIL LTD : COMPANY
WELL. BANFF AQUIT SIEBENS RAMR 14-21-37-11 : WELL
FLD .                                      : FIELD
LOC .                                      : LOCATION
CTRY.                               CANADA : COUNTRY
SRVC.                         Schlumberger : SERVICE COMPANY
DATE.                          21-Oct-1970 : LOGDATE
PROV.                              Alberta : PROVINCE
UWI .                     100142103711W500 : UNIQUE WELL ID
SLAT.WGS84                        52.19912 : SURFACE LATITUDE
SLON.WGS84                       -115.5164 : SURFACE LONGITUDE
~Curve Information -----------------------------------------
DEPT    .FT    : Depth Curve
CALDED  .IN    : CALIPER FROM DENSITY LOG [DEP. ADJ. TO ILMED]
CALNED  .IN    : CALIPER FROM NEUTRON LOG [DEP. ADJ. TO ILMED]
CALSED  .IN    : CALIPER FROM SONIC LOG [DEP. ADJ. TO ILMED]
CALWS   .IN    : CALIPER 148' CALSED 13012' CALNED 13190' CALDED 14980' CALSED 15315' CALDED 16246' CALSED]
CONDWS  .MMHO  : DEEP CONDUCTIVITY [1000/DRESWS]
DCORWS  .G/C3  : DENSITY CORRECTION [DRHOED]
DENWS   .G/C3  : BULK DENSITY [M=2.71, F=1.00] [RHOBED]
DPHILSED.V/V   : DENSITY POROSITY [M=2.71, F=1.00] FROM DENSITY LOG [DEP. ADJ. TO ILMED]
DPOLSWS .V/V   : DENSITY POROSITY [M=2.71, F=1.00] [CAL. FROM DENWS]
DRESWS  .OHMM  : DEEP RESISTIVITY [ILDED]
DRHOED  .G/C3  : DENSITY CORRECTION FROM DENSITY LOG [DEP. ADJ. TO ILMED]
DTED    .US/F  : DELTA TIME FROM SONIC LOG [DEP. ADJ. TO ILMED]
DTWS    .US/F  : DELTA TIME [DTED]
GRDED   .GAPI  : GAMMA RAY FROM DENSITY LOG [DEP. ADJ. TO ILMED]
GRNED   .GAPI  : GAMMA RAY FROM NEUTRON LOG [DEP. ADJ. TO ILMED]
GRSED   .GAPI  : GAMMA RAY FROM SONIC LOG [DEP. ADJ. TO ILMED]
GRWS    .GAPI  : GAMMA RAY [GRSED]
ILDED   .OHMM  : INDUCTION LOG DEEP RESISTIVITY
ILMED   .OHMM  : INDUCTION LOG MEDIUM RESISTIVITY
LL8ED   .OHMM  : 8 INCH LATEROLOG RESISTIVITY
MRESWS  .OHMM  : MEDIUM RESISTIVITY [ILMED]
NPOLSWS .V/V   : NEUTRON POROSITY LIMESTONE [SNPLSED]
RHOBED  .G/C3  : BULK DENSITY FROM DENSITY LOG [DEP. ADJ. TO ILMED]
SNPLSED .V/V   : SIDEWALL NEUTRON POROSITY [LIMESTONE] [DEP. ADJ. TO ILMED]
SPRED   .MV    : SPONTANEOUS POTENTIAL FROM RESIST. LOG [DIVIDED BY 2 BELOW 13778'], SHIFTS REMOVED, PATCHED]
SPWS    .MV    : SPONTANEOUS POTENTIAL [BASELINE 0 MV] [SPRED][PL. USE W/ RESERVATION]
SRESWS  .OHMM  : SHALLOW RESISTIVITY [LL8ED]
~Params ----------------------------------------------------
PD  .                     GL : PERMANENT DATUM
EPD .FT                 4914 : ELEVATION PERMANENT DATUM
LMF .                     KB : LOG MEASURED FROM
DAPD.FT                 18.7 : FEET ABOVE PERMANENT DATUM
EKB .FT               4932.7 : KELLY BUSHING
EGL .FT                 4914 : GROUND LEVEL
DATE.               10/21/70 : RUN DATE
RUN .                      4 : RUN NUMBER
DD  .FT                16960 : DEPTH DRILLER
DL  .FT                16960 : DEPTH LOGGER
BLI .FT                16954 : BOTTOM LOG INTERVAL
TLI .FT                16000 : TOP LOG INTERVAL
BS  .IN                8.375 : BIT SIZE
BSD .FT                16960 : BIT SIZE AT DEPTH
DFT .                    GEL : DRILLING FLUID TYPE
DFD .                   10.1 : DRILLING FLUID DENSITY
DFV .                     61 : DRILLING FLUID VISCOSITY
DFPH.                     10 : DRILLING FLUID PH
DFL .                    8.4 : DRILLING FLUID LOSS
MSS .               FLOWLINE : MUD SAMPLE SOURCE
RMS .OHMM               1.51 : RESISTIVITY MUD SAMPLE
MST .DEGF                 66 : MUD SAMPLE TEMPERATURE
RMF .OHMM               1.11 : RESISTIVITY MUD FILTRATE SAMPLE
MFST.DEGF                 70 : MUD FILTRATE SAMPLE TEMPERATURE
TCS .HRS                   4 : TIME CIRCULATED STOPPED
LUN .                   7002 : LOGGING UNIT NUMBER
LUL .                     RD : LOGGING UNIT LOCATION
ENGI.                 TALBOT : RECORDING ENGINEER
WITN.          LEMEE BRINKER : WITNESSED BY
CLNT.                A2DTECH : CLIENT CODE
ORIG.            2" 5" PRINT : ORIGIN OF DATA
UWI .       100142103711W500 : UNIQUE WELL ID
DICO. A2D Technologies, Inc. : DIGITIZING COMPANY
~Other -----------------------------------------------------
~ASCII -----------------------------------------------------
# ...
 1600.00000    -999.25    -999.25   12.36370   12.36370    3.82340    -999.25    -999.25    -999.25    -999.25  261.54490    -999.25   74.81720   74.81720    -999.25    -999.25   40.96240   40.96240  261.54490  318.06180  172.67590  318.06180    -999.25    -999.25    -999.25  -59.38240  -56.62570  172.67590
 1650.00000    -999.25    -999.25   12.27560   12.27560    1.43760    -999.25    -999.25    -999.25    -999.25  695.58700    -999.25   70.37760   70.37760    -999.25    -999.25   14.08430   14.08430  695.58700 1223.04900 1206.96350 1223.04900    -999.25    -999.25    -999.25  -76.74610  -76.92690 1206.96350
 1700.00000    -999.25    -999.25   12.40320   12.40320    0.62110    -999.25    -999.25    -999.25    -999.25 1610.00740    -999.25   47.66550   47.66550    -999.25    -999.25    9.05130    9.05130 1610.00740 1744.78200 1676.24900 1744.78200    -999.25    -999.25    -999.25 -125.72670 -128.84500 1676.24900
 1750.00000    -999.25    -999.25   12.32860   12.32860    0.66270    -999.25    -999.25    -999.25    -999.25 1508.92540    -999.25   50.04330   50.04330    -999.25    -999.25    7.59140    7.59140 1508.92540 1746.13700 1622.57970 1746.13700    -999.25    -999.25    -999.25  -71.37570  -77.43160 1622.57970
 1800.00000    -999.25    -999.25   12.39840   12.39840    0.62950    -999.25    -999.25    -999.25    -999.25 1588.50310    -999.25   54.35140   54.35140    -999.25    -999.25   10.91150   10.91150 1588.50310 1733.96040 1667.94980 1733.96040    -999.25    -999.25    -999.25  -50.34620  -59.33960 1667.94980
 1850.00000    -999.25    -999.25   12.29020   12.29020    0.63240    -999.25    -999.25    -999.25    -999.25 1581.27370    -999.25   52.64190   52.64190    -999.25    -999.25   46.63300   46.63300 1581.27370 1735.34790 1659.92140 1735.34790    -999.25    -999.25    -999.25  -34.46950  -46.40050 1659.92140
 1900.00000    -999.25    -999.25   12.29990   12.29990    0.64860    -999.25    -999.25    -999.25    -999.25 1541.67660    -999.25   50.20220   50.20220    -999.25    -999.25   25.12240   25.12240 1541.67660 1740.65190 1639.46950 1740.65190    -999.25    -999.25    -999.25  -22.87320  -37.74170 1639.46950
 1950.00000    -999.25    -999.25   12.27420   12.27420    3.42310    -999.25    -999.25    -999.25    -999.25  292.13340    -999.25   63.25790   63.25790    -999.25    -999.25    1.97240    1.97240  292.13340  352.43520  316.20070  352.43520    -999.25    -999.25    -999.25    2.56070  -15.24530  316.20070
 2000.00000    -999.25    -999.25   13.01920   13.01920    1.69380    -999.25    -999.25    -999.25    -999.25  590.37790    -999.25   59.86240   59.86240    -999.25    -999.25   36.21240   36.21240  590.37790  503.92390  636.83910  503.92390    -999.25    -999.25    -999.25  -31.93390  -51.48080  636.83910
 2050.00000    -999.25    -999.25   12.61740   12.61740    1.41230    -999.25    -999.25    -999.25    -999.25  708.08510    -999.25   48.86970   48.86970    -999.25    -999.25   45.15260   45.15260  708.08510  695.54760  826.11830  695.54760    -999.25    -999.25    -999.25  -55.70940  -76.80240  826.11830
 2100.00000    -999.25    -999.25   12.35270   12.35270    0.84760    -999.25    -999.25    -999.25    -999.25 1179.75780    -999.25   55.26880   55.26880    -999.25    -999.25   33.87260   33.87260 1179.75780 1349.89150 1103.50840 1349.89150    -999.25    -999.25    -999.25  -50.58830  -73.22740 1103.50840
 2150.00000    -999.25    -999.25   13.31760   13.31760    7.49060    -999.25    -999.25    -999.25    -999.25  133.50040    -999.25   53.66470   53.66470    -999.25    -999.25   45.45890   45.45890  133.50040  111.54180  129.94930  111.54180    -999.25    -999.25    -999.25  -41.02890  -65.21400  129.94930
 2200.00000    -999.25    -999.25   14.32370   14.32370   35.54900    -999.25    -999.25    -999.25    -999.25   28.13020    -999.25  116.63000  116.63000    -999.25    -999.25   70.52410   70.52410   28.13020   24.27930   33.38720   24.27930    -999.25    -999.25    -999.25  -35.59390  -61.32510   33.38720
 2250.00000    -999.25    -999.25   14.32140   14.32140   37.08130    -999.25    -999.25    -999.25    -999.25   26.96780    -999.25   90.66110   90.66110    -999.25    -999.25   69.32630   69.32630   26.96780   21.45330   32.43570   21.45330    -999.25    -999.25    -999.25  -29.82000  -57.09730   32.43570
 2300.00000    -999.25    -999.25   14.26900   14.26900   28.33940    -999.25    -999.25    -999.25    -999.25   35.28660    -999.25   94.76580   94.76580    -999.25    -999.25   62.08200   62.08200   35.28660   28.75530   32.83120   28.75530    -999.25    -999.25    -999.25  -20.23370  -49.05710   32.83120
 2350.00000    -999.25    -999.25   13.95360   13.95360   18.16580    -999.25    -999.25    -999.25    -999.25   55.04860    -999.25   85.37860   85.37860    -999.25    -999.25   51.08220   51.08220   55.04860   41.34870   44.31260   41.34870    -999.25    -999.25    -999.25   -6.18670  -36.55610   44.31260
 2400.00000    -999.25    -999.25   13.96220   13.96220   16.01050    -999.25    -999.25    -999.25    -999.25   62.45890    -999.25   84.98780   84.98780    -999.25    -999.25   53.92160   53.92160   62.45890   60.90290   49.87240   60.90290    -999.25    -999.25    -999.25   -8.34560  -40.26110   49.87240
 2450.00000    -999.25    -999.25   14.26420   14.26420   32.07660    -999.25    -999.25    -999.25    -999.25   31.17540    -999.25   87.98890   87.98890    -999.25    -999.25   62.33720   62.33720   31.17540   21.34430   28.10260   21.34430    -999.25    -999.25    -999.25   -4.46170  -37.92330   28.10260
 2500.00000    -999.25    -999.25   12.93500   12.93500    2.55290    -999.25    -999.25    -999.25    -999.25  391.71080    -999.25   62.22790   62.22790    -999.25    -999.25  130.72090  130.72090  391.71080  474.34260  565.74430  474.34260    -999.25    -999.25    -999.25   -1.98970  -36.99730  565.74430
 2550.00000    -999.25    -999.25   12.58670   12.58670    0.84840    -999.25    -999.25    -999.25    -999.25 1178.69740    -999.25   48.34590   48.34590    -999.25    -999.25   33.69710   33.69710 1178.69740  977.67300  938.61650  977.67300    -999.25    -999.25    -999.25  -16.77580  -53.32950  938.61650
 2600.00000    -999.25    -999.25   12.38990   12.38990    2.79910    -999.25    -999.25    -999.25    -999.25  357.25830    -999.25   50.36000   50.36000    -999.25    -999.25   41.29390   41.29390  357.25830  328.54300  392.60820  328.54300    -999.25    -999.25    -999.25  -11.84810  -49.94790  392.60820
 2650.00000    -999.25    -999.25   12.52580   12.52580    2.07460    -999.25    -999.25    -999.25    -999.25  482.03070    -999.25   50.68900   50.68900    -999.25    -999.25   31.24250   31.24250  482.03070  440.34740  524.28170  440.34740    -999.25    -999.25    -999.25   28.21010  -11.43580  524.28170
 2700.00000    -999.25    -999.25   12.50760   12.50760    0.88940    -999.25    -999.25    -999.25    -999.25 1124.38920    -999.25   46.51610   46.51610    -999.25    -999.25   32.32150   32.32150 1124.38920 1080.79040 1225.27270 1080.79040    -999.25    -999.25    -999.25   34.78610   -6.40580 1225.27270
 2750.00000    -999.25    -999.25   12.39280   12.39280    0.76650    -999.25    -999.25    -999.25    -999.25 1304.60270    -999.25   46.64400   46.64400    -999.25    -999.25   29.16510   29.16510 1304.60270 1345.54920 1398.25680 1345.54920    -999.25    -999.25    -999.25   36.70440   -5.98290 1398.25680
 2800.00000    -999.25    -999.25   12.71130   12.71130    1.53660    -999.25    -999.25    -999.25    -999.25  650.79920    -999.25   48.99790   48.99790    -999.25    -999.25   33.23580   33.23580  650.79920 1144.56630 1301.93760 1144.56630    -999.25    -999.25    -999.25   37.24890   -6.90760 1301.93760
 2850.00000    -999.25    -999.25   12.58660   12.58660    0.71520    -999.25    -999.25    -999.25    -999.25 1398.15410    -999.25   48.32130   48.32130    -999.25    -999.25   36.12970   36.12970 1398.15410 1446.93100 1346.27330 1446.93100    -999.25    -999.25    -999.25   16.63820  -28.98760 1346.27330
