~Version ---------------------------------------------------
VERS.      2.0 : CWLS log ASCII Standard -VERSION 2.0
WRAP.       NO : One line per depth step
CREA. 08/30/13 : LAS Creation Date
~Well ------------------------------------------------------
STRT.M                         300.0 : START DEPTH
STOP.M                        2300.0 : STOP DEPTH
STEP.M                      50.00000 : STEP LENGTH
NULL.                        -999.25 : NULL VALUE
COMP.            PRODECO OIL AND GAS : COMPANY
WELL. PRODECO ET AL ETHEL 12-14-67-8 : WELL
FLD .                                : FIELD
LOC .                                : LOCATION
CTRY.                         CANADA : COUNTRY
SRVC.                     Computalog : SERVICE COMPANY
DATE.                    10-Dec-1984 : LOGDATE
PROV.                        Alberta : PROVINCE
UWI .               100121406708W500 : UNIQUE WELL ID
SLAT.WGS84                  54.80167 : SURFACE LATITUDE
SLON.WGS84                 -115.1135 : SURFACE LONGITUDE
~Curve Information -----------------------------------------
DEPT   .M      : DEPTH METER
CALWS  .MM     : CALIPER [CALXDED]
CALXDED.MM     : 13 CALIPER X FROM DENSITY [ADJ. TO RESISTIVITY LOG]
CALXSED.MM     : CALIPER FROM SONIC LOG [ADJ. TO RESISTIVITY LOG]
CALYDED.MM     : CALIPER FROM DENSITY LOG [ADJ. TO RESISTIVITY LOG]
CDLLSED.V/V    : DENSITY POROSITY LIMESTONE [M=2710, F=1000] FROM DENSITY LOG [ADJ. TO RESISTIVITY LOG]
CDLSSED.V/V    : DENSITY POROSITY SANDSTONE [M=2710, F=1000] FROM DENSITY LOG
CNSLSED.V/V    : NEUTRON POROSITY LIMESTONE FROM DENSITY LOG [ADJ. TO RESISTIVITY LOG]
CNSSSED.V/V    : NEUTRON POROSITY LIMESTONE FROM DENSITY LOG
CONDWS .MMHO   : CONDUCTIVITY [1000/DRESWS]
DCORWS .KG/M3  : DENSITY CORRECTION [DRHOED]
DENWS  .KG/M3  : FORMATION BULK DENSITY [CALC. FROM DENWS, M=2710, F=1000]
DPOLSWS.V/V    : DENSITY POROSITY LIMESTONE [CDLLSED]
DRESWS .OHMM   : DEEP RESISTIVITY [RILDED]
DRHOED .KG/M3  : DENSITY CORRECTION FROM DENSITY LOG [ADJ. TO RESISTIVITY LOG]
DTED   .US/M   : COMPRESSIONAL SONIC FROM SONIC LOG  [ADJ. TO RESISTIVITY LOG]
DTWS   .US/M   : COMPRESSIONAL SONIC [DTED]
GRDED  .GAPI   : GAMMA RAY FROM DENSITY LOG
GRSED  .GAPI   : GAMMA RAY FROM SONIC LOG  [ADJ. TO RESISTIVITY LOG]
GRWS   .GAPI   : GAMMA RAY [GRDED]
MRESWS .OHMM   : MEDIUM RESISTIVITY [RILMED]
NPOLSWS.V/V    : NEUTRON POROSITY LIMESTONE [CNSLSED]
RHOBED .KG/M3  : BULK DENSITY FROM DENSITY LOG [ADJ. TO RESISTIVITY LOG]
RILDED .OHMM   : RESISTIVITY DEEP FROM RESISTIVITY LOG
RILMED .OHMM   : RESISTIVITY MEDIUM FROM RESISTIVITY LOG
RLLED  .OHMM   : LATERO LOG FROM RESISTIVITY LOG
SPRED  .MV     : SPONTANEOUS POTENTIAL FROM RESISTIVITY LOG
SPWS   .MV     : SPONTANEOUS POTENTIAL [BASELINE 0 MV, SPRED]
SRESWS .OHMM   : SHALLOW RESISTIVITY [RLLED]
~Params ----------------------------------------------------
PD  .                         GL : PERMANENT DATUM
EPD .M                    921.39 : ELEVATION PERMANENT DATUM
LMF .                         KB : LOG MEASURED FROM
DAPD.M                      7.08 : FEET ABOVE PERMANENT DATUM
EKB .M                    928.47 : KELLY BUSHING
EGL .M                    921.39 : GROUND LEVEL
DATE.                   12/10/84 : RUN DATE
RUN .                          1 : RUN NUMBER
DD  .M                      2345 : DEPTH DRILLER
DL  .M                    2368.5 : DEPTH LOGGER
BLI .M                    2343.5 : BOTTOM LOG INTERVAL
TLI .M                       275 : TOP LOG INTERVAL
CS  .MM                    219.1 : CASING SIZE
CBD .M                       275 : CASING BOTTOM DRILLER
CBL .M                       275 : CASING BOTTOM LOGGER
BS  .MM                      200 : BIT SIZE
BSD .M                      2345 : BIT SIZE AT DEPTH
DFT .                   GEL CHEM : DRILLING FLUID TYPE
DFD .                       1110 : DRILLING FLUID DENSITY
DFV .                         55 : DRILLING FLUID VISCOSITY
DFPH.                       10.5 : DRILLING FLUID PH
DFL .                         11 : DRILLING FLUID LOSS
RMS .OHMM                    1.4 : RESISTIVITY MUD SAMPLE
MST .DEGC                     18 : MUD SAMPLE TEMPERATURE
RMF .OHMM                   0.85 : RESISTIVITY MUD FILTRATE SAMPLE
MFST.DEGC                     18 : MUD FILTRATE SAMPLE TEMPERATURE
RMC .OHMM                    1.4 : RESISTIVITY MUD CAKE
MCST.DEGC                     20 : MUD CAKE SAMPLE TEMPERATURE
RMB .OHMM                    0.6 : RESISTIVITY MUD AT BHT
TCS .HRS                       4 : TIME CIRCULATED STOPPED
LUN .                        316 : LOGGING UNIT NUMBER
LUL .                   EDMONTON : LOGGING UNIT LOCATION
ENGI.                        ARD : RECORDING ENGINEER
WITN.                     SAHOTA : WITNESSED BY
CLNT.                    A2DTECH : CLIENT CODE
ORIG. 6.5"/100M 16.5"/100M PRINT : ORIGIN OF DATA
UWI .           100121406708W500 : UNIQUE WELL ID
DICO.     A2D Technologies, Inc. : DIGITIZING COMPANY
~Other -----------------------------------------------------
DIL-BCS LOG RAN IN COMBO & CNFD LOG RUN
RHOBED IS FROM SMALL SCALE
X-CALIPER DRIFT IN UPPER SEGMENT OF LOG
SONIC SIGNAL TRIGGERED ON NOISE AT 1068,1110 & 1777M
~ASCII -----------------------------------------------------
  300.00000  351.26700  351.26700  359.66540  368.43700    0.51300    -999.25    0.38500    -999.25  215.29920   92.57240 1832.77000    0.51300    4.64470   92.57240  426.72970  426.72970   60.06810   63.87270   60.06810    4.39300    0.38500 1840.71630    4.64470    4.39300    4.04560 -119.85650   -4.24050    4.04560
  350.00000  196.49670  196.49670  213.43820  215.29010    0.37790    -999.25    0.42080    -999.25  100.03100   88.62080 2063.79100    0.37790    9.99690   88.62080  386.08720  386.08720   53.97420   57.11350   53.97420    8.60560    0.42080 2072.09910    9.99690    8.60560    7.67600 -119.84150   -8.77360    7.67600
  400.00000  252.00890  252.00890  270.96970  259.56540    0.32230    -999.25    0.35640    -999.25  220.77000  126.95240 2158.86700    0.32230    4.52960  126.95240  363.39650  363.39650   55.25940   55.59020   55.25940    4.24380    0.35640 2118.00370    4.52960    4.24380    4.05540 -112.30980   -4.53410    4.05540
  450.00000  229.48910  229.48910  251.30860  244.88900    0.31880    -999.25    0.32630    -999.25  119.57290  115.32510 2164.85200    0.31880    8.36310  115.32510  372.43530  372.43530   47.11220   46.20180   47.11220    7.42410    0.32630 2161.95700    8.36310    7.42410    6.58030 -120.40800  -15.25750    6.58030
  500.00000  178.36700  178.36700  193.19690  198.39650    0.32350    -999.25    0.34540    -999.25  114.37200   24.70410 2156.81500    0.32350    8.74340   24.70410  351.53010  351.53010   44.68510   47.77060   44.68510    9.41540    0.34540 2136.83860    8.74340    9.41540    8.30780 -118.89190  -14.80180    8.30780
  550.00000  218.99130  218.99130  231.47700  248.18770    0.48980    -999.25    0.36470    -999.25  245.42890  190.87940 1872.44200    0.48980    4.07450  190.87940  373.72120  373.72120   60.89340   62.58240   60.89340    3.85330    0.36470 1886.57370    4.07450    3.85330    3.68000 -110.81230   -7.78260    3.68000
  600.00000  358.30540  358.30540  367.25020  372.79640    0.53250    -999.25    0.38400    -999.25  201.99570  126.29510 1799.42500    0.53250    4.95060  126.29510  387.39700  387.39700   71.45650   69.58730   71.45650    4.56980    0.38400 1799.05740    4.95060    4.56980    4.02080 -109.71530   -8.75330    4.02080
  650.00000  381.54800  381.54800  368.07500  410.42880    0.73100    -999.25    0.43700    -999.25  177.12910   64.92060 1459.99000    0.73100    5.64560   64.92060  431.98830  431.98830   84.02160   85.69500   84.02160    5.21140    0.43700 1459.94140    5.64560    5.21140    4.78000 -106.63830   -7.80860    4.78000
  700.00000  374.24460  374.24460  367.94000  424.66460    0.80320    -999.25    0.42810    -999.25  161.29810   17.32670 1336.52800    0.80320    6.19970   17.32670  364.78130  364.78130   84.01890   82.71950   84.01890    5.61420    0.42810 1340.97780    6.19970    5.61420    4.83200 -110.90250   -7.20830    4.83200
  750.00000  269.21110  269.21110  353.98890  303.04510    0.38120    -999.25    0.39980    -999.25  162.90620   62.69210 2058.14800    0.38120    6.13850   62.69210  448.09910  448.09910   91.56370   86.47220   91.56370    5.46790    0.39980 2070.74580    6.13850    5.46790    5.22890 -109.16930   -8.95890    5.22890
  800.00000  282.35880  282.35880  292.53040  296.26160    0.58730    -999.25    0.42100    -999.25  202.95500  152.59180 1705.71700    0.58730    4.92720  152.59180  382.80800  382.80800  101.13240   95.93630  101.13240    4.83310    0.42100 1700.03340    4.92720    4.83310    4.62160 -103.32530   -6.59870    4.62160
  850.00000  292.20740  292.20740  313.92140  298.62020    0.33120    -999.25    0.39300    -999.25  260.95350  145.96140 2143.64800    0.33120    3.83210  145.96140  359.32680  359.32680   91.98610   84.02830   91.98610    3.62190    0.39300 2136.97270    3.83210    3.62190    3.37310  -99.51690   -7.13860    3.37310
  900.00000  281.16960  281.16960  324.03450  286.66520    0.41250    -999.25    0.35810    -999.25  258.27110  171.03510 2004.62500    0.41250    3.87190  171.03510  351.48250  351.48250   92.15660   93.29840   92.15660    3.74530    0.35810 2017.29740    3.87190    3.74530    3.60710  -96.16370   -6.47990    3.60710
  950.00000  294.64970  294.64970  316.00750  300.17510    0.34890    -999.25    0.39880    -999.25  500.42540  175.12070 2113.38100    0.34890    1.99830  175.12070  351.92430  351.92430   92.80550   89.29090   92.80550    2.17940    0.39880 2115.32320    1.99830    2.17940    2.42200  -89.17420   -4.50860    2.42200
 1000.00000  210.60280  210.60280  215.57600  199.34370    0.24510    -999.25    0.22710    -999.25  321.22320  101.39440 2290.87900    0.24510    3.11310  101.39440  339.36270  339.36270   60.80290   55.55080   60.80290    3.35690    0.22710 2274.91720    3.11310    3.35690    5.52520  -86.95530  -13.88350    5.52520
 1050.00000  181.53010  181.53010  206.27720  189.25360    0.28080    -999.25    0.30920    -999.25  436.16700  148.80030 2229.83200    0.28080    2.29270  148.80030  326.42380  326.42380   53.55430   57.29030   53.55430    3.94100    0.30920 2230.43770    2.29270    3.94100    6.34840 -133.63900  -54.14930    6.34840
 1100.00000  197.27530  197.27530  214.27850  200.62200    0.22380    -999.25    0.36670    -999.25  346.74060  165.13510 2327.30200    0.22380    2.88400  165.13510  315.98340  315.98340   77.22190   75.65060   77.22190    3.80810    0.36670 2320.10230    2.88400    3.80810    5.57830 -103.99440  -26.71460    5.57830
 1150.00000  214.33650  214.33650  216.64960  220.62340    0.15700    -999.25    0.31320    -999.25  371.36070   62.48590 2441.53000    0.15700    2.69280   62.48590  297.38020  297.38020   70.06880   64.37110   70.06880    3.32420    0.31320 2439.96830    2.69280    3.32420    3.50590  -91.21060  -13.34660    3.50590
 1200.00000  292.61040  292.61040  331.71630  313.93250    0.22850    -999.25    0.32790    -999.25  297.34470  234.06550 2319.26500    0.22850    3.36310  234.06550  281.56050  281.56050   72.98280   69.27890   72.98280    3.53050    0.32790 2322.01760    3.36310    3.53050    3.89070  -81.34580   -6.93730    3.89070
 1250.00000  256.58510  256.58510  250.93360  257.71740    0.21910    -999.25    0.28210    -999.25  213.78480   88.62140 2335.33900    0.21910    4.67760   88.62140  302.48590  302.48590   88.10670   84.16250   88.10670    5.19480    0.28210 2352.68060    4.67760    5.19480    5.52980  -94.78950  -17.36960    5.52980
 1300.00000  274.87340  274.87340  279.83730  278.42100    0.05090    -999.25    0.05850    -999.25   51.78530   42.37010 2622.96100    0.05090   19.31050   42.37010  186.07260  186.07260   21.77360   21.41170   21.77360   25.08610    0.05850 2630.11160   19.31050   25.08610   55.26500  -96.32510  -20.34190   55.26500
 1350.00000  413.34330  413.34330  369.78670  441.48120    0.69450    -999.25    0.32840    -999.25  348.83320  113.35820 1522.40500    0.69450    2.86670  113.35820  306.93200  306.93200   84.58150   74.59380   84.58150    2.54230    0.32840 1512.98490    2.86670    2.54230    3.22460  -90.96160  -22.53330    3.22460
 1400.00000  287.70470  287.70470  276.12960  284.38180    0.06120    -999.25    0.13680    -999.25  131.62400   37.12150 2605.43350    0.06120    7.59740   37.12150  223.35790  223.35790   66.02830   63.15530   66.02830    8.26160    0.13680 2604.18680    7.59740    8.26160    9.25510  -73.02860  -18.17290    9.25510
 1450.00000  265.01710  265.01710  264.82440  256.34480    0.01500    -999.25    0.08400    -999.25   55.34400   21.98560 2684.35000    0.01500   18.06880   21.98560  191.89030  191.89030   27.55650   26.83670   27.55650   19.69600    0.08400 2686.45610   18.06880   19.69600   24.94810  -88.76330  -37.13040   24.94810
 1500.00000  213.56990  213.56990  204.43150  202.01550    0.03590    -999.25    0.11130    -999.25  139.73700   23.23840 2648.61100    0.03590    7.15630   23.23840  179.48910  179.48910   19.36400   20.10800   19.36400   13.93220    0.11130 2641.38400    7.15630   13.93220   54.29080 -141.77790  -90.81260   54.29080
