~Version ---------------------------------------------------
VERS.      2.0 : CWLS log ASCII Standard -VERSION 2.0
WRAP.       NO : One line per depth step
CREA. 07/22/13 : LAS Creation Date
~Well ------------------------------------------------------
STRT.M                        300.0 : START DEPTH
STOP.M                       3650.0 : STOP DEPTH
STEP.M                     50.00000 : STEP LENGTH
NULL.                       -999.25 : NULL VALUE
COMP.  SCURRY - RAINBOW OIL LIMITED : COMPANY
WELL. SCURRY ET AL EDSON 6-13-52-16 : WELL
FLD .                               : FIELD
LOC .                               : LOCATION
CTRY.                        CANADA : COUNTRY
SRVC.        Schlumberger of Canada : SERVICE COMPANY
DATE.                   05-Apr-1982 : LOGDATE
PROV.                       Alberta : PROVINCE
UWI .              100061305216W500 : UNIQUE WELL ID
SLAT.WGS84                 53.48756 : SURFACE LATITUDE
SLON.WGS84                -116.2288 : SURFACE LONGITUDE
~Curve Information -----------------------------------------
DEPT    .M      : DEPTH METER
CALDED  .MM     : CALIPER FROM DENSITY LOG [ADJ.TO RESISTIVITY LOG]
CALMED  .MM     : CALIPER FROM MLL LOG [ADJ.TO RESISTIVITY LOG]
CALSED  .MM     : CALIPER FROM SONIC LOG
CALWS   .MM     : CALIPER [CALDED]
CONDWS  .MMHO   : CONDUCTIVITY [1000/DRESWS]
DCORWS  .KG/M3  : DENSITY CORRECTION [DRHOED]
DENWS   .KG/M3  : FORMATION BULK DENSITY [CALC FROM DPOLSWS, M=2710, F=1000]
DPHILSED.V/V    : DENSITY POROSITY LIMESTONE [M=2710,F=1000] FROM DENSITY LOG [ADJ.TO RESISTIVITY LOG]
DPHISSED.V/V    : DENSITY POROSITY SANDSTONE [M=2650, F=1000] FROM DENSITY LOG [ADJ.TO RESISTIVITY LOG]
DPOLSWS .V/V    : DENSITY POROSITY LIMESTONE [DPHISSED CONVERTED TO LIMESTONE MATRIX, M=2710 F=1000 SPL.TO DPHILSED @ 2592.8M]
DRESWS  .OHMM   : DEEP RESISTIVITY [ILDED]
DRHOED  .KG/M3  : DENSITY CORRECTION FROM DENSITY LOG [ADJ.TO RESISTIVITY LOG]
DTED    .US/M   : DELTA TIME FROM SONIC LOG
DTWS    .US/M   : COMPRESSIONAL SONIC [DTED]
GRDED   .GAPI   : GAMMA RAY FROM DENSITY LOG [ADJ.TO RESISTIVITY LOG]
GRED    .GAPI   : GAMMA RAY FROM CBL LOG [ADJ.TO RESISTIVITY LOG]
GRSED   .GAPI   : GAMMA RAY FROM SONIC LOG
GRWS    .GAPI   : GAMMA RAY [GRED SPL.TO GRSED @ 444.6M & GRDED @ 3632.5M]
ILDED   .OHMM   : DEEP INDUCTION FROM RESISTIVITY LOG
ILMED   .OHMM   : MEDIUM INDUCTION FROM RESISTIVITY LOG
MLLED   .OHMM   : MICRO-LATEROLOG FROM MLL LOG [ADJ.TO RESISTIVITY LOG]
MRESWS  .OHMM   : MEDIUM RESISTIVITY [ILMED]
NPHILSED.V/V    : NEUTRON POROSITY LIMESTONE FROM DENSITY LOG [ADJ.TO RESISTIVITY LOG]
NPHISSED.V/V    : NEUTRON POROSITY SANDSTONE FROM DENSITY LOG [ADJ.TO RESISTIVITY LOG]
NPOLSWS .V/V    : NEUTRON POROSITY LIMESTONE [NPHISSED MATRIX (SLB) CONVERSION FOR LIMESTONE, SPL.TO NPHILSED @ 2592.6M]
RHOBED  .KG/M3  : BULK DENSITY FROM DENSITY LOG [ADJ.TO RESISTIVITY LOG]
SFLED   .OHMM   : SHALLOW FOCUSED RESISTIVITY FROM RESISTIVITY LOG
SPRED   .MV     : SPONTANEOUS POTENTIAL FROM RESISTIVITY LOG
SPWS    .MV     : SPONTANEOUS POTENTIAL [BASELINE 0 MV, SPRED]
SRESWS  .OHMM   : SHALLOW RESISTIVITY [SFLED]
~Params ----------------------------------------------------
PD  .                        GL : PERMANENT DATUM
EPD .M                    940.2 : ELEVATION PERMANENT DATUM
LMF .                        KB : LOG MEASURED FROM
DAPD.M                      5.6 : FEET ABOVE PERMANENT DATUM
DMF .                        KB : DRILLING MEASURED FROM
EKB .M                    945.8 : KELLY BUSHING
EGL .M                    940.2 : GROUND LEVEL
DATE.                  04/05/82 : RUN DATE
RUN .                         1 : RUN NUMBER
DD  .M                     3677 : DEPTH DRILLER
DL  .M                     3677 : DEPTH LOGGER
BLI .M                     3676 : BOTTOM LOG INTERVAL
TLI .M                      467 : TOP LOG INTERVAL
CS  .MM                     244 : CASING SIZE
CBD .M                      467 : CASING BOTTOM DRILLER
CBL .M                      467 : CASING BOTTOM LOGGER
BS  .MM                     222 : BIT SIZE
BSD .M                     3677 : BIT SIZE AT DEPTH
DFT .                  GEL CHEM : DRILLING FLUID TYPE
DFD .                      1100 : DRILLING FLUID DENSITY
DFV .                       105 : DRILLING FLUID VISCOSITY
DFPH.                        11 : DRILLING FLUID PH
DFL .                         8 : DRILLING FLUID LOSS
MSS .                  FLOWLINE : MUD SAMPLE SOURCE
RMS .OHMM                  1.21 : RESISTIVITY MUD SAMPLE
MST .DEGC                  18.3 : MUD SAMPLE TEMPERATURE
RMF .OHMM                  0.97 : RESISTIVITY MUD FILTRATE SAMPLE
MFST.DEGC                  17.8 : MUD FILTRATE SAMPLE TEMPERATURE
RMC .OHMM                  1.15 : RESISTIVITY MUD CAKE
MCST.DEGC                  15.6 : MUD CAKE SAMPLE TEMPERATURE
MFSS.                 MUD PRESS : MUD FILTRATE SAMPLE SOURCE
RMB .OHMM                  0.41 : RESISTIVITY MUD AT BHT
TCS .HRS                    300 : TIME CIRCULATED STOPPED
TLAB.HRS                   1300 : TIME LOGGER AT BOTTOM
LUN .                      8156 : LOGGING UNIT NUMBER
LUL .                       EDS : LOGGING UNIT LOCATION
ENGI.                 LABRECOUE : RECORDING ENGINEER
WITN.                  LAWRENCE : WITNESSED BY
CLNT.                   A2DTECH : CLIENT CODE
ORIG. 6.5"/100M 16.5"M100 PRINT : ORIGIN OF DATA
UWI .          100061305216W500 : UNIQUE WELL ID
DICO.    A2D Technologies, Inc. : DIGITIZING COMPANY
~Other -----------------------------------------------------
DI-SFL-MLL-CNL-FDC-BHC-CBL LOG RUN
RHOB,DRHO FROM SMALL SCALE SECTION
~ASCII -----------------------------------------------------
# ...
 2700.00000  238.53940  231.87140  238.52690  238.53940   17.21450   48.00240 2734.11100   -0.01410    -999.25   -0.01410   58.09040   48.00240  179.98640  179.98640  112.47690   59.11140  109.96210  109.96210   58.09040   72.29210  248.45850   72.29210    0.00970    -999.25    0.00970 2723.00390  193.94790 -115.60200  -22.53360  193.94790
 2750.00000  247.74360  233.05150  242.90810  247.74360   11.59850   48.80800 2758.22200   -0.02820    -999.25   -0.02820   86.21810   48.80800  182.60340  182.60340   53.75680   45.01690   51.68970   51.68970   86.21810   94.19800   79.75680   94.19800    0.03790    -999.25    0.03790 2755.47000   96.88070  -92.26930  -10.30190   96.88070
 2800.00000  242.72440  232.07540  240.37860  242.72440    8.06140   32.23740 2726.24500   -0.00950    -999.25   -0.00950  124.04850   32.23740  168.18130  168.18130   42.00890   27.40230   38.04210   38.04210  124.04850  133.51000   79.48030  133.51000    0.02510    -999.25    0.02510 2729.31250  118.87310  -84.81230  -10.90010  118.87310
 2850.00000  238.95140  231.72570  235.14720  238.95140    0.55060   39.79050 2741.12200   -0.01820    -999.25   -0.01820 1816.03720   39.79050  164.82780  164.82780   25.25670   48.76610   24.57940   24.57940 1816.03720 1975.22090   97.75860 1975.22090    0.06940    -999.25    0.06940 2737.59330 1204.66650  -94.46740  -19.14070 1204.66650
 2900.00000  274.51700  244.44660  245.19930  274.51700    0.50000  250.63250 2649.80800    0.03520    -999.25    0.03520 2000.00000  250.63250  160.20480  160.20480   15.23900   16.07460   11.07110   11.07110 2000.00000 2000.71350    5.59870 2000.71350    0.00100    -999.25    0.00100 2653.24000 1848.63210 -179.88280 -110.36730 1848.63210
 2950.00000  314.42260  255.85660  244.73930  314.42260    0.50000  250.10470 2679.04900    0.01810    -999.25    0.01810 2000.00000  250.10470  161.73410  161.73410   14.88530   20.93030    8.54480    8.54480 2000.00000 1958.26430    2.50630 1958.26430    0.00780    -999.25    0.00780 2663.73780 1343.79900 -164.97420 -101.26990 1343.79900
 3000.00000  304.20970  272.89860  257.68760  304.20970    0.50000  228.84610 2687.59900    0.01310    -999.25    0.01310 2000.00000  228.84610  163.94540  163.94540   16.67530   19.53520   15.25800   15.25800 2000.00000 2001.29900    3.41060 2001.29900    0.00830    -999.25    0.00830 2678.84940 1724.23840 -172.90990 -115.01680 1724.23840
 3050.00000  233.66970  198.54270  232.55310  233.66970  112.69510   79.09720 2660.41000    0.02900    -999.25    0.02900    8.87350   79.09720  164.36020  164.36020   14.75730   10.34060    9.28730    9.28730    8.87350   14.34690    4.48250   14.34690    0.15610    -999.25    0.15610 2665.19340   75.97070 -153.80400 -101.72210   75.97070
 3100.00000  228.13480  196.77580  228.32280  228.13480   14.01160   32.75130 2778.74200   -0.04020    -999.25   -0.04020   71.36920   32.75130  168.63790  168.63790   16.28640   23.28680   12.97830   12.97830   71.36920  156.99270   25.45340  156.99270    0.04880    -999.25    0.04880 2775.51270  146.72900 -164.23380 -117.96310  146.72900
 3150.00000  238.98310  228.92820  238.16030  238.98310    8.11710   39.89030 2763.86500   -0.03150    -999.25   -0.03150  123.19740   39.89030  176.66550  176.66550   51.08960   31.09530   43.05470   43.05470  123.19740  154.44130  104.42600  154.44130    0.03080    -999.25    0.03080 2762.36890  148.14960  -63.77120  -23.31160  148.14960
 3200.00000  301.44940  271.39650  325.06030  301.44940  124.48180  145.83450 2671.35400    0.02260    -999.25    0.02260    8.03330  145.83450  242.51030  242.51030   93.46690   49.93860   91.58520   91.58520    8.03330    7.18920    1.38820    7.18920    0.21840    -999.25    0.21840 2671.47090    9.19420  -74.93060  -40.28230    9.19420
 3250.00000  285.71110  239.21010  246.07350  285.71110   19.53720  249.30670 2768.48200   -0.03420    -999.25   -0.03420   51.18450  249.30670  181.52290  181.52290   40.44130   32.87810   34.88330   34.88330   51.18450  101.06190  183.15060  101.06190    0.02140    -999.25    0.02140 2765.59590   67.65510  -45.24690  -29.54160   67.65510
 3300.00000  272.12130  239.32410  238.40360  272.12130   65.53810  234.43480 2686.91500    0.01350    -999.25    0.01350   15.25830  234.43480  213.39720  213.39720   91.09510   61.50150   89.88440   89.88440   15.25830   15.84690   19.90590   15.84690    0.14830    -999.25    0.14830 2716.25730   20.49360  -21.03540   -5.74710   20.49360
 3350.00000  318.61520  254.61500  245.45720  318.61520   87.65390  250.00000 2626.55200    0.04880    -999.25    0.04880   11.40850  250.00000  223.88130  223.88130   94.20760   55.48240   90.00110   90.00110   11.40850   12.12670    2.61340   12.12670    0.16290    -999.25    0.16290 2626.22340   14.82330  -39.92810  -25.75890   14.82330
 3400.00000  243.78090  229.52500  237.64890  243.78090   56.07520  127.25120 2791.56700   -0.04770    -999.25   -0.04770   17.83320  127.25120  207.95280  207.95280   88.51520   39.79170   85.79920   85.79920   17.83320   19.25060   24.99890   19.25060    0.12440    -999.25    0.12440 2807.49710   25.51530  -28.52340  -10.36940   25.51530
 3450.00000  239.42290  233.13210  232.35200  239.42290    0.49760   30.09980 2587.39300    0.07170    -999.25    0.07170 2009.54160   30.09980  206.69320  206.69320   84.35170   45.89130   75.68400   75.68400 2009.54160 2000.00000 1342.02080 2000.00000    0.07290    -999.25    0.07290 2586.55660 1269.45740  -62.03630  -26.79280 1269.45740
 3500.00000  251.53720  233.83910  239.84050  251.53720    3.57370   20.30710 2709.65800    0.00020    -999.25    0.00020  279.82070   20.30710  184.72390  184.72390   62.67970   33.23190   55.86310   55.86310  279.82070  247.20340  164.12740  247.20340    0.06360    -999.25    0.06360 2707.00680  207.45280  -65.77070   -6.04800  207.45280
 3550.00000  247.78400  231.21080  241.00510  247.78400    0.50000   25.24220 2726.24500   -0.00950    -999.25   -0.00950 2000.00000   25.24220  160.28000  160.28000   23.47880   20.94810   18.26850   18.26850 2000.00000 2000.00000 1549.08750 2000.00000   -0.00090    -999.25   -0.00090 2730.51420 2003.08840 -128.39430  -96.09380 2003.08840
 3600.00000  305.91090  236.39990  246.25540  305.91090    0.93420  250.00000 2212.21900    0.29110    -999.25    0.29110 1070.41160  250.00000  164.07050  164.07050   21.78910   25.28160   15.39890   15.39890 1070.41160 1864.82250   10.11080 1864.82250    0.02730    -999.25    0.02730 2216.29350 1937.43080 -206.81340 -160.97100 1937.43080
 3650.00000  237.00110  221.35790  230.33060  237.00110   44.73930   57.12780 2740.78000   -0.01800    -999.25   -0.01800   22.35170   57.12780  152.66070  152.66070   18.38990    -999.25   11.22850   18.38990   22.35170   30.82620   26.99120   30.82620    0.11210    -999.25    0.11210 2737.03690  110.46140 -135.22910  -75.84490  110.46140
