~Version ---------------------------------------------------
VERS.      2.0 : CWLS log ASCII Standard -VERSION 2.0
WRAP.       NO : One line per depth step
CREA. 11/21/17 : LAS Creation Date
~Well ------------------------------------------------------
STRT.FT                       1200.0 : START DEPTH
STOP.FT                      14950.0 : STOP DEPTH
STEP.FT                     50.00000 : STEP LENGTH
NULL.                        -999.25 : NULL VALUE
COMP.           PETROFINA CANADA LTD : COMPANY
WELL. PC FINA GULF ERITH 15-10-49-19 : WELL
FLD .                             WC : FIELD
LOC .                                : LOCATION
CTRY.                         CANADA : COUNTRY
SRVC.                   Schlumberger : SERVICE COMPANY
DATE.                    25-May-1972 : LOGDATE
PROV.                        Alberta : PROVINCE
UWI .               100151004919W500 : UNIQUE WELL ID
SLAT.WGS84                  53.21922 : SURFACE LATITUDE
SLON.WGS84                  -116.691 : SURFACE LONGITUDE
~Curve Information -----------------------------------------
DEPT    .FT    : Depth Curve
CALDED  .IN    : CALIPER FROM DENSITY LOG  [ADJ. TO RESISTIVITY LOG]
CALSED  .IN    : CALIPER FROM SONIC LOG
CALWS   .IN    : CALIPER [CALSED]
CILDED  .MMHO  : CONDUCTIVITY FROM RESISTIVITY LOG
CONDWS  .MMHO  : CONDUCTIVITY [1000/DRESWS]
DCORED  .G/C3  : DENSITY CORRECTION FROM DENSITY LOG  [ADJ. TO RESISTIVITY LOG]
DCORWS  .G/C3  : DENSITY CORRECTION [DCORED]
DENWS   .G/C3  : FORMATION BULK DENSITY [CALC. FROM DPOLSWS, M=2.71, F=1.00]
DPHILSED.V/V   : DENSITY POROSITY [M=2.71, F=1.00] FROM DENSITY LOG  [ADJ. TO RESISTIVITY LOG]
DPOLSWS .V/V   : DENSITY POROSITY LIMESTONE [DPHILSED]
DRESWS  .OHMM  : DEEP RESISTIVITY [1000/CILDED IF ILDED < 1, ILDED SPL. ILD @ 8190.5']
DTED    .US/F  : DELTA TIME FROM SONIC LOG
DTWS    .US/F  : COMPRESSIONAL SONIC [DTED]
GRDED   .GAPI  : GAMMA RAY FROM DENSITY LOG [ADJ. TO RESISTIVITY LOG]
GRNED   .GAPI  : GAMMA RAY FROM NEUTRON LOG [ADJ. TO RESISTIVITY LOG]
GRSED   .GAPI  : GAMMA RAY FROM SONIC LOG
GRWS    .GAPI  : GAMMA RAY [GRSED]
ILDED   .MMHO  : DEEP INDUCTION LOG  RESISTIVITY FROM RESISTIVITY LOG
ILMED   .OHMM  : MEDIUM INDUCTION LOG  RESISTIVITY FROM RESISTIVITY LLOG
LL8ED   .OHMM  : 8 INCH LATEROLOG RESISTIVITY FROM RESISTIVITY LOG
MRESWS  .OHMM  : MEDIUM RESISTIVITY [ILMED]
NEUTED  .NAPI  : NEUTRON FROM NEUTRON LOG [ADJ. TO SONIC LOG]
NEUTWS  .NAPI  : NEUTRON [NEUTED]
NPHILSED.V/V   : NEUTRON POROSITY LIMESTONE FROM DENSITY LOG [ADJ. TO RESISTIVITY LOG]
NPOLSWS .V/V   : NEUTRON POROSITY LIMESTONE [NPHILSED]
RHOBED  .G/C3  : BULK DENSITY FROM DENSITY LOG  [ADJ. TO RESISTIVITY LOG]
SPRED   .MV    : SPONTANEOUS POTENTIAL FROM RESISTIVITY LOG
SPWS    .MV    : SPONTANEOUS POTENTIAL [BASELINE 0 MV, SPRED]
SRESWS  .OHMM  : SHALLOW RESISTIVITY [LL8ED]
~Params ----------------------------------------------------
PD  .                     GL : PERMANENT DATUM
EPD .FT                 3706 : ELEVATION PERMANENT DATUM
LMF .                     KB : LOG MEASURED FROM
DAPD.FT                 17.5 : FEET ABOVE PERMANENT DATUM
EKB .FT               3723.5 : KELLY BUSHING
EGL .FT                 3706 : GROUND LEVEL
DATE.               06/07/72 : RUN DATE
RUN .                      3 : RUN NUMBER
DD  .FT                14975 : DEPTH DRILLER
DL  .FT                14971 : DEPTH LOGGER
BLI .FT                14966 : BOTTOM LOG INTERVAL
TLI .FT                14400 : TOP LOG INTERVAL
CBD .FT                11336 : CASING BOTTOM DRILLER
CBL .FT                11343 : CASING BOTTOM LOGGER
BS  .IN                  8.5 : BIT SIZE
BSD .FT                14975 : BIT SIZE AT DEPTH
DFT .       GEL CHEM POLYMER : DRILLING FLUID TYPE
DFD .                   13.5 : DRILLING FLUID DENSITY
DFV .                     55 : DRILLING FLUID VISCOSITY
DFPH.                   11.5 : DRILLING FLUID PH
DFL .                     15 : DRILLING FLUID LOSS
RMF .OHMM               0.28 : RESISTIVITY MUD FILTRATE SAMPLE
MFST.DEGF                 67 : MUD FILTRATE SAMPLE TEMPERATURE
RMB .OHMM               0.07 : RESISTIVITY MUD AT BHT
TCS .HRS                   6 : TIME CIRCULATED STOPPED
LUN .                  OSU-C : LOGGING UNIT NUMBER
LUL .               1123 EDM : LOGGING UNIT LOCATION
ENGI.                HACKNEY : RECORDING ENGINEER
WITN.               ROTA LEE : WITNESSED BY
CLNT.                A2DTECH : CLIENT CODE
ORIG.            2" 5" PRINT : ORIGIN OF DATA
UWI .       100151004919W500 : UNIQUE WELL ID
DICO. A2D Technologies, Inc. : DIGITIZING COMPANY
~Other -----------------------------------------------------
~ASCII -----------------------------------------------------
# ...
 7450.00000    -999.25   12.88360   12.88360   73.75260   88.19980    -999.25    -999.25    -999.25    -999.25    -999.25   11.33790  102.19820  102.19820    -999.25    -999.25   96.09510   96.09510   11.33790    -999.25   13.51000    -999.25    -999.25    -999.25    -999.25    -999.25    -999.25   44.31560   -8.79160   13.51000
 7500.00000    -999.25   13.06590   13.06590   65.51410   80.67180    -999.25    -999.25    -999.25    -999.25    -999.25   12.39590   82.83600   82.83600    -999.25    -999.25   97.76050   97.76050   12.39590    -999.25   13.35000    -999.25    -999.25    -999.25    -999.25    -999.25    -999.25   47.19930   -6.17280   13.35000
 7550.00000    -999.25   12.41380   12.41380   36.04490   54.66630    -999.25    -999.25    -999.25    -999.25    -999.25   18.29280   71.91480   71.91480    -999.25    -999.25   76.67950   76.67950   18.29280    -999.25   15.36690    -999.25    -999.25    -999.25    -999.25    -999.25    -999.25   46.14130   -7.49690   15.36690
 7600.00000    -999.25   13.21960   13.21960   73.06660   93.44920    -999.25    -999.25    -999.25    -999.25    -999.25   10.70100   83.37910   83.37910    -999.25    -999.25  104.31960  104.31960   10.70100    -999.25    8.88700    -999.25    -999.25    -999.25    -999.25    -999.25    -999.25   49.77410   -4.13020    8.88700
 7650.00000    -999.25   13.55030   13.55030  125.42310  129.13560    -999.25    -999.25    -999.25    -999.25    -999.25    7.74380   82.67610   82.67610    -999.25    -999.25   96.57910   96.57910    7.74380    -999.25    7.07720    -999.25    -999.25    -999.25    -999.25    -999.25    -999.25   47.67110   -6.49930    7.07720
 7700.00000    -999.25   13.64580   13.64580  112.13790  120.95850    -999.25    -999.25    -999.25    -999.25    -999.25    8.26730   83.10270   83.10270    -999.25    -999.25   99.13170   99.13170    8.26730    -999.25    7.01960    -999.25    -999.25    -999.25    -999.25    -999.25    -999.25   51.52920   -2.90860    7.01960
 7750.00000    -999.25   12.50530   12.50530  104.88560  113.03140    -999.25    -999.25    -999.25    -999.25    -999.25    8.84710   81.50910   81.50910    -999.25    -999.25   97.86790   97.86790    8.84710    -999.25    7.55590    -999.25    -999.25    -999.25    -999.25    -999.25    -999.25   50.77600   -3.92660    7.55590
 7800.00000    -999.25   13.61160   13.61160  101.57720  119.39870    -999.25    -999.25    -999.25    -999.25    -999.25    8.37530   75.52350   75.52350    -999.25    -999.25   91.50950   91.50950    8.37530    -999.25    7.30240    -999.25    -999.25    -999.25    -999.25    -999.25    -999.25   48.43240   -6.53630    7.30240
 7850.00000    -999.25   13.55110   13.55110  111.17330  122.81840    -999.25    -999.25    -999.25    -999.25    -999.25    8.14210   77.12390   77.12390    -999.25    -999.25   80.50940   80.50940    8.14210    -999.25    7.54910    -999.25    -999.25    -999.25    -999.25    -999.25    -999.25   45.45560   -9.77920    7.54910
 7900.00000    -999.25   13.13060   13.13060  108.23660  128.76810    -999.25    -999.25    -999.25    -999.25    -999.25    7.76590   56.76310   56.76310    -999.25    -999.25  103.81260  103.81260    7.76590    -999.25    7.26700    -999.25    -999.25    -999.25    -999.25    -999.25    -999.25   45.30870  -10.19220    7.26700
 7950.00000    -999.25   13.17070   13.17070   52.57860   68.56270    -999.25    -999.25    -999.25    -999.25    -999.25   14.58520   67.90400   67.90400    -999.25    -999.25   78.90250   78.90250   14.58520    -999.25   11.04060    -999.25    -999.25    -999.25    -999.25    -999.25    -999.25   47.74710   -8.02130   11.04060
 8000.00000    -999.25   13.57370   13.57370   88.83980  105.88850    -999.25    -999.25    -999.25    -999.25    -999.25    9.44390   74.05820   74.05820    -999.25    -999.25   92.40070   92.40070    9.44390    -999.25    8.13200    -999.25    -999.25    -999.25    -999.25    -999.25    -999.25   49.76540   -6.26770    8.13200
 8050.00000    -999.25   13.26250   13.26250   98.87550  116.20750    -999.25    -999.25    -999.25    -999.25    -999.25    8.60530   82.76880   82.76880    -999.25    -999.25   99.09180   99.09180    8.60530    -999.25    7.54360    -999.25    -999.25    -999.25    -999.25    -999.25    -999.25   44.85230  -11.44690    7.54360
 8100.00000    -999.25   13.90450   13.90450  108.87750  126.14160    -999.25    -999.25    -999.25    -999.25    -999.25    7.92760   77.63080   77.63080    -999.25   86.64750   96.70230   96.70230    7.92760    -999.25    7.09300    -999.25  273.74510  273.74510    -999.25    -999.25    -999.25   44.81390  -11.75140    7.09300
 8150.00000    -999.25   13.34520   13.34520  102.09400  117.28140    -999.25    -999.25    -999.25    -999.25    -999.25    8.52650   91.28320   91.28320    -999.25   79.48940   99.48270   99.48270    8.52650    -999.25    7.33540    -999.25  211.76550  224.51630    -999.25    -999.25    -999.25   51.16900   -5.66240    7.33540
 8200.00000    -999.25   13.73020   13.73020    -999.25  168.63120    -999.25    -999.25    -999.25    -999.25    -999.25    5.93010   81.05170   81.05170    -999.25   86.37150  109.69220  109.69220    5.93010    6.62340    7.44060    6.62340  199.04690  250.07100    -999.25    -999.25    -999.25   51.31860   -5.78020    7.44060
 8250.00000    -999.25   13.35540   13.35540    -999.25   64.07460    -999.25    -999.25    -999.25    -999.25    -999.25   15.60680  103.03370  103.03370    -999.25   70.70830   86.12780   86.12780   15.60680   16.64830   19.23400   16.64830  448.16630  611.54300    -999.25    -999.25    -999.25   50.10120   -7.26240   19.23400
 8300.00000    -999.25   13.45250   13.45250    -999.25  107.56270    -999.25    -999.25    -999.25    -999.25    -999.25    9.29690   73.89670   73.89670    -999.25   66.57730   82.49420   82.49420    9.29690   13.08760   11.27760   13.08760  356.25200  335.71810    -999.25    -999.25    -999.25   47.52860  -10.10110   11.27760
 8350.00000    -999.25   14.00640   14.00640    -999.25  128.09180    -999.25    -999.25    -999.25    -999.25    -999.25    7.80690   76.94080   76.94080    -999.25   81.27100   93.65000   93.65000    7.80690   11.98470   10.35020   11.98470  387.72170  381.48490    -999.25    -999.25    -999.25   47.13110  -10.76470   10.35020
 8400.00000    -999.25   13.44620   13.44620    -999.25   27.50860    -999.25    -999.25    -999.25    -999.25    -999.25   36.35230   77.41950   77.41950    -999.25   43.14340   48.75560   48.75560   36.35230   22.50490   16.13900   22.50490  743.56950  752.43570    -999.25    -999.25    -999.25   52.48230   -5.67960   16.13900
 8450.00000    -999.25   12.54000   12.54000    -999.25   59.57560    -999.25    -999.25    -999.25    -999.25    -999.25   16.78540   73.37340   73.37340    -999.25   79.23760   93.02740   93.02740   16.78540   11.55790   13.63420   11.55790  622.64550  612.02740    -999.25    -999.25    -999.25   49.98290   -8.44640   13.63420
 8500.00000    -999.25   12.17970   12.17970    -999.25   72.42910    -999.25    -999.25    -999.25    -999.25    -999.25   13.80660   73.66180   73.66180    -999.25   88.20400   92.57480   92.57480   13.80660    9.92470   11.75150    9.92470  477.75530  478.40000    -999.25    -999.25    -999.25   51.48820   -7.20590   11.75150
 8550.00000    -999.25   12.45460   12.45460    -999.25   79.80340    -999.25    -999.25    -999.25    -999.25    -999.25   12.53080   69.95480   69.95480    -999.25   93.70790   88.91650   88.91650   12.53080    8.49850   10.36450    8.49850  413.85350  413.85350    -999.25    -999.25    -999.25   51.53030   -7.42990   10.36450
 8600.00000    -999.25   12.99090   12.99090    -999.25   75.85350    -999.25    -999.25    -999.25    -999.25    -999.25   13.18330   71.68960   71.68960    -999.25   79.31150   91.81820   91.81820   13.18330    9.16360   11.37250    9.16360  504.49380  512.22780    -999.25    -999.25    -999.25   53.26790   -5.95840   11.37250
 8650.00000    -999.25   13.60460   13.60460    -999.25   87.88040    -999.25    -999.25    -999.25    -999.25    -999.25   11.37910   74.95230   74.95230    -999.25    -999.25   95.69800   95.69800   11.37910    8.12880    9.49400    8.12880    -999.25    -999.25    -999.25    -999.25    -999.25   53.44530   -6.04710    9.49400
