~Version ---------------------------------------------------
VERS.      2.0 : CWLS log ASCII Standard -VERSION 2.0
WRAP.       NO : One line per depth step
CREA. 11/03/17 : LAS Creation Date
~Well ------------------------------------------------------
STRT.FT                    1000.0 : START DEPTH
STOP.FT                    9800.0 : STOP DEPTH
STEP.FT                  50.00000 : STEP LENGTH
NULL.                     -999.25 : NULL VALUE
COMP.      FRONTIER PRODUCING INC : COMPANY
WELL. FRONT BA KAYBOB 10-31-63-17 : WELL
FLD .                             : FIELD
LOC .                             : LOCATION
CTRY.                      CANADA : COUNTRY
SRVC.                Schlumberger : SERVICE COMPANY
DATE.                 21-Feb-1966 : LOGDATE
PROV.                     Alberta : PROVINCE
UWI .            100103106317W500 : UNIQUE WELL ID
SLAT.WGS84               54.49605 : SURFACE LATITUDE
SLON.WGS84              -116.5551 : SURFACE LONGITUDE
~Curve Information -----------------------------------------
DEPT  .FT    : Depth Curve
CALSED.IN    : CALIPERFROM SONIC LOG [ADJ. TO RESISTIVITY LOG]
CALWS .IN    : CALIPER [CALSED]
CILDED.MMHO  : CONDUCTIVITY FROM RESISTIVITY LOG
CONDWS.MMHO  : CONDUCTIVITY [1000/DRESWS]
DRESWS.OHMM  : DEEP RESISTIVITY [1000/CILDED, IF ILDED<5, ILDED]
DTED  .US/F  : DELTA TIME FROM SONIC LOG [ADJ. TO RESISTIVITY LOG]
DTWS  .US/F  : COMPRESSIONAL SONIC [DTED]
GRSED .GAPI  : GAMMA RAY FROM SONIC LOG [ADJ. TO RESISTIVITY LOG]
GRWS  .GAPI  : GAMMA RAY [GRSED]
ILDED .OHMM  : DEEP INDUCTION RESISTIVITY FROM RESISTIVITY LOG
SNED  .OHMM  : SHORT NORMAL 16" RESISTIVITY FROM RESISTIVITY LOG
SPRED .MV    : SPONTANEOUS POTENTIAL FROM RESISTIVITY LOG
SPWS  .MV    : SPONTANEOUS POTENTIAL [BASELINE 0 MV, SPRED]
SRESWS.OHMM  : SHALLOW RESISTIVITY [SNED]
~Params ----------------------------------------------------
PD  .                     GL : PERMANENT DATUM
EPD .FT                 2653 : ELEVATION PERMANENT DATUM
LMF .                     KB : LOG MEASURED FROM
DAPD.FT                   13 : FEET ABOVE PERMANENT DATUM
EKB .FT                 2666 : KELLY BUSHING
EGL .FT                 2653 : GROUND LEVEL
DATE.               02/21/66 : RUN DATE
RUN .                      1 : RUN NUMBER
DD  .FT                 9820 : DEPTH DRILLER
DL  .FT                 9821 : DEPTH LOGGER
BLI .FT                 9820 : BOTTOM LOG INTERVAL
TLI .FT                  996 : TOP LOG INTERVAL
CBD .FT                  996 : CASING BOTTOM DRILLER
CBL .FT                  996 : CASING BOTTOM LOGGER
BS  .IN                7.875 : BIT SIZE
BSD .FT                 9820 : BIT SIZE AT DEPTH
DFT .            CAUSTIC GEL : DRILLING FLUID TYPE
DFD .                    9.7 : DRILLING FLUID DENSITY
DFV .                    110 : DRILLING FLUID VISCOSITY
DFPH.                     10 : DRILLING FLUID PH
DFL .                    8.2 : DRILLING FLUID LOSS
RMS .OHMM               2.59 : RESISTIVITY MUD SAMPLE
MST .DEGF                 46 : MUD SAMPLE TEMPERATURE
RMF .OHMM               1.16 : RESISTIVITY MUD FILTRATE SAMPLE
MFST.DEGF                 46 : MUD FILTRATE SAMPLE TEMPERATURE
RMC .OHMM                2.7 : RESISTIVITY MUD CAKE
MCST.DEGF                 46 : MUD CAKE SAMPLE TEMPERATURE
TCS .HRS                   3 : TIME CIRCULATED STOPPED
LUN .                   3534 : LOGGING UNIT NUMBER
LUL .                    WCT : LOGGING UNIT LOCATION
ENGI.               THOMPSON : RECORDING ENGINEER
WITN.                   YONT : WITNESSED BY
CLNT.                A2DTECH : CLIENT CODE
ORIG.            2" 5" PRINT : ORIGIN OF DATA
UWI .       100103106317W500 : UNIQUE WELL ID
DICO. A2D Technologies, Inc. : DIGITIZING COMPANY
~Other -----------------------------------------------------
IEL-SONIC TOOL RUN
CALS DARK PART @ 9800'-FR HAS TAKEN FROM SMALL SECTION
RESISTIVITY LOG (TOP TO 4630') AND SONIC LOG (1356'-1480') FROM SMALL SECTION
~ASCII -----------------------------------------------------
 1000.00000    -999.25    -999.25    -999.25    -999.25    -999.25    -999.25    -999.25    -999.25    -999.25    -999.25    3.57910  -53.66560   -2.78260    3.57910
 1050.00000    -999.25    -999.25  262.60930  262.60930    3.80790    -999.25    -999.25    -999.25    -999.25    3.95980    3.52100  -60.54390   -9.66090    3.52100
 1100.00000    -999.25    -999.25  277.07620  277.07620    3.60910    -999.25    -999.25    -999.25    -999.25    3.70650    3.29770  -64.42910  -13.54610    3.29770
 1150.00000    -999.25    -999.25  344.18620  344.18620    2.90540    -999.25    -999.25    -999.25    -999.25    3.04530    2.46960  -60.56620   -9.68320    2.46960
 1200.00000    -999.25    -999.25  232.86800  232.86800    4.29430    -999.25    -999.25    -999.25    -999.25    4.20990    3.71340  -60.91630  -10.03330    3.71340
 1250.00000    -999.25    -999.25  254.86210  254.86210    3.92370    -999.25    -999.25    -999.25    -999.25    4.17140    5.47840  -61.82340  -10.94040    5.47840
 1300.00000   10.50520   10.50520  359.61290  359.61290    2.78080    -999.25    -999.25   73.48290   73.48290    2.49470    2.39840  -61.19360  -10.31060    2.39840
 1350.00000   10.63210   10.63210  358.63780  358.63780    2.78830    -999.25    -999.25   64.00560   64.00560    2.79310    3.43170  -52.97830   -2.08810    3.43170
 1400.00000    9.37350    9.37350  300.73160  300.73160    3.32520  115.44490  115.44490   76.24020   76.24020    2.70950    3.94610  -51.17610   -0.17690    3.94610
 1450.00000    8.90500    8.90500  183.23870  166.61390    6.00190  101.99810  101.99810   82.33600   82.33600    6.00190    5.63580  -55.04410   -3.93510    5.63580
 1500.00000    9.42050    9.42050  274.04140  274.04140    3.64910  105.00810  105.00810   64.67190   64.67190    3.04220    3.46690  -54.86240   -3.64440    3.46690
 1550.00000    9.89160    9.89160  298.97780  298.97780    3.34470  113.35950  113.35950   71.05110   71.05110    2.78210    3.37050  -53.72610   -2.39900    3.37050
 1600.00000    8.65980    8.65980   84.91650   88.01580   11.36160   98.53290   98.53290   47.95040   47.95040   11.36160   12.06790  -57.04320   -5.60630   12.06790
 1650.00000    9.35230    9.35230  247.61690  247.61690    4.03850  104.31870  104.31870   66.11450   66.11450    3.78390    4.41870  -53.32320   -1.77730    4.41870
 1700.00000    8.74970    8.74970   96.07160   97.67720   10.23780  102.26530  102.26530   45.81700   45.81700   10.23780    8.42890  -61.88830  -10.23260    8.42890
 1750.00000    8.67940    8.67940  159.64300  164.62260    6.07450  104.95170  104.95170   54.66200   54.66200    6.07450    6.53630  -58.81200   -7.04730    6.53630
 1800.00000   11.61430   11.61430  375.09510  375.09510    2.66600  147.34680  147.34680   53.84570   53.84570    2.15190    2.76820  -53.43470   -1.56090    2.76820
 1850.00000    9.06190    9.06190  251.62110  251.62110    3.97420  117.90720  117.90720   59.08770   59.08770    3.41800    4.49620  -54.13450   -2.15090    4.49620
 1900.00000    9.52400    9.52400  245.54320  245.54320    4.07260  102.54920  102.54920   64.78230   64.78230    3.65170    4.25850  -54.33000   -2.23740    4.25850
 1950.00000   10.77220   10.77220  291.90670  291.90670    3.42580  106.03530  106.03530   49.10310   49.10310    3.37090    3.93360  -56.49340   -4.29100    3.93360
 2000.00000    8.84800    8.84800  107.17030  114.48070    8.73510  103.08100  103.08100   56.13240   56.13240    8.73510    8.17810  -61.65690   -9.34550    8.17810
 2050.00000    9.35940    9.35940  130.00030  130.00030    7.69230   98.14670   98.14670   45.76450   45.76450    8.01080    7.77560  -55.62840   -3.20790    7.77560
 2100.00000    9.45060    9.45060  299.61350  299.61350    3.33760  127.92630  127.92630   55.21060   55.21060    2.69460    3.54840  -57.50670   -4.97640    3.54840
 2150.00000    9.99180    9.99180  257.07760  257.07760    3.88990  122.36140  122.36140   59.36470   59.36470    3.62660    4.62660  -59.81560   -7.17630    4.62660
 2200.00000    8.59560    8.59560  160.44330  157.18820    6.36180   89.68760   89.68760   50.77360   50.77360    6.36180    6.32550  -59.66450   -6.91540    6.32550
 2250.00000    9.97540    9.97540  217.34390  178.40890    5.60510  102.97950  102.97950   56.29350   56.29350    5.60510    5.39190  -56.52590   -3.66780    5.39190
 2300.00000    8.76420    8.76420  131.10800  133.32270    7.50060  100.31310  100.31310   44.27190   44.27190    7.50060    9.12060  -59.67550   -6.70830    9.12060
 2350.00000    9.49420    9.49420  238.76300  238.76300    4.18830  104.44190  104.44190   57.63900   57.63900    3.93900    4.48960  -59.06030   -5.98330    4.48960
 2400.00000    8.76980    8.76980   68.78760   74.93110   13.34560   91.98680   91.98680   35.63280   35.63280   13.34560   14.05650  -64.27360  -11.08760   14.05650
 2450.00000    8.90180    8.90180  199.37080  192.31140    5.19990   85.11560   85.11560   55.18620   55.18620    5.19990    5.28320  -59.45490   -6.15910    5.28320
 2500.00000    8.43410    8.43410   71.14450   67.83980   14.74060   85.39260   85.39260   34.07930   34.07930   14.74060   15.94160  -67.94280  -14.53800   15.94160
 2550.00000    9.01360    9.01360  192.72130  196.90470    5.07860   96.48840   96.48840   55.88510   55.88510    5.07860    5.53640  -59.46620   -5.95230    5.53640
 2600.00000    9.34980    9.34980  187.82100  187.82100    5.32420   91.37740   91.37740   56.94040   56.94040    4.91700    5.42990  -58.05330   -4.42970    5.42990
 2650.00000   11.04240   11.04240  275.19490  275.19490    3.63380  120.99450  120.99450   53.37520   53.37520    3.18350    4.20750  -57.46750   -3.73480    4.20750
 2700.00000    9.28950    9.28950  170.15090  164.99740    6.06070   90.38400   90.38400   52.48950   52.48950    6.06070    6.92540  -58.06500   -4.22250    6.92540
 2750.00000    8.92670    8.92670  106.34990  101.98360    9.80550   87.88710   87.88710   36.46570   36.46570    9.80550   16.01620  -76.18450  -22.23300   16.01620
 2800.00000    9.62020    9.62020  187.83740  187.83740    5.32380   89.30090   89.30090   55.88740   55.88740    5.61000    6.24820  -58.93730   -4.87670    6.24820
 2850.00000    9.88170    9.88170  221.52480  221.52480    4.51420  107.60240  107.60240   65.80390   65.80390    3.90780    5.10580  -58.95620   -4.78590    5.10580
 2900.00000   10.85950   10.85950  199.54580  199.54580    5.01140  105.33860  105.33860   79.68470   79.68470    4.85610    5.72140  -60.21870   -5.93930    5.72140
 2950.00000    -999.25    -999.25  140.16990  140.16990    7.13420    -999.25    -999.25    -999.25    -999.25    6.98070    7.72370  -62.11160   -7.72240    7.72370
 3000.00000    -999.25    -999.25  160.07800  160.07800    6.24700    -999.25    -999.25    -999.25    -999.25    6.31850    6.96940  -62.82470   -8.32650    6.96940
 3050.00000    -999.25    -999.25  177.50010  177.50010    5.63380    -999.25    -999.25    -999.25    -999.25    5.69470    7.17340  -61.11130   -6.50400    7.17340
 3100.00000    -999.25    -999.25  127.57610  127.57610    7.83850    -999.25    -999.25    -999.25    -999.25    7.81000   10.58220  -64.85390  -10.13690   10.58220
 3150.00000    -999.25    -999.25  137.98530  137.98530    7.24710    -999.25    -999.25    -999.25    -999.25    7.45290    8.95190  -62.30530   -7.47920    8.95190
 3200.00000    -999.25    -999.25  130.60040  130.60040    7.65690    -999.25    -999.25    -999.25    -999.25    7.74380    8.84920  -64.83600   -9.90010    8.84920
 3250.00000    -999.25    -999.25  174.10920  174.10920    5.74350    -999.25    -999.25    -999.25    -999.25    5.49220    6.65310  -65.11520  -10.07030    6.65310
 3300.00000    -999.25    -999.25  139.44150  139.44150    7.17150    -999.25    -999.25    -999.25    -999.25    7.42080    8.26750  -64.44860   -9.29460    8.26750
 3350.00000    -999.25    -999.25  124.49720  124.49720    8.03230    -999.25    -999.25    -999.25    -999.25    9.18410    9.41440  -65.20280   -9.93910    9.41440
 3400.00000    -999.25    -999.25  140.74050  140.74050    7.10530    -999.25    -999.25    -999.25    -999.25    7.33900    8.41180  -64.20920   -8.83640    8.41180
