~Version ---------------------------------------------------
VERS. 2.0 : CWLS log ASCII Standard -VERSION 2.0
WRAP.  NO : One line per depth step
~Well ------------------------------------------------------
STRT.FT                          900.0 : START DEPTH
STOP.FT                         9150.0 : STOP DEPTH
STEP.FT                       50.00000 : STEP LENGTH
NULL.                          -999.25 : NULL VALUE
COMP.    UNO-TEX PETROLEUM CORPORATION : COMPANY
WELL. UNO-TEX ET AL BOULDER 4-31-70-19 : WELL
FLD .                                  : FIELD
LOC .                                  : LOCATION
CTRY.                           CANADA : COUNTRY
SRVC.                     Schlumberger : SERVICE COMPANY
DATE.                      14-Sep-1974 : LOGDATE
PROV.                          Alberta : PROVINCE
UWI .                 100043107019W500 : UNIQUE WELL ID
SLAT.WGS84               55.1008449393 : SURFACE LATITUDE
SLON.WGS84             -116.8929272887 : SURFACE LONGITUDE
~Curve Information -----------------------------------------
DEPT.FT    : DEPTH
CALS.IN    : CALIPER FROM SONIC LOG
CILD.MMHO  : CONDUCTIVITY FROM LOG
DT  .US/F  : DELTA TIME
GRS .GAPI  : GAMMA RAY FROM SONIC LOG
ILD .OHMM  : DEEP INDUCTION RESISTIVITY
ILM .OHMM  : MEDIUM INDUCTION RESISTIVITY
LL8 .OHMM  : LATEROLOG-8 RESISTIVITY
SPR .MV    : Spontaneous Potential from Resistivity Log
~Params ----------------------------------------------------
PD  .                     GL : PERMANENT DATUM
EPD .FT                 2502 : ELEVATION PERMANENT DATUM
LMF .                     KB : LOG MEASURED FROM
DAPD.FT                   15 : FEET ABOVE PERMANENT DATUM
EKB .FT                 2517 : KELLY BUSHING
EGL .FT                 2502 : GROUND LEVEL
DATE.               09/14/74 : RUN DATE
RUN .                      1 : RUN NUMBER
DD  .FT                 9141 : DEPTH DRILLER
DL  .FT                 9155 : DEPTH LOGGER
BLI .FT                 9149 : BOTTOM LOG INTERVAL
TLI .FT                  912 : TOP LOG INTERVAL
CBD .FT                  912 : CASING BOTTOM DRILLER
CBL .FT                  912 : CASING BOTTOM LOGGER
BS  .IN                7.875 : BIT SIZE
BSD .FT                 9141 : BIT SIZE AT DEPTH
DFT .                    GEL : DRILLING FLUID TYPE
DFD .                    9.2 : DRILLING FLUID DENSITY
DFV .                    104 : DRILLING FLUID VISCOSITY
DFPH.                    9.5 : DRILLING FLUID PH
DFL .                    7.0 : DRILLING FLUID LOSS
MSS .             CIRCULATED : MUD SAMPLE SOURCE
RMS .OHMM               1.32 : RESISTIVITY MUD SAMPLE
MST .DEGF                 60 : MUD SAMPLE TEMPERATURE
RMF .OHMM               2.14 : RESISTIVITY MUD FILTRATE SAMPLE
MFST.DEGF                 71 : MUD FILTRATE SAMPLE TEMPERATURE
RMB .OHMM               0.97 : RESISTIVITY MUD AT BHT
TCS .HRS                   9 : TIME CIRCULATED STOPPED
LUN .                   7670 : LOGGING UNIT NUMBER
LUL .                    FDM : LOGGING UNIT LOCATION
ENGI.                   WOON : RECORDING ENGINEER
WITN.                 HARRIS : WITNESSED BY
CLNT.                A2DTECH : CLIENT CODE
ORIG.            2" 5" PRINT : ORIGIN OF DATA
UWI .       100043107019W500 : UNIQUE WELL ID
DICO. A2D Technologies, Inc. : DIGITIZING COMPANY
~Other -----------------------------------------------------
~ASCII -----------------------------------------------------
  900.00000    -999.25    -999.25    -999.25   44.17160    -999.25    -999.25    -999.25    -999.25
  950.00000   11.94870  224.70640  126.23190   40.32110    4.44220    -999.25    3.91180  -86.45360
 1000.00000   12.59450  258.78420  140.02400   47.16970    4.48290    -999.25    3.87450  -87.11560
 1050.00000   11.51470  223.13660  131.93430   53.53490    4.56660    -999.25    3.98240  -85.99500
 1100.00000   11.78170  261.63080  147.34730   53.73790    4.41100    -999.25    3.84550  -87.26450
 1150.00000   10.49130  225.64740  112.50590   43.70540    4.43360    -999.25    3.93100  -88.50200
 1200.00000   10.43110  245.16420  138.17300   52.30620    4.56370    -999.25    3.83610  -86.23550
 1250.00000   10.77540  179.87240  116.19130   49.57370    5.75000    -999.25    4.95640  -87.16350
 1300.00000   10.19780  169.16940  108.69640   41.72650    6.21510    -999.25    6.30410  -86.86230
 1350.00000    9.22830  207.29680  131.08010   44.28930    5.77100    -999.25    4.41540  -90.86750
 1400.00000   10.89470  259.53540  133.68530   54.81750    4.57920    -999.25    3.60530  -85.77570
 1450.00000    9.62220  150.94550  126.38790   50.95350    6.61930    -999.25    5.51840  -86.80850
 1500.00000   11.34180  223.05700  126.62040   64.02860    4.48440    -999.25    5.11490  -85.21920
 1550.00000   13.34880  161.12190  116.96270   63.56690    6.20490    -999.25    5.38490  -87.41020
 1600.00000   14.43830  142.02570  172.13330   62.27170    7.03960    -999.25    5.74650  -89.44300
 1650.00000   14.40530  178.65060  154.37650   80.59850    5.63790    -999.25    4.83570  -89.51750
 1700.00000   11.44870  197.52850  131.91460  107.52840    5.05630    -999.25    5.84090  -84.65490
 1750.00000    9.42110  125.42370  115.51490  147.98840    7.97360    -999.25    8.86380  -85.65100
 1800.00000   14.41840  161.82370  147.52530   61.29060    6.18100    -999.25    5.44220  -92.20510
 1850.00000   14.37790  167.39930   90.41970   64.37940    5.97420    -999.25    5.57890  -94.55100
 1900.00000   14.36800  154.91110  165.66390   57.23780    6.45130    -999.25    5.29000  -95.78410
 1950.00000   14.31670  130.13420  174.97800   51.42290    7.68470    -999.25    6.37880  -95.57070
 2000.00000    9.01450  142.53690  144.14410   87.58440    7.01420    -999.25    6.03570  -96.60560
 2050.00000   14.36280  138.88370  176.07850   38.29750    7.18730    -999.25    5.53970  -98.27880
 2100.00000   14.33580  139.33500  164.03450   51.52250    7.17370    -999.25    5.39740  -96.02150
 2150.00000   14.30750  150.19710  125.92980   71.77870    6.65090    -999.25    5.80200  -92.20100
 2200.00000   14.28200  135.88880  135.54900   74.78980    6.92690    -999.25    6.25770  -93.60600
 2250.00000   14.27740  175.67570  123.11300   82.70520    5.46360    -999.25    6.27260  -92.42030
 2300.00000    8.47260  182.46920  114.55980  103.31290    5.47930    -999.25    6.06630  -91.75430
 2350.00000   11.08170  166.67200  120.96060   90.31750    6.01090    -999.25    6.82420  -92.42030
 2400.00000   10.79080  166.30810  112.43360   92.54980    6.01200    -999.25    6.59640  -93.96890
 2450.00000    8.86880  164.48550  126.00090  138.19120    6.06850    -999.25    7.26710  -94.29640
 2500.00000   10.29350  126.88510  111.80190   67.08320    7.87950    -999.25    6.86100 -101.99110
 2550.00000    9.44710  186.60250  114.57600   84.83900    5.35840    -999.25    5.83520  -88.76280
 2600.00000    9.25980  183.98880  106.19480   89.89120    5.43290    -999.25    6.01230  -95.99370
 2650.00000    9.42650  200.52660  100.20800   85.26100    4.98990    -999.25    5.42570  -93.86570
 2700.00000    9.84810  260.00560  113.59080   85.07050    3.84690    -999.25    4.45180  -93.04730
 2750.00000   10.04900  220.71530   97.89340   80.29580    4.53590    -999.25    5.22300  -92.79300
 2800.00000    8.69060  199.17710  100.48040   88.81920    4.96620    5.33920    6.19440  -94.05040
 2850.00000    8.46180    -999.25  103.76300   92.01950    3.94790    4.39630    4.74360  -91.56380
 2900.00000    9.61530    -999.25  104.73340   96.75490    4.24790    4.49190    4.91040  -92.03280
 2950.00000    9.74150    -999.25  104.87010  175.80500    3.66890    3.90390    4.39250  -88.59040
 3000.00000   10.55060    -999.25  115.58050   79.88090    2.20880    2.36910    3.22210  -87.24260
 3050.00000   11.17100    -999.25  128.15040   72.91480    1.89070    1.98590    2.62540  -84.50310
 3100.00000   10.84600    -999.25  106.63570   82.92330    3.20370    3.38010    3.76100  -85.11570
 3150.00000   11.79370    -999.25  107.80680   86.18830    2.73460    2.79830    3.63860  -85.34330
 3200.00000   11.74710    -999.25  108.09760   83.40380    2.77750    2.95290    3.54290  -90.77630
 3250.00000    9.48610    -999.25   88.47310   72.27410    5.35760    6.19780    6.91690 -113.07140
 3300.00000   11.11900    -999.25  119.25720   74.81790    2.20080    2.27920    3.06390  -89.06830
 3350.00000    9.06120    -999.25   88.85550   61.53060    4.25680    5.28390    7.09790 -107.72120
 3400.00000    9.25830    -999.25   94.22040   45.40090    6.85000   13.08170   17.50520 -151.58480
 3450.00000    8.69740    -999.25   90.46610   54.62170    4.25450    5.87080    7.55600 -120.22320
 3500.00000    8.66510    -999.25   90.66840   69.89350    5.06560    7.29730   13.18870 -128.30290
 3550.00000    8.96960    -999.25   96.00920   70.58600    4.14510    5.04900    6.14410 -106.99320
 3600.00000    9.37670    -999.25   95.19160   67.66870    3.29440    4.07820    6.23060 -119.79220
 3650.00000    9.37430    -999.25  101.02540   55.50790    3.38840    3.97940    5.35740  -96.95950
 3700.00000   10.25930    -999.25   98.42080   61.03630    2.69090    3.53110    5.37850 -120.08110
 3750.00000   10.25510    -999.25   76.77720   51.63290    5.47410    8.71260   14.94250 -147.58570
 3800.00000   10.00580    -999.25   93.55650   49.05170    7.16990   13.80160   17.48030 -147.10160
 3850.00000    8.37580    -999.25   92.34270   30.64440    8.67730   17.62500   21.28820 -180.33600
 3900.00000    8.46640    -999.25   85.71430   53.78320   12.15060   22.94410   26.55610 -183.80090
 3950.00000    9.70300    -999.25   93.69950   53.11410    2.92150    4.73680    9.84290 -185.98100
 4000.00000    9.91140    -999.25   93.01910   69.67910    2.96810    3.79800    6.17630 -149.07250
 4050.00000   10.00000    -999.25   85.84240   64.76540    4.59600    5.88770    7.58780 -118.99940
 4100.00000   10.26910    -999.25   89.58910   47.07680    3.81760    6.26820   14.56470 -171.26870
 4150.00000   10.25580    -999.25   89.15100   65.25000    3.93800    4.58500    5.68180 -117.71990
 4200.00000   10.02440    -999.25   88.53210   79.01860    5.01070    5.36450    5.84510 -157.35330
 4250.00000   10.31700    -999.25   99.43380   71.05290    4.95750    5.60610    5.95990 -145.76930
 4300.00000    9.23470    -999.25   83.32020   58.31710   15.95080   24.09110   32.60250 -161.67390
 4350.00000    9.63000    -999.25   85.04050   52.74980   12.01120   15.31500   13.13950 -146.26300
 4400.00000    9.84060    -999.25   88.47940   82.18810   13.11960   17.45420   13.81060 -156.42390
 4450.00000    9.40000    -999.25   88.30110   33.28200   12.02630   17.61130   19.46790 -199.41440
 4500.00000    9.28770    -999.25   86.45660   63.75680    6.51310    8.31370   11.67440 -204.44660
 4550.00000    9.16440    -999.25  109.44540  109.96500   11.29250   15.71770   20.45260 -154.75520
 4600.00000    8.99170    -999.25  114.82840  153.29700   11.25410   14.70060   17.76310 -151.42600
 4650.00000    8.65600    -999.25   78.55540  299.44850  314.35510  419.85290  192.10460 -154.32930
 4700.00000    8.69550    -999.25  120.29560  168.87760  344.50890  324.17130 1568.17750  -41.52340
 4750.00000    9.76590    -999.25   78.77880   74.78600    2.89660    4.20380   11.01680  -22.84100
 4800.00000   10.29010    -999.25   76.60730   81.32780    3.47770    4.84880   10.11580  -31.35350
 4850.00000    8.65020    -999.25   67.71060   21.52410    2.84540    3.57340    8.67110   13.08060
