~Version ---------------------------------------------------
VERS.      2.0 : CWLS log ASCII Standard -VERSION 2.0
WRAP.       NO : One line per depth step
CREA. 12/21/17 : LAS Creation Date
~Well ------------------------------------------------------
STRT.FT                    300.0 : START DEPTH
STOP.FT                   9850.0 : STOP DEPTH
STEP.FT                 50.00000 : STEP LENGTH
NULL.                    -999.25 : NULL VALUE
COMP. PHILLIPS PETROLEUM COMPANY : COMPANY
WELL.    PHILLIPS A KAYBOB 10-16 : WELL
FLD .                     kaybob : FIELD
LOC .                            : LOCATION
CTRY.                     CANADA : COUNTRY
SRVC.                      Welex : SERVICE COMPANY
DATE.                21-Apr-1958 : LOGDATE
PROV.                    Alberta : PROVINCE
UWI .           100101606419W500 : UNIQUE WELL ID
SLAT.WGS84              54.53981 : SURFACE LATITUDE
SLON.WGS84             -116.8075 : SURFACE LONGITUDE
~Curve Information -----------------------------------------
DEPT   .FT    : Depth Curve
CALMED .IN    : CALIPER FROM MICROLOG
CALWS  .IN    : CALIPER (CALMED)
CILDED .MMHO  : CONDUCTIVITY FROM LOG
CONDWS .MMHO  : CONDUCTIVITY (1000/DRESWS)
DRESWS .OHMM  : DEEP RESISTIVITY (GUARDED)
GRED   .GAPI  : GAMMA RAY CBL -CASED HOLE (ADJ TO RES.)
GRNED  .CPS   : GAMMA RAY GR/NEUTRON LOG (ADJ TO RES.)
GRWS   .GAPI  : GAMMA RAY (GRED/GRNED @ 1502')
GUARDED.OHMM  : GUARD LOG RESISTIVITY 10'
NEUTED .CPS   : NEUTRON GR/NEUTRON LOG (ADJ TO RES.)
NEUTWS .CPS   : NEUTRON (NEUTED)
SPMED  .MV    : SPONTANEOUS POTENTIAL FROM MICROLOG
SPRED  .MV    : Spontaneous Potential  RESISTIVITY LOG
SPWS   .MV    : SPONTANEOUS POTENTIAL BASELINE 0 MV (SPRED)
~Params ----------------------------------------------------
PD  .                     CF : PERMANENT DATUM
LMF .                     KB : LOG MEASURED FROM
DAPD.FT                   13 : FEET ABOVE PERMANENT DATUM
DMF .                     KB : DRILLING MEASURED FROM
EKB .FT                 2512 : KELLY BUSHING
EDF .FT                 2510 : DRILLING FLOOR
EGL .FT                 2499 : GROUND LEVEL
DATE.               04/21/58 : RUN DATE
RUN .                      1 : RUN NUMBER
DD  .FT                 9900 : DEPTH DRILLER
DL  .FT                 9896 : DEPTH LOGGER
BLI .FT                 9891 : BOTTOM LOG INTERVAL
TLI .FT                 1510 : TOP LOG INTERVAL
CS  .IN                10.75 : CASING SIZE
CBD .FT                 1510 : CASING BOTTOM DRILLER
CBL .FT                 1510 : CASING BOTTOM LOGGER
BS  .IN                7.875 : BIT SIZE
BSD .FT                 9900 : BIT SIZE AT DEPTH
DFT .            OIL MULSION : DRILLING FLUID TYPE
DFD .                   10.6 : DRILLING FLUID DENSITY
DFV .                    112 : DRILLING FLUID VISCOSITY
DFPH.                   10.0 : DRILLING FLUID PH
DFL .                    4.8 : DRILLING FLUID LOSS
MSS .             CIRCULATED : MUD SAMPLE SOURCE
RMS .OHMM               2.75 : RESISTIVITY MUD SAMPLE
MST .DEGF                 58 : MUD SAMPLE TEMPERATURE
RMF .OHMM               0.65 : RESISTIVITY MUD FILTRATE SAMPLE
MFST.DEGF                180 : MUD FILTRATE SAMPLE TEMPERATURE
RMC .OHMM               1.15 : RESISTIVITY MUD CAKE
MCST.DEGF                180 : MUD CAKE SAMPLE TEMPERATURE
RMB .OHMM               0.94 : RESISTIVITY MUD AT BHT
ENGI.         FOWLER CARBERT : RECORDING ENGINEER
WITN.         HANKINS FOSTER : WITNESSED BY
CLNT.                A2DTECH : CLIENT CODE
ORIG.            2" 5" PRINT : ORIGIN OF DATA
UWI .       100101606419W500 : UNIQUE WELL ID
DICO. A2D Technologies, Inc. : DIGITIZING COMPANY
~Other -----------------------------------------------------
CILDED does not appear to be a standard curve as seen on IE logs, therefore, did not use it.
~ASCII -----------------------------------------------------
# ...
 2750.00000    -999.25    -999.25   70.07430  470.43330    2.12570   47.36440   86.96430   86.96430    2.12570  287.72180  287.72180    -999.25 -203.37940   -7.00030
 2800.00000    -999.25    -999.25   53.81510  327.64330    3.05210   62.85590  101.19800  101.19800    3.05210  280.87700  280.87700    -999.25 -207.81150  -11.21900
 2850.00000    -999.25    -999.25   56.75490  315.93580    3.16520   55.75250  105.89140  105.89140    3.16520  283.10970  283.10970    -999.25 -208.46320  -11.65730
 2900.00000    -999.25    -999.25   54.19390  325.07640    3.07620   60.90660  113.80850  113.80850    3.07620  280.04050  280.04050    -999.25 -208.50630  -11.48700
 2950.00000    -999.25    -999.25   39.90950  202.68760    4.93370  113.54800  141.12630  141.12630    4.93370  297.32650  297.32650    -999.25 -206.74250   -9.50980
 3000.00000    -999.25    -999.25   37.52020  180.31990    5.54570   77.24390  115.38020  115.38020    5.54570  309.20140  309.20140    -999.25 -208.16560  -10.71950
 3050.00000    -999.25    -999.25   42.19310  254.71870    3.92590   76.09400  120.32180  120.32180    3.92590  298.01300  298.01300    -999.25 -208.90380  -11.24430
 3100.00000    -999.25    -999.25   53.95520  351.96400    2.84120   69.56120  119.01790  119.01790    2.84120  310.14840  310.14840    -999.25 -210.25190  -12.37900
 3150.00000    -999.25    -999.25   53.62000  312.41210    3.20090   54.35150  118.32270  118.32270    3.20090  280.73260  280.73260    -999.25 -209.12590  -11.03960
 3200.00000    -999.25    -999.25   48.74800  275.42900    3.63070   73.09610  110.51560  110.51560    3.63070  301.07760  301.07760    -999.25 -212.43170  -14.13200
 3250.00000    -999.25    -999.25   50.53590  280.52060    3.56480   62.25100  104.98670  104.98670    3.56480  305.61000  305.61000    -999.25 -210.83540  -12.32230
 3300.00000    -999.25    -999.25   54.10180  275.34560    3.63180   74.64240  122.48830  122.48830    3.63180  291.01960  291.01960    -999.25 -210.10820  -11.38170
 3350.00000    -999.25    -999.25   58.39660  306.19430    3.26590   69.66070  122.76490  122.76490    3.26590  287.90300  287.90300    -999.25 -211.47270  -12.53270
 3400.00000    -999.25    -999.25   46.84920  243.97980    4.09870   68.82690  113.65180  113.65180    4.09870  304.46850  304.46850    -999.25 -210.93010  -11.77670
 3450.00000    -999.25    -999.25   53.23070  276.38050    3.61820   62.59440  113.37270  113.37270    3.61820  298.95360  298.95360    -999.25 -213.37720  -14.01040
 3500.00000    -999.25    -999.25   41.85270  204.42790    4.89170   68.04770  116.45830  116.45830    4.89170  295.12940  295.12940    -999.25 -213.47630  -13.89610
 3550.00000    -999.25    -999.25   43.54000  215.03990    4.65030   59.66240  104.18070  104.18070    4.65030  316.17030  316.17030    -999.25 -212.84270  -13.04910
 3600.00000    -999.25    -999.25   49.25610  257.97800    3.87630   58.87860   99.24050   99.24050    3.87630  271.28410  271.28410    -999.25 -211.99470  -11.98770
 3650.00000    -999.25    -999.25   37.04480  196.11300    5.09910   73.91090  122.83210  122.83210    5.09910  311.27860  311.27860    -999.25 -209.86410   -9.64370
 3700.00000    -999.25    -999.25   56.66020  292.56020    3.41810   79.52480  122.70380  122.70380    3.41810  297.20720  297.20720    -999.25 -211.50890  -11.07510
 3750.00000    -999.25    -999.25   51.52570  248.83050    4.01880   75.94230  125.47210  125.47210    4.01880  304.15500  304.15500    -999.25 -210.80900  -10.16180
 3800.00000    -999.25    -999.25   40.89370  228.20630    4.38200   64.72180  128.80940  128.80940    4.38200  293.18320  293.18320    -999.25 -209.45930   -8.59870
 3850.00000    -999.25    -999.25   43.42630  212.96530    4.69560   65.44740  126.52770  126.52770    4.69560  305.03440  305.03440    -999.25 -209.60500   -8.53100
 3900.00000    -999.25    -999.25   35.60980  205.85030    4.85790   63.52700  124.93070  124.93070    4.85790  297.29120  297.29120    -999.25 -209.38180   -8.09440
 3950.00000    -999.25    -999.25   40.21630  195.59140    5.11270   90.31000  129.35640  129.35640    5.11270  309.86110  309.86110    -999.25 -209.51810   -8.01730
 4000.00000    -999.25    -999.25   15.10890   80.05760   12.49100   84.75050  130.91150  130.91150   12.49100  327.35960  327.35960    -999.25 -209.06180   -7.34760
 4050.00000    -999.25    -999.25   18.56900  119.36590    8.37760   61.16340  124.37730  124.37730    8.37760  330.92780  330.92780    -999.25 -208.76790   -6.84030
 4100.00000    -999.25    -999.25   52.85320  277.78550    3.59990   68.39340  120.03820  120.03820    3.59990  306.81090  306.81090    -999.25 -212.59170  -10.45070
 4150.00000    -999.25    -999.25   55.52320  328.82840    3.04110   71.25080  122.36900  122.36900    3.04110  316.82100  316.82100    -999.25 -210.94350   -8.58910
 4200.00000   10.20640   10.20640   45.64260  220.27890    4.53970   58.03360  121.50160  121.50160    4.53970  340.39710  340.39710    -999.25 -211.47400   -8.90620
 4250.00000    9.73970    9.73970   53.90700  309.92380    3.22660   67.40500  120.74940  120.74940    3.22660  311.24730  311.24730    -999.25 -209.78110   -6.99990
 4300.00000    9.90260    9.90260   30.10640  185.48400    5.39130   66.94080  105.45110  105.45110    5.39130  350.35930  350.35930    -999.25 -212.70700   -9.71240
 4350.00000   10.91090   10.91090   65.16720  368.67720    2.71240   71.05550  123.71270  123.71270    2.71240  292.25150  292.25150    -999.25 -210.90900   -7.70100
 4400.00000   10.80860   10.80860   62.95140  359.05350    2.78510   71.47550  119.86600  119.86600    2.78510  324.20250  324.20250    -999.25 -209.43270   -6.01130
 4450.00000   11.10660   11.10660   60.89230  350.22590    2.85530   68.80470  121.63970  121.63970    2.85530  316.33790  316.33790    -999.25 -210.16360   -6.52880
 4500.00000    9.05590    9.05590   99.61930  615.04400    1.62590  100.59390  140.99760  140.99760    1.62590  307.28410  307.28410    -999.25 -209.37760   -5.52940
 4550.00000    8.48090    8.48090    -999.25  772.73780    1.29410   69.14090  113.93340  113.93340    1.29410  303.99710  303.99710    -999.25 -209.93060   -5.86900
 4600.00000    8.67720    8.67720   69.74900  319.18290    3.13300   70.89180    -999.25    -999.25    3.13300  338.52590  338.52590 -210.61100 -210.52380   -6.24880
 4650.00000    9.87870    9.87870   82.60650  444.38520    2.25030   66.38150  114.97390  114.97390    2.25030  319.27730  319.27730 -209.91400 -210.75340   -6.26500
 4700.00000   10.70260   10.70260   31.14100  155.14940    6.44540   60.74910  117.10900  117.10900    6.44540  359.66250  359.66250 -209.78800 -211.38740   -6.68560
 4750.00000   10.80710   10.80710   69.97040  350.75410    2.85100   48.39270   74.23930   74.23930    2.85100  301.16790  301.16790 -210.02800 -212.13820   -7.22300
 4800.00000   10.53730   10.53730   88.87850  497.33920    2.01070   77.09450   91.48450   91.48450    2.01070  308.63800  308.63800 -209.03300 -211.31610   -6.18750
 4850.00000   10.17690   10.17690   21.41810   47.26230   21.15850   73.28610  100.36190  100.36190   21.15850  267.02460  267.02460 -213.26700 -216.38000  -11.95630
 4900.00000    8.67730    8.67730   22.55610  102.07830    9.79640   45.25580   72.51210   72.51210    9.79640  431.49680  431.49680 -220.32400 -223.79890  -21.51640
 4950.00000    9.11710    9.11710   26.24940  126.28340    7.91870   32.06210   66.46810   66.46810    7.91870  364.80130  364.80130 -211.62400 -213.96320  -13.82190
 5000.00000   11.11630   11.11630   27.32620  155.65170    6.42460   26.46440   66.96700   66.96700    6.42460  278.37060  278.37060 -205.98300 -207.38700   -9.38690
 5050.00000   10.42280   10.42280   28.62860  117.79260    8.48950   47.67760   94.81580   94.81580    8.48950  343.28370  343.28370 -207.31500 -208.88960  -13.03070
 5100.00000    8.47100    8.47100    7.13320   26.59090   37.60680   46.11620   93.03040   93.03040   37.60680  476.10540  476.10540 -206.66200 -208.56940  -14.85170
 5150.00000    9.45700    9.45700   19.93540   97.21100   10.28690   26.76660   79.10230   79.10230   10.28690  389.24540  389.24540 -212.12800 -214.04150  -22.46500
