~Version ---------------------------------------------------
VERS.      2.0 : CWLS log ASCII Standard -VERSION 2.0
WRAP.       NO : One line per depth step
CREA. 12/01/17 : LAS Creation Date
~Well ------------------------------------------------------
STRT.FT                        700.0 : START DEPTH
STOP.FT                       7050.0 : STOP DEPTH
STEP.FT                     50.00000 : STEP LENGTH
NULL.                        -999.25 : NULL VALUE
COMP.                SUN OIL COMPANY : COMPANY
WELL. SUN CDR GOPHER HEAD 6-23-36-19 : WELL
FLD .                                : FIELD
LOC .                                : LOCATION
CTRY.                         CANADA : COUNTRY
SRVC.                        Unknown : SERVICE COMPANY
DATE.                    09-Sep-1971 : LOGDATE
PROV.                        Alberta : PROVINCE
UWI .               100062303619W400 : UNIQUE WELL ID
SLAT.WGS84                  52.10319 : SURFACE LATITUDE
SLON.WGS84                 -112.6149 : SURFACE LONGITUDE
~Curve Information -----------------------------------------
DEPT   .FT    : Depth Curve
CALNED .IN    : CALIPER FROM NEUTRON LOG [ADJ. TO RESISTIVITY LOG]
CALSED .IN    : CALIPER FROM SONIC LOG [ADJ. TO RESISTIVITY LOG]
CALWS  .IN    : CALIPER [CALSED SPL. TO CALNED @ 6918']
CONDWS .MMHO  : CONDUCTIVITY [1000/DRESWS]
DRESWS .OHMM  : DEEP RESISTIVITY [LLED]
DTED   .US/F  : DELTA-T (INTERVAL TRANSIT TIME) FROM SONIC LOG [ADJ. TO RESISTIVITY LOG]
DTWS   .US/F  : COMPRESSIONAL SONIC [DTED]
GRNED  .GAPI  : GAMMA RAY FROM GRN LOG [ADJ. TO RESISTIVITY LOG]
GRSED  .GAPI  : GAMMA RAY FROM SONIC LOG [ADJ. TO RESISTIVITY LOG]
GRWS   .GAPI  : GAMMA RAY [GRSED SPL. TO GRNED @ 6910']
LLED   .OHMM  : FOCUSED LATEROLOG RESISTIVITY FROM RESISTIVITY LOG
NEUTED .NAPI  : NEUTRON FROM NEUTRON LOG [ADJ. TO RESISTIVITY LOG]
NEUTWS .NAPI  : NEUTRON [NEUTED]
NPOLSWS.V/V   : NEUTRON POROSITY LIMESTONE [SNPLSED]
SNPLSED.V/V   : SIDEWALL NEUTRON POROSITY [LIMESTONE] FROM NEUTRON LOG [ADJ. TO RESISTIVITY LOG]
SPRED  .MV    : SPONTANEOUS POTENTIAL FROM RESISTIVITY LOG
SPWS   .MV    : SPONTANEOUS POTENTIAL [BASELINE 0 MV, SPRED*-1]
~Params ----------------------------------------------------
PD  .                     GL : PERMANENT DATUM
EPD .FT                 2870 : ELEVATION PERMANENT DATUM
LMF .                     KB : LOG MEASURED FROM
DAPD.FT                   14 : FEET ABOVE PERMANENT DATUM
DMF .                     KB : DRILLING MEASURED FROM
EKB .FT                 2884 : KELLY BUSHING
EGL .FT                 2870 : GROUND LEVEL
DATE.               09/11/71 : RUN DATE
RUN .                      2 : RUN NUMBER
DD  .FT                 7095 : DEPTH DRILLER
DL  .FT                 7092 : DEPTH LOGGER
BLI .FT                 7085 : BOTTOM LOG INTERVAL
TLI .FT                 6500 : TOP LOG INTERVAL
CS  .IN                8.625 : CASING SIZE
CBD .FT                  752 : CASING BOTTOM DRILLER
CBL .FT                  750 : CASING BOTTOM LOGGER
BS  .IN                7.875 : BIT SIZE
BSD .FT                 7095 : BIT SIZE AT DEPTH
DFT .           SALT MUD GEL : DRILLING FLUID TYPE
DFD .                   10.4 : DRILLING FLUID DENSITY
DFV .                     42 : DRILLING FLUID VISCOSITY
DFPH.                    8.5 : DRILLING FLUID PH
DFL .                      8 : DRILLING FLUID LOSS
MSS .                   CIRC : MUD SAMPLE SOURCE
RMS .OHMM               0.06 : RESISTIVITY MUD SAMPLE
MST .DEGF                 75 : MUD SAMPLE TEMPERATURE
RMF .OHMM               0.04 : RESISTIVITY MUD FILTRATE SAMPLE
MFST.DEGF                 74 : MUD FILTRATE SAMPLE TEMPERATURE
RMC .OHMM                0.1 : RESISTIVITY MUD CAKE
MCST.DEGF                 70 : MUD CAKE SAMPLE TEMPERATURE
MFSS.                   MEAS : MUD FILTRATE SAMPLE SOURCE
MCSS.                   MEAS : MUD CAKE SAMPLE SOURCE
RMB .OHMM               0.03 : RESISTIVITY MUD AT BHT
TCS .HRS                   3 : TIME CIRCULATED STOPPED
LUN .                   6077 : LOGGING UNIT NUMBER
LUL .                    R D : LOGGING UNIT LOCATION
ENGI.                MACLEAN : RECORDING ENGINEER
WITN.         STEBNE PATMORE : WITNESSED BY
CLNT.                A2DTECH : CLIENT CODE
ORIG.            2" 5" PRINT : ORIGIN OF DATA
UWI .       100062303619W400 : UNIQUE WELL ID
DICO. A2D Technologies, Inc. : DIGITIZING COMPANY
~Other -----------------------------------------------------
LL-SONIC-SNP LOG RUN
~ASCII -----------------------------------------------------
# ...
 2750.00000    -999.25    8.88710    8.88710  187.13980    5.34360   96.48810   96.48810    -999.25   91.14430   91.14430    5.34360    -999.25    -999.25    -999.25    -999.25  -28.79330   -6.54370
 2800.00000    -999.25    8.77440    8.77440  190.97090    5.23640   97.85390   97.85390    -999.25   97.26790   97.26790    5.23640    -999.25    -999.25    -999.25    -999.25  -29.22980   -5.76870
 2850.00000    -999.25    9.14890    9.14890  186.09150    5.37370   95.28780   95.28780    -999.25   79.64420   79.64420    5.37370    -999.25    -999.25    -999.25    -999.25  -30.02510   -4.75970
 2900.00000    -999.25    9.78870    9.78870  206.21110    4.84940   97.11660   97.11660    -999.25   79.64630   79.64630    4.84940    -999.25    -999.25    -999.25    -999.25  -29.57210   -5.56740
 2950.00000    -999.25    8.84390    8.84390  218.52670    4.57610   94.99410   94.99410    -999.25   83.68050   83.68050    4.57610    -999.25    -999.25    -999.25    -999.25  -29.89720   -5.59700
 3000.00000    -999.25    9.89040    9.89040  212.53990    4.70500   94.96090   94.96090    -999.25   74.74060   74.74060    4.70500    -999.25    -999.25    -999.25    -999.25  -29.86820   -5.98070
 3050.00000    -999.25    9.76250    9.76250  193.89610    5.15740   98.10200   98.10200    -999.25  101.13000  101.13000    5.15740    -999.25    -999.25    -999.25    -999.25  -31.27850   -4.92500
 3100.00000    -999.25   10.40170   10.40170  180.86450    5.52900   95.79120   95.79120    -999.25   90.41770   90.41770    5.52900    -999.25    -999.25    -999.25    -999.25  -29.88560   -6.67260
 3150.00000    -999.25    9.66530    9.66530  168.36720    5.93940   92.73690   92.73690    -999.25   83.31520   83.31520    5.93940    -999.25    -999.25    -999.25    -999.25  -31.39870   -5.51420
 3200.00000    -999.25   11.84440   11.84440  158.58670    6.30570   92.78820   92.78820    -999.25   71.57010   71.57010    6.30570    -999.25    -999.25    -999.25    -999.25  -29.45440   -7.81320
 3250.00000    -999.25   11.59770   11.59770  140.90060    7.09720   99.91550   99.91550    -999.25   65.71810   65.71810    7.09720    -999.25    -999.25    -999.25    -999.25  -29.39700   -8.22520
 3300.00000    -999.25   10.55990   10.55990  181.65300    5.50500   91.06900   91.06900    -999.25   87.13660   87.13660    5.50500    -999.25    -999.25    -999.25    -999.25  -30.15470   -7.82220
 3350.00000    -999.25    9.78270    9.78270  232.28800    4.30500  100.63880  100.63880    -999.25   94.16660   94.16660    4.30500    -999.25    -999.25    -999.25    -999.25  -31.35210   -6.97950
 3400.00000    -999.25    9.37010    9.37010  243.27350    4.11060   99.92540   99.92540    -999.25   95.57700   95.57700    4.11060    -999.25    -999.25    -999.25    -999.25  -32.75480   -5.93150
 3450.00000    -999.25    8.51380    8.51380  166.82790    5.99420   87.38020   87.38020    -999.25  117.77180  117.77180    5.99420    -999.25    -999.25    -999.25    -999.25  -34.11100   -4.99530
 3500.00000    -999.25    8.88710    8.88710  145.08940    6.89230   84.71160   84.71160    -999.25   92.97950   92.97950    6.89230    -999.25    -999.25    -999.25    -999.25  -32.36140   -7.42670
 3550.00000    -999.25    9.34400    9.34400  170.49720    5.86520   95.97810   95.97810    -999.25  107.99940  107.99940    5.86520    -999.25    -999.25    -999.25    -999.25  -33.21870   -7.25110
 3600.00000    -999.25    8.97150    8.97150  196.90470    5.07860  108.53810  108.53810    -999.25  177.83780  177.83780    5.07860    -999.25    -999.25    -999.25    -999.25  -34.85730   -6.29420
 3650.00000    -999.25   10.36480   10.36480  432.58210    2.31170  113.11990  113.11990    -999.25  161.66350  161.66350    2.31170    -999.25    -999.25    -999.25    -999.25  -36.98910   -4.84420
 3700.00000    -999.25   10.95420   10.95420  470.98720    2.12320  103.68870  103.68870    -999.25   84.41000   84.41000    2.12320    -999.25    -999.25    -999.25    -999.25  -36.68090   -5.83410
 3750.00000    -999.25   11.35180   11.35180  453.76170    2.20380  103.85250  103.85250    -999.25   89.88810   89.88810    2.20380    -999.25    -999.25    -999.25    -999.25  -37.03930   -5.55480
 3800.00000    -999.25   10.24800   10.24800  496.47500    2.01420   96.09270   96.09270    -999.25   78.39240   78.39240    2.01420    -999.25    -999.25    -999.25    -999.25  -37.87700   -4.48560
 3850.00000    -999.25    9.05710    9.05710  276.26600    3.61970   92.35820   92.35820    -999.25   86.31960   86.31960    3.61970    -999.25    -999.25    -999.25    -999.25  -36.83900   -6.33290
 3900.00000    -999.25    8.89070    8.89070  207.25390    4.82500   88.30140   88.30140    -999.25   81.90540   81.90540    4.82500    -999.25    -999.25    -999.25    -999.25  -38.62570   -5.99320
 3950.00000    -999.25   13.65430   13.65430  751.93620    1.32990   98.33840   98.33840    -999.25   56.86840   56.86840    1.32990    -999.25    -999.25    -999.25    -999.25  -40.10430   -5.95270
 4000.00000    -999.25   12.34120   12.34120  510.04790    1.96060  107.09430  107.09430    -999.25   68.11800   68.11800    1.96060    -999.25    -999.25    -999.25    -999.25  -40.21510   -6.38700
 4050.00000    -999.25    8.64810    8.64810   17.93470   55.75780   58.52650   58.52650    -999.25   50.58620   50.58620   55.75780    -999.25    -999.25    -999.25    -999.25  -37.51430   -9.63300
 4100.00000    -999.25    9.39420    9.39420  115.69120    8.64370   77.48670   77.48670    -999.25   66.12840   66.12840    8.64370    -999.25    -999.25    -999.25    -999.25  -38.64680   -9.04560
 4150.00000    -999.25   12.21610   12.21610   55.68330   17.95870  124.80930  124.80930    -999.25   24.40620   24.40620   17.95870    -999.25    -999.25    -999.25    -999.25  -36.16450  -12.07310
 4200.00000    -999.25   11.59420   11.59420  148.41420    6.73790   99.32620   99.32620    -999.25   63.67600   63.67600    6.73790    -999.25    -999.25    -999.25    -999.25  -36.90230  -11.88040
 4250.00000    8.92030    8.98830    8.98830   41.64840   24.01050   61.52760   61.52760  111.22170   64.24230   64.24230   24.01050 2021.47990 2021.47990    0.03510    0.03510  -37.29910  -12.02880
 4300.00000    9.27310    9.86670    9.86670   47.39490   21.09930   61.09240   61.09240   69.64040   42.18270   42.18270   21.09930 1954.00870 1954.00870    0.03700    0.03700  -37.13310  -12.74000
 4350.00000    9.08100    9.27550    9.27550   86.55910   11.55280   69.14460   69.14460   92.76670   65.39200   65.39200   11.55280 1744.10070 1744.10070    0.05960    0.05960  -37.73330  -12.68490
 4400.00000    9.29000    9.27540    9.27540  136.96750    7.30100   76.25050   76.25050   97.79740   71.56480   71.56480    7.30100 1310.76480 1310.76480    0.10520    0.10520  -38.77570  -12.18770
 4450.00000   10.70930    9.81410    9.81410  157.58950    6.34560   80.16110   80.16110  107.96660   77.05190   77.05190    6.34560 1254.17200 1254.17200    0.09410    0.09410  -39.48960  -12.01890
 4500.00000   11.04920   10.20730   10.20730  209.20500    4.78000   83.67920   83.67920  108.10240   77.39020   77.39020    4.78000 1490.78650 1490.78650    0.04690    0.04690  -42.04770  -10.00600
 4550.00000   14.47880   15.23130   15.23130  259.23530    3.85750   98.97160   98.97160  114.99930   74.16590   74.16590    3.85750    -999.25    -999.25    0.26370    0.26370  -41.96740  -10.63140
 4600.00000   14.58320   14.44270   14.44270  309.91420    3.22670   96.76550   96.76550  107.91360   77.53470   77.53470    3.22670    -999.25    -999.25    0.31600    0.31600  -52.39520   -0.67700
 4650.00000    8.94160    8.76860    8.76860  331.41110    3.01740   61.86080   61.86080  117.88510  158.18030  158.18030    3.01740  888.68810  888.68810    0.21160    0.21160  -48.82760   -1.52710
 4700.00000    8.94030    8.89220    8.89220   52.85270   18.92050   56.99680   56.99680   54.38420   40.77680   40.77680   18.92050 2071.48340 2071.48340    0.02200    0.02200  -31.43150  -19.52640
 4750.00000    9.34700    9.44270    9.44270   11.25780   88.82740   53.77330   53.77330   37.94510   26.19330   26.19330   88.82740    -999.25    -999.25   -0.00670   -0.00670  -28.90900  -22.65220
