~Version ---------------------------------------------------
VERS.      2.0 : CWLS log ASCII Standard -VERSION 2.0
WRAP.       NO : One line per depth step
CREA. 01/28/16 : LAS Creation Date
~Well ------------------------------------------------------
STRT.FT                          1500.0 : START DEPTH
STOP.FT                         13000.0 : STOP DEPTH
STEP.FT                        50.00000 : STEP LENGTH
NULL.                           -999.25 : NULL VALUE
COMP.  AMOCO CANADA PETROLEUM CO., LTD. : COMPANY
WELL. AMOCO ET AL BERLAND D-1 6-7-60-22 : WELL
FLD .                                   : FIELD
LOC .                                   : LOCATION
CTRY.                            CANADA : COUNTRY
SRVC.                      Schlumberger : SERVICE COMPANY
DATE.                       10-Dec-1976 : LOGDATE
PROV.                           Alberta : PROVINCE
UWI .                  100060706022W500 : UNIQUE WELL ID
SLAT.WGS84                     54.17117 : SURFACE LATITUDE
SLON.WGS84                    -117.2921 : SURFACE LONGITUDE
~Curve Information -----------------------------------------
DEPT   .FT    : Depth Curve
CALD   .IN    : CALIPER FROM DENSITY LOG
CALS   .IN    : CALIPER FROM SONIC LOG
DCOR   .G/C3  : DENSITY CORRECTION FROM DENSITY LOG
DPHI_LS.DEC   : DENSITY POROSITY LIMESTONE
DPHI_SS.DEC   : DENSITY POROSITY SANDSTONE
DT     .US/F  : DELTA TIME FROM SONIC LOG
GRD    .GAPI  : GAMMA RAY FROM DENSITY LOG
GRS    .GAPI  : GAMMA RAY FROM SONIC LOG
ILD    .OHMM  : INDUCTION LOG DEEP RESISTIVITY
ILM    .OHMM  : INDUCTION LOG MEDIUM RESISTIVITY
LL8    .OHMM  : LATEROLOG-8 RESISTIVITY
NPHI_LS.DEC   : NEUTRON POROSITY LIMESTONE FROM DENSITY LOG
NPHI_SS.DEC   : NEUTRON POROSITY SANDSTONE FROM DENSITY LOG
RHOB   .G/C3  : BULK DENSITY FROM DENSITY LOG
SPR    .MV    : SPONTANEOUS POTENTIAL FROM DIL LOG
~Params ----------------------------------------------------
PD  .                     GL : PERMANENT DATUM
EPD .M                  3639 : ELEVATION PERMANENT DATUM
LMF .                     KB : LOG MEASURED FROM
DAPD.M                    16 : FEET ABOVE PERMANENT DATUM
EKB .M                  3655 : KELLY BUSHING
EGL .M                  3639 : GROUND LEVEL
DATE.             12/10/1976 : RUN DATE
RUN .                      2 : RUN NUMBER
DD  .M                 12990 : DEPTH DRILLER
DL  .M                 13000 : DEPTH LOGGER
BLI .M                 12994 : BOTTOM LOG INTERVAL
TLI .M                  7504 : TOP LOG INTERVAL
CBD .M                  7499 : CASING BOTTOM DRILLER
CBL .M                  7504 : CASING BOTTOM LOGGER
BS  .MM                  8.5 : BIT SIZE
BSD .M                 13000 : BIT SIZE AT DEPTH
DFT .             GEL BARITE : DRILLING FLUID TYPE
DFD .                    9.1 : DRILLING FLUID DENSITY
DFV .                     73 : DRILLING FLUID VISCOSITY
DFPH.                    9.5 : DRILLING FLUID PH
DFL .                    8.9 : DRILLING FLUID LOSS
MSS .               FLOWLINE : MUD SAMPLE SOURCE
RMS .OHMM               1.44 : RESISTIVITY MUD SAMPLE
MST .DEGC                 60 : MUD SAMPLE TEMPERATURE
RMF .OHMM               1.12 : RESISTIVITY MUD FILTRATE SAMPLE
MFST.DEGC                 55 : MUD FILTRATE SAMPLE TEMPERATURE
RMB .OHMM               0.26 : RESISTIVITY MUD AT BHT
TCS .HRS                 6.5 : TIME CIRCULATED STOPPED
LUN .                   7635 : LOGGING UNIT NUMBER
LUL .                    EDM : LOGGING UNIT LOCATION
ENGI.                 MACKAY : RECORDING ENGINEER
WITN.                SHIRLEY : WITNESSED BY
CLNT.                A2DTECH : CLIENT CODE
ORIG.            2" 5" PRINT : ORIGIN OF DATA
UWI .       100060706022W500 : UNIQUE WELL ID
DICO. A2D Technologies, Inc. : DIGITIZING COMPANY
~Other -----------------------------------------------------
~ASCII -----------------------------------------------------
# ...
 3800.00000   13.52840    -999.25    0.24980    -999.25    0.47800   82.75530   85.28370   78.37350    5.53020    5.29640    5.84830    -999.25    0.36740    1.95970  -16.63060
 3850.00000    -999.25    -999.25    0.14600    -999.25    0.51830  113.74850   97.43630   93.24210    4.39020    3.77940    4.21430    -999.25    0.46870    1.67190   -5.58400
 3900.00000   13.92810    -999.25    0.24060    -999.25    0.19920   81.04660   74.90470   67.67310   10.92700    9.11580   10.32410    -999.25    0.36510    2.26180  -11.77120
 3950.00000   13.75060    -999.25    0.22650    -999.25    0.36910   80.06860   70.15840   61.56830    7.95250    7.40090    8.73240    -999.25    0.40550    2.18130  -25.89280
 4000.00000    -999.25    -999.25    0.20630    -999.25    0.40630   87.21740   79.63260   69.20030    5.59240    5.43100    5.27120    -999.25    0.43880    1.92150  -35.85290
 4050.00000   12.68780    -999.25    0.06380    -999.25    0.09220   80.61940   85.75770   86.70520    9.91280    9.30290    8.61950    -999.25    0.35300    2.49040  -39.18620
 4100.00000   13.54470    -999.25    0.01830    -999.25    0.27790   93.61430  103.90950   90.92520    4.32840    4.28520    4.73180    -999.25    0.48440    2.37250  -41.09970
 4150.00000   12.59850    -999.25    0.06440    -999.25    0.27700   88.59230   77.63610   76.41320    8.02340    7.43220    8.66560    -999.25    0.46530    2.31370  -42.40700
 4200.00000   14.99450    -999.25    0.14910    -999.25    0.50330   80.64000   75.90340   73.92600    8.25380    7.77760    7.90330    -999.25    0.36500    1.83230  -70.50150
 4250.00000   14.77210    -999.25    0.21110    -999.25    0.50990   82.34640   71.05000   64.90610    7.27140    7.02650    7.52240    -999.25    0.33260    1.87600  -68.52080
 4300.00000    -999.25    -999.25    0.21720    -999.25    0.44780   92.67060   72.69950   67.40220    6.36030    5.82460    6.13800    -999.25    0.42710    1.88830  -65.44780
 4350.00000   13.10390    -999.25    0.13380    -999.25    0.10700   74.32150   54.97800   52.34470   24.16880   21.32310   19.68450    -999.25    0.25960    2.41340  -61.93290
 4400.00000   12.89040    -999.25    0.00170    -999.25    0.05560   62.83950   48.85240   48.47270   51.91200   36.99600   61.59100    -999.25    0.14420    2.59940  -56.19010
 4450.00000   15.01320    -999.25    0.23600    -999.25    0.41320   83.06750   74.54730   70.48740    9.33460    8.37220    7.71000    -999.25    0.40260    1.92910  -51.29850
 4500.00000   15.00560    -999.25    0.25060    -999.25    0.42760   81.89500   71.15540   63.44710   10.10330    8.89530    7.86920    -999.25    0.40840    1.97220  -50.08410
 4550.00000    -999.25    -999.25    0.21120    -999.25    0.40660   87.64420   64.75970   62.36520    6.88440    7.13940    7.93920    -999.25    0.33900    2.00320  -65.29680
 4600.00000   13.79280    -999.25    0.22650    -999.25    0.33230   82.64900   70.35410   63.98910    8.58830    9.00500    9.45340    -999.25    0.32080    2.03270  -64.77950
 4650.00000   13.48170    -999.25    0.04020    -999.25    0.34890   66.35650   59.25880   51.26350    3.09890    3.40050    4.35330    -999.25    0.46970    2.30760  -66.71940
 4700.00000   15.03800    -999.25    0.21590    -999.25    0.31890   92.49440   66.14090   68.12270    7.95220    8.41080    6.75180    -999.25    0.46750    2.08260  -60.82460
 4750.00000   13.67140    -999.25    0.23210    -999.25    0.21740   74.09990   55.82580   55.46080   15.30790   15.99000   16.89360    -999.25    0.29650    2.30880  -55.15010
 4800.00000   13.69900    -999.25    0.24370    -999.25    0.31160   94.99230   68.83570   61.27610    7.35940    7.95940    7.85810    -999.25    0.42270    2.08880  -64.40420
 4850.00000   15.05910    -999.25    0.26300    -999.25    0.33170   87.49340   70.90170   60.96040    7.45240    8.06260    7.63010    -999.25    0.41180    2.13650  -53.12720
 4900.00000   12.77080    -999.25    0.03850    -999.25    0.14610   76.14040   49.93480   48.15580   21.77780   20.01070   20.66760    -999.25    0.28490    2.40970  -56.38070
 4950.00000   12.71480    -999.25    0.07560    -999.25    0.04940   76.64100   65.57090   63.46640   12.35820   11.45100   11.57280    -999.25    0.34780    2.54210   -8.22400
 5000.00000   13.94130    -999.25    0.26190    -999.25    0.34310   82.16250   78.67200   70.31750    9.73250   10.21160    9.74520    -999.25    0.41110    2.15720  -12.06980
 5050.00000   13.59710    -999.25    0.18770    -999.25    0.32590   74.72800   69.36700   63.61520   15.56760   16.09950   12.97710    -999.25    0.41900    2.18870  -13.99400
 5100.00000   15.03340    -999.25    0.22230    -999.25    0.37100   76.26320   97.95540   91.39570   12.16980   12.55640   13.19510    -999.25    0.42790    1.98570  -34.72420
 5150.00000   14.63060    -999.25    0.26340    -999.25    0.38040   78.48590  103.47590   90.27350   10.81440   11.39430   11.19410    -999.25    0.35700    2.03350  -48.16150
 5200.00000    -999.25    -999.25    0.23130    -999.25    0.36840   78.88980  103.15730  101.49780   10.72520   11.12040   11.52220    -999.25    0.39200    2.04970  -51.32250
 5250.00000   14.39700    -999.25    0.23040    -999.25    0.37830   79.06550   98.35700  101.18070   11.40150   11.72250   12.55910    -999.25    0.38240    2.05530  -75.06570
 5300.00000   13.89590    -999.25    0.13900    -999.25    0.34760   83.69200  121.14940  119.40790   15.36450   14.75750   16.94090    -999.25    0.39360    2.05380  -74.81460
 5350.00000   13.05080    -999.25    0.23430    -999.25    0.27310   75.60820   95.04630   97.97150   22.07870   19.96770   21.84290    -999.25    0.36370    2.15980  -72.92020
 5400.00000   14.92660    -999.25    0.23080    -999.25    0.30550   74.85460   91.16690   88.02720   18.42960   17.35400   19.23610    -999.25    0.31800    2.17650  -71.16970
 5450.00000   14.29970    -999.25    0.23970    -999.25    0.33410   77.61480   95.12500   96.94880   13.41020   13.77630   14.13530    -999.25    0.32200    2.14750  -88.87340
 5500.00000   14.99510    -999.25    0.16510    -999.25    0.38010   83.44700  110.39830   99.31790    8.91830    9.19980    9.92800    -999.25    0.41290    2.09070  -84.47710
 5550.00000    -999.25    -999.25    0.19600    -999.25    0.39700   79.77680  108.51640   88.28520    9.49140    9.78340   10.72410    -999.25    0.36420    2.02580  -76.42470
 5600.00000   14.80650    -999.25    0.23220    -999.25    0.39300   77.50960  103.83700   96.83460   11.39110   11.76050   12.25620    -999.25    0.34660    2.11170  -75.79930
 5650.00000   15.02560    -999.25    0.26050    -999.25    0.25640   71.47750   85.22090   75.88630   20.63850   19.51640   18.17250    -999.25    0.26990    2.28200  -65.45050
 5700.00000   14.50260    -999.25    0.26270    -999.25    0.28440   78.47760  109.73500   96.93330    8.08320    8.35030    8.89580    -999.25    0.35910    2.15040  -47.89040
 5750.00000   15.05950    -999.25    0.23040    -999.25    0.36130   81.03500  110.77560  102.41490   10.76050   11.10630   11.59680    -999.25    0.37630    2.00000  -31.81340
 5800.00000   14.95260    -999.25    0.21330    -999.25    0.34040   78.45850  113.26980   93.95580   10.27110   10.58900   11.02560    -999.25    0.38550    2.11560  -12.04250
 5850.00000   14.99330   14.82000    0.20390    -999.25    0.30540   77.31350  109.82460   99.59550   10.73920   11.09170   11.67440    -999.25    0.34160    2.22210  -32.31700
 5900.00000    -999.25   13.63500    0.22840    -999.25    0.37790   74.39710  102.47180   92.80670   14.81020   14.22710   13.94470    -999.25    0.31010    2.01250  -43.08770
 5950.00000   14.39930   12.68000    0.26340    -999.25    0.14810   70.60850   98.85430   89.72010   24.28690   23.29950   21.28890    -999.25    0.23180    2.39380  -32.86610
 6000.00000   14.56370   13.03000    0.26270    -999.25    0.21440   68.89500   95.75560   88.34990   30.51180   28.17490   27.28830    -999.25    0.21160    2.34390    2.34920
 6050.00000   14.81010   12.58100    0.14300    -999.25    0.07290   74.55810  107.29710   94.32350   20.87380   19.80940   19.57330    -999.25    0.24940    2.52910  -14.91850
