~Version ---------------------------------------------------
VERS.      2.0 : CWLS log ASCII Standard -VERSION 2.0
WRAP.       NO : One line per depth step
CREA. 09/27/17 : LAS Creation Date
~Well ------------------------------------------------------
STRT.FT                        300.0 : START DEPTH
STOP.FT                      12850.0 : STOP DEPTH
STEP.FT                     50.00000 : STEP LENGTH
NULL.                        -999.25 : NULL VALUE
COMP.  WESTERN DECALTA PETROLEUM LTD : COMPANY
WELL. DECALTA ET AL BRAZR 6-31-47-13 : WELL
FLD .                  BRAZEAU RIVER : FIELD
LOC .                                : LOCATION
CTRY.                         CANADA : COUNTRY
SRVC.                   Schlumberger : SERVICE COMPANY
DATE.                    15-Mar-1978 : LOGDATE
PROV.                        Alberta : PROVINCE
UWI .               100063104713W500 : UNIQUE WELL ID
SLAT.WGS84                  53.09535 : SURFACE LATITUDE
SLON.WGS84                 -115.8946 : SURFACE LONGITUDE
~Curve Information -----------------------------------------
DEPT    .FT    : Depth Curve
CALDED  .IN    : CALIPER FROM DENSITY LOG [ADJ. TO RESISTIVITY LOG]
CALSED  .IN    : CALIPER FROM SONIC LOG [ADJ. TO RESISTIVITY LOG]
CALWS   .IN    : CALIPER [CALSED]
CONDWS  .MMHO  : CONDUCTIVITY [1000/DRESWS]
DCORWS  .G/C3  : DENSITY CORRECTION [DRHOED]
DENWS   .G/C3  : FORAMTION BULK DENSITY [CALC FROM DPOLSWS,M=2.71, F=1.00]
DPHILSED.V/V   : DENSITY POROSITY LIMESTONE [M=2.71, F=1.00] FROM DENSITY LOG [ADJ. TO RESISTIVITY LOG]
DPHISSED.V/V   : DENSITY POROSITY SANDSTONE [M=2.65, F=1.00] FROM DENSITY LOG [ADJ. TO RESISTIVITY LOG]
DPOLSWS .V/V   : DENSITY POROSITY LIMESTONE [DPHISSED MATRIX CONVERTED TO LS & SPL. TO DPHILSED @ 9450']
DRESWS  .OHMM  : DEEP RESISTIVITY [ILDED]
DRHOED  .G/C3  : DENSITY CORRECTION FROM DENSITY LOG [ADJ. TO RESISTIVITY LOG]
DTED    .US/F  : DELTA TIME FROM SONIC LOG [ADJ. TO RESISTIVITY LOG]
DTWS    .US/F  : COMPRESSIONAL SONIC [DTED]
GRDED   .GAPI  : GAMMA RAY FROM DENSITY LOG [ADJ. TO RESISTIVITY LOG]
GRSED   .GAPI  : GAMMA RAY FROM SONIC LOG [ADJ. TO RESISTIVITY LOG]
GRWS    .GAPI  : GAMMA RAY [GRSED SPL. TO GRDED @ 12818']
ILDED   .OHMM  : DEEP INDUCTION RESISTIVITY FROM RESISTIVITY LOG
ILMED   .OHMM  : MEDIUM INDUCTION RESISTIVITY FROM RESISTIVITY LOG
LL8ED   .OHMM  : 8 INCH LATEROLOG RESISTIVITY FROM RESISTIVITY LOG
MRESWS  .OHMM  : MEDIUM RESISTIVITY [ILMED]
NPHILSED.V/V   : NEUTRON POROSITY LIMESTONE FROM DENSITY LOG [ADJ. TO RESISTIVITY LOG]
NPHISSED.V/V   : NEUTRON POROSITY SANDSTONE FROM DENSITY LOG [ADJ. TO RESISTIVITY LOG]
NPOLSWS .V/V   : NEUTRON POROSITY LIMESTONE [NPHISSED MATRIX CONVERTED TO LS & SPL. TO NPHILSED @ 9350']
RHOBED  .G/C3  : BULK DENSITY FROM DENSITY LOG [ADJ. TO RESISTIVITY LOG]
SPRED   .MV    : SPONTANEOUS POTENTIAL FROM RESISTIVITY LOG
SPWS    .MV    : SPONTANEOUS POTENTIAL [BASELINE 0 MV, SPRED]
SRESWS  .OHMM  : SHALLOW RESISTIVITY [LL8ED]
~Params ----------------------------------------------------
PD  .                     GL : PERMANENT DATUM
EPD .FT                 3420 : ELEVATION PERMANENT DATUM
LMF .                     KB : LOG MEASURED FROM
DAPD.FT                   27 : FEET ABOVE PERMANENT DATUM
DMF .                     KB : DRILLING MEASURED FROM
EGL .FT                 3420 : GROUND LEVEL
DATE.               03/15/78 : RUN DATE
RUN .                      2 : RUN NUMBER
DD  .FT                12857 : DEPTH DRILLER
DL  .FT                12856 : DEPTH LOGGER
BLI .FT                12850 : BOTTOM LOG INTERVAL
TLI .FT                10390 : TOP LOG INTERVAL
CS  .IN                9.625 : CASING SIZE
CBD .FT                10395 : CASING BOTTOM DRILLER
CBL .FT                10390 : CASING BOTTOM LOGGER
BS  .IN                6.125 : BIT SIZE
BSD .FT                12857 : BIT SIZE AT DEPTH
DFT .                    GEL : DRILLING FLUID TYPE
DFD .                   10.3 : DRILLING FLUID DENSITY
DFV .                     44 : DRILLING FLUID VISCOSITY
DFPH.                   11.5 : DRILLING FLUID PH
DFL .                    8.8 : DRILLING FLUID LOSS
MSS .               FLOWLINE : MUD SAMPLE SOURCE
RMS .OHMM               0.89 : RESISTIVITY MUD SAMPLE
MST .DEGF                 62 : MUD SAMPLE TEMPERATURE
TCS .HRS                 2.5 : TIME CIRCULATED STOPPED
LUN .                   7687 : LOGGING UNIT NUMBER
LUL .                    EDA : LOGGING UNIT LOCATION
ENGI.               BERNISKY : RECORDING ENGINEER
WITN.                  COWAN : WITNESSED BY
CLNT.                A2DTECH : CLIENT CODE
ORIG.            2" 5" PRINT : ORIGIN OF DATA
UWI .       100063104713W500 : UNIQUE WELL ID
DICO. A2D Technologies, Inc. : DIGITIZING COMPANY
~Other -----------------------------------------------------
DIL-LL-CNL-FDC-BHC LOG RUN
NEUTRON CONVERSION: SCHLUMBERGER, DESCRIPTION: CNL(NPHI)
~ASCII -----------------------------------------------------
# ...
 4200.00000    8.85620    8.71760    8.71760   20.50600    0.00210    2.63220    -999.25    0.01080    0.04550   48.76630    0.00210   63.24880   63.24880   48.20820   39.49990   39.49990   48.76630   46.55960   65.31650   46.55960    -999.25    0.20100    0.15760    2.63030 -162.05070  -15.36150   65.31650
 4250.00000    9.21710    9.04500    9.04500   56.69480    0.19280    2.57160    -999.25    0.05190    0.08520   17.63830    0.19280   69.80050   69.80050   67.63320   61.80850   61.80850   17.63830   16.27360   20.28170   16.27360    -999.25    0.21630    0.17270    2.56750 -151.74250   -5.51490   20.28170
 4300.00000    8.81050    9.04090    9.04090  120.76570    0.03990    2.54540    -999.25    0.05870    0.09170    8.28050    0.03990   74.25820   74.25820  100.47840   94.89300   94.89300    8.28050    8.92530    9.50590    8.92530    -999.25    0.25610    0.21220    2.54890 -150.81560   -5.04960    9.50590
 4350.00000    8.91340    9.58180    9.58180  168.52040    0.00850    2.50600    -999.25    0.08730    0.11930    5.93400    0.00850   79.37730   79.37730  124.73980  113.25250  113.25250    5.93400    6.43560    6.25350    6.43560    -999.25    0.33020    0.28640    2.50880 -150.36890   -5.06450    6.25350
 4400.00000    8.93360    9.57950    9.57950  132.36440   -0.00050    2.53090    -999.25    0.07430    0.10680    7.55490   -0.00050   80.81100   80.81100  111.04890   97.20060   97.20060    7.55490    6.84780    7.23390    6.84780    -999.25    0.33030    0.28650    2.53520 -152.89630   -8.05350    7.23390
 4450.00000   10.22040    8.94280    8.94280  418.49760    0.11560    2.20010    -999.25    0.27270    0.29820    2.38950    0.11560   99.15610   99.15610  147.30360  149.90550  149.90550    2.38950    2.33770    2.56190    2.33770    -999.25    0.41060    0.36790    2.20370 -151.33000   -6.94890    2.56190
 4500.00000   10.58010    9.43130    9.43130   85.36430    0.11110    2.45350    -999.25    0.11330    0.14440   11.71450    0.11110   80.93750   80.93750  102.12120  103.41610  103.41610   11.71450   13.39980   12.22120   13.39980    -999.25    0.28510    0.24110    2.47150 -150.03960   -6.12010   12.22120
 4550.00000   11.30940    9.34110    9.34110  145.30660    0.20600    2.42240    -999.25    0.13520    0.16550    6.88200    0.20600   83.02640   83.02640   97.47140   93.75750   93.75750    6.88200    7.40160    7.27350    7.40160    -999.25    0.29400    0.25000    2.42340 -150.45870   -7.00080    7.27350
 4600.00000    9.88670    9.30920    9.30920  162.73390    0.09510    2.38270    -999.25    0.16200    0.19140    6.14500    0.09510   83.06990   83.06990   92.47920   87.99740   87.99740    6.14500    6.71540    6.39990    6.71540    -999.25    0.30280    0.25880    2.38990 -147.93250   -4.93620    6.39990
 4650.00000   10.16080    9.41330    9.41330   58.67480    0.19210    2.53120    -999.25    0.08110    0.11330   17.04310    0.19210   69.30250   69.30250   50.19040   47.10400   47.10400   17.04310   16.14190   17.85230   16.14190    -999.25    0.18380    0.14060    2.52810 -148.05900   -5.52430   17.85230
 4700.00000   10.10200    9.42670    9.42670  159.77250    0.10710    2.41090    -999.25    0.14490    0.17490    6.25890    0.10710   79.81380   79.81380   95.59820   91.87040   91.87040    6.25890    7.08580    6.68770    7.08580    -999.25    0.26660    0.22260    2.41480 -147.63100   -5.55790    6.68770
 4750.00000   10.17050    9.37380    9.37380  200.80720    0.14800    2.37500    -999.25    0.15380    0.18350    4.97990    0.14800   87.95860   87.95860  102.34940   95.90060   95.90060    4.97990    5.21600    5.88420    5.21600    -999.25    0.33950    0.29580    2.39010 -149.69900   -8.08750    5.88420
 4800.00000    9.96880    9.40310    9.40310   74.56900    0.26460    2.46300    -999.25    0.11610    0.14710   13.41040    0.26460   72.28830   72.28830   76.79710   77.57190   77.57190   13.41040   12.03050   11.61330   12.03050    -999.25    0.21960    0.17590    2.47360 -145.61750   -4.46760   11.61330
 4850.00000    8.85240    8.91510    8.91510   38.48630    0.15510    2.56400    -999.25    0.05210    0.08540   25.98330    0.15510   71.74440   71.74440   47.71140   44.53300   44.53300   25.98330   27.94770   26.84420   27.94770    -999.25    0.22930    0.18550    2.56640 -150.99350  -10.30520   26.84420
 4900.00000    9.95170    9.24820    9.24820   99.09330    0.22410    2.38540    -999.25    0.17130    0.20040   10.09150    0.22410   75.77540   75.77540   74.57450   68.86720   68.86720   10.09150   10.43380   11.87520   10.43380    -999.25    0.23150    0.18770    2.36620 -145.10680   -4.99670   11.87520
 4950.00000    9.54220    9.08780    9.08780   81.36030    0.23540    2.40600    -999.25    0.14790    0.17780   12.29100    0.23540   73.41000   73.41000   74.41130   70.93300   70.93300   12.29100   12.93170   13.15420   12.93170    -999.25    0.28930    0.24530    2.39510 -147.52270   -8.22760   13.15420
 5000.00000   11.01660    9.36890    9.36890   87.20370    0.19690    2.30500    -999.25    0.21260    0.24030   11.46740    0.19690   77.10290   77.10290   86.51690   85.81300   85.81300   11.46740   10.69540   12.60350   10.69540    -999.25    0.29490    0.25090    2.30380 -143.34400   -4.86390   12.60350
 5050.00000   10.24930    9.50440    9.50440   66.68760    0.23590    2.33590    -999.25    0.19210    0.22040   14.99530    0.23590   68.84250   68.84250   73.16140   63.29940   63.29940   14.99530   15.21540   18.30720   15.21540    -999.25    0.25750    0.21360    2.34170 -142.26600   -4.60090   18.30720
 5100.00000    9.63930    9.38400    9.38400   74.21810    0.26520    2.40920    -999.25    0.14590    0.17590   13.47380    0.26520   77.49990   77.49990   52.62670   49.60570   49.60570   13.47380   15.09050   12.06520   15.09050    -999.25    0.32970    0.28590    2.42160 -142.58120   -5.73100   12.06520
 5150.00000   10.52570    9.14360    9.14360   69.32550    0.23340    2.24740    -999.25    0.24310    0.26970   14.42470    0.23340   76.59240   76.59240   71.05730   63.20890   63.20890   14.42470   13.88790   12.88300   13.88790    -999.25    0.35450    0.31090    2.24640 -140.42470   -4.38950   12.88300
 5200.00000    9.65350    8.96690    8.96690   59.04830    0.21820    2.48140    -999.25    0.10220    0.13370   16.93530    0.21820   71.42570   71.42570   50.54110   42.41370   42.41370   16.93530   23.26370   19.30890   23.26370    -999.25    0.20140    0.15790    2.49220 -139.17080   -3.95060   19.30890
 5250.00000    9.09490    9.04200    9.04200  117.45220    0.08670    2.33330    -999.25    0.19650    0.22470    8.51410    0.08670   82.00560   82.00560   86.48420   81.36490   81.36490    8.51410   10.14220    9.01370   10.14220    -999.25    0.34640    0.30270    2.32950 -137.72550   -3.32030    9.01370
 5300.00000    9.90760    8.92500    8.92500   94.28360    0.21510    2.30620    -999.25    0.19770    0.22590   10.60630    0.21510   78.29670   78.29670   79.50060   81.45060   81.45060   10.60630   11.01040   10.15650   11.01040    -999.25    0.35980    0.31630    2.33300 -137.49790   -3.90770   10.15650
 5350.00000    8.73620    8.91130    8.91130   20.00620    0.00200    2.55030    -999.25    0.06040    0.09340   49.98460    0.00200   66.23790   66.23790   41.04670   36.29910   36.29910   49.98460   44.01970   64.77440   44.01970    -999.25    0.18880    0.14550    2.55480 -142.60390  -10.00290   64.77440
 5400.00000   10.14120    8.96790    8.96790   90.94380    0.24250    2.29930    -999.25    0.21840    0.24580   10.99580    0.24250   81.61640   81.61640   71.68990   71.71820   71.71820   10.99580   12.61670   11.54260   12.61670    -999.25    0.34950    0.30580    2.29740 -138.91870   -7.40940   11.54260
 5450.00000    8.87910    8.89800    8.89800   25.37790    0.01530    2.60420    -999.25    0.02780    0.06190   39.40430    0.01530   63.38000   63.38000   35.18360   38.57020   38.57020   39.40430   40.47490   46.04660   40.47490    -999.25    0.19220    0.14890    2.61590 -136.24440   -5.82670   46.04660
