~Version ---------------------------------------------------
VERS.      2.0 : CWLS log ASCII Standard -VERSION 2.0
WRAP.       NO : One line per depth step
CREA. 08/31/17 : LAS Creation Date
~Well ------------------------------------------------------
STRT.FT                            1500.0 : START DEPTH
STOP.FT                           12250.0 : STOP DEPTH
STEP.FT                          50.00000 : STEP LENGTH
NULL.                             -999.25 : NULL VALUE
COMP.            CHEVRON STANDARD LIMITED : COMPANY
WELL. CHEVRON NORCEN PL BRAZEAU 7-4-49-12 : WELL
FLD .                                     : FIELD
LOC .                                     : LOCATION
CTRY.                              CANADA : COUNTRY
SRVC.                        Schlumberger : SERVICE COMPANY
DATE.                         05-Jun-1978 : LOGDATE
PROV.                             Alberta : PROVINCE
UWI .                    100070404912W500 : UNIQUE WELL ID
SLAT.WGS84                       53.19691 : SURFACE LATITUDE
SLON.WGS84                      -115.6898 : SURFACE LONGITUDE
~Curve Information -----------------------------------------
DEPT    .FT    : Depth Curve
CALDED  .IN    : CALIPER FROM CNFD LOG
CALSED  .IN    : CALIPER FROM SONIC LOG [ADJ.TO GRDED]
CALWS   .IN    : CALIPER [CALSED]
CONDWS  .MMHO  : CONDUCTIVITY [1000/DRESWS]
DCORED  .G/C3  : DENSITY CORRECTION FROM CNFD LOG
DCORWS  .G/C3  : DENSITY CORRECTION [DCORED]
DENWS   .G/C3  : FORMATION BULK DENSITY [CALCULATED FROM DPOLSWS, M=2.71, F=1.00]
DPHILSED.V/V   : DENSITY POROSITY LIMESTONE [M=2.71, F=1.0] FROM CNFD LOG [ADJ.TO RHOBED]
DPHISSED.V/V   : DENSITY POROSITY SANDSTONE [M=2.65, F=1.0] FROM CNFD LOG [ADJ.TO RHOBED]
DPOLSWS .V/V   : DENSITY POROSITY LIMESTONE [DPHISSED CONVERTED TO LIMESTONE MATRIX,M=2.71, F=1.0, SPL.TO DPHILSED @ 2605.3']
DRESWS  .OHMM  : DEEP RESISTIVITY [ILDED]
DTED    .US/F  : DELTA-T FROM BCS LOG [ADJ.TO GRDED]
DTWS    .US/F  : COMPRESSIONAL SONIC [DTED]
GRDED   .GAPI  : GAMMA RAY FROM CNFD LOG
GRSED   .GAPI  : GAMMA RAY FROM BCS LOG [ADJ.TO GRDED]
GRWS    .GAPI  : GAMMA RAY [GRSED]
ILDED   .OHMM  : DEEP INDUCTION FROM DIL-LAT LOG
ILMED   .OHMM  : MEDIUM INDUCTION FROM DIL-LAT LOG
LL8ED   .OHMM  : LATEROLOG-8 FROM DIL-LAT LOG
MRESWS  .OHMM  : MEDIUM RESISTIVITY [ILMED]
NPHILSED.V/V   : NEUTRON POROSITY LIMESTONE FROM CNFD LOG [ADJ.TO RHOBED]
NPHISSED.V/V   : NEUTRON POROSITY SANDSTONE FROM CNFD LOG [ADJ.TO RHOBED]
NPOLSWS .V/V   : NEUTRON POROSITY LIMESTONE [NPHISSED CONVERTED TO LIMESTONE MATRIX & SPL. TO NPHILSED @ 2605']
RHOBED  .G/C3  : FORMATION BULK DENSITY FROM CNFD LOG
SPRED   .MV    : SPONTANEOUS POTENTIAL FROM DIL-LAT LOG
SPWS    .MV    : SPONTANEOUS POTENTIAL [BASELINE 0 MV,SPRED]
SRESWS  .OHMM  : SHALLOW RESISTIVITY [LL8ED]
~Params ----------------------------------------------------
PD  .                     GL : PERMANENT DATUM
EPD .FT               3221.1 : ELEVATION PERMANENT DATUM
LMF .                     KB : LOG MEASURED FROM
DAPD.FT                 18.9 : FEET ABOVE PERMANENT DATUM
DMF .                     KB : DRILLING MEASURED FROM
EKB .FT                 3240 : KELLY BUSHING
EGL .FT               3221.1 : GROUND LEVEL
DATE.               06/05/78 : RUN DATE
RUN .                      1 : RUN NUMBER
DD  .FT                12300 : DEPTH DRILLER
DL  .FT                12303 : DEPTH LOGGER
BLI .FT                12297 : BOTTOM LOG INTERVAL
TLI .FT                 1518 : TOP LOG INTERVAL
CBD .FT                 1518 : CASING BOTTOM DRILLER
CBL .FT                 1518 : CASING BOTTOM LOGGER
BS  .IN                 8.75 : BIT SIZE
BSD .FT                12300 : BIT SIZE AT DEPTH
DFT .                    GEL : DRILLING FLUID TYPE
DFD .                     11 : DRILLING FLUID DENSITY
DFV .                     68 : DRILLING FLUID VISCOSITY
DFPH.                   10.5 : DRILLING FLUID PH
MSS .               FLOWLINE : MUD SAMPLE SOURCE
RMS .OHMM               3.34 : RESISTIVITY MUD SAMPLE
MST .DEGF                 68 : MUD SAMPLE TEMPERATURE
TCS .HRS                 350 : TIME CIRCULATED STOPPED
LUN .                   7802 : LOGGING UNIT NUMBER
LUL .                    EDM : LOGGING UNIT LOCATION
ENGI.            STEENBERGEN : RECORDING ENGINEER
WITN.             RICHARDSON : WITNESSED BY
CLNT.                A2DTECH : CLIENT CODE
ORIG.            2" 5" PRINT : ORIGIN OF DATA
UWI .       100070404912W500 : UNIQUE WELL ID
DICO. A2D Technologies, Inc. : DIGITIZING COMPANY
~Other -----------------------------------------------------
~ASCII -----------------------------------------------------
# ...
 6700.00000   12.87790    9.47770    9.47770   89.09580    0.13450    0.13450    2.41400    -999.25    0.14310    0.17310   11.22410   83.97040   83.97040  121.30920  124.91980  124.91980   11.22410   11.95780   14.50970   11.95780    -999.25    0.29630    0.25230    2.42860  -17.06460   -6.72020   14.50970
 6750.00000   11.60250    9.27680    9.27680  102.98340    0.13340    0.13340    2.38910    -999.25    0.15810    0.18760    9.71030   84.76700   84.76700  121.61930  137.81000  137.81000    9.71030   10.33630   12.80880   10.33630    -999.25    0.35760    0.31410    2.39770  -17.37650   -7.03210   12.80880
 6800.00000   11.43700    9.46820    9.46820   90.08520    0.12220    0.12220    2.43270    -999.25    0.13170    0.16220   11.10060   84.58440   84.58440  121.16480  137.04900  137.04900   11.10060   12.10710   15.81640   12.10710    -999.25    0.31120    0.26730    2.44550  -17.15110   -6.80670   15.81640
 6850.00000   11.01340    9.27360    9.27360   60.12900    0.01110    0.01110    2.59470    -999.25    0.03350    0.06740   16.63090   85.62660   85.62660  134.78080  140.27760  140.27760   16.63090   17.64930   24.83160   17.64930    -999.25    0.31310    0.26920    2.59580  -17.85170   -7.50730   24.83160
 6900.00000   10.73700    9.25910    9.25910   69.63400    0.03300    0.03300    2.59580    -999.25    0.03290    0.06680   14.36080   84.96090   84.96090  133.53650  133.87090  133.87090   14.36080   15.56540   22.46780   15.56540    -999.25    0.28840    0.24440    2.59190  -16.47480   -6.13040   22.46780
 6950.00000   12.16440    9.47400    9.47400  104.00940    0.06410    0.06410    2.53970    -999.25    0.06690    0.09960    9.61500   88.61810   88.61810  105.57790  119.73820  119.73820    9.61500   10.26360   13.83920   10.26360    -999.25    0.36730    0.32390    2.57180  -16.68950   -6.34510   13.83920
 7000.00000   12.18010   10.52970   10.52970   96.16310    0.07580    0.07580    2.47860    -999.25    0.10390    0.13530   10.39900   91.26380   91.26380  118.10820  121.28950  121.28950   10.39900   11.30950   14.62280   11.30950    -999.25    0.41930    0.37680    2.49850  -15.51730   -5.17290   14.62280
 7050.00000   11.49390   10.20050   10.20050  183.72900    0.10630    0.10630    2.43170    -999.25    0.13230    0.16270    5.44280   86.19680   86.19680   93.56220  101.47210  101.47210    5.44280    5.79690    7.22450    5.79690    -999.25    0.35910    0.31560    2.42910  -15.34260   -4.99820    7.22450
 7100.00000   12.63210   10.05480   10.05480  145.73650    0.01670    0.01670    2.57180    -999.25    0.04740    0.08080    6.86170   79.56760   79.56760  104.98650  114.28910  114.28910    6.86170    7.31390    8.21210    7.31390    -999.25    0.26510    0.22110    2.57790  -17.34000   -6.99560    8.21210
 7150.00000   14.62670   11.33960   11.33960  184.07050    0.02790    0.02790    2.56320    -999.25    0.05260    0.08580    5.43270   85.58480   85.58480  112.18330  113.98590  113.98590    5.43270    5.80510    6.68630    5.80510    -999.25    0.32220    0.27830    2.56430  -15.34260   -4.99820    6.68630
 7200.00000   13.50720   10.07390   10.07390  160.03920    0.04200    0.04200    2.44420    -999.25    0.12470    0.15540    6.24850   90.71960   90.71960  121.40080  126.17890  126.17890    6.24850    6.65560    8.68630    6.65560    -999.25    0.33480    0.29110    2.45910  -17.32270   -6.97830    8.68630
 7250.00000   12.84560   10.03820   10.03820  165.52450    0.09870    0.09870    2.29820    -999.25    0.21320    0.24080    6.04140   87.53960   87.53960  120.51020  121.13570  121.13570    6.04140    6.80690    8.32250    6.80690    -999.25    0.33670    0.29290    2.31250  -16.62560   -6.28120    8.32250
 7300.00000   13.85600   11.54840   11.54840  372.03770    0.00910    0.00910    2.03360    -999.25    0.37360    0.39560    2.68790   99.05020   99.05020   88.31850   81.03260   81.03260    2.68790    3.00300    4.37780    3.00300    -999.25    0.49010    0.44840    2.05750  -16.70420   -6.45280    4.37780
 7350.00000   14.20020   10.93580   10.93580  210.00020    0.04340    0.04340    2.02750    -999.25    0.37730    0.39910    4.76190   90.88140   90.88140  100.25220  103.12630  103.12630    4.76190    5.16920    6.27330    5.16920    -999.25    0.38330    0.34010    2.05370  -17.85610   -7.94340    6.27330
 7400.00000   10.92240    9.78660    9.78660   83.78860    0.01450    0.01450    2.59740    -999.25    0.03190    0.06590   11.93480   72.21360   72.21360   79.46240   79.37650   79.37650   11.93480   12.57320   14.27650   12.57320    -999.25    0.14160    0.09920    2.59450  -24.98630  -15.41010   14.27650
 7450.00000   11.59800   10.57290   10.57290  147.02640    0.08060    0.08060    2.58850    -999.25    0.03730    0.07100    6.80210   77.87180   77.87180   85.89050   90.95740   90.95740    6.80210    7.23500    8.08640    7.23500    -999.25    0.24390    0.20000    2.58830  -20.61630  -11.37880    8.08640
 7500.00000   12.25860   10.28820   10.28820  109.29440    0.00770    0.00770    2.55250    -999.25    0.05910    0.09210    9.14960   72.80670   72.80670   70.60470   72.07390   72.07390    9.14960    9.50880   10.45820    9.50880    -999.25    0.18260    0.13940    2.55400  -27.99250  -19.09140   10.45820
 7550.00000   12.03120   10.03460   10.03460   85.74560    0.02750    0.02750    2.65860    -999.25   -0.00520    0.03010   11.66240   68.06730   68.06730   73.24500   81.08530   81.08530   11.66240   13.35230   17.07510   13.35230    -999.25    0.19590    0.15250    2.65130  -21.49770  -12.93310   17.07510
 7600.00000   12.00090   10.45870   10.45870  112.37470    0.05250    0.05250    2.59800    -999.25    0.03150    0.06550    8.89880   73.15350   73.15350   56.30300   67.91790   67.91790    8.89880    9.29440   10.03000    9.29440    -999.25    0.16230    0.11950    2.59910  -28.73490  -20.50900   10.03000
 7650.00000   13.01380   10.41960   10.41960   73.11280    0.01340    0.01340    2.66620    -999.25   -0.00980    0.02560   13.67750   70.68660   70.68660   79.13830   79.10340   79.10340   13.67750   14.29470   19.27360   14.29470    -999.25    0.22920    0.18540    2.66020  -20.66750  -12.77810   19.27360
 7700.00000   13.21470   10.63600   10.63600   82.66190    0.01440    0.01440    2.62510    -999.25    0.01510    0.04970   12.09760   69.17990   69.17990   64.50490   67.59050   67.59050   12.09760   12.63810   14.06850   12.63810    -999.25    0.15010    0.10750    2.62060  -27.01140  -19.46070   14.06850
 7750.00000   12.58070   10.29670   10.29670   54.05460   -0.01540   -0.01540    2.18720    -999.25    0.28050    0.30570   18.49980  106.80810  106.80810   61.57370   57.53430   57.53430   18.49980   15.13570   19.05570   15.13570    -999.25    0.37530    0.33200    2.18770  -22.03580  -14.82160   19.05570
 7800.00000   12.43600   10.14550   10.14550   95.14020    0.13320    0.13320    2.47860    -999.25    0.10390    0.13530   10.51080   78.78030   78.78030   93.32440   93.54450   93.54450   10.51080   11.70420   16.07160   11.70420    -999.25    0.24490    0.20100    2.49230  -12.14420   -5.26650   16.07160
 7850.00000   11.52710    9.99600    9.99600   47.22190    0.01620    0.01620    2.46590    -999.25    0.11160    0.14280   21.17660   73.38310   73.38310   50.60880   64.04400   64.04400   21.17660   22.38770   29.79670   22.38770    -999.25    0.10370    0.06210    2.49220  -24.26070  -17.72170   29.79670
 7900.00000   11.57440    9.99530    9.99530   41.70120    0.03670    0.03670    2.67890    -999.25   -0.01750    0.01820   23.98010   63.94660   63.94660   58.77930   57.31360   57.31360   23.98010   25.11860   26.65560   25.11860    -999.25    0.10480    0.06320    2.67740  -28.53970  -22.15120   26.65560
 7950.00000   11.59380   10.00960   10.00960   67.40750    0.00710    0.00710    2.65200    -999.25   -0.00120    0.03390   14.85870   65.06680   65.06680   69.73300   71.39340   71.39340   14.85870   16.02770   18.52510   16.02770    -999.25    0.14160    0.09910    2.65650  -15.84230   -9.45380   18.52510
