~Version ---------------------------------------------------
VERS.      2.0 : CWLS log ASCII Standard -VERSION 2.0
WRAP.       NO : One line per depth step
CREA. 08/01/17 : LAS Creation Date
~Well ------------------------------------------------------
STRT.FT                          1050.0 : START DEPTH
STOP.FT                         10150.0 : STOP DEPTH
STEP.FT                        50.00000 : STEP LENGTH
NULL.                           -999.25 : NULL VALUE
COMP.        WESTCOAST PETROLEUM CO LTD : COMPANY
WELL. WESTCOAST FINA HSOUND 10-19-61-16 : WELL
FLD .                                WC : FIELD
LOC .                                   : LOCATION
CTRY.                            CANADA : COUNTRY
SRVC.                      Schlumberger : SERVICE COMPANY
DATE.                       26-Jun-1972 : LOGDATE
PROV.                           Alberta : PROVINCE
UWI .                  100101906116W500 : UNIQUE WELL ID
SLAT.WGS84                     54.29359 : SURFACE LATITUDE
SLON.WGS84                    -116.3826 : SURFACE LONGITUDE
~Curve Information -----------------------------------------
DEPT  .FT    : Depth Curve
CALSED.IN    : CALIPER FROM BCS LOG
CALWS .IN    : CALIPER [CALSED]
CILDED.MMHO  : DEEP INDUCTION CONDUCTIVITY FROM DILL LOG
CONDWS.MMHO  : CONDUCTIVITY [1000/DRESWS]
DRESWS.OHMM  : DEEP RESISTIVITY [1000/CILDED IF ILDED<1, ILDED]
DTED  .US/F  : DELTA T FROM BCS LOG [ADJ. TO ILDED]
DTWS  .US/F  : COMPRESSIONAL SONIC [DTED]
GRSED .GAPI  : GAMMA RAY FROM BCS LOG [ADJ. TO ILDED]
GRWS  .GAPI  : GAMMA RAY [GRSED]
ILDED .OHMM  : DEEP INDUCTION RESISTIVITY FROM DILL LOG
ILMED .OHMM  : MEDIUM INDUCTION RESISTIVITY FROM DILL LOG
LL8ED .OHMM  : LATEROLOG 8 FROM DILL LOG
MCALED.IN    : MLT (MICROLOG) CALIPER FROM MCL LOG
MRESWS.OHMM  : MEDIUM RESISTIVITY [ILMED]
SPRED .MV    : SPONTANEOUS POTENTIAL FROM DILL LOG
SPWS  .MV    : SPONTANEOUS POTENTIAL [BASELINED 0 MV, SPRED]
SRESWS.OHMM  : SHALLOW RESISTIVITY [LL8ED]
~Params ----------------------------------------------------
PD  .                     GL : PERMANENT DATUM
EPD .FT                 2935 : ELEVATION PERMANENT DATUM
LMF .                     KB : LOG MEASURED FROM
DAPD.FT                   18 : FEET ABOVE PERMANENT DATUM
EKB .FT                 2953 : KELLY BUSHING
EGL .FT                 2935 : GROUND LEVEL
DATE.               06/26/72 : RUN DATE
RUN .                      1 : RUN NUMBER
DD  .FT                10200 : DEPTH DRILLER
DL  .FT                10200 : DEPTH LOGGER
BLI .FT                10194 : BOTTOM LOG INTERVAL
TLI .FT                 1040 : TOP LOG INTERVAL
CBD .FT                 1040 : CASING BOTTOM DRILLER
CBL .FT                 1040 : CASING BOTTOM LOGGER
BS  .IN                 8.75 : BIT SIZE
BSD .FT                10200 : BIT SIZE AT DEPTH
DFT .               CHEM GEL : DRILLING FLUID TYPE
DFD .                    8.9 : DRILLING FLUID DENSITY
DFV .                     90 : DRILLING FLUID VISCOSITY
DFPH.                   10.5 : DRILLING FLUID PH
DFL .                    9.6 : DRILLING FLUID LOSS
MSS .               FLOWLINE : MUD SAMPLE SOURCE
RMS .OHMM               1.97 : RESISTIVITY MUD SAMPLE
MST .DEGF                 74 : MUD SAMPLE TEMPERATURE
RMF .OHMM               1.62 : RESISTIVITY MUD FILTRATE SAMPLE
MFST.DEGF                 75 : MUD FILTRATE SAMPLE TEMPERATURE
RMC .OHMM                  2 : RESISTIVITY MUD CAKE
MCST.DEGF                 73 : MUD CAKE SAMPLE TEMPERATURE
RMB .OHMM              0.667 : RESISTIVITY MUD AT BHT
TCS .HRS                 3.5 : TIME CIRCULATED STOPPED
LUN .                   5628 : LOGGING UNIT NUMBER
LUL .                    EDM : LOGGING UNIT LOCATION
ENGI.                  LEITH : RECORDING ENGINEER
WITN.    CHAUDHRY BERTHIAUME : WITNESSED BY
CLNT.                A2DTECH : CLIENT CODE
ORIG.            2" 5" PRINT : ORIGIN OF DATA
UWI .       100101906116W500 : UNIQUE WELL ID
DICO. A2D Technologies, Inc. : DIGITIZING COMPANY
~Other -----------------------------------------------------
~ASCII -----------------------------------------------------
# ...
 3100.00000   10.30320   10.30320  264.22590  249.81890    4.00290  126.23300  126.23300   57.50040   57.50040    4.00290    -999.25    4.38300    -999.25    -999.25  -60.62520   -4.13340    4.38300
 3150.00000    9.27740    9.27740  194.88130  188.28490    5.31110   90.88810   90.88810   57.47170   57.47170    5.31110    -999.25    5.92130    -999.25    -999.25  -60.97640   -4.68810    5.92130
 3200.00000    9.31650    9.31650  223.18790  206.59450    4.84040   95.83300   95.83300   60.32300   60.32300    4.84040    -999.25    5.28930    -999.25    -999.25  -61.33600   -5.25130    5.28930
 3250.00000    9.52320    9.52320   87.17450   72.69770   13.75560   84.70380   84.70380   44.23150   44.23150   13.75560    -999.25   16.15600    -999.25    -999.25  -71.72160  -15.84050   16.15600
 3300.00000    9.49730    9.49730  189.99260  180.46310    5.54130   87.04850   87.04850   58.75500   58.75500    5.54130    -999.25    6.05820    -999.25    -999.25  -61.51440   -5.83680    6.05820
 3350.00000    9.52460    9.52460  150.80910  150.84090    6.62950   86.18100   86.18100   58.64090   58.64090    6.62950    -999.25    7.21420    -999.25    -999.25  -63.16290   -7.68880    7.21420
 3400.00000    9.51620    9.51620  108.89120  101.26890    9.87470   85.74040   85.74040   61.48280   61.48280    9.87470    -999.25   10.49530    -999.25    -999.25  -64.37590   -9.10550   10.49530
 3450.00000    9.43370    9.43370  160.60400  165.30290    6.04950   91.19140   91.19140   72.95870   72.95870    6.04950    -999.25    7.06090    -999.25    -999.25  -59.77560   -4.70870    7.06090
 3500.00000    9.76590    9.76590  154.44330  160.34380    6.23660   88.46380   88.46380   86.67770   86.67770    6.23660    -999.25    7.14780    -999.25    -999.25  -61.10920   -6.24580    7.14780
 3550.00000   10.25350   10.25350  166.55800  177.16990    5.64430   94.39650   94.39650   85.86700   85.86700    5.64430    -999.25    6.65040    -999.25    -999.25  -60.96170   -6.30200    6.65040
 3600.00000    9.13960    9.13960  155.31640  161.07730    6.20820   89.65380   89.65380   85.85530   85.85530    6.20820    -999.25    7.30410    -999.25    -999.25  -61.33050   -6.87430    7.30410
 3650.00000    8.90490    8.90490  126.29080  112.24730    8.90890   94.56120   94.56120  118.14890  118.14890    8.90890    -999.25    9.94500    -999.25    -999.25  -59.42650   -5.17380    9.94500
 3700.00000    9.12690    9.12690  128.52430  120.49790    8.29890   85.93520   85.93520   94.82460   94.82460    8.29890    -999.25    8.64730    -999.25    -999.25  -58.24630   -4.19720    8.64730
 3750.00000    9.42570    9.42570  157.72450  153.91960    6.49690   91.96480   91.96480   98.78480   98.78480    6.49690    -999.25    7.20610    -999.25    -999.25  -58.56560   -4.72010    7.20610
 3800.00000    9.42980    9.42980  171.88690  187.23440    5.34090   91.02630   91.02630   86.05060   86.05060    5.34090    -999.25    6.58420    -999.25    -999.25  -59.39880   -5.75680    6.58420
 3850.00000    9.88390    9.88390  148.45500  149.42550    6.69230   89.32370   89.32370   86.26520   86.26520    6.69230    -999.25    7.61220    -999.25    -999.25  -60.55230   -7.11390    7.61220
 3900.00000   10.03010   10.03010  152.46120  157.32920    6.35610   86.58540   86.58540   87.01800   87.01800    6.35610    -999.25    7.32250    -999.25    -999.25  -60.20140   -6.96660    7.32250
 3950.00000    9.57380    9.57380  138.13490  132.75630    7.53260   85.50690   85.50690   83.68910   83.68910    7.53260    -999.25    8.12700    -999.25    -999.25  -59.53860   -6.50730    8.12700
 4000.00000    9.78110    9.78110  144.70180  139.04720    7.19180   90.64060   90.64060  100.43650  100.43650    7.19180    -999.25    7.76020    -999.25    -999.25  -57.67620   -4.84850    7.76020
 4050.00000    9.98820    9.98820  164.21770  172.95050    5.78200   90.48540   90.48540  100.55330  100.55330    5.78200    -999.25    6.67180    -999.25    -999.25  -58.47090   -5.84670    6.67180
 4100.00000    9.72050    9.72050  144.92970  145.74710    6.86120   88.98860   88.98860   90.31470   90.31470    6.86120    -999.25    7.79370    -999.25    -999.25  -58.17450   -5.75390    7.79370
 4150.00000   10.14580   10.14580  152.42820  151.95030    6.58110   85.85910   85.85910   90.07060   90.07060    6.58110    -999.25    7.49600    -999.25    -999.25  -57.88410   -5.70190    7.49600
 4200.00000    9.66840    9.66840  103.65580   92.95060   10.75840   78.04980   78.04980   78.87340   78.87340   10.75840    -999.25   11.35870    -999.25    -999.25  -58.73760   -7.19370   11.35870
 4250.00000   10.21740   10.21740  141.90970  142.18480    7.03310   86.45990   86.45990   94.02260   94.02260    7.03310    -999.25    7.89150    -999.25    -999.25  -56.81510   -5.90940    7.89150
 4300.00000    9.49980    9.49980  147.14590  151.00040    6.62250   85.34230   85.34230  100.36850  100.36850    6.62250    -999.25    7.73270    -999.25    -999.25  -56.10160   -5.83430    7.73270
 4350.00000    9.71120    9.71120  142.44940  137.37960    7.27910   86.00470   86.00470   92.84530   92.84530    7.27910    -999.25    7.81290    -999.25    -999.25  -55.08660   -5.45760    7.81290
 4400.00000    9.64060    9.64060  162.56980  158.85880    6.29490   89.32610   89.32610   90.08770   90.08770    6.29490    -999.25    6.81740    -999.25    -999.25  -53.65050   -4.65980    6.81740
 4450.00000    9.48670    9.48670  165.03720  147.61020    6.77460   91.72510   91.72510  101.30990  101.30990    6.77460    -999.25    7.21320    -999.25    -999.25  -53.02830   -4.67600    7.21320
 4500.00000    9.35440    9.35440  132.06310  117.53780    8.50790   92.19300   92.19300  109.34210  109.34210    8.50790    -999.25    9.70270    -999.25    -999.25  -53.02030   -5.30630    9.70270
 4550.00000    9.36030    9.36030  141.56400  126.64000    7.89640   91.43730   91.43730  113.51280  113.51280    7.89640    -999.25    8.98850    -999.25    -999.25  -52.09620   -5.02040    8.98850
 4600.00000    9.23240    9.23240  114.15700  101.62090    9.84050   92.44940   92.44940  125.51450  125.51450    9.84050    -999.25   12.30980    -999.25    -999.25  -52.03160   -5.59420   12.30980
 4650.00000    8.94430    8.94430  112.76460  100.50760    9.94950   93.80170   93.80170  115.50520  115.50520    9.94950    -999.25   12.54690    -999.25    -999.25  -51.31340   -5.51430   12.54690
 4700.00000    9.01410    9.01410  149.95630  133.71490    7.47860   91.38010   91.38010  104.39720  104.39720    7.47860    -999.25    8.25600    -999.25    -999.25  -50.29810   -5.13730    8.25600
 4750.00000    9.04540    9.04540  127.92860  111.68070    8.95410   82.85290   82.85290  113.98980  113.98980    8.95410    -999.25    9.64840    -999.25    -999.25  -50.35720   -5.83480    9.64840
 4800.00000    9.35540    9.35540  129.40720  117.58900    8.50420   77.33530   77.33530   70.68020   70.68020    8.50420    -999.25    8.91450    -999.25    -999.25  -52.45430   -8.57010    8.91450
 4850.00000    9.44430    9.44430   97.69860   87.84030   11.38430   72.76500   72.76500   66.17310   66.17310   11.38430    -999.25   13.59810    -999.25    -999.25  -50.37780   -7.13190   13.59810
 4900.00000    9.20400    9.20400  151.92250  140.54420    7.11520   80.77150   80.77150   94.30690   94.30690    7.11520    -999.25    7.77630    -999.25    -999.25  -48.62980   -6.02230    7.77630
 4950.00000    9.24160    9.24160  168.83650  152.72540    6.54770   81.51580   81.51580   91.89450   91.89450    6.54770    -999.25    6.89540    -999.25    -999.25  -48.36000   -6.39080    6.89540
 5000.00000    9.19990    9.19990  144.94270  129.89540    7.69850   80.11850   80.11850   92.49210   92.49210    7.69850    -999.25    8.04620    -999.25    -999.25  -47.86290   -6.53200    8.04620
 5050.00000    9.61730    9.61730  217.35800  204.14410    4.89850   90.34720   90.34720   97.95560   97.95560    4.89850    -999.25    5.24940    -999.25    -999.25  -46.49650   -5.80390    5.24940
 5100.00000    9.69020    9.69020    -999.25  173.83440    5.75260   91.09300   91.09300  111.90970  111.90970    5.75260    5.90670    7.65510   10.42250    5.90670  -44.79670   -4.74240    7.65510
