~Version ---------------------------------------------------
VERS.      2.0 : CWLS log ASCII Standard -VERSION 2.0
WRAP.       NO : One line per depth step
CREA. 08/31/17 : LAS Creation Date
~Well ------------------------------------------------------
STRT.FT                          850.0 : START DEPTH
STOP.FT                        11250.0 : STOP DEPTH
STEP.FT                       50.00000 : STEP LENGTH
NULL.                          -999.25 : NULL VALUE
COMP.        ATLANTIC REFINING COMPANY : COMPANY
WELL. ATLANTIC CROOKED LAKE 4-27-63-22 : WELL
FLD .                               WC : FIELD
LOC .                                  : LOCATION
CTRY.                           CANADA : COUNTRY
SRVC.           Schlumberger of Canada : SERVICE COMPANY
DATE.                      08-Mar-1961 : LOGDATE
PROV.                          Alberta : PROVINCE
UWI .                 100042706322W500 : UNIQUE WELL ID
SLAT.WGS84                    54.47412 : SURFACE LATITUDE
SLON.WGS84                   -117.2467 : SURFACE LONGITUDE
~Curve Information -----------------------------------------
DEPT  .FT    : Depth Curve
CALWS .IN    : CALIPER [MCALED]
CILDED.MMHO  : CONDUCTIVITY FROM IEL LOG
CONDWS.MMHO  : CONDUCTIVITY [1000/DRESWS]
DRESWS.OHMM  : DEEP RESISTIVITY [CALCULATED FROM 1000/CILDED, IF ILDED<1, ILDED]
DT1ED .US/F  : DELTA-T FROM SONIC LOG [ADJ.TO ILDED]
DTED  .US/F  : DELTA-T FROM SONIC LOG [ADJ.TO ILDED]
DTWS  .US/F  : COMPRESSIONAL SONIC [DTED SPL.TO DT1ED @ 11232']
GRSED .GAPI  : GAMMA RAY FROM SONIC LOG [ADJ.TO ILDED]
GRWS  .GAPI  : GAMMA RAY [GRSED*16.50]
ILDED .OHMM  : DEEP INDUCTION FROM IEL LOG
MCALED.IN    : MICRO CALIPER FROM MICRO LOG [ADJ.TO ILDED]
SNED  .OHMM  : SHORT NORMAL FROM IEL LOG
SPRED .MV    : SPONTANEOUS POTENTIAL FROM IEL LOG
SPWS  .MV    : SPONTANEOUS POTENTIAL [BASELINE 0 MV, SPRED]
SRESWS.OHMM  : SHALLOW RESISTIVITY [SNED]
~Params ----------------------------------------------------
LMF .                     KB : LOG MEASURED FROM
DMF .                     KB : DRILLING MEASURED FROM
EKB .FT                 2751 : KELLY BUSHING
EGL .FT               2736.1 : GROUND LEVEL
DATE.               03/08/61 : RUN DATE
RUN .                      1 : RUN NUMBER
DD  .FT                11255 : DEPTH DRILLER
DL  .FT                11257 : DEPTH LOGGER
BLI .FT                11256 : BOTTOM LOG INTERVAL
TLI .FT                 1146 : TOP LOG INTERVAL
CBD .FT                 1146 : CASING BOTTOM DRILLER
CBL .FT                 1146 : CASING BOTTOM LOGGER
BS  .IN                    9 : BIT SIZE
BSD .FT                11255 : BIT SIZE AT DEPTH
DFT .                GEL OIL : DRILLING FLUID TYPE
DFD .                    9.9 : DRILLING FLUID DENSITY
DFV .                    119 : DRILLING FLUID VISCOSITY
DFPH.                    9.5 : DRILLING FLUID PH
DFL .                    6.4 : DRILLING FLUID LOSS
RMS .OHMM               1.35 : RESISTIVITY MUD SAMPLE
MST .DEGF                 68 : MUD SAMPLE TEMPERATURE
RMF .OHMM               3.04 : RESISTIVITY MUD FILTRATE SAMPLE
MFST.DEGF                 68 : MUD FILTRATE SAMPLE TEMPERATURE
TCS .HRS                   4 : TIME CIRCULATED STOPPED
LUN .                  15730 : LOGGING UNIT NUMBER
LUL .                     WC : LOGGING UNIT LOCATION
ENGI.              HAUSEGGER : RECORDING ENGINEER
WITN.                  COWAN : WITNESSED BY
CLNT.                A2DTECH : CLIENT CODE
ORIG.            2" 5" PRINT : ORIGIN OF DATA
UWI .       100042706322W500 : UNIQUE WELL ID
DICO. A2D Technologies, Inc. : DIGITIZING COMPANY
~Other -----------------------------------------------------
~ASCII -----------------------------------------------------
# ...
 5450.00000   10.98180  349.39570  331.34530    3.01800    -999.25   96.22920   96.22920  125.97340  125.77290    3.01800   10.98180    4.38280  -49.67460   -4.35220    4.38280
 5500.00000   11.97660  212.69130  208.82060    4.78880    -999.25   84.56770   84.56770  123.58670  123.58670    4.78880   11.97660    6.30430  -48.80800   -4.13830    6.30430
 5550.00000   12.38950  210.99830  205.79520    4.85920    -999.25   91.89590   91.89590  131.57100  131.57100    4.85920   12.38950    6.82120  -48.68820   -4.67120    6.82120
 5600.00000   11.21130   82.05720   85.95500   11.63400    -999.25   78.34130   78.34130  114.24850  113.94740   11.63400   11.21130   15.06150  -49.75630   -6.39630   15.06150
 5650.00000   11.92260  248.00680  252.99160    3.95270    -999.25  106.87140  106.87140  125.55350  125.55350    3.95270   11.92260    5.98420  -47.72520   -5.01790    5.98420
 5700.00000   11.53170  126.24320  136.22860    7.34060    -999.25   78.85080   78.85080  112.67930  113.12070    7.34060   11.53170   11.17560  -48.36370   -6.31330   11.17560
 5750.00000   10.51860   69.08220   71.30990   14.02330    -999.25   76.47460   76.47460   82.77880   82.77880   14.02330   10.51860   16.92890  -71.71750  -30.31980   16.92890
 5800.00000    8.34210   47.75730   47.33370   21.12660    -999.25   75.36560   75.36560   76.67710   76.67710   21.12660    8.34210   27.11090  -86.06420  -45.31920   27.11090
 5850.00000   10.83080   67.43000   58.22480   17.17480    -999.25  105.48510  105.48510   93.07240   92.73660   17.17480   10.83080   22.19650  -45.50010   -5.41210   22.19650
 5900.00000   10.68220   99.02820   98.17200   10.18620    -999.25   81.39610   81.39610  121.97630  121.97630   10.18620   10.68220   15.83660  -45.27470   -5.83930   15.83660
 5950.00000    9.67700   42.10580   42.81940   23.35390    -999.25   70.20390   70.20390   70.29830   69.23230   23.35390    9.67700   31.69190  -66.14480  -27.36640   31.69190
 6000.00000   10.85510   58.41480   56.86440   17.58570    -999.25   81.10640   81.10640   92.68380   92.68380   17.58570   10.85510   25.27100  -56.14780  -18.02210   25.27100
 6050.00000   10.05450   66.97970   67.49960   14.81490    -999.25   73.13480   73.13480  113.62730  113.62730   14.81490   10.05450   18.46970  -38.90050   -1.42750   18.46970
 6100.00000   10.26690   80.02390   85.53660   11.69090    -999.25   72.06970   72.06970   99.25000   98.90760   11.69090   10.26690   23.11120  -48.42810  -10.99510   23.11120
 6150.00000   10.10610   47.44560   48.60130   20.57560    -999.25   74.95830   74.95830  105.17430  105.17430   20.57560   10.10610   26.10370  -48.85320  -11.20450   26.10370
 6200.00000   10.64980   26.12450   23.32980   42.86360    -999.25  109.12500  109.12500   72.30380   74.41170   42.86360   10.64980   41.18850  -54.75290  -16.88710   41.18850
 6250.00000   10.68210   72.37270   74.99400   13.33440    -999.25   74.08290   74.08290   91.46770   91.46690   13.33440   10.68210   16.66610  -47.74480   -9.66330   16.66610
 6300.00000    8.55660   39.64340   38.24680   26.14600    -999.25   72.57970   72.57970   71.80630   71.80720   26.14600    8.55660   29.54820 -101.54670  -63.24950   29.54820
 6350.00000   10.22060   56.09860   56.58510   17.67250    -999.25   72.70440   72.70440  106.41100  105.78650   17.67250   10.22060   19.78940  -56.21940  -17.70520   19.78940
 6400.00000   10.29800   57.92240   61.12580   16.35970    -999.25   71.68130   71.68130  106.19070  106.19070   16.35970   10.29800   21.00540  -47.74570   -9.01580   21.00540
 6450.00000   10.89710   75.51280   79.65530   12.55410    -999.25   77.71070   77.71070  129.08860  129.97880   12.55410   10.89710   14.42580  -43.73210   -4.78510   14.42580
 6500.00000    9.37950   20.05610   20.26870   49.33710    -999.25   70.27810   70.27810   67.30520   67.30520   49.33710    9.37950   48.83390  -70.90330  -31.74060   48.83390
 6550.00000   10.27110   23.52940   23.57550   42.41700    -999.25   69.50090   69.50090  103.77180  103.77180   42.41700   10.27110   39.55760  -50.92760  -11.54920   39.55760
 6600.00000   10.59770   49.48670   51.24320   19.51480    -999.25   69.13810   69.13810  120.76760  119.79830   19.51480   10.59770   26.13990  -45.16810   -5.57270   26.13990
 6650.00000   11.29220   53.02840   55.95030   17.87300    -999.25   76.06730   76.06730  131.79710  131.79710   17.87300   11.29220   24.35140  -49.48110   -9.67000   24.35140
 6700.00000    9.66170   12.01770   10.90520   91.69910    -999.25   61.43050   61.43050   69.77930   69.40560   91.69910    9.66170   68.84350  -55.84240  -15.81420   68.84350
 6750.00000   11.34560   62.17350   68.66720   14.56300    -999.25   90.08600   90.08600  128.90960  128.90960   14.56300   11.34560   17.26210  -48.76020   -8.51630   17.26210
 6800.00000   10.12460   30.04880   29.90880   33.43500    -999.25   65.17380   65.17380   93.65900   93.65890   33.43500   10.12460   32.28730  -53.69340  -13.23380   32.28730
 6850.00000    7.97890  474.66150  407.51460    2.45390    -999.25   80.05240   80.05240   51.95600   51.94200    2.45390    7.97890    8.07350 -107.87630  -67.19970    8.07350
 6900.00000    8.79900   74.70920   76.93850   12.99740    -999.25   73.46870   73.46870   63.01350   63.01270   12.99740    8.79900   29.57120 -108.75710  -67.86480   29.57120
 6950.00000   10.22320    9.44470    8.44180  118.45850    -999.25   86.06290   86.06290  153.19010  153.04910  118.45850   10.22320  109.66590  -71.76850  -30.65910  109.66590
 7000.00000    9.86690    2.32580    1.99780  500.54210    -999.25   73.26900   73.26900    -999.25    -999.25  500.54210    9.86690  171.88080  -65.20450  -23.87940  171.88080
 7050.00000    9.65840  161.34860  167.56590    5.96780    -999.25   67.69130   67.69130   99.54940   99.54940    5.96780    9.65840   19.48760 -111.85310  -70.31230   19.48760
 7100.00000   10.76730   37.63190   37.40490   26.73450    -999.25   63.47160   63.47160  124.84640  125.76050   26.73450   10.76730   30.47120  -68.94980  -27.19200   30.47120
 7150.00000    9.96770   48.86940   49.20220   20.32430    -999.25   61.70990   61.70990  117.35630  117.35630   20.32430    9.96770   23.13110  -77.47920  -35.50570   23.13110
 7200.00000    9.76950   32.48930   32.29890   30.96080    -999.25   61.68230   61.68230  112.64220  111.97230   30.96080    9.76950   33.15670  -72.89560  -30.70500   33.15670
 7250.00000   10.21270  101.96220  102.36880    9.76860    -999.25   64.96300   64.96300   94.23810   94.23810    9.76860   10.21270   25.31600 -115.33330  -72.92700   25.31600
 7300.00000   10.09950   30.90140   29.82150   33.53280    -999.25   61.12370   61.12370  115.68810  115.68730   33.53280   10.09950   31.52520  -65.43190  -22.80990   31.52520
 7350.00000   10.33420   25.12310   23.93580   41.77850    -999.25   62.41570   62.41570  151.90480  149.35140   41.77850   10.33420   48.98180  -79.37370  -36.53470   48.98180
 7400.00000    9.34080   27.44070   26.83440   37.26560    -999.25   52.69260   52.69260   51.55420   51.55420   37.26560    9.34080   81.71980 -154.87530 -111.82060   81.71980
 7450.00000    8.79250   29.57870   29.78370   33.57540    -999.25   54.40370   54.40370   48.94890   49.36800   33.57540    8.79250   84.62820 -174.88050 -131.60870   84.62820
 7500.00000    9.57610   26.22990   24.59480   40.65900    -999.25   54.72580   54.72580   44.94440   44.94440   40.65900    9.57610   96.83520 -171.01100 -127.52350   96.83520
 7550.00000   12.35600   10.79140    8.58870  116.43180    -999.25   54.19130   54.19130   47.71800   47.71800  116.43180   12.35600   83.20000 -135.29790  -91.59470   83.20000
 7600.00000   10.42760    8.86180    6.98660  143.13020    -999.25   52.86430   52.86430   51.54680   50.18970  143.13020   10.42760  116.83400 -155.34700 -111.42680  116.83400
 7650.00000   10.22860   82.56800   92.29600   10.83470    -999.25   63.44590   63.44590   69.04920   69.04920   10.83470   10.22860   34.00710 -119.78300  -75.64710   34.00710
 7700.00000   10.07820   22.57320   22.98350   43.50940    -999.25   58.06000   58.06000   85.06740   85.28360   43.50940   10.07820   52.74720  -60.79090  -16.43790   52.74720
