~Version ---------------------------------------------------
VERS.      2.0 : CWLS log ASCII Standard -VERSION 2.0
WRAP.       NO : One line per depth step
CREA. 07/22/13 : LAS Creation Date
~Well ------------------------------------------------------
STRT.M                        300.0 : START DEPTH
STOP.M                       3650.0 : STOP DEPTH
STEP.M                     50.00000 : STEP LENGTH
NULL.                       -999.25 : NULL VALUE
COMP.  SCURRY - RAINBOW OIL LIMITED : COMPANY
WELL. SCURRY ET AL EDSON 6-13-52-16 : WELL
FLD .                               : FIELD
LOC .                               : LOCATION
CTRY.                        CANADA : COUNTRY
SRVC.        Schlumberger of Canada : SERVICE COMPANY
DATE.                   05-Apr-1982 : LOGDATE
PROV.                       Alberta : PROVINCE
UWI .              100061305216W500 : UNIQUE WELL ID
SLAT.WGS84                 53.48756 : SURFACE LATITUDE
SLON.WGS84                -116.2288 : SURFACE LONGITUDE
~Curve Information -----------------------------------------
DEPT    .M      : DEPTH METER
CALDED  .MM     : CALIPER FROM DENSITY LOG [ADJ.TO RESISTIVITY LOG]
CALMED  .MM     : CALIPER FROM MLL LOG [ADJ.TO RESISTIVITY LOG]
CALSED  .MM     : CALIPER FROM SONIC LOG
CALWS   .MM     : CALIPER [CALDED]
CONDWS  .MMHO   : CONDUCTIVITY [1000/DRESWS]
DCORWS  .KG/M3  : DENSITY CORRECTION [DRHOED]
DENWS   .KG/M3  : FORMATION BULK DENSITY [CALC FROM DPOLSWS, M=2710, F=1000]
DPHILSED.V/V    : DENSITY POROSITY LIMESTONE [M=2710,F=1000] FROM DENSITY LOG [ADJ.TO RESISTIVITY LOG]
DPHISSED.V/V    : DENSITY POROSITY SANDSTONE [M=2650, F=1000] FROM DENSITY LOG [ADJ.TO RESISTIVITY LOG]
DPOLSWS .V/V    : DENSITY POROSITY LIMESTONE [DPHISSED CONVERTED TO LIMESTONE MATRIX, M=2710 F=1000 SPL.TO DPHILSED @ 2592.8M]
DRESWS  .OHMM   : DEEP RESISTIVITY [ILDED]
DRHOED  .KG/M3  : DENSITY CORRECTION FROM DENSITY LOG [ADJ.TO RESISTIVITY LOG]
DTED    .US/M   : DELTA TIME FROM SONIC LOG
DTWS    .US/M   : COMPRESSIONAL SONIC [DTED]
GRDED   .GAPI   : GAMMA RAY FROM DENSITY LOG [ADJ.TO RESISTIVITY LOG]
GRED    .GAPI   : GAMMA RAY FROM CBL LOG [ADJ.TO RESISTIVITY LOG]
GRSED   .GAPI   : GAMMA RAY FROM SONIC LOG
GRWS    .GAPI   : GAMMA RAY [GRED SPL.TO GRSED @ 444.6M & GRDED @ 3632.5M]
ILDED   .OHMM   : DEEP INDUCTION FROM RESISTIVITY LOG
ILMED   .OHMM   : MEDIUM INDUCTION FROM RESISTIVITY LOG
MLLED   .OHMM   : MICRO-LATEROLOG FROM MLL LOG [ADJ.TO RESISTIVITY LOG]
MRESWS  .OHMM   : MEDIUM RESISTIVITY [ILMED]
NPHILSED.V/V    : NEUTRON POROSITY LIMESTONE FROM DENSITY LOG [ADJ.TO RESISTIVITY LOG]
NPHISSED.V/V    : NEUTRON POROSITY SANDSTONE FROM DENSITY LOG [ADJ.TO RESISTIVITY LOG]
NPOLSWS .V/V    : NEUTRON POROSITY LIMESTONE [NPHISSED MATRIX (SLB) CONVERSION FOR LIMESTONE, SPL.TO NPHILSED @ 2592.6M]
RHOBED  .KG/M3  : BULK DENSITY FROM DENSITY LOG [ADJ.TO RESISTIVITY LOG]
SFLED   .OHMM   : SHALLOW FOCUSED RESISTIVITY FROM RESISTIVITY LOG
SPRED   .MV     : SPONTANEOUS POTENTIAL FROM RESISTIVITY LOG
SPWS    .MV     : SPONTANEOUS POTENTIAL [BASELINE 0 MV, SPRED]
SRESWS  .OHMM   : SHALLOW RESISTIVITY [SFLED]
~Params ----------------------------------------------------
PD  .                        GL : PERMANENT DATUM
EPD .M                    940.2 : ELEVATION PERMANENT DATUM
LMF .                        KB : LOG MEASURED FROM
DAPD.M                      5.6 : FEET ABOVE PERMANENT DATUM
DMF .                        KB : DRILLING MEASURED FROM
EKB .M                    945.8 : KELLY BUSHING
EGL .M                    940.2 : GROUND LEVEL
DATE.                  04/05/82 : RUN DATE
RUN .                         1 : RUN NUMBER
DD  .M                     3677 : DEPTH DRILLER
DL  .M                     3677 : DEPTH LOGGER
BLI .M                     3676 : BOTTOM LOG INTERVAL
TLI .M                      467 : TOP LOG INTERVAL
CS  .MM                     244 : CASING SIZE
CBD .M                      467 : CASING BOTTOM DRILLER
CBL .M                      467 : CASING BOTTOM LOGGER
BS  .MM                     222 : BIT SIZE
BSD .M                     3677 : BIT SIZE AT DEPTH
DFT .                  GEL CHEM : DRILLING FLUID TYPE
DFD .                      1100 : DRILLING FLUID DENSITY
DFV .                       105 : DRILLING FLUID VISCOSITY
DFPH.                        11 : DRILLING FLUID PH
DFL .                         8 : DRILLING FLUID LOSS
MSS .                  FLOWLINE : MUD SAMPLE SOURCE
RMS .OHMM                  1.21 : RESISTIVITY MUD SAMPLE
MST .DEGC                  18.3 : MUD SAMPLE TEMPERATURE
RMF .OHMM                  0.97 : RESISTIVITY MUD FILTRATE SAMPLE
MFST.DEGC                  17.8 : MUD FILTRATE SAMPLE TEMPERATURE
RMC .OHMM                  1.15 : RESISTIVITY MUD CAKE
MCST.DEGC                  15.6 : MUD CAKE SAMPLE TEMPERATURE
MFSS.                 MUD PRESS : MUD FILTRATE SAMPLE SOURCE
RMB .OHMM                  0.41 : RESISTIVITY MUD AT BHT
TCS .HRS                    300 : TIME CIRCULATED STOPPED
TLAB.HRS                   1300 : TIME LOGGER AT BOTTOM
LUN .                      8156 : LOGGING UNIT NUMBER
LUL .                       EDS : LOGGING UNIT LOCATION
ENGI.                 LABRECOUE : RECORDING ENGINEER
WITN.                  LAWRENCE : WITNESSED BY
CLNT.                   A2DTECH : CLIENT CODE
ORIG. 6.5"/100M 16.5"M100 PRINT : ORIGIN OF DATA
UWI .          100061305216W500 : UNIQUE WELL ID
DICO.    A2D Technologies, Inc. : DIGITIZING COMPANY
~Other -----------------------------------------------------
DI-SFL-MLL-CNL-FDC-BHC-CBL LOG RUN
RHOB,DRHO FROM SMALL SCALE SECTION
~ASCII -----------------------------------------------------
  300.00000    -999.25    -999.25    -999.25    -999.25    -999.25    -999.25    -999.25    -999.25    -999.25    -999.25    -999.25    -999.25    -999.25    -999.25    -999.25   24.68640    -999.25   24.68640    -999.25    -999.25    -999.25    -999.25    -999.25    -999.25    -999.25    -999.25    -999.25    -999.25    -999.25    -999.25
  350.00000    -999.25    -999.25    -999.25    -999.25    -999.25    -999.25    -999.25    -999.25    -999.25    -999.25    -999.25    -999.25    -999.25    -999.25    -999.25   32.01140    -999.25   32.01140    -999.25    -999.25    -999.25    -999.25    -999.25    -999.25    -999.25    -999.25    -999.25    -999.25    -999.25    -999.25
  400.00000    -999.25    -999.25    -999.25    -999.25    -999.25    -999.25    -999.25    -999.25    -999.25    -999.25    -999.25    -999.25    -999.25    -999.25    -999.25   18.33000    -999.25   18.33000    -999.25    -999.25    -999.25    -999.25    -999.25    -999.25    -999.25    -999.25    -999.25    -999.25    -999.25    -999.25
  450.00000    -999.25    -999.25    -999.25    -999.25    -999.25    -999.25    -999.25    -999.25    -999.25    -999.25    -999.25    -999.25    -999.25    -999.25    -999.25   25.44130   40.96360   40.96360    -999.25    -999.25    -999.25    -999.25    -999.25    -999.25    -999.25    -999.25    -999.25    -999.25    -999.25    -999.25
  500.00000  302.79230    -999.25  291.98410  302.79230  137.89870  107.15990 1944.79000    -999.25    0.42740    0.44750    7.25170  107.15990  316.81980  316.81980  102.15470   43.07080   96.62600   96.62600    7.25170    6.16530    -999.25    6.16530    -999.25    0.41450    0.37190 1933.99150    5.88000 -151.29640   -4.78980    5.88000
  550.00000  277.83290    -999.25  283.77760  277.83290  116.38870  125.48890 2162.59000    -999.25    0.29540    0.32010    8.59190  125.48890  304.41370  304.41370   92.41110   68.31100   91.20000   91.20000    8.59190    7.81620    -999.25    7.81620    -999.25    0.36470    0.32120 2165.88010    7.29420 -149.86710   -3.62570    7.29420
  600.00000  255.61110    -999.25  242.96900  255.61110  280.43410  104.34590 1902.71500    -999.25    0.45290    0.47210    3.56590  104.34590  427.07080  427.07080  101.18980   56.98250  104.90950  104.90950    3.56590    2.82880    -999.25    2.82880    -999.25    0.49620    0.45620 1900.08330    1.80850 -149.37810   -3.40190    1.80850
  650.00000  251.23490    -999.25  244.57890  251.23490   52.12980   25.86490 2519.65000    -999.25    0.07900    0.11130   19.18290   25.86490  245.91930  245.91930   67.21950   47.48680   57.11450   57.11450   19.18290   18.06960    -999.25   18.06960    -999.25    0.27680    0.23280 2521.64330   19.88860 -149.90510   -4.19430   19.88860
  700.00000  245.80090    -999.25  248.16680  245.80090   78.96520    7.60190 2529.71500    -999.25    0.07290    0.10540   12.66380    7.60190  265.89110  265.89110   97.31550   46.41850   91.70350   91.70350   12.66380   11.45880    -999.25   11.45880    -999.25    0.28490    0.24090 2533.19090   11.70290 -148.01400   -2.61940   11.70290
  750.00000  283.38650    -999.25  265.32100  283.38650   80.97890   20.95670 2469.65500    -999.25    0.10930    0.14060   12.34890   20.95670  262.72240  262.72240   71.22070   45.88610   71.57350   71.57350   12.34890   10.40080    -999.25   10.40080    -999.25    0.23030    0.18650 2469.81420    9.03490 -151.21090   -6.52180    9.03490
  800.00000  274.08600    -999.25  250.45480  274.08600  180.69130   32.88370 2421.14500    -999.25    0.13870    0.16890    5.53430   32.88370  320.34030  320.34030   93.23450   47.24380   86.98940   86.98940    5.53430    4.63890    -999.25    4.63890    -999.25    0.35020    0.30660 2409.43510    4.14940 -145.22140   -1.23790    4.14940
  850.00000  329.09380    -999.25  251.59660  329.09380  195.70240   46.05770 2407.94500    -999.25    0.14670    0.17660    5.10980   46.05770  277.77960  277.77960   76.69870   61.51140   81.61510   81.61510    5.10980    4.81290    -999.25    4.81290    -999.25    0.29650    0.25250 2406.23340    5.72510 -143.96400   -0.68600    5.72510
  900.00000  286.11210    -999.25  250.18550  286.11210   92.60630   20.73300 2486.81500    -999.25    0.09890    0.13050   10.79840   20.73300  249.08960  249.08960   70.81480   42.08830   72.39450   72.39450   10.79840    9.78450    -999.25    9.78450    -999.25    0.24390    0.20000 2493.72240   12.05140 -144.11800   -1.54550   12.05140
  950.00000  282.91390    -999.25  249.07950  282.91390  171.73870  176.54030 2265.55000    -999.25    0.23300    0.25990    5.82280  176.54030  294.37740  294.37740   86.90760   60.15810   78.56710   78.56710    5.82280    5.20390    -999.25    5.20390    -999.25    0.33240    0.28860 2268.71850    4.48410 -143.44590   -1.57890    4.48410
 1000.00000  244.90590    -999.25  252.53560  244.90590   99.67800  240.02380 2226.94000    -999.25    0.25640    0.28250   10.03230  240.02380  267.09570  267.09570   75.01820   72.25550   80.15250   80.15250   10.03230    9.82220    -999.25    9.82220    -999.25    0.25090    0.20700 2219.74390   14.37660 -144.88400   -3.72260   14.37660
 1050.00000  243.17470    -999.25  246.32790  243.17470  106.66890   31.22580 2510.90500    -999.25    0.08430    0.11640    9.37480   31.22580  268.82060  268.82060   94.79690   56.86600   91.23580   91.23580    9.37480    8.75060    -999.25    8.75060    -999.25    0.28290    0.23890 2508.69950    8.05150 -141.24680   -0.79090    8.05150
 1100.00000  266.18380    -999.25  248.68240  266.18380  192.58550  188.33820 2153.18500    -999.25    0.30110    0.32560    5.19250  188.33820  294.61450  294.61450  111.58650   70.05180  119.25180  119.25180    5.19250    4.88940    -999.25    4.88940    -999.25    0.36880    0.32540 2172.42070    4.39960 -140.70000   -0.94970    4.39960
 1150.00000  257.76970    -999.25  245.83740  257.76970   99.71180  212.20650 2245.75000    -999.25    0.24500    0.27150   10.02890  212.20650  271.17350  271.17350   91.98900   60.67370   91.97160   91.97160   10.02890    9.16470    -999.25    9.16470    -999.25    0.29690    0.25290 2268.38990    8.36740 -140.47780   -1.43290    8.36740
 1200.00000  252.62580    -999.25  255.35810  252.62580   79.13710  200.97420 2405.14000    -999.25    0.14840    0.17830   12.63630  200.97420  248.02620  248.02620   80.02190   49.69890   74.67050   74.67050   12.63630   12.15670    -999.25   12.15670    -999.25    0.23180    0.18800 2400.89550    9.61020 -140.58010   -2.24080    9.61020
 1250.00000  238.01750    -999.25  258.29750  238.01750   89.47910  221.95390 2485.99000    -999.25    0.09940    0.13100   11.17580  221.95390  242.59650  242.59650   92.65770   57.30900   87.94920   87.94920   11.17580   10.71080    -999.25   10.71080    -999.25    0.24220    0.19830 2473.15140   11.42960 -139.60890   -1.97510   11.42960
 1300.00000  227.90470    -999.25  257.34990  227.90470  129.54040   62.30810 2488.63000    -999.25    0.09780    0.12950    7.71960   62.30810  267.29630  267.29630   76.61770   55.13420   79.06100   79.06100    7.71960    7.26530    -999.25    7.26530    -999.25    0.34380    0.30010 2480.40800    6.21920 -137.45860   -0.53030    6.21920
 1350.00000  231.12290    -999.25  234.89780  231.12290   29.79380   21.32240 2520.31000    -999.25    0.07860    0.11090   33.56400   21.32240  228.30120  228.30120   48.51840   27.26370   46.30680   46.30680   33.56400   32.73730    -999.25   32.73730    -999.25    0.21140    0.16780 2520.23680   29.38770 -142.48240   -6.08840   29.38770
 1400.00000  259.41440    -999.25  254.23390  259.41440  119.46430   27.05650 2541.92500    -999.25    0.06550    0.09830    8.37070   27.05650  280.68420  280.68420   70.41240   38.42460   73.08880   73.08880    8.37070    7.59840    -999.25    7.59840    -999.25    0.34740    0.30370 2536.96920    7.98260 -137.54990   -1.47920    7.98260
 1450.00000  283.11690    -999.25  243.66300  283.11690   89.82300  100.88960 2391.77500    -999.25    0.15650    0.18610   11.13300  100.88960  256.57970  256.57970   78.74350    -999.25   75.10040   75.10040   11.13300   10.33180    -999.25   10.33180    -999.25    0.30320    0.25920 2397.86550   11.68170 -137.22970   -1.48230   11.68170
