~Version ---------------------------------------------------
VERS.      2.0 : CWLS log ASCII Standard -VERSION 2.0
WRAP.      YES : Multiple lines per depth step
CREA. 09/25/17 : LAS Creation Date
~Well ------------------------------------------------------
STRT.FT                      300.0 : START DEPTH
STOP.FT                    12100.0 : STOP DEPTH
STEP.FT                   50.00000 : STEP LENGTH
NULL.                      -999.25 : NULL VALUE
COMP. TRANS-PRAIRIES PIPELINES LTD : COMPANY
WELL.  TPPL DEEP VALLEY 7-11-64-25 : WELL
FLD .                              : FIELD
LOC .                              : LOCATION
CTRY.                       CANADA : COUNTRY
SRVC.       Schlumberger of Canada : SERVICE COMPANY
DATE.                  16-Mar-1975 : LOGDATE
PROV.                      Alberta : PROVINCE
UWI .             100071106425W500 : UNIQUE WELL ID
SLAT.WGS84                54.52029 : SURFACE LATITUDE
SLON.WGS84               -117.6631 : SURFACE LONGITUDE
~Curve Information -----------------------------------------
DEPT    .FT    : Depth Curve
CALDED  .IN    : CALIPER FROM DENSITY LOG
CALSED  .IN    : CALIPER FROM SONIC LOG
CALWS   .IN    : CALIPER [CALSED]
CILDED  .MMHO  : CONDUCTIVITY FROM RESISTIVITY LOG
CONDWS  .MMHO  : CONDUCTIVITY [1000/DRESWS]
DCORED  .G/C3  : DENSITY CORRECTION FROM DENSITY LOG
DCORWS  .G/C3  : DENSITY CORRECTION [DCORED]
DENWS   .G/C3  : FORMATION BULK DENSITY [RHOBED]
DPHILSED.V/V   : DENSITY POROSITY LIME [M=2.71, F=1.0] FROM DENSITY LOG [ADJ. TO RHOBED]
DPHISSED.V/V   : DENSITY POROSITY SAND [M=2.65, F=1.0] FROM DENSITY LOG [ADJ. TO RHOBED]
DPOLSWS .V/V   : DENSITY POROSITY LIME [CALC. FROM DENWS, M=2.71, F=1.0]
DRESWS  .OHMM  : DEEP RESISTIVITY [1000/CILDED, IF ILDED < 1, ILDED]
DTED    .US/F  : DELTA-T FROM SONIC LOG
DTWS    .US/F  : COMPRESSIONAL SONIC [DTED]
GRDED   .GAPI  : GAMMA RAY FROM DENSITY LOG
GRWS    .GAPI  : GAMMA RAY [GRDED]
ILDED   .OHMM  : DEEP INDUCTION FROM RESISTIVITY LOG
ILMED   .OHMM  : MEDIUM INDUCTION FROM RESISTIVITY LOG
LL8ED   .OHMM  : LATEROLOG FROM RESISTIVITY LOG
MRESWS  .OHMM  : MEDIUM RESISTIVITY [ILMED]
NPHILSED.V/V   : NEUTRON POROSITY LIME FROM DENSITY LOG [ADJ. TO RHOBED]
NPHISSED.V/V   : NEUTRON POROSITY SAND FROM DENSITY LOG [ADJ. TO RHOBED]
NPOLSWS .V/V   : NEUTRON POROSITY LIME [SS MATRIX CONVERTED TO LS & SPL. TO NPHILSED @ 7950']
RHOBED  .G/C3  : BULK DENSITY FROM DENSITY LOG
SPRED   .MV    : SPONTANEOUS POTENTIAL FROM RESISTIVITY LOG
SPWS    .MV    : SPONTANEOUS POTENTIAL [BASELINE 0 MV,SPRED]
SRESWS  .OHMM  : SHALLOW RESISTIVITY [LL8ED]
~Params ----------------------------------------------------
EKB .FT                 2835 : KELLY BUSHING
EGL .FT                 2813 : GROUND LEVEL
DATE.               03/16/75 : RUN DATE
RUN .                      1 : RUN NUMBER
DD  .FT                12140 : DEPTH DRILLER
DL  .FT                12139 : DEPTH LOGGER
BLI .FT                12133 : BOTTOM LOG INTERVAL
TLI .FT                 1603 : TOP LOG INTERVAL
CBD .FT                 1603 : CASING BOTTOM DRILLER
CBL .FT                 1604 : CASING BOTTOM LOGGER
BS  .IN                  8.5 : BIT SIZE
BSD .FT                12140 : BIT SIZE AT DEPTH
DFT .               GEL CHEM : DRILLING FLUID TYPE
DFD .                    9.3 : DRILLING FLUID DENSITY
DFV .                    109 : DRILLING FLUID VISCOSITY
DFPH.                    9.5 : DRILLING FLUID PH
DFL .                    7.8 : DRILLING FLUID LOSS
MSS .               FLOWLINE : MUD SAMPLE SOURCE
RMS .OHMM               1.57 : RESISTIVITY MUD SAMPLE
MST .DEGF                 61 : MUD SAMPLE TEMPERATURE
RMF .OHMM               1.19 : RESISTIVITY MUD FILTRATE SAMPLE
MFST.DEGF                 63 : MUD FILTRATE SAMPLE TEMPERATURE
RMC .OHMM               2.57 : RESISTIVITY MUD CAKE
MCST.DEGF                 60 : MUD CAKE SAMPLE TEMPERATURE
TCS .HRS                   4 : TIME CIRCULATED STOPPED
LUN .                   7691 : LOGGING UNIT NUMBER
LUL .                    EDM : LOGGING UNIT LOCATION
ENGI.                  BORLE : RECORDING ENGINEER
WITN.                 TAYLOR : WITNESSED BY
CLNT.                A2DTECH : CLIENT CODE
ORIG.            2" 5" PRINT : ORIGIN OF DATA
UWI .       100071106425W500 : UNIQUE WELL ID
DICO. A2D Technologies, Inc. : DIGITIZING COMPANY
~Other -----------------------------------------------------
~ASCII -----------------------------------------------------
# ...
 4200.00000    -999.25   10.83810   10.83810  111.43680  108.47400    -999.25    -999.25    -999.25    -999.25    -999.25    -999.25    9.21880   90.72040   90.72040    -999.25    -999.25    9.21880    -999.25   10.36870    -999.25    -999.25    -999.25    -999.25    -999.25 -150.34140  -10.37460   10.36870
 4250.00000    -999.25   11.18920   11.18920  137.96190  137.94050    -999.25    -999.25    -999.25    -999.25    -999.25    -999.25    7.24950   86.80600   86.80600    -999.25    -999.25    7.24950    -999.25    8.07480    -999.25    -999.25    -999.25    -999.25    -999.25 -149.20950   -9.70180    8.07480
 4300.00000    -999.25   11.06110   11.06110   99.63720   99.62340    -999.25    -999.25    -999.25    -999.25    -999.25    -999.25   10.03780   82.15140   82.15140    -999.25    -999.25   10.03780    -999.25   10.56430    -999.25    -999.25    -999.25    -999.25    -999.25 -151.63290  -12.58440   10.56430
 4350.00000    -999.25    9.84960    9.84960   68.06270   65.61900    -999.25    -999.25    -999.25    -999.25    -999.25    -999.25   15.23950   76.13340   76.13340    -999.25    -999.25   15.23950    -999.25   16.04240    -999.25    -999.25    -999.25    -999.25    -999.25 -150.44520  -11.85580   16.04240
 4400.00000    -999.25    9.00280    9.00280   59.49500   59.16460    -999.25    -999.25    -999.25    -999.25    -999.25    -999.25   16.90200   76.04090   76.04090    -999.25    -999.25   16.90200    -999.25   18.84530    -999.25    -999.25    -999.25    -999.25    -999.25 -152.54840  -14.41810   18.84530
 4450.00000    -999.25    9.32660    9.32660   90.90930   87.71700    -999.25    -999.25    -999.25    -999.25    -999.25    -999.25   11.40030   82.90060   82.90060    -999.25    -999.25   11.40030    -999.25   12.38890    -999.25    -999.25    -999.25    -999.25    -999.25 -147.13250   -9.46140   12.38890
 4500.00000    -999.25    9.20290    9.20290   91.49410   96.81010    -999.25    -999.25    -999.25    -999.25    -999.25    -999.25   10.32950   83.40230   83.40230    -999.25    -999.25   10.32950    -999.25   11.14550    -999.25    -999.25    -999.25    -999.25    -999.25 -148.19140  -10.97940   11.14550
 4550.00000    -999.25   10.02750   10.02750   97.23210   97.21290    -999.25    -999.25    -999.25    -999.25    -999.25    -999.25   10.28670   79.68400   79.68400    -999.25    -999.25   10.28670    -999.25   11.15100    -999.25    -999.25    -999.25    -999.25    -999.25 -147.90760  -11.15480   11.15100
 4600.00000    -999.25    9.69080    9.69080  114.63630  112.12270    -999.25    -999.25    -999.25    -999.25    -999.25    -999.25    8.91880   83.34270   83.34270    -999.25    -999.25    8.91880    -999.25    9.76820    -999.25    -999.25    -999.25    -999.25    -999.25 -146.00290   -9.70920    9.76820
 4650.00000    -999.25    9.71820    9.71820  125.68270  122.85470    -999.25    -999.25    -999.25    -999.25    -999.25    -999.25    8.13970   87.46280   87.46280    -999.25    -999.25    8.13970    -999.25    9.41720    -999.25    -999.25    -999.25    -999.25    -999.25 -146.00470  -10.17020    9.41720
 4700.00000    -999.25    9.47220    9.47220  119.48130  117.69690    -999.25    -999.25    -999.25    -999.25    -999.25    -999.25    8.49640   87.74520   87.74520    -999.25    -999.25    8.49640    -999.25   10.27330    -999.25    -999.25    -999.25    -999.25    -999.25 -143.14760   -7.77220   10.27330
 4750.00000    -999.25    9.58140    9.58140  114.97000  112.32420    -999.25    -999.25    -999.25    -999.25    -999.25    -999.25    8.90280   89.71900   89.71900    -999.25    -999.25    8.90280    -999.25   10.51540    -999.25    -999.25    -999.25    -999.25    -999.25 -145.01530  -10.09900   10.51540
 4800.00000    -999.25    9.54970    9.54970  116.81890  116.59090    -999.25    -999.25    -999.25    -999.25    -999.25    -999.25    8.57700   89.39510   89.39510    -999.25    -999.25    8.57700    -999.25   10.50580    -999.25    -999.25    -999.25    -999.25    -999.25 -142.89840   -8.44130   10.50580
 4850.00000    -999.25    9.77500    9.77500   81.15970   80.57630    -999.25    -999.25    -999.25    -999.25    -999.25    -999.25   12.41060   87.43580   87.43580    -999.25    -999.25   12.41060    -999.25   16.30980    -999.25    -999.25    -999.25    -999.25    -999.25 -144.19150  -10.19350   16.30980
 4900.00000    -999.25   10.54230   10.54230  110.14340  107.66460    -999.25    -999.25    -999.25    -999.25    -999.25    -999.25    9.28810   86.51130   86.51130    -999.25    -999.25    9.28810    -999.25   11.15790    -999.25    -999.25    -999.25    -999.25    -999.25 -143.31460   -9.77580   11.15790
 4950.00000    -999.25   10.05200   10.05200   95.42630   96.11870    -999.25    -999.25    -999.25    -999.25    -999.25    -999.25   10.40380   84.99550   84.99550    -999.25    -999.25   10.40380    -999.25   13.44990    -999.25    -999.25    -999.25    -999.25    -999.25 -142.34630   -9.26660   13.44990
 5000.00000    -999.25    9.22900    9.22900   83.70110   81.79420    -999.25    -999.25    -999.25    -999.25    -999.25    -999.25   12.22580   93.85480   93.85480    -999.25    -999.25   12.22580   13.19900   16.92190   13.19900    -999.25    -999.25    -999.25    -999.25 -141.02520   -8.40460   16.92190
 5050.00000    -999.25    9.15960    9.15960    -999.25   64.88530    -999.25    -999.25    -999.25    -999.25    -999.25    -999.25   15.41180   84.98400   84.98400    -999.25    -999.25   15.41180   16.77800   37.98210   16.77800    -999.25    -999.25    -999.25    -999.25 -139.53420   -7.37280   37.98210
 5100.00000    -999.25    9.22310    9.22310    -999.25   96.92460    -999.25    -999.25    -999.25    -999.25    -999.25    -999.25   10.31730   94.18470   94.18470    -999.25    -999.25   10.31730   11.05890   14.13430   11.05890    -999.25    -999.25    -999.25    -999.25 -138.75530   -7.05300   14.13430
 5150.00000    -999.25    9.49250    9.49250    -999.25   80.53220    -999.25    -999.25    -999.25    -999.25    -999.25    -999.25   12.41740   78.61610   78.61610    -999.25    -999.25   12.41740   12.89510   14.44590   12.89510    -999.25    -999.25    -999.25    -999.25 -139.81580   -8.57270   14.44590
 5200.00000   10.49590    9.82950    9.82950    -999.25  120.35720    -999.25    -999.25    -999.25    -999.25    -999.25    -999.25    8.30860   79.32900   79.32900   96.79720   96.79720    8.30860    8.90770    9.41500    8.90770    -999.25    0.31010    0.26620    -999.25 -138.98060   -8.19660    9.41500
 5250.00000   11.02790    9.76410    9.76410    -999.25  146.28220   -0.62360   -0.62360    2.19240    -999.25    0.27610    0.30270    6.83610   83.77200   83.77200   97.76650   97.76650    6.83610    7.33750    7.73210    7.33750    -999.25    0.35890    0.31540    2.19240 -138.89400   -8.56920    7.73210
 5300.00000   10.14110    9.01320    9.01320    -999.25   92.26540   -0.74320   -0.74320    2.52500    -999.25    0.07240    0.10820   10.83830   74.33200   74.33200   95.86690   95.86690   10.83830   11.56100   12.66150   11.56100    -999.25    0.25430    0.21040    2.52500 -138.35880   -8.49310   12.66150
 5350.00000   10.13680    9.58560    9.58560    -999.25  101.41270   -0.68520   -0.68520    2.45100    -999.25    0.13040    0.15150    9.86070   77.75140   77.75140  111.29950  111.29950    9.86070   10.36550   10.98330   10.36550    -999.25    0.27990    0.23590    2.45100 -136.41920   -7.01260   10.98330
 5400.00000   11.69290   10.21010   10.21010    -999.25  156.07440   -0.53980   -0.53980    2.30600    -999.25    0.21430    0.23630    6.40720   84.15270   84.15270  112.23790  112.23790    6.40720    6.91130    7.46460    6.91130    -999.25    0.38400    0.34080    2.30600 -136.86880   -7.92140    7.46460
 5450.00000   12.67220   10.79690   10.79690    -999.25  151.91330   -0.57410   -0.57410    2.50340    -999.25    0.10130    0.12080    6.58270   84.71950   84.71950  108.76790  108.76790    6.58270    6.92780    7.43760    6.92780    -999.25    0.34950    0.30590    2.50340 -136.59860   -8.11030    7.43760
