~Version ---------------------------------------------------
VERS.      2.0 : CWLS log ASCII Standard -VERSION 2.0
WRAP.       NO : One line per depth step
CREA. 11/10/17 : LAS Creation Date
~Well ------------------------------------------------------
STRT.FT                    1200.0 : START DEPTH
STOP.FT                   11350.0 : STOP DEPTH
STEP.FT                  50.00000 : STEP LENGTH
NULL.                     -999.25 : NULL VALUE
COMP.      PHILLIPS PETROLEUM CO. : COMPANY
WELL. PHILLIPS A TONY 10-27-62-21 : WELL
FLD .                          WC : FIELD
LOC .                             : LOCATION
CTRY.                      CANADA : COUNTRY
SRVC.      Schlumberger of Canada : SERVICE COMPANY
DATE.                 01-Mar-1958 : LOGDATE
PROV.                     Alberta : PROVINCE
UWI .            100102706221W500 : UNIQUE WELL ID
SLAT.WGS84               54.39406 : SURFACE LATITUDE
SLON.WGS84              -117.0596 : SURFACE LONGITUDE
~Curve Information -----------------------------------------
DEPT  .FT         : Depth Curve
CALMED.IN         : CALIPER FROM MICROLOG
CALWS .IN         : CALIPER [CALMED]
CONDWS.MMHO       : CONDUCTIVITY [1000/DRESWS]
DRESWS.OHMM       : DEEP RESISTIVITY [LNED]
GRNED .UgRa-Eq/T  : GAMMA RAY FROM GRN LOG [ADJ. TO EL LOG]
GRWS  .GAPI       : GAMMA RAY [GRNED*16.5]
LATED .OHMM       : 18 FOOT 8 INCH LATERAL RESISTIVITY FROM EL LOG
LLED  .OHMM       : LATERAL RESISTIVITY FROM LL RESISTIVITY LOG [ADJ. TO EL LOG]
LNED  .OHMM       : 64 INCH LONG NORMAL RESISTIVITY FROM EL LOG
NEUTED.CPS        : NEUTRON FROM GRN LOG [ADJ. TO EL LOG]
NEUTWS.CPS        : NEUTRON [NEUTED]
SNED  .OHMM       : 16 INCH SHORT NORMAL RESISTIVITY FROM EL LOG
SPR1ED.MV         : SPONTANEOUS POTENTIAL FROM LL RESISTIVITY LOG [ADJ. TO EL LOG]
SPRED .MV         : SPONTANEOUS POTENTIAL FROM EL LOG
SPWS  .MV         : SPONTANEOUS POTENTIAL [BASELINE 0MV, SPRED]
SRESWS.OHMM       : SHALLOW RESISTIVITY [SNED]
~Params ----------------------------------------------------
LMF .                     KB : LOG MEASURED FROM
DMF .                     KB : DRILLING MEASURED FROM
EKB .FT                 2925 : KELLY BUSHING
EDF .FT                 2922 : DRILLING FLOOR
EGL .FT                 2910 : GROUND LEVEL
DATE.               03/01/58 : RUN DATE
RUN .                      1 : RUN NUMBER
DD  .FT                11400 : DEPTH DRILLER
DL  .FT                11400 : DEPTH LOGGER
BLI .FT                11399 : BOTTOM LOG INTERVAL
TLI .FT                 1533 : TOP LOG INTERVAL
CBD .FT                 1532 : CASING BOTTOM DRILLER
CBL .FT                 1533 : CASING BOTTOM LOGGER
BS  .IN                12.25 : BIT SIZE
BSD .FT                11400 : BIT SIZE AT DEPTH
DFT .                    GEL : DRILLING FLUID TYPE
DFD .                   10.6 : DRILLING FLUID DENSITY
DFV .                    115 : DRILLING FLUID VISCOSITY
DFPH.                    9.7 : DRILLING FLUID PH
DFL .                      4 : DRILLING FLUID LOSS
RMF .OHMM               0.41 : RESISTIVITY MUD FILTRATE SAMPLE
MFST.DEGF                 71 : MUD FILTRATE SAMPLE TEMPERATURE
RMC .OHMM                1.2 : RESISTIVITY MUD CAKE
MCST.DEGF                 74 : MUD CAKE SAMPLE TEMPERATURE
RMB .OHMM               0.53 : RESISTIVITY MUD AT BHT
TCS .HRS                   6 : TIME CIRCULATED STOPPED
LUN .                   1785 : LOGGING UNIT NUMBER
LUL .                     WC : LOGGING UNIT LOCATION
ENGI.                LAVERTY : RECORDING ENGINEER
WITN.         FOSTER TIBBITT : WITNESSED BY
CLNT.                A2DTECH : CLIENT CODE
ORIG.            2" 5" PRINT : ORIGIN OF DATA
UWI .       100102706221W500 : UNIQUE WELL ID
DICO. A2D Technologies, Inc. : DIGITIZING COMPANY
~Other -----------------------------------------------------
~ASCII -----------------------------------------------------
# ...
 7650.00000    8.94300    8.94300    6.77240  147.68990    4.61830   76.20280  689.06830  102.30120  147.68990  354.52320  354.52320   55.45780  -92.61640  -91.60390   -1.97370   55.45780
 7700.00000    9.73840    9.73840    4.23350  236.20880    3.54070   58.42160  114.73660 1736.23960  236.20880  436.16390  436.16390  104.51260 -156.23420 -153.91200  -66.33360  104.51260
 7750.00000    9.08000    9.08000   20.07860   49.80420    3.96050   65.34830   96.91100   23.74330   49.80420  283.76300  283.76300   28.74500 -163.31550 -162.09620  -76.55630   28.74500
 7800.00000    9.04120    9.04120   11.09380   90.14300    4.36810   72.07320  174.41240   68.35860   90.14300  346.20470  346.20470   43.09610 -121.33430 -121.75170  -38.25020   43.09610
 7850.00000    9.10620    9.10620    8.03610  124.43800    3.37200   55.63880   90.14550  280.58100  124.43800  361.36980  361.36980   62.25300 -120.92110 -115.61040  -34.16080   62.25300
 7900.00000    9.27340    9.27340    1.47910  676.09610    1.69940   28.04010 1325.05840 5158.28710  676.09610  495.28650  495.28650  153.88240 -135.75340 -131.72620  -52.31510  153.88240
 7950.00000    8.10880    8.10880    7.37650  135.56600    1.97920   32.65680  486.31900  173.66910  135.56600  381.79380  381.79380   56.02730 -185.97470 -179.22310 -101.86380   56.02730
 8000.00000    8.84620    8.84620    3.15810  316.64900    1.84970   30.51920  734.62490  314.62310  316.64900  402.39000  402.39000   92.76660 -181.45450 -174.61520  -99.29440   92.76660
 8050.00000    9.00600    9.00600   56.99900   17.56200    5.20490   85.88040   18.77890   18.22940   17.56200  264.72250  264.72250   17.73750 -100.71610  -90.27290  -10.37710   17.73750
 8100.00000    9.00140    9.00140   35.26090   28.36000    3.60510   59.48420   13.93240   36.43220   28.36000  314.10450  314.10450   28.35420 -139.43170 -132.16890  -56.74250   28.35420
 8150.00000    9.05140    9.05140   19.98730   50.03170    3.40640   56.20560   21.13690   46.59250   50.03170  388.42510  388.42510   38.79720  -88.57760  -82.78760  -19.26070   38.79720
 8200.00000    9.03070    9.03070   10.59660   94.37030    4.27370   70.51600  109.23960   97.58370   94.37030  325.17280  325.17280   44.45270  -63.94250  -56.63490   -4.92570   44.45270
 8250.00000    9.00320    9.00320   14.83990   67.38580    3.71500   61.29750  191.70960  294.93140   67.38580  425.33380  425.33380   38.56560  -62.54580  -53.59420   -3.56480   38.56560
 8300.00000    9.22030    9.22030    6.41020  156.00330    1.84430   30.43100   92.36700  209.15540  156.00330  416.04180  416.04180   72.23610 -130.58280 -123.72050  -73.21330   72.23610
 8350.00000    8.95380    8.95380   11.89530   84.06680    2.90110   47.86820  107.87330   70.49320   84.06680  387.28420  387.28420   43.48310  -94.87880  -88.79780  -37.80970   43.48310
 8400.00000    8.96660    8.96660    9.95920  100.40960    3.70280   61.09620  113.36430   85.27830  100.40960  362.85100  362.85100   50.00000  -61.58050  -57.18430   -5.71840   50.00000
 8450.00000    8.97030    8.97030    2.73670  365.40740    2.28770   37.74710  565.10710  376.70450  365.40740  448.20770  448.20770  111.79970  -90.76770  -86.50160  -34.55470  111.79970
 8500.00000    8.94690    8.94690    6.44430  155.17470    3.69350   60.94270  339.39760  154.90850  155.17470  352.17260  352.17260   57.74710  -83.97580  -85.66830  -33.24360   57.74710
 8550.00000    8.91830    8.91830   11.98280   83.46000    4.80570   79.29320   94.27080   59.30770   83.46000  320.77580  320.77580   41.75100  -78.54340  -80.80130  -27.89880   41.75100
 8600.00000    8.96970    8.96970    9.36410  106.79100    4.32990   71.44340  203.80710   89.28170  106.79100  337.97110  337.97110   44.61030  -85.22740  -87.61590  -34.23250   44.61030
 8650.00000   10.05100   10.05100    2.68700  372.35390    5.48730   90.53960   73.03730 2690.84270  372.35390  454.31510  454.31510  143.56420  -99.27120  -99.90100  -46.03980  143.56420
 8700.00000    9.58240    9.58240    1.10780  902.70280    2.26400   37.35600 1515.82860 1078.96110  902.70280  493.84530  493.84530  138.58730 -143.99510 -144.23280  -89.89060  138.58730
 8750.00000   10.18870   10.18870    1.27540  784.06670    2.08220   34.35630 1080.95090 1315.08860  784.06670  494.50230  494.50230  140.10120 -119.79400 -124.06170  -69.24170  140.10120
 8800.00000   10.11270   10.11270    1.13390  881.92360    2.29370   37.84690 1248.58690 3191.82990  881.92360  481.69940  481.69940  148.39390 -119.37850 -119.79440  -64.49660  148.39390
 8850.00000   10.82230   10.82230    1.46180  684.07350    1.90520   31.43580  871.51320 1438.01070  684.07350  468.62440  468.62440  133.31860 -126.53050 -129.88780  -74.10910  133.31860
 8900.00000   10.33880   10.33880    1.99830  500.44220    1.90720   31.46880  480.01290 1218.52230  500.44220  451.03670  451.03670  116.25430 -142.87620 -143.61730  -87.36080  116.25430
 8950.00000   10.85340   10.85340    1.25080  799.48300    1.87020   30.85830 2010.78690 1270.87340  799.48300  441.78570  441.78570   88.12000 -142.98270 -143.69280  -86.95530   88.12000
 9000.00000   11.68640   11.68640    2.47700  403.72100    1.75490   28.95580  670.96880  442.06190  403.72100  429.09340  429.09340   87.19930 -164.30050 -164.04680 -106.83150   87.19930
 9050.00000   12.82420   12.82420    1.86160  537.18030    1.71560   28.30740  943.05620  556.23280  537.18030  445.51720  445.51720   89.15690 -152.70520 -154.29230  -96.59920   89.15690
 9100.00000   12.23250   12.23250    1.62670  614.74430    2.20240   36.33960 1622.93460 1896.88130  614.74430  396.70940  396.70940   83.62480 -155.29440 -156.36900  -98.19500   83.62480
 9150.00000   11.25080   11.25080    2.02510  493.89620    2.09510   34.56920  398.94260 2472.61450  493.89620  427.22180  427.22180  122.28010 -157.36100 -154.08490  -95.43300  122.28010
 9200.00000   11.14670   11.14670    0.96400 1037.32870    2.18570   36.06410 1492.82900 1238.81120 1037.32870  397.22950  397.22950  121.77130 -169.47990 -167.51280 -108.38000  121.77130
 9250.00000   10.50500   10.50500    1.75300  570.46690    2.15080   35.48820 1357.40610  776.09590  570.46690  435.71140  435.71140   93.18460 -162.99450 -162.04520 -102.43460   93.18460
 9300.00000   11.12610   11.12610    4.00520  249.67510    1.96890   32.48600  617.95790  194.51940  249.67510  437.55340  437.55340   58.60480 -165.40870 -164.62230 -104.53390   58.60480
 9350.00000   12.04930   12.04930    3.18030  314.43150    2.30530   38.03750  402.07070 1209.92920  314.43150  384.33890  384.33890   90.18540 -157.85760 -157.11340  -96.54400   90.18540
 9400.00000   10.00610   10.00610    2.38040  420.10510    2.08840   34.45780  652.53820  635.73550  420.10510  401.06130  401.06130  106.82730 -165.61690 -163.38040 -102.33320  106.82730
 9450.00000    8.53000    8.53000    5.64030  177.29640    2.18950   36.12670  206.14640  191.19570  177.29640  379.34340  379.34340   62.45260 -156.96760 -156.60080  -95.07270   62.45260
 9500.00000    9.25490    9.25490    7.36460  135.78470    3.25480   53.70420  464.93980   98.62430  135.78470  362.92390  362.92390   53.48310 -189.08270 -188.13790 -126.13200   53.48310
 9550.00000    9.23730    9.23730    4.53740  220.39280    2.67770   44.18200  185.43460  272.08010  220.39280  334.68950  334.68950   79.68300 -207.06910 -204.61040 -142.12670   79.68300
 9600.00000    9.89290    9.89290   10.87920   91.91870    2.98810   49.30370  209.36740   89.56750   91.91870  326.88210  326.88210   47.53220 -184.86190 -184.76250 -121.79780   47.53220
 9650.00000    9.24290    9.24290    2.75860  362.50470    2.08410   34.38680  467.01440  429.95500  362.50470  365.68550  365.68550  107.34210 -201.14360 -199.38420 -135.94170  107.34210
 9700.00000   10.45280   10.45280    3.22610  309.97310    2.43990   40.25840  556.86020  293.79200  309.97310  337.95740  337.95740   77.46350 -149.01140 -148.03270  -84.10930   77.46350
 9750.00000    9.03190    9.03190    2.64790  377.66080    3.62780   59.85870  212.89020 1854.98490  377.66080  411.25450  411.25450  129.21260 -109.36320 -110.55250  -46.15130  129.21260
