~Version ---------------------------------------------------
VERS.      2.0 : CWLS log ASCII Standard -VERSION 2.0
WRAP.       NO : One line per depth step
CREA. 11/20/17 : LAS Creation Date
~Well ------------------------------------------------------
STRT.FT                          1000.0 : START DEPTH
STOP.FT                          9600.0 : STOP DEPTH
STEP.FT                        50.00000 : STEP LENGTH
NULL.                           -999.25 : NULL VALUE
COMP.  MIAMI OIL PRODUCERS INCORPORATED : COMPANY
WELL. MIAMI HB STURGEN LAKE 12-33-68-20 : WELL
FLD .                                   : FIELD
LOC .                                   : LOCATION
CTRY.                            CANADA : COUNTRY
SRVC.            Schlumberger of Canada : SERVICE COMPANY
DATE.                       06-Mar-1967 : LOGDATE
PROV.                           Alberta : PROVINCE
UWI .                  100123306820W500 : UNIQUE WELL ID
SLAT.WGS84                     54.93222 : SURFACE LATITUDE
SLON.WGS84                    -116.9965 : SURFACE LONGITUDE
~Curve Information -----------------------------------------
DEPT  .FT    : Depth Curve
CALSED.IN    : CALIPER FROM SONIC LOG
CALWS .IN    : CALIPER [CALSED]
CILDED.MMHO  : DEEP INDUCTION CONDUCTIVITY FROM RESISTIVITY LOG
CONDWS.MMHO  : CONDUCTIVITY [1000/DRESWS]
DRESWS.OHMM  : DEEP RESISTIVITY [1000/CILDED IF ILDED<1,ILDED]
DTED  .US/F  : DELTA-T FROM SONIC LOG
DTWS  .US/F  : DELTA-T [DTED]
GRSED .GAPI  : GAMMA RAY FROM SONIC LOG
GRWS  .GAPI  : GAMMA RAY [GRSED]
ILDED .OHMM  : DEEP INDUCTION RESISTIVITY FROM RESISTIVITY LOG
SNED  .OHMM  : SHORT NORMAL RESISTIVITY FROM RESISTIVITY LOG
SPRED .MV    : SPONTANEOUS POTENTIAL FROM RESISTIVITY LOG
SPWS  .MV    : SPONTANEOUS POTENTIAL [BASELINE 0 MV,SPRED]
SRESWS.OHMM  : SHALLOW RESISTIVITY [SNED]
~Params ----------------------------------------------------
PD  .                     GL : PERMANENT DATUM
EPD .FT                 2429 : ELEVATION PERMANENT DATUM
LMF .                     KB : LOG MEASURED FROM
DAPD.FT                   13 : FEET ABOVE PERMANENT DATUM
EKB .FT                 2442 : KELLY BUSHING
EGL .FT                 2429 : GROUND LEVEL
DATE.               03/06/67 : RUN DATE
RUN .                      1 : RUN NUMBER
DD  .FT                 9641 : DEPTH DRILLER
DL  .FT                 9641 : DEPTH LOGGER
BLI .FT                 9640 : BOTTOM LOG INTERVAL
TLI .FT                 1006 : TOP LOG INTERVAL
CBD .FT                 1003 : CASING BOTTOM DRILLER
CBL .FT                 1006 : CASING BOTTOM LOGGER
BS  .IN                7.875 : BIT SIZE
BSD .FT                 9641 : BIT SIZE AT DEPTH
DFT .                    GEL : DRILLING FLUID TYPE
DFD .                    9.7 : DRILLING FLUID DENSITY
DFV .                    160 : DRILLING FLUID VISCOSITY
DFPH.                     10 : DRILLING FLUID PH
DFL .                      8 : DRILLING FLUID LOSS
RMS .OHMM               2.56 : RESISTIVITY MUD SAMPLE
MST .DEGF                 56 : MUD SAMPLE TEMPERATURE
RMF .OHMM               0.82 : RESISTIVITY MUD FILTRATE SAMPLE
MFST.DEGF                170 : MUD FILTRATE SAMPLE TEMPERATURE
RMC .OHMM               0.78 : RESISTIVITY MUD CAKE
MCST.DEGF                170 : MUD CAKE SAMPLE TEMPERATURE
RMB .OHMM               0.84 : RESISTIVITY MUD AT BHT
TCS .HRS                   3 : TIME CIRCULATED STOPPED
LUN .                   3705 : LOGGING UNIT NUMBER
LUL .                     RL : LOGGING UNIT LOCATION
ENGI.              DEMETRICK : RECORDING ENGINEER
WITN.                  SLOAN : WITNESSED BY
CLNT.                A2DTECH : CLIENT CODE
ORIG.            2" 5" PRINT : ORIGIN OF DATA
UWI .       100123306820W500 : UNIQUE WELL ID
DICO. A2D Technologies, Inc. : DIGITIZING COMPANY
~Other -----------------------------------------------------
IEL-SON LOG RUN
ALL DATA FROM TOP TO 3570' FROM 2" SCALE
~ASCII -----------------------------------------------------
 1000.00000    -999.25    -999.25    -999.25    -999.25    -999.25    -999.25    -999.25   31.22550   31.22550    -999.25    -999.25    -999.25    -999.25    -999.25
 1050.00000   15.00000   15.00000  251.84850  283.60750    3.52600  131.92350  131.92350   50.09850   50.09850    3.52600    4.31580  -89.66080  -12.27100    4.31580
 1100.00000   15.00000   15.00000  139.36250  154.94990    6.45370  110.50940  110.50940   44.05950   44.05950    6.45370    7.49920 -109.94650  -23.54340    7.49920
 1150.00000   15.00000   15.00000  197.53400  210.90820    4.74140  118.58940  118.58940   52.07190   52.07190    4.74140    5.60760  -99.03260   -5.01520    5.60760
 1200.00000   15.00110   15.00110  179.61830  193.50590    5.16780  120.39080  120.39080   50.98870   50.98870    5.16780    5.71240  -97.12020   -3.40970    5.71240
 1250.00000   15.01700   15.01700  357.68870  386.63780    2.58640  138.10400  138.10400   38.21160   38.21160    2.58640    4.03170  -95.26930   -1.86360    4.03170
 1300.00000   15.00000   15.00000  323.64900  354.69800    2.81930  132.17930  132.17930   48.13760   48.13760    2.81930    3.49720  -95.08940   -1.98860    3.49720
 1350.00000   15.00000   15.00000  266.97180  278.67570    3.58840  119.37570  119.37570   51.33320   51.33320    3.58840    4.11520  -95.66100   -2.86710    4.11520
 1400.00000   15.00000   15.00000  317.78610  354.89940    2.81770  139.74980  139.74980   51.03020   51.03020    2.81770    3.59240  -95.70570   -2.90600    3.59240
 1450.00000   15.00000   15.00000  267.95660  314.51490    3.17950  121.75120  121.75120   57.01380   57.01380    3.17950    4.24090  -96.10480   -2.99470    4.24090
 1500.00000   15.00000   15.00000   77.75640   76.90360   13.00330  117.45690  117.45690   38.34470   38.34470   13.00330   12.58070  -97.39090   -3.97240   12.58070
 1550.00000   15.00000   15.00000  284.32520  305.01750    3.27850  143.20230  143.20230   48.26330   48.26330    3.27850    4.07930  -95.85500   -2.12820    4.07930
 1600.00000   15.00000   15.00000  289.56460  310.31810    3.22250  118.42780  118.42780   47.50100   47.50100    3.22250    4.30460  -97.22270   -3.18550    4.30460
 1650.00000   15.00930   15.00930  114.85860  123.29090    8.11090   82.51980   82.51980   42.83750   42.83750    8.11090    8.94930 -101.45840   -7.11280    8.94930
 1700.00000   15.00000   15.00000  246.09680  277.74690    3.60040  118.20770  118.20770   47.87310   47.87310    3.60040    5.18430 -101.46900   -6.81300    5.18430
 1750.00000   15.00000   15.00000  219.08160  242.23050    4.12830  108.05330  108.05330   54.68640   54.68640    4.12830    4.79590  -99.09600   -4.13170    4.79590
 1800.00000   15.00000   15.00000  259.42940  300.16510    3.33150  126.94780  126.94780   52.64140   52.64140    3.33150    4.33900  -98.21010   -2.93740    4.33900
 1850.00000   15.00000   15.00000  212.33720  231.46540    4.32030  120.26990  120.26990   55.49610   55.49610    4.32030    5.10310  -98.92130   -3.33820    5.10310
 1900.00000   15.00000   15.00000  201.10490  231.55650    4.31860  112.06840  112.06840   67.31060   67.31060    4.31860    5.56720  -99.73310   -3.84170    5.56720
 1950.00000   15.00000   15.00000  153.28520  160.17940    6.24300  100.52570  100.52570   72.24630   72.24630    6.24300    7.02410 -100.24340   -4.04160    7.02410
 2000.00000   15.00000   15.00000  157.57480  169.48580    5.90020  113.09830  113.09830   97.25200   97.25200    5.90020    6.94680 -101.17350   -4.66330    6.94680
 2050.00000   15.00000   15.00000  165.87430  178.21820    5.61110  112.79920  112.79920  106.60300  106.60300    5.61110    7.50330 -100.09200   -3.27350    7.50330
 2100.00000   15.00000   15.00000  170.32360  191.08770    5.23320  108.70020  108.70020  103.26440  103.26440    5.23320    7.03640  -98.78100   -1.53410    7.03640
 2150.00000   15.00000   15.00000  187.94100  209.21820    4.77970  112.56020  112.56020   94.23370   94.23370    4.77970    6.03530 -101.80790   -3.25660    6.03530
 2200.00000   15.00000   15.00000  145.48760  154.13310    6.48790  100.96080  100.96080   80.97100   80.97100    6.48790    7.25810 -103.80760   -3.94340    7.25810
 2250.00000   15.00000   15.00000  124.96500  135.70550    7.36890  103.16330  103.16330   77.75490   77.75490    7.36890    8.12950 -104.24770   -3.07910    8.12950
 2300.00000   15.00000   15.00000  166.72690  180.87430    5.52870  106.60070  106.60070   95.19450   95.19450    5.52870    6.49810 -103.43790   -1.40720    6.49810
 2350.00000   15.00000   15.00000  165.46550  182.67510    5.47420  128.53600  128.53600   78.70460   78.70460    5.47420    6.25440 -103.93730   -1.60420    6.25440
 2400.00000   15.00000   15.00000  145.01760  163.47880    6.11700  125.34120  125.34120   77.48190   77.48190    6.11700    6.78410 -104.18020   -1.54670    6.78410
 2450.00000   15.00000   15.00000  164.32770  186.04650    5.37500  122.11960  122.11960   68.45890   68.45890    5.37500    5.98560 -103.55060   -0.61480    5.98560
 2500.00000   15.00000   15.00000  127.82190  139.22540    7.18260  123.76510  123.76510   79.02840   79.02840    7.18260    8.00550 -104.59370   -2.05590    8.00550
 2550.00000   15.00000   15.00000  165.43740  180.79260    5.53120  101.26010  101.26010   96.49050   96.49050    5.53120    6.39840 -103.76740   -2.01250    6.39840
 2600.00000   15.00000   15.00000  140.18680  153.70660    6.50590  102.50300  102.50300   93.11030   93.11030    6.50590    7.05160 -103.94170   -2.97490    7.05160
 2650.00000   15.00000   15.00000  169.00940  188.37000    5.30870  109.19550  109.19550   94.37820   94.37820    5.30870    6.21780 -102.57560   -2.39170    6.21780
 2700.00000   15.00000   15.00000  156.73570  174.52010    5.73000   98.34300   98.34300   92.63760   92.63760    5.73000    7.01820 -103.64250   -4.24670    7.01820
 2750.00000   15.00000   15.00000  187.11400  201.45450    4.96390  111.70520  111.70520  104.93880  104.93880    4.96390    6.41860 -100.69420   -1.78770    6.41860
 2800.00000   15.00000   15.00000  170.58150  180.04390    5.55420  110.78310  110.78310  105.17510  105.17510    5.55420    8.00300  -99.68230   -0.85440    8.00300
 2850.00000   15.00000   15.00000  171.89070  184.82580    5.41050  111.68840  111.68840   88.89650   88.89650    5.41050    7.45000 -100.93550   -2.42420    7.45000
 2900.00000   15.00000   15.00000  160.34900  174.13410    5.74270  115.25780  115.25780   95.90500   95.90500    5.74270    8.54250 -100.87940   -2.68260    8.54250
 2950.00000   14.96490   14.96490  136.72110  148.33270    6.74160  104.08610  104.08610  111.57720  111.57720    6.74160   10.96310 -102.31310   -4.43280   10.96310
 3000.00000   15.00000   15.00000  126.98930  134.57320    7.43090  101.54090  101.54090   74.17950   74.17950    7.43090    8.88650 -103.82090   -6.25510    8.88650
 3050.00000   15.00000   15.00000  218.28560  244.14060    4.09600  109.41470  109.41470   82.99620   82.99620    4.09600    5.67020 -100.43400   -3.18280    5.67020
 3100.00000    8.87950    8.87950   50.75100   48.50460   20.61660   86.47580   86.47580   55.09800   55.09800   20.61660   26.66950 -120.29690  -23.36220   26.66950
 3150.00000   14.20280   14.20280  204.41130  232.11550    4.30820  111.77470  111.77470   88.76830   88.76830    4.30820    5.71900  -98.64550   -2.02530    5.71900
 3200.00000   14.78520   14.78520  277.67250  301.02350    3.32200  107.66250  107.66250   86.28460   86.28460    3.32200    4.78840  -98.24460   -1.94100    4.78840
 3250.00000   11.84700   11.84700  305.49510  336.40580    2.97260  106.82250  106.82250   73.54850   73.54850    2.97260    4.50010  -96.16780   -0.17870    4.50010
 3300.00000   12.87150   12.87150  201.77290  220.65800    4.53190   99.33610   99.33610   88.18770   88.18770    4.53190    6.44970  -98.58130   -2.90670    6.44970
 3350.00000   12.15420   12.15420  199.80650  216.18820    4.62560  101.01520  101.01520   98.97330   98.97330    4.62560    6.31470 -101.41200   -6.05400    6.31470
 3400.00000   14.16790   14.16790  232.81710  254.40760    3.93070  100.06860  100.06860   85.40970   85.40970    3.93070    5.63010  -99.13890   -4.09540    5.63010
