~Version ---------------------------------------------------
VERS. 2.0 : CWLS log ASCII Standard -VERSION 2.0
WRAP.  NO : ONE LINE PER DEPTH STEP
~Well ------------------------------------------------------
STRT.F                       550.0 : START DEPTH
STOP.F                     12450.0 : STOP DEPTH
STEP.F                    50.00000 : STEP LENGTH
NULL.                      -999.25 : NULL VALUE
COMP.       CALIFORNIA STANDARD CO : COMPANY
WELL. STANDARD CYNTHIA 16-21-49-13 : WELL
FLD .                           WC : FIELD
LOC .                              : LOCATION
CTRY.                       CANADA : COUNTRY
SRVC.                 Schlumberger : SERVICE COMPANY
DATE.                  28-Dec-1957 : LOGDATE
PROV.                      Alberta : PROVINCE
UWI .             100162104913W500 : UNIQUE WELL ID
SLAT.WGS84                53.24881 : SURFACE LATITUDE
SLON.WGS84               -115.8321 : SURFACE LONGITUDE
~Curve Information -----------------------------------------
DEPT.F                   : 
MCAL.IN     15 280 01 00 : MLT (MICROLOG) CALIPER
GRN .MG/TON 35 310 00 00 : GAMMA RAY FROM GRN LOG
NEUT.CPS    35 330 30 00 : NEUTRON
CALM.IN     20 280 01 00 : CALIPER FROM MICROLATEROLOG
TENM.LB     20 635 00 00 : TENSION FROM MICROLOG/MICROLOG FOCUSED
MLL .OHMM   20 270 04 00 : MICRO FOCUSED LATEROLOG RESISTIVITY
ILD .OHMM   06 120 46 00 : INDUCTION DEEP RESISTIVITY
SPR1.MV                  : SPONTANEOUS POTENTIAL
CILD.MMHO   06 110 46 00 : INDUCTION DEEP CONDUCTIVITY
SPR2.MV                  : SPONTANEOUS POTENTIAL
LL7 .OHMM   01 220 07 00 : LATEROLOG 7
SPR .MV     01 010 01 00 : SPONTANEOUS POTENTIAL FROM RESISTIVITY LOG
SN  .OHMM   01 040 16 00 : SHORT NORMAL RESISTIVITY
LN  .OHMM   01 060 64 00 : LONG NORMAL RESISTIVITY
LT18.OHMM   01 070 18 00 : LATERAL 18'
~Params ----------------------------------------------------
PD  .                        : PERMANENT DATUM
EPD .FT                    0 : ELEVATION PERMANENT DATUM
LMF .                     KB : LOG MEASURED FROM
DAPD.FT                    0 : FEET ABOVE PERMANENT DATUM
DMF .                     KB : DRILLING MEASURED FROM
EKB .FT                 3297 : KELLY BUSHING
EDF .FT                    0 : DRILLING FLOOR
EGL .FT                    0 : GROUND LEVEL
DATE.               12/28/57 : RUN DATE
RUN .                      4 : RUN NUMBER
DD  .FT                12492 : DEPTH DRILLER
DL  .FT                12492 : DEPTH LOGGER
BLI .FT                12491 : BOTTOM LOG INTERVAL
TLI .FT                 8904 : TOP LOG INTERVAL
CS  .IN                    0 : CASING SIZE
CBD .FT                  616 : CASING BOTTOM DRILLER
CBL .FT                  616 : CASING BOTTOM LOGGER
BS  .IN                    9 : BIT SIZE
BSD .FT                12492 : BIT SIZE AT DEPTH
DFT .               OIL EMUL : DRILLING FLUID TYPE
DFD .                   10.7 : DRILLING FLUID DENSITY
DFV .                    140 : DRILLING FLUID VISCOSITY
DFPH.                     13 : DRILLING FLUID PH
DFL .                    3.6 : DRILLING FLUID LOSS
MSS .                        : MUD SAMPLE SOURCE
RMS .OHMM                1.1 : RESISTIVITY MUD SAMPLE
MST .DEGF                 50 : MUD SAMPLE TEMPERATURE
RMF .OHMM                  0 : RESISTIVITY MUD FILTRATE SAMPLE
MFST.DEGF                  0 : MUD FILTRATE SAMPLE TEMPERATURE
RMC .OHMM                  0 : RESISTIVITY MUD CAKE
MCST.DEGF                  0 : MUD CAKE SAMPLE TEMPERATURE
MFSS.                        : MUD FILTRATE SAMPLE SOURCE
MCSS.                        : MUD CAKE SAMPLE SOURCE
RMB .OHMM               0.28 : RESISTIVITY MUD AT BHT
TCS .HRS                   3 : TIME CIRCULATED STOPPED
TLAB.HRS                   0 : TIME LOGGER AT BOTTOM
LUN .                   1749 : LOGGING UNIT NUMBER
LUL .                     DV : LOGGING UNIT LOCATION
ENGI.                  GOETZ : RECORDING ENGINEER
WITN.             CHARLESTON : WITNESSED BY
CLNT.                A2DTECH : CLIENT CODE
ORIG.            2" 5" PRINT : ORIGIN OF DATA
UWI .       100162104913W500 : UNIQUE WELL ID
DICO. A2D Technologies, Inc. : DIGITIZING COMPANY
OS  .                        : OTHER SERVICES
PWI .                        : PRIMARY WELL IDENTIFIER
R1  .                        : REMARKS 1
R2  .                        : REMARKS 2
LSRV.                        : LOG MNEMONIC
~Other -----------------------------------------------------
~ASCII -----------------------------------------------------
# ...
 5150.00000   10.43440    4.49860  235.80520    8.10990 2062.00440   20.35970   36.47690  -46.29270   94.19870    -999.25    -999.25  -39.49510   22.86860   13.94480   14.57550
 5200.00000   12.21840    5.19350  195.26520    8.32550 2075.12990    9.44150   22.52490  -47.66620  127.09670    -999.25    -999.25  -41.24030   25.03580   29.86410   16.68310
 5250.00000   12.26540    5.30960  205.08110    7.94340 2051.33520   12.26090   18.26210  -39.65550  153.36160    -999.25    -999.25  -41.10520   10.77080   11.76470   16.57020
 5300.00000   11.18460    5.17030  200.77840    8.02370 2078.62990    8.37350   19.60880  -40.00810  144.47270    -999.25    -999.25  -42.38160   12.01500   10.01890   12.15300
 5350.00000   12.16690    6.16810  185.76240    8.07300 2062.99880   13.16830   20.78510  -42.74540  144.30350    -999.25    -999.25  -39.51940   12.22570   10.03290   10.48250
 5400.00000   12.10260    7.15780  200.92230    -999.25    -999.25    -999.25    -999.25    -999.25    -999.25    -999.25    -999.25  -70.21180   12.27320   12.77370   14.51670
 5450.00000   13.00950    6.99940  189.73370    -999.25    -999.25    -999.25    -999.25    -999.25    -999.25    -999.25    -999.25  -69.91180   13.65980   14.30090   15.36570
 5500.00000   11.58520    6.85170  199.18410    -999.25    -999.25    -999.25    -999.25    -999.25    -999.25    -999.25    -999.25  -70.74830   14.18320   14.81300   17.95010
 5550.00000   13.07060    7.20030  195.07620    -999.25    -999.25    -999.25    -999.25    -999.25    -999.25    -999.25    -999.25  -69.54930   14.76820   15.27120   16.23760
 5600.00000   12.83910    7.01830  199.09210    -999.25    -999.25    -999.25    -999.25    -999.25    -999.25    -999.25    -999.25  -68.63850   14.55280   14.14060   17.00040
 5650.00000   13.33550    7.74200  189.60910    -999.25    -999.25    -999.25    -999.25    -999.25    -999.25    -999.25    -999.25  -68.52810   14.65810   15.48520   16.65550
 5700.00000   13.54840    7.10440  191.78300    -999.25    -999.25    -999.25    -999.25    -999.25    -999.25    -999.25    -999.25  -67.94850   19.02930   19.93850   18.50240
 5750.00000   12.14660    8.04340  184.18320    -999.25    -999.25    -999.25    -999.25    -999.25    -999.25    -999.25    -999.25  -66.28450   16.71610   17.77120   18.33400
 5800.00000   13.47480    6.40570  190.15770    -999.25    -999.25    -999.25    -999.25    -999.25    -999.25    -999.25    -999.25  -67.36950   15.09460   17.35580   21.18450
 5850.00000   13.24970    7.09750  188.43280    -999.25    -999.25    -999.25    -999.25    -999.25    -999.25    -999.25    -999.25  -68.05300   11.08540   12.20080   15.18200
 5900.00000   14.33740    6.37320  185.85480    -999.25    -999.25    -999.25    -999.25    -999.25    -999.25    -999.25    -999.25  -69.15040   10.36390    9.50300   13.83360
 5950.00000   14.74390    5.90530  183.99330    -999.25    -999.25    -999.25    -999.25    -999.25    -999.25    -999.25    -999.25  -69.76540   10.11890    9.72560   11.49450
 6000.00000   13.81320    6.03340  184.44290    -999.25    -999.25    -999.25    -999.25    -999.25    -999.25    -999.25    -999.25  -69.87090   10.72200   10.09890   11.25180
 6050.00000   14.76650    6.29520  198.48850    -999.25    -999.25    -999.25    -999.25    -999.25    -999.25    -999.25    -999.25  -67.39330    9.98030   10.52420   11.14890
 6100.00000    6.60850    6.44310  200.25880    -999.25    -999.25    -999.25    -999.25    -999.25    -999.25    -999.25    -999.25  -68.63060   11.26420   11.79870   12.52580
 6150.00000   14.25420    7.03080  193.26890    -999.25    -999.25    -999.25    -999.25    -999.25    -999.25    -999.25    -999.25  -68.66870    9.71950    7.80180   11.99740
 6200.00000   14.79060    6.81070  182.69330    -999.25 1021.26990    4.88410    8.67560    -999.25  148.61440    -999.25    -999.25  -68.46330   10.00950    9.46080   13.46700
 6250.00000   14.77820    6.48800  186.92190    -999.25 1000.94320    5.21550    8.36810    -999.25  152.30220    -999.25    -999.25  -69.06730    9.95190    9.73360   12.62070
 6300.00000   14.77170    7.46950  185.43100    -999.25 1006.76560    5.82710    8.03790    -999.25  157.59360    -999.25    -999.25  -69.13470    9.04350    8.41600    9.85710
 6350.00000   14.74020    6.61310  200.08940    -999.25 1032.60830    4.04310   13.13200    -999.25  113.94280    -999.25    -999.25  -69.42780   14.05380   15.25930   14.61050
 6400.00000   14.72960    6.98380  195.41490    -999.25 1028.33510    3.78010   10.73960    -999.25  129.99650    -999.25    -999.25  -66.94720   12.35630   13.25980   14.43430
 6450.00000   11.29950    6.37000  218.44910    -999.25 1033.74010    5.67550   21.28190    -999.25   87.68390    -999.25    -999.25  -68.31270   22.68680   24.33850   30.45360
 6500.00000   12.64970    6.54940  199.73350    -999.25 1018.79800    4.17800   15.07780    -999.25  105.92460    -999.25    -999.25  -68.69940   16.14370   15.02090   17.32950
 6550.00000   13.78190    6.01800  182.31360    -999.25    -999.25    -999.25   13.34880    -999.25  112.29340    -999.25    -999.25  -68.52080   15.17020   14.03010   15.06340
 6600.00000   14.41780    6.81470  181.65860    -999.25    -999.25    -999.25   11.61250    -999.25  123.82510    -999.25    -999.25  -67.84230   13.18590   13.99920   13.61870
 6650.00000   13.31720    7.19880  187.56810    -999.25    -999.25    -999.25    -999.25    -999.25    -999.25    -999.25    -999.25  -66.03870   11.94000   12.37790   13.38250
 6700.00000   14.73560    6.69510  197.58830    -999.25    -999.25    -999.25    -999.25    -999.25    -999.25    -999.25    -999.25  -64.60560   11.48020   12.96550   12.25490
 6750.00000   14.76320    6.31150  180.71640    -999.25    -999.25    -999.25    -999.25    -999.25    -999.25    -999.25    -999.25  -66.49900   10.25080   12.16040   12.31920
 6800.00000   13.49250    7.05740  192.02200    -999.25    -999.25    -999.25    -999.25    -999.25    -999.25    -999.25    -999.25  -65.22640   21.55640   21.10800   20.79830
 6850.00000   14.47680    7.36220  187.75610    -999.25    -999.25    -999.25    -999.25    -999.25    -999.25    -999.25    -999.25  -63.72010   15.26340   18.71280   15.27350
 6900.00000   14.74110    6.85900  179.54960    -999.25    -999.25    -999.25    -999.25    -999.25    -999.25    -999.25    -999.25  -61.72230   16.89520   19.20560   18.17200
 6950.00000   14.71790    7.44060  185.49620    -999.25    -999.25    -999.25    -999.25    -999.25    -999.25    -999.25    -999.25  -63.43210   17.17700   18.68840   15.33900
 7000.00000   11.13780    7.67980  197.21230    -999.25    -999.25    -999.25    -999.25    -999.25    -999.25    -999.25    -999.25  -61.66050   26.73080   31.32400   23.76590
 7050.00000   14.33700    5.98200  175.42170    -999.25    -999.25    -999.25    -999.25    -999.25    -999.25    -999.25    -999.25  -62.99760   16.15560   23.24710   19.23310
 7100.00000   14.78110    6.19850  192.48550    -999.25    -999.25    -999.25    -999.25    -999.25    -999.25    -999.25    -999.25  -63.34410   11.97140   12.86000   13.46400
 7150.00000   14.78430    8.38110  185.77180    -999.25    -999.25    -999.25    -999.25    -999.25    -999.25    -999.25    -999.25  -63.84270   13.50390   15.72400   13.96470
 7200.00000   14.85320    6.51950  184.57970    -999.25    -999.25    -999.25    -999.25    -999.25    -999.25    -999.25    -999.25  -62.16040   12.91590   13.80020   12.34550
 7250.00000   14.78890    6.30620  188.58940    -999.25    -999.25    -999.25    -999.25    -999.25    -999.25    -999.25    -999.25  -62.82640    9.81130   10.55540   10.03410
 7300.00000   14.76580    6.02500  187.39540    -999.25    -999.25    -999.25    -999.25    -999.25    -999.25    -999.25    -999.25  -61.88570    7.49550    8.59390    8.32410
 7350.00000   14.77180    5.98670  183.04830    -999.25    -999.25    -999.25    -999.25    -999.25    -999.25    -999.25    -999.25  -63.30250    8.23080    8.84050    8.06440
 7400.00000   14.86460    6.29080  187.73170    -999.25    -999.25    -999.25    -999.25    -999.25    -999.25    -999.25    -999.25  -61.34440    8.14450    8.73160    7.82160
