~Version ---------------------------------------------------
VERS.      2.0 : CWLS log ASCII Standard -VERSION 2.0
WRAP.       NO : One line per depth step
CREA. 12/29/17 : LAS Creation Date
~Well ------------------------------------------------------
STRT.FT                        1050.0 : START DEPTH
STOP.FT                       10000.0 : STOP DEPTH
STEP.FT                      50.00000 : STEP LENGTH
NULL.                         -999.25 : NULL VALUE
COMP.        SKELLY OIL OF CANADA LTD : COMPANY
WELL. SKELLY B-1 TWO CREEK 11-9-62-16 : WELL
FLD .                                 : FIELD
LOC .                                 : LOCATION
CTRY.                          CANADA : COUNTRY
SRVC.                    Schlumberger : SERVICE COMPANY
DATE.                     07-Nov-1976 : LOGDATE
PROV.                         Alberta : PROVINCE
UWI .                100110906216W500 : UNIQUE WELL ID
SLAT.WGS84                   54.35197 : SURFACE LATITUDE
SLON.WGS84                  -116.3434 : SURFACE LONGITUDE
~Curve Information -----------------------------------------
DEPT    .FT    : Depth Curve
CALDED  .IN    : CALIPER  FROM DENSITY LOG [ADJ. TO RESISTIVITY LOG]
CALSED  .IN    : CALIPER FROM SONIC LOG
CALWS   .IN    : CALIPER [CALDED]
CILDED  .MMHO  : DEEP INDUCTION CONDUCTIVITY FROM RESISTIVITY LOG
CONDWS  .MMHO  : CONDUCTIVITY [1000/DRESWS]
DCORWS  .G/C3  : DENSITY CORRECTION [DRHOED]
DENWS   .G/C3  : FORMATION BULK DENSITY [CALC. FROM DPOLSWS,M=2.71 F=1.00]
DPHILSED.V/V   : DENSITY POROSITY LIMESTONE [M=2.71 F=1.00 ASSUMED] FROM DENSITY LOG
DPHISSED.V/V   : DENSITY POROSITY SANDSTONE [M=2.65 F=1.00 ASSUMED] FROM DENSITY LOG
DPOLSWS .V/V   : DENSITY POROSITY LIMESTONE [DPHISSED CONVERTED TO LIMESTONE MATRIX,M=2.71 F=1.00 & SPL. TO DPHILSED @ 6444']
DRESWS  .OHMM  : DEEP RESISTIVITY [ILDED] FROM START TO 1365.5' [1000/CILDED,IF ILDED<2,ELSE ILDED]
DRHOED  .G/C3  : DENSITY CORRECTION FROM DENSITY LOG
DTED    .US/F  : DELTA TIME FROM SONIC LOG
DTWS    .US/F  : COMPRESSIONAL SONIC [DTED]
GRDED   .GAPI  : GAMMA RAY FROM DENSITY LOG [ADJ. TO RESISTIVITY LOG]
GRSED   .GAPI  : GAMMA RAY FROM SONIC LOG
GRWS    .GAPI  : GAMMA RAY [GRSED SPL. TO GRDED @ 9980']
ILDED   .OHMM  : DEEP INDUCTION RESISTIVITY FROM RESISTIVITY LOG
ILMED   .OHMM  : MEDIUM INDUCTION RESISTIVITY FROM RESISTIVITY LOG
LL8ED   .OHMM  : LATEROLOG 8 FROM RESISTIVITY LOG
MRESWS  .OHMM  : MEDIUM RESISTIVITY [ILMED]
NEUTED  .NAPI  : NEUTRON FROM GRN LOG [ADJ. TO RESISTIVITY LOG]
NEUTWS  .NAPI  : NEUTRON [NEUTED]
NPHILSED.V/V   : NEUTRON POROSITY LIMESTONE FROM DENSITY LOG
NPHISSED.V/V   : NEUTRON POROSITY SANDSTONE FROM DENSITY LOG
NPOLSWS .V/V   : NEUTRON POROSITY LIMESTONE [NPHISSED MATRIX CONVERSION FOR LIMESTONE & SPL. TO NPHILSED @ 6446']
RHOBED  .G/C3  : BULK DENSITY FROM DENSITY LOG
SPRED   .MV    : SPONTANEOUS POTENTIAL FROM RESISTIVITY LOG
SPWS    .MV    : SPONTANEOUS POTENTIAL [BASELINE 0 MV,SPRED]
SRESWS  .OHMM  : SHALLOW RESISTIVITY [LL8ED]
~Params ----------------------------------------------------
PD  .                     GL : PERMANENT DATUM
EPD .FT                 2996 : ELEVATION PERMANENT DATUM
LMF .                     KB : LOG MEASURED FROM
DAPD.FT                   15 : FEET ABOVE PERMANENT DATUM
EKB .FT                 3011 : KELLY BUSHING
EGL .FT                 2996 : GROUND LEVEL
DATE.             11/07/1976 : RUN DATE
RUN .                      1 : RUN NUMBER
DD  .FT                10019 : DEPTH DRILLER
DL  .FT                10020 : DEPTH LOGGER
BLI .FT                10019 : BOTTOM LOG INTERVAL
TLI .FT                 5150 : TOP LOG INTERVAL
CBD .FT                 1041 : CASING BOTTOM DRILLER
CBL .FT                 1040 : CASING BOTTOM LOGGER
BS  .IN                7.875 : BIT SIZE
BSD .FT                10020 : BIT SIZE AT DEPTH
DFT .               GEL-CHEM : DRILLING FLUID TYPE
DFD .                    9.2 : DRILLING FLUID DENSITY
DFV .                     86 : DRILLING FLUID VISCOSITY
DFPH.                    9.0 : DRILLING FLUID PH
DFL .                    5.4 : DRILLING FLUID LOSS
RMS .OHMM               2.02 : RESISTIVITY MUD SAMPLE
MST .DEGF                 51 : MUD SAMPLE TEMPERATURE
RMF .OHMM               1.54 : RESISTIVITY MUD FILTRATE SAMPLE
MFST.DEGF                 65 : MUD FILTRATE SAMPLE TEMPERATURE
RMC .OHMM                2.1 : RESISTIVITY MUD CAKE
MCST.DEGF                 51 : MUD CAKE SAMPLE TEMPERATURE
RMB .OHMM               0.49 : RESISTIVITY MUD AT BHT
MRT .DEGF                206 : MAXIMUM RECORDED TEMPERATURE
LUN .                   7691 : LOGGING UNIT NUMBER
LUL .                    WCT : LOGGING UNIT LOCATION
ENGI.               ROCKFORD : RECORDING ENGINEER
WITN.                   BALL : WITNESSED BY
CLNT.                A2DTECH : CLIENT CODE
ORIG.               5" PRINT : ORIGIN OF DATA
UWI .       100110906216W500 : UNIQUE WELL ID
DICO. A2D Technologies, Inc. : DIGITIZING COMPANY
~Other -----------------------------------------------------
~ASCII -----------------------------------------------------
# ...
 8250.00000    -999.25    8.27400    8.27400    -999.25   10.71960    -999.25    -999.25    -999.25    -999.25    -999.25   93.28690    -999.25   48.48180   48.48180    -999.25   25.76370   25.76370   93.28690  109.68660  101.26130  109.68660    -999.25    -999.25    -999.25    -999.25    -999.25    -999.25  -81.15480  -70.42000  101.26130
 8300.00000    -999.25    8.07370    8.07370    -999.25   18.59160    -999.25    -999.25    -999.25    -999.25    -999.25   53.78770    -999.25   49.10820   49.10820    -999.25   25.98200   25.98200   53.78770   55.00060   86.82740   55.00060    -999.25    -999.25    -999.25    -999.25    -999.25    -999.25  -68.07380  -57.96690   86.82740
 8350.00000    -999.25    8.17190    8.17190    -999.25   15.41120    -999.25    -999.25    -999.25    -999.25    -999.25   64.88780    -999.25   53.01520   53.01520    -999.25   37.18610   37.18610   64.88780   74.11550   91.56310   74.11550    -999.25    -999.25    -999.25    -999.25    -999.25    -999.25  -28.63200  -19.15290   91.56310
 8400.00000    -999.25    8.17160    8.17160    -999.25    3.10990    -999.25    -999.25    -999.25    -999.25    -999.25  321.54940    -999.25   51.48870   51.48870    -999.25   29.93530   29.93530  321.54940  305.80850  347.05680  305.80850    -999.25    -999.25    -999.25    -999.25    -999.25    -999.25  -43.70170  -34.85040  347.05680
 8450.00000    -999.25    8.09510    8.09510    -999.25    6.34130    -999.25    -999.25    -999.25    -999.25    -999.25  157.69640    -999.25   52.55560   52.55560    -999.25   33.68160   33.68160  157.69640  165.40360  234.92760  165.40360    -999.25    -999.25    -999.25    -999.25    -999.25    -999.25  -31.76780  -23.54430  234.92760
 8500.00000    -999.25    8.10730    8.10730    -999.25    8.30480    -999.25    -999.25    -999.25    -999.25    -999.25  120.41280    -999.25   52.67480   52.67480    -999.25   32.31810   32.31810  120.41280   95.95080  146.09250   95.95080    -999.25    -999.25    -999.25    -999.25    -999.25    -999.25  -24.60390  -17.00820  146.09250
 8550.00000    -999.25    8.18170    8.18170    -999.25   17.98000    -999.25    -999.25    -999.25    -999.25    -999.25   55.61720    -999.25   54.44490   54.44490    -999.25   35.27590   35.27590   55.61720   50.19020   73.50660   50.19020    -999.25    -999.25    -999.25    -999.25    -999.25    -999.25  -19.02360  -12.05580   73.50660
 8600.00000    -999.25    8.93030    8.93030    -999.25   84.05830    -999.25    -999.25    -999.25    -999.25    -999.25   11.89650    -999.25   63.41780   63.41780    -999.25   58.67970   58.67970   11.89650   11.04420   15.56630   11.04420    -999.25    -999.25    -999.25    -999.25    -999.25    -999.25   -9.72000   -3.38000   15.56630
 8650.00000    -999.25    9.76670    9.76670    -999.25  169.73890    -999.25    -999.25    -999.25    -999.25    -999.25    5.89140    -999.25   73.48360   73.48360    -999.25   67.34700   67.34700    5.89140    5.60720    7.94070    5.60720    -999.25    -999.25    -999.25    -999.25    -999.25    -999.25  -15.46550   -9.75330    7.94070
 8700.00000    -999.25    8.18670    8.18670    -999.25   57.29210    -999.25    -999.25    -999.25    -999.25    -999.25   17.45440    -999.25   59.81490   59.81490    -999.25   51.60320   51.60320   17.45440   16.97390   22.78180   16.97390    -999.25    -999.25    -999.25    -999.25    -999.25    -999.25  -11.88340   -6.79900   22.78180
 8750.00000    -999.25    8.26480    8.26480    -999.25   77.49470    -999.25    -999.25    -999.25    -999.25    -999.25   12.90410    -999.25   63.75720   63.75720    -999.25   59.22930   59.22930   12.90410   12.41750   16.87460   12.41750    -999.25    -999.25    -999.25    -999.25    -999.25    -999.25   -8.47980   -4.02320   16.87460
 8800.00000    -999.25   11.76680   11.76680    -999.25  161.88830    -999.25    -999.25    -999.25    -999.25    -999.25    6.17710    -999.25   81.59460   81.59460    -999.25   83.70640   83.70640    6.17710    5.80860    8.52910    5.80860    -999.25    -999.25    -999.25    -999.25    -999.25    -999.25  -21.75260  -17.92390    8.52910
 8850.00000    -999.25    8.55710    8.55710    -999.25  125.81460    -999.25    -999.25    -999.25    -999.25    -999.25    7.94820    -999.25   74.59010   74.59010    -999.25   98.07220   98.07220    7.94820    7.48920   10.37590    7.48920    -999.25    -999.25    -999.25    -999.25    -999.25    -999.25  -10.50110   -8.17310   10.37590
 8900.00000    -999.25    8.35060    8.35060    -999.25   43.47410    -999.25    -999.25    -999.25    -999.25    -999.25   23.00220    -999.25   57.87450   57.87450    -999.25   54.67740   54.67740   23.00220   21.67820   27.71430   21.67820    -999.25    -999.25    -999.25    -999.25    -999.25    -999.25  -14.40900  -14.60340   27.71430
 8950.00000    -999.25    9.41370    9.41370    -999.25  125.37610    -999.25    -999.25    -999.25    -999.25    -999.25    7.97600    -999.25   70.75880   70.75880    -999.25   76.00010   76.00010    7.97600    7.19980   10.03590    7.19980    -999.25    -999.25    -999.25    -999.25    -999.25    -999.25  -20.16010  -22.87680   10.03590
 9000.00000    -999.25    9.32990    9.32990    -999.25  151.25850    -999.25    -999.25    -999.25    -999.25    -999.25    6.61120    -999.25   79.51970   79.51970    -999.25   82.78050   82.78050    6.61120    6.19730    8.18640    6.19730    -999.25    -999.25    -999.25    -999.25    -999.25    -999.25  -26.16060  -31.39960    8.18640
 9050.00000    -999.25    8.30510    8.30510    -999.25   82.64390    -999.25    -999.25    -999.25    -999.25    -999.25   12.10010    -999.25   65.65880   65.65880    -999.25   84.96600   84.96600   12.10010   11.55800   17.05910   11.55800    -999.25    -999.25    -999.25    -999.25    -999.25    -999.25  -13.03550  -20.79690   17.05910
 9100.00000    -999.25    8.26760    8.26760    -999.25   85.59810    -999.25    -999.25    -999.25    -999.25    -999.25   11.68250    -999.25   66.55690   66.55690    -999.25   85.27940   85.27940   11.68250   11.00560   16.14700   11.00560    -999.25    -999.25    -999.25    -999.25    -999.25    -999.25  -12.35580  -22.63950   16.14700
 9150.00000    -999.25    8.37980    8.37980    -999.25  118.17260    -999.25    -999.25    -999.25    -999.25    -999.25    8.46220    -999.25   69.48910   69.48910    -999.25   91.08970   91.08970    8.46220    8.17910   11.98180    8.17910    -999.25    -999.25    -999.25    -999.25    -999.25    -999.25  -19.29840  -32.10440   11.98180
 9200.00000    -999.25    8.63230    8.63230    -999.25  120.14470    -999.25    -999.25    -999.25    -999.25    -999.25    8.32330    -999.25   72.27820   72.27820    -999.25   97.19030   97.19030    8.32330    8.01380   12.75230    8.01380    -999.25    -999.25    -999.25    -999.25    -999.25    -999.25  -19.34760  -34.67590   12.75230
 9250.00000    -999.25    8.14240    8.14240    -999.25  103.21090    -999.25    -999.25    -999.25    -999.25    -999.25    9.68890    -999.25   66.73620   66.73620    -999.25   80.87770   80.87770    9.68890    9.86660   15.42080    9.86660    -999.25    -999.25    -999.25    -999.25    -999.25    -999.25  -11.13100  -28.98170   15.42080
 9300.00000    -999.25    8.05390    8.05390    -999.25   81.42200    -999.25    -999.25    -999.25    -999.25    -999.25   12.28170    -999.25   66.10690   66.10690    -999.25   89.13470   89.13470   12.28170   12.71140   19.16150   12.71140    -999.25    -999.25    -999.25    -999.25    -999.25    -999.25  -12.62280  -32.99580   19.16150
 9350.00000    -999.25    8.21220    8.21220    -999.25  149.56180    -999.25    -999.25    -999.25    -999.25    -999.25    6.68620    -999.25   73.17560   73.17560    -999.25   99.59610   99.59610    6.68620    7.10930   10.36430    7.10930    -999.25    -999.25    -999.25    -999.25    -999.25    -999.25  -13.60160  -36.49690   10.36430
 9400.00000    7.92640    7.90550    7.90550    -999.25    0.78220    0.01130    2.54550    0.09620    -999.25    0.09620 1278.39940    0.01130   65.24220   65.24220  187.17680  180.62370  180.62370 1278.39940 1446.08780 1516.61320 1446.08780  571.41090  571.41090    0.10300    -999.25    0.10300    2.55070  -62.16560  -84.13050 1516.61320
