~Version ---------------------------------------------------
VERS. 2.0 : CWLS log ASCII Standard -VERSION 2.0
WRAP.  NO : ONE LINE PER DEPTH STEP
~Well ------------------------------------------------------
STRT.F                        450.0 : START DEPTH
STOP.F                       6550.0 : STOP DEPTH
STEP.F                     50.00000 : STEP LENGTH
NULL.                       -999.25 : NULL VALUE
COMP.      CHEVRON STANDARD LIMITED : COMPANY
WELL. CHEVRON GIFT LAKE 11-11-78-12 : WELL
FLD .                               : FIELD
LOC .                               : LOCATION
CTRY.                        CANADA : COUNTRY
SRVC.                  Schlumberger : SERVICE COMPANY
DATE.                   09-Mar-1976 : LOGDATE
PROV.                       Alberta : PROVINCE
UWI .              100111107812W500 : UNIQUE WELL ID
SLAT.WGS84                 55.74751 : SURFACE LATITUDE
SLON.WGS84                -115.7501 : SURFACE LONGITUDE
~Curve Information -----------------------------------------
DEPT.F                 : 
CALS.IN   60 280 50 00 : CALIPER FROM SONIC LOG
DT  .US/F 60 500 00 00 : DELTA-T (INTERVAL TRANSIT TIME)
GRS .GAPI 60 310 01 00 : GAMMA RAY FROM SONIC LOG
ILD .OHMM 07 120 46 00 : INDUCTION DEEP RESISTIVITY
ILM .OHMM 07 120 44 00 : INDUCTION MEDIUM RESISTIVITY
DFL .OHMM 07 220 01 00 : DIGITAL FOCUSED LATEROLOG
SPR .MV   07 010 01 00 : SPONTANEOUS POTENTIAL FROM RESISTIVITY LOG
GR  .GAPI 99 310 01 00 : GAMMA RAY FROM CEMENT BOND
~Params ----------------------------------------------------
PD  .                     GL : PERMANENT DATUM
EPD .FT               2302.2 : ELEVATION PERMANENT DATUM
LMF .                     KB : LOG MEASURED FROM
DAPD.FT                 12.4 : FEET ABOVE PERMANENT DATUM
EKB .FT               2314.6 : KELLY BUSHING
EGL .FT               2302.2 : GROUND LEVEL
DATE.               03/09/76 : RUN DATE
RUN .                      1 : RUN NUMBER
DD  .FT                 6585 : DEPTH DRILLER
DL  .FT                 6586 : DEPTH LOGGER
BLI .FT                 6580 : BOTTOM LOG INTERVAL
TLI .FT                  716 : TOP LOG INTERVAL
CBD .FT                  717 : CASING BOTTOM DRILLER
CBL .FT                  716 : CASING BOTTOM LOGGER
BS  .IN                7.875 : BIT SIZE
BSD .FT                 6585 : BIT SIZE AT DEPTH
DFT .               GEL CHEM : DRILLING FLUID TYPE
DFD .                    9.3 : DRILLING FLUID DENSITY
DFV .                     70 : DRILLING FLUID VISCOSITY
DFPH.                    9.5 : DRILLING FLUID PH
DFL .                      9 : DRILLING FLUID LOSS
MSS .               FLOWLINE : MUD SAMPLE SOURCE
RMS .OHMM               0.61 : RESISTIVITY MUD SAMPLE
MST .DEGF                 57 : MUD SAMPLE TEMPERATURE
RMF .OHMM               0.52 : RESISTIVITY MUD FILTRATE SAMPLE
MFST.DEGF                0.9 : MUD FILTRATE SAMPLE TEMPERATURE
RMC .OHMM                0.9 : RESISTIVITY MUD CAKE
MCST.DEGF                 65 : MUD CAKE SAMPLE TEMPERATURE
TCS .HRS                 1.5 : TIME CIRCULATED STOPPED
LUN .                   7635 : LOGGING UNIT NUMBER
LUL .                    EDM : LOGGING UNIT LOCATION
ENGI.                SWANSON : RECORDING ENGINEER
WITN.                   WONG : WITNESSED BY
CLNT.                A2DTECH : CLIENT CODE
ORIG.            2" 5" PRINT : ORIGIN OF DATA
UWI .       100111107812W500 : UNIQUE WELL ID
DICO. A2D Technologies, Inc. : DIGITIZING COMPANY
~Other -----------------------------------------------------
~ASCII -----------------------------------------------------
  450.00000    -999.25    -999.25    -999.25    -999.25    -999.25    -999.25    -999.25   19.55800
  500.00000    -999.25    -999.25    -999.25    -999.25    -999.25    -999.25    -999.25   40.27170
  550.00000    -999.25    -999.25    -999.25    -999.25    -999.25    -999.25    -999.25    -999.25
  600.00000    -999.25    -999.25    -999.25    -999.25    -999.25    -999.25    -999.25    -999.25
  650.00000    -999.25    -999.25    -999.25    -999.25    -999.25    -999.25    -999.25    -999.25
  700.00000    -999.25    -999.25   74.20070    -999.25    -999.25    -999.25    -999.25    -999.25
  750.00000   10.15370  154.11460   62.88760    8.55000    4.30510    6.29300  -52.21380    -999.25
  800.00000   10.19040  130.44990   79.94740    6.10640    5.14390    5.60790  -65.04070    -999.25
  850.00000   10.86330  131.74380   77.73790    5.82380    5.11160    4.94890  -54.62740    -999.25
  900.00000   12.57590  142.07520   92.29170    3.92850    3.40030    4.23470  -56.18510    -999.25
  950.00000   11.52680  133.99730   85.48930    5.48690    4.66670    5.06260  -50.07980    -999.25
 1000.00000   11.25390  140.29160   95.08140    3.60440    3.37510    4.04660  -52.65690    -999.25
 1050.00000   11.75230  133.27280   94.28110    4.62660    4.08640    4.83200  -47.39260    -999.25
 1100.00000   14.19260  140.14580   82.67870    4.87470    4.29540    4.74010  -37.60600    -999.25
 1150.00000   11.87100  150.15330  132.85650    2.54730    2.32670    3.12600  -42.19990    -999.25
 1200.00000   11.18890  159.07360   96.63390    2.64460    2.35380    3.19060  -33.83600    -999.25
 1250.00000   11.35370  140.68830   97.00690    3.17980    2.86890    3.57290  -27.98950    -999.25
 1300.00000   10.53970  104.37320   76.22590    4.68900    4.35470    6.33580  -16.35260    -999.25
 1350.00000   10.58530  139.41520  121.97590    4.42700    3.71350    3.37870  -25.11120    -999.25
 1400.00000    9.10590  118.70230   46.96220    7.30230   13.15010    5.48720  -26.88080    -999.25
 1450.00000    9.38080  162.51960   47.81230    3.03140    2.09350    4.28020  -10.78070    -999.25
 1500.00000    8.72290  126.38090   55.85230    4.89880    5.83730    7.11390  -26.25960    -999.25
 1550.00000   10.51480  144.68420   68.13770    2.31730    2.15880    2.47520  -10.60770    -999.25
 1600.00000    9.80340  124.89680   50.00650    4.27400    3.90200    3.62170  -15.58590    -999.25
 1650.00000    9.07840  110.26040   58.69810   12.18210   14.91180   21.96590  -21.61370    -999.25
 1700.00000    8.93160   53.55280   47.98570   15.14840    9.84930  271.75680   -9.18700    -999.25
 1750.00000    9.84230  114.67990   76.29530    3.02100    2.89400    3.60060  -17.68910    -999.25
 1800.00000    9.01430  107.26220   58.73620    5.50080    5.15390    6.26160  -29.67260    -999.25
 1850.00000    9.90900  113.25900   66.19290    3.42470    3.18690    4.03380  -36.97250    -999.25
 1900.00000   10.61980  105.38250   68.64430    4.79740    4.41450    6.02990  -20.53860    -999.25
 1950.00000   10.01960  113.97390   64.95850    3.38490    3.17980    3.90800  -19.60660    -999.25
 2000.00000   10.81540  111.59840   67.71040    4.24410    4.07510    3.87320  -22.54720    -999.25
 2050.00000   10.41250  106.98710   66.93900    4.52420    4.18620    4.57510   -7.45440    -999.25
 2100.00000   10.22540   96.76680   70.57010    5.53500    4.94070    6.70680  -19.85490    -999.25
 2150.00000    9.73470  106.36740   72.23790    5.88020    4.67450    6.12820  -31.66330    -999.25
 2200.00000    9.47150  102.08510   67.06230    6.21250    5.12200    6.22080  -40.52810    -999.25
 2250.00000    9.89380  114.56170   59.33950    2.61450    2.22100    3.93360  -56.56060    -999.25
 2300.00000    9.17480   99.59180   24.94230   92.75290  203.00810  223.69710  -77.82420    -999.25
 2350.00000    9.03860   80.09400   66.89640   10.28640   14.17990   22.09260  -74.32990    -999.25
 2400.00000    9.29060   80.04540   25.40110   13.65000   15.95760   22.03880  -71.10500    -999.25
 2450.00000    8.73250   69.99680   27.52700   52.44930   17.21140   44.60000  -68.65260    -999.25
 2500.00000    8.62000   69.28630   12.59240   29.92670   34.60290  401.73090  -48.72940    -999.25
 2550.00000    8.55890   65.41670   22.07980   15.46110   23.29260   17.04670  -52.59240    -999.25
 2600.00000    9.79980   82.43270   42.99380    9.24660    7.90510   10.82920  -27.27410    -999.25
 2650.00000   10.88120   90.31300   49.30760    7.30170    5.44070    8.89200   -7.98400    -999.25
 2700.00000    9.17770   67.88340   27.54150   10.44800    7.64590   12.10320   -8.74870    -999.25
 2750.00000    8.25720   65.64150   15.08610   85.66020   69.95420  142.41290  -33.55880    -999.25
 2800.00000    8.00850   68.09550   14.78310   81.78390   64.60150  111.24760  -28.75940    -999.25
 2850.00000   10.62000   98.69880   62.99260    3.64130    3.28510    4.46730  -18.59090    -999.25
 2900.00000   10.00230   88.49520   61.36050    5.05990    4.03030    5.72520  -22.85170    -999.25
 2950.00000   11.05770   91.73390   55.06650    2.62650    2.67260    3.88160  -20.99990    -999.25
 3000.00000    9.02310   78.50910   49.34180    5.85240    4.89240    7.02740  -21.31990    -999.25
 3050.00000    8.52380   67.86230   20.91040    7.20150    6.51060    9.17690  -38.08660    -999.25
 3100.00000    8.87530   72.01040   32.05880    6.67560    5.95670   11.19850  -17.19520    -999.25
 3150.00000    8.51680   65.59510   32.11580   19.69880   12.30850   24.94840   -8.44510    -999.25
 3200.00000    8.98150   66.35320   30.05100   20.33730   16.10860   37.55040  -37.97390    -999.25
 3250.00000    8.73160   62.58900   18.52710   17.98180   14.11400   26.01830  -85.61060    -999.25
 3300.00000    8.98530   77.17590   51.63120    5.32400    4.86340    6.78060  -76.72020    -999.25
 3350.00000   10.18230   88.09550  100.52390    3.27350    3.04240    3.71280  -93.78330    -999.25
 3400.00000    8.37290   62.56840   22.08790   16.40400   13.02550   23.10200  -85.16740    -999.25
 3450.00000    8.52520   66.95420   24.94000   11.55880    9.32970   12.92850  -95.04210    -999.25
 3500.00000    8.35530   61.88640   28.92310   14.74230   12.05370   18.85900  -75.80720    -999.25
 3550.00000   11.81410  103.08220   57.79950    2.53580    2.25530    3.13930  -50.31290    -999.25
 3600.00000    8.47880   72.26000   36.10050    8.24690    6.92260    9.18340  -30.62030    -999.25
 3650.00000   11.64460  124.66450  196.11870    2.17970    2.01660    2.67900  -23.79190    -999.25
 3700.00000    8.41180   57.52050   26.19610   27.93370   19.56920   30.76070  -30.57140    -999.25
 3750.00000    8.50710   52.28350   13.83460   43.28040   35.77160   69.15630  -51.09890    -999.25
 3800.00000    8.30380   53.69170   13.60570   37.92290   22.16240   37.63500  -35.78730    -999.25
 3850.00000    8.37530   53.78270   12.64450   39.28230   25.17200   66.75630  -36.72580    -999.25
 3900.00000    8.49520   51.70700   13.66740   57.33250   37.67130  113.76540   -9.45210    -999.25
 3950.00000    8.27230   54.86930   16.34510   20.86810   19.55660   68.05820  -33.00390    -999.25
 4000.00000    8.39500   52.78490   11.97060   30.42800   26.15520   79.16020  -63.54150    -999.25
 4050.00000    7.84320   58.14070   14.30030   12.22040   16.34880   56.89170  -72.01610    -999.25
 4100.00000    7.95610   54.80780   12.47520   22.65440   20.31980   53.46220  -64.62060    -999.25
 4150.00000    7.80930   56.02840   13.58670   18.96240   16.03610   56.19360  -67.52500    -999.25
 4200.00000    8.17820   49.46610   13.44980 1807.76730   62.67190  219.32660  -23.59720    -999.25
 4250.00000    8.25830   52.07190   14.01390   76.22520   32.29510   73.05740  -39.82110    -999.25
 4300.00000    8.30790   51.71780   13.87420  113.84120   36.25900   81.80250  -59.33700    -999.25
 4350.00000    8.47680   52.75700   16.11070  109.27010   41.43430   84.91760  -71.64230    -999.25
 4400.00000    8.60690   50.44040   13.52370 1119.45890   75.73900  159.49230  -83.92210    -999.25
