~Version ---------------------------------------------------
VERS.      2.0 : CWLS log ASCII Standard -VERSION 2.0
WRAP.       NO : One line per depth step
CREA. 01/03/18 : LAS Creation Date
~Well ------------------------------------------------------
STRT.FT                 1000.0 : START DEPTH
STOP.FT                12750.0 : STOP DEPTH
STEP.FT               50.00000 : STEP LENGTH
NULL.                  -999.25 : NULL VALUE
COMP.      TALISMAN ENERGY INC : COMPANY
WELL. TALISMAN EDSON 6-8-52-17 : WELL
FLD .                          : FIELD
LOC .                          : LOCATION
CTRY.                   CANADA : COUNTRY
SRVC.   Schlumberger of Canada : SERVICE COMPANY
DATE.              06-May-1978 : LOGDATE
PROV.                  Alberta : PROVINCE
UWI .         100060805217W500 : UNIQUE WELL ID
SLAT.WGS84            53.47276 : SURFACE LATITUDE
SLON.WGS84           -116.4739 : SURFACE LONGITUDE
~Curve Information -----------------------------------------
DEPT    .FT    : Depth Curve
CALDED  .IN    : CALIPER FROM DENSITY LOG [ADJ. TO RESISTIVITY LOG]
CALSED  .IN    : CALIPER FROM SONIC LOG
CALWS   .IN    : CALIPER [CALSED]
CILDED  .MMHO  : DEEP CONDUCTIVITY FROM RESISTIVITY LOG
CONDWS  .MMHO  : CONDUCTIVITY [1000/DRESWS]
DCORED  .G/C3  : DENSITY CORRECTION FROM DENSITY LOG
DCORWS  .G/C3  : DENSITY CORRECTION [DCORED]
DENWS   .G/C3  : FORMATION BULK DENSITY [CALC. FROM DPOLSWS , M=2.71 F=1.00]
DPHILSED.V/V   : DENSITY POROSITY LIMESTONE [M=2.71 F=1.00] FROM DENSITY LOG [ADJ. TO RESISTIVITY LOG]
DPHISSED.V/V   : DENSITY POROSITY SANDSTONE [M=2.71 F=1.00] FROM DENSITY LOG [ADJ. TO RESISTIVITY LOG]
DPOLSWS .V/V   : DENSITY POROSITY LIMESTONE [DPHISSED MATRIX CONVERSION FOR LIMESTONE , M=2.71 F=1.00 & SPL TO DPHILSED @ 9209']
DRESWS  .OHMM  : DEEP RESISTIVITY [1000/CILDED IF ILDED<1, ILDED & SPL. TO ILDED 6256']
DTED    .US/F  : DELTA TIME FROM SONIC LOG
DTWS    .US/F  : COMPRESSIONAL SONIC [DTED]
GRDED   .GAPI  : GAMMA RAY FROM DENSITY LOG [ADJ. TO RESISTIVITY LOG]
GRSED   .GAPI  : GAMMA RAY FROM SONIC LOG
GRWS    .GAPI  : GAMMA RAY [GRSED]
ILDED   .OHMM  : DEEP INDUCTION RESISTIVITY FROM RESISTIVITY LOG
ILMED   .OHMM  : MEDIUM INDUCTION RESISTIVITY FROM RESISTIVITY LOG
LL8ED   .OHMM  : LATEROLOG 8 RESISTIVITY FROM RESISTIVITY LOG
MRESWS  .OHMM  : MEDIUM RESISTIVITY [ILMED]
NPHILSED.V/V   : NEUTRON POROSITY LIMESTONE FROM DENSITY LOG [ADJ. TO RESISTIVITY LOG]
NPHISSED.V/V   : NEUTRON POROSITY  SANDSTONE FROM DENSITY LOG [ADJ. TO RESISTIVITY LOG]
NPOLSWS .V/V   : NEUTRON POROSITY LIMESTONE [NPHISSED MATRIX CONVERSION FOR LIMESTONE & SPL. TO NPHILSED @ 9198']
RHOBED  .G/C3  : FORMATION BULK DENSITY  FROM DENSITY LOG[ADJ. TO RESISTIVITY LOG]
SPRED   .MV    : SPONTANEOUS POTENTIAL FROM RESISTIVITY LOG
SPWS    .MV    : SPONTANEOUS POTENTIAL [BASELINE 0 MV. SPRED]
SRESWS  .OHMM  : SHALLOW RESISTIVITY [LL8ED]
~Params ----------------------------------------------------
PD  .                     GL : PERMANENT DATUM
EPD .FT               3147.2 : ELEVATION PERMANENT DATUM
LMF .                     KB : LOG MEASURED FROM
DAPD.FT                 22.3 : FEET ABOVE PERMANENT DATUM
EKB .FT               3169.5 : KELLY BUSHING
EGL .FT               3147.2 : GROUND LEVEL
DATE.               05/31/78 : RUN DATE
RUN .                      2 : RUN NUMBER
DD  .FT                12769 : DEPTH DRILLER
DL  .FT                12757 : DEPTH LOGGER
BLI .FT                12751 : BOTTOM LOG INTERVAL
TLI .FT                 9616 : TOP LOG INTERVAL
CBD .FT                 9625 : CASING BOTTOM DRILLER
BS  .IN                  8.5 : BIT SIZE
BSD .FT                12769 : BIT SIZE AT DEPTH
DFT .                    GEL : DRILLING FLUID TYPE
DFD .                    9.1 : DRILLING FLUID DENSITY
DFV .                     51 : DRILLING FLUID VISCOSITY
DFPH.                     10 : DRILLING FLUID PH
DFL .                     22 : DRILLING FLUID LOSS
MSS .               FLOWLINE : MUD SAMPLE SOURCE
RMF .OHMM              0.809 : RESISTIVITY MUD FILTRATE SAMPLE
MFST.DEGF                 63 : MUD FILTRATE SAMPLE TEMPERATURE
TCS .HRS                  12 : TIME CIRCULATED STOPPED
LUN .                   7800 : LOGGING UNIT NUMBER
LUL .                    EDM : LOGGING UNIT LOCATION
ENGI.               BERNISKY : RECORDING ENGINEER
WITN.               BRINKMAN : WITNESSED BY
CLNT.                A2DTECH : CLIENT CODE
ORIG.            2" 5" PRINT : ORIGIN OF DATA
UWI .       100060805217W500 : UNIQUE WELL ID
DICO. A2D Technologies, Inc. : DIGITIZING COMPANY
~Other -----------------------------------------------------
~ASCII -----------------------------------------------------
 1000.00000    -999.25    -999.25    -999.25    -999.25    -999.25    -999.25    -999.25    -999.25    -999.25    -999.25    -999.25    -999.25    -999.25    -999.25    -999.25   67.29850   67.29850    -999.25    -999.25    -999.25    -999.25    -999.25    -999.25    -999.25    -999.25    -999.25    -999.25    -999.25
 1050.00000   11.05540   13.31590   13.31590   80.62480   74.06430    -999.25    -999.25    1.92030    -999.25    0.44230    0.46180   13.54200   82.05870   82.05870   78.43590   66.63720   66.63720   13.54200    -999.25    9.53570    -999.25    -999.25    0.50050    0.46070    -999.25 -242.69980  -46.49460    9.53570
 1100.00000   17.04210   14.63500   14.63500  157.48100  179.56550    -999.25    -999.25    1.99730    -999.25    0.39560    0.41680    5.56900  109.27890  109.27890   73.41410  107.90300  107.90300    5.56900    -999.25    6.43120    -999.25    -999.25    0.51180    0.47260    -999.25 -256.14030  -34.22090    6.43120
 1150.00000    -999.25   13.27660   13.27660   59.88240   56.46140    -999.25    -999.25    -999.25    -999.25    -999.25    -999.25   17.71120   87.16760   87.16760    -999.25   60.27820   60.27820   17.71120    -999.25   11.80480    -999.25    -999.25    -999.25    -999.25    -999.25 -238.31200  -53.22380   11.80480
 1200.00000    -999.25   13.19010   13.19010   79.53470   83.23690    -999.25    -999.25    -999.25    -999.25    -999.25    -999.25   12.01390   82.82110   82.82110    -999.25   90.83740   90.83740   12.01390    -999.25    8.06430    -999.25    -999.25    -999.25    -999.25    -999.25 -253.62890  -39.08920    8.06430
 1250.00000    -999.25   13.60770   13.60770   49.04010   52.87170    -999.25    -999.25    -999.25    -999.25    -999.25    -999.25   18.91370   90.18320   90.18320    -999.25   69.67410   69.67410   18.91370    -999.25   11.38580    -999.25    -999.25    -999.25    -999.25    -999.25 -237.33800  -56.55470   11.38580
 1300.00000    -999.25   13.13570   13.13570   49.27210   48.53890    -999.25    -999.25    -999.25    -999.25    -999.25    -999.25   20.60920   89.52810   89.52810    -999.25   69.41420   69.41420   20.60920    -999.25   12.13550    -999.25    -999.25    -999.25    -999.25    -999.25 -237.04270  -58.02450   12.13550
 1350.00000    -999.25   12.57990   12.57990   62.48560   67.00300    -999.25    -999.25    -999.25    -999.25    -999.25    -999.25   14.92470   84.22890   84.22890    -999.25   96.00760   96.00760   14.92470    -999.25   13.71590    -999.25    -999.25    -999.25    -999.25    -999.25 -265.16560  -31.08390   13.71590
 1400.00000    -999.25   13.28060   13.28060  117.99650  121.08300    -999.25    -999.25    -999.25    -999.25    -999.25    -999.25    8.25880   98.39850   98.39850    -999.25   90.85470   90.85470    8.25880    -999.25   13.25540    -999.25    -999.25    -999.25    -999.25    -999.25 -280.32760  -17.09650   13.25540
 1450.00000    -999.25   13.08020   13.08020  127.94250   91.25590    -999.25    -999.25    -999.25    -999.25    -999.25    -999.25   10.95820   91.74910   91.74910    -999.25  107.33170  107.33170   10.95820    -999.25   10.88490    -999.25    -999.25    -999.25    -999.25    -999.25 -284.44840  -14.15800   10.88490
 1500.00000    -999.25   13.26340   13.26340  132.39330  129.67980    -999.25    -999.25    -999.25    -999.25    -999.25    -999.25    7.71130   89.11180   89.11180    -999.25   90.52300   90.52300    7.71130    -999.25    6.48550    -999.25    -999.25    -999.25    -999.25    -999.25 -282.65160  -17.12930    6.48550
 1550.00000    -999.25   13.22540   13.22540   58.66460   57.34850    -999.25    -999.25    -999.25    -999.25    -999.25    -999.25   17.43730   82.03960   82.03960    -999.25   68.36410   68.36410   17.43730    -999.25   11.46720    -999.25    -999.25    -999.25    -999.25    -999.25 -277.60100  -23.35450   11.46720
 1600.00000    -999.25   12.94490   12.94490  103.51780   97.77660    -999.25    -999.25    -999.25    -999.25    -999.25    -999.25   10.22740   89.04820   89.04820    -999.25  110.11960  110.11960   10.22740    -999.25    7.52690    -999.25    -999.25    -999.25    -999.25    -999.25 -291.03200  -11.10580    7.52690
 1650.00000    -999.25   13.02110   13.02110  172.02220  151.76810    -999.25    -999.25    -999.25    -999.25    -999.25    -999.25    6.58900   96.90790   96.90790    -999.25   96.06670   96.06670    6.58900    -999.25    6.24060    -999.25    -999.25    -999.25    -999.25    -999.25 -290.17380  -13.13850    6.24060
 1700.00000    -999.25   13.69310   13.69310  130.74320  164.55490    -999.25    -999.25    -999.25    -999.25    -999.25    -999.25    6.07700   97.11720   97.11720    -999.25  102.05370  102.05370    6.07700    -999.25    4.74960    -999.25    -999.25    -999.25    -999.25    -999.25 -298.60400   -5.89060    4.74960
 1750.00000    -999.25   12.40460   12.40460   41.75990   42.43370    -999.25    -999.25    -999.25    -999.25    -999.25    -999.25   23.56620   80.08680   80.08680    -999.25   60.33330   60.33330   23.56620    -999.25   15.31160    -999.25    -999.25    -999.25    -999.25    -999.25 -291.26460  -14.40460   15.31160
 1800.00000    -999.25   12.90100   12.90100  120.34820  118.09530    -999.25    -999.25    -999.25    -999.25    -999.25    -999.25    8.46800   89.51950   89.51950    -999.25  101.28060  101.28060    8.46800    -999.25    6.24990    -999.25    -999.25    -999.25    -999.25    -999.25 -305.46470   -1.37910    6.24990
 1850.00000    -999.25   13.21990   13.21990   74.98810   78.71350    -999.25    -999.25    -999.25    -999.25    -999.25    -999.25   12.70430   83.63810   83.63810    -999.25  101.90240  101.90240   12.70430    -999.25    9.36930    -999.25    -999.25    -999.25    -999.25    -999.25 -298.15650   -8.73920    9.36930
 1900.00000    -999.25   12.99940   12.99940   65.92640   62.45080    -999.25    -999.25    -999.25    -999.25    -999.25    -999.25   16.01260   86.88850   86.88850    -999.25   68.15240   68.15240   16.01260    -999.25    9.29270    -999.25    -999.25    -999.25    -999.25    -999.25 -293.89240  -12.81430    9.29270
 1950.00000    -999.25   13.35490   13.35490  106.65860  104.96370    -999.25    -999.25    -999.25    -999.25    -999.25    -999.25    9.52710   79.25240   79.25240    -999.25   82.27750   82.27750    9.52710    -999.25    7.90050    -999.25    -999.25    -999.25    -999.25    -999.25 -300.62750   -5.88890    7.90050
 2000.00000    -999.25   14.09530   14.09530  150.68350  144.21070    -999.25    -999.25    -999.25    -999.25    -999.25    -999.25    6.93430   85.23720   85.23720    -999.25   93.23890   93.23890    6.93430    -999.25    6.03420    -999.25    -999.25    -999.25    -999.25    -999.25 -303.09330   -3.23410    6.03420
 2050.00000    -999.25   13.95420   13.95420  143.68650  155.03840    -999.25    -999.25    -999.25    -999.25    -999.25    -999.25    6.49340   89.16470   89.16470    -999.25  108.46990  108.46990    6.49340    -999.25    5.52940    -999.25    -999.25    -999.25    -999.25    -999.25 -305.14380   -0.99460    5.52940
 2100.00000    -999.25   15.08180   15.08180  401.37550  358.12770    -999.25    -999.25    -999.25    -999.25    -999.25    -999.25    2.79230  120.52450  120.52450    -999.25   97.67910   97.67910    2.79230    -999.25    2.08920    -999.25    -999.25    -999.25    -999.25    -999.25 -305.08650   -0.86160    2.08920
 2150.00000    -999.25   15.06680   15.06680  531.16940  305.25030    -999.25    -999.25    -999.25    -999.25    -999.25    -999.25    3.27600  125.15170  125.15170    -999.25   79.38780   79.38780    3.27600    -999.25    1.92350    -999.25    -999.25    -999.25    -999.25    -999.25 -295.75110  -10.00800    1.92350
 2200.00000    -999.25   12.86760   12.86760  162.68970  148.23600    -999.25    -999.25    -999.25    -999.25    -999.25    -999.25    6.74600   88.01510   88.01510    -999.25  102.12770  102.12770    6.74600    -999.25    5.76900    -999.25    -999.25    -999.25    -999.25    -999.25 -300.50190   -5.06690    5.76900
