~Version ---------------------------------------------------
VERS.      2.0 : CWLS log ASCII Standard -VERSION 2.0
WRAP.       NO : One line per depth step
CREA. 12/07/17 : LAS Creation Date
~Well ------------------------------------------------------
STRT.FT                                  300.0 : START DEPTH
STOP.FT                                 6600.0 : STOP DEPTH
STEP.FT                               50.00000 : STEP LENGTH
NULL.                                  -999.25 : NULL VALUE
COMP. THE BRITISH AMERICAN OIL COMPANY LIMITED : COMPANY
WELL.             B.A. RED WILLOW 6-10-41-19W4 : WELL
FLD .                                          : FIELD
LOC .                                          : LOCATION
CTRY.                                   CANADA : COUNTRY
SRVC.                             Schlumberger : SERVICE COMPANY
DATE.                              22-Jan-1959 : LOGDATE
PROV.                                  Alberta : PROVINCE
UWI .                         100061004119W400 : UNIQUE WELL ID
SLAT.WGS84                            52.51217 : SURFACE LATITUDE
SLON.WGS84                           -112.6579 : SURFACE LONGITUDE
~Curve Information -----------------------------------------
DEPT   .FT         : Depth Curve
AMLLED .OHMM       : AMPLIFIED MICRO-LATEROLOG RESISTIVITY
CALWS  .IN         : CALIPER [MCALED]
CILDED .MMHO       : CONDUCTIVITY FROM RESISTIVITY LOG
CONDWS .MMHO       : CONDUCTIVITY [1000/DRESWS]
DRESWS .OHMM       : DEEP RESISTIVITY [ILDED] IF ILDED<1;1000/CILDED;ELSE ILDED
GRNED  .UgRa-Eq/T  : GAMMA RAY FROM GRN LOG
GRWS   .GAPI       : GAMMA RAY [GRNED] (CONVERTED SCALE *16.5API)
ILDED  .OHMM       : INDUCTION LOG DEEP RESISTIVITY
MCALED .IN         : MICROCALIPER FROM MLL LOG
NEUT1ED.CU         : NEUTRON FROM NEUTRON LOG
NEUT2ED.CU         : NEUTRON FROM NEUTRON LOG
NEUTED .CPS        : NEUTRON FROM GRN LOG [DEPTH ADJ TO ILD]
NEUTWS .CU         : NEUTRON [NEUTED]
SNED   .OHMM       : 16 INCH SHORT NORMAL RESISTIVITY FROM IEL
SPRED  .MV         : SPONTANEOUS POTENTIAL FROM RESISTIVITY LOG
SPWS   .MV         : SPONTANEOUS POTENTIAL [BASELINE 0 MV] [SPRED]
SRESWS .OHMM       : SHALLOW RESISTIVITY [SNED]
~Params ----------------------------------------------------
LMF .                     KB : LOG MEASURED FROM
DMF .                     KB : DRILLING MEASURED FROM
EKB .FT                 2582 : KELLY BUSHING
DATE.               01/22/59 : RUN DATE
RUN .                      2 : RUN NUMBER
DD  .FT                 6600 : DEPTH DRILLER
DL  .FT                 6601 : DEPTH LOGGER
BLI .FT                 6596 : BOTTOM LOG INTERVAL
TLI .FT                 4382 : TOP LOG INTERVAL
CBD .FT                  625 : CASING BOTTOM DRILLER
CBL .FT                  624 : CASING BOTTOM LOGGER
BS  .IN                7.875 : BIT SIZE
BSD .FT                 6600 : BIT SIZE AT DEPTH
DFT .               GYP BASE : DRILLING FLUID TYPE
DFD .                   10.2 : DRILLING FLUID DENSITY
DFV .                     65 : DRILLING FLUID VISCOSITY
DFPH.                      7 : DRILLING FLUID PH
DFL .                    8.8 : DRILLING FLUID LOSS
MSS .             CURCULATED : MUD SAMPLE SOURCE
RMS .OHMM                0.7 : RESISTIVITY MUD SAMPLE
MST .DEGF                 55 : MUD SAMPLE TEMPERATURE
RMF .OHMM                0.4 : RESISTIVITY MUD FILTRATE SAMPLE
MFST.DEGF                 72 : MUD FILTRATE SAMPLE TEMPERATURE
RMC .OHMM                  1 : RESISTIVITY MUD CAKE
MCST.DEGF                 72 : MUD CAKE SAMPLE TEMPERATURE
RMB .OHMM               0.28 : RESISTIVITY MUD AT BHT
TCS .HRS                   2 : TIME CIRCULATED STOPPED
LUN .                  2753C : LOGGING UNIT NUMBER
LUL .                     RD : LOGGING UNIT LOCATION
ENGI.                FORSTER : RECORDING ENGINEER
WITN.                CARLSEN : WITNESSED BY
CLNT.                A2DTECH : CLIENT CODE
ORIG.            2" 5" PRINT : ORIGIN OF DATA
UWI .       100061004119W400 : UNIQUE WELL ID
DICO. A2D Technologies, Inc. : DIGITIZING COMPANY
~Other -----------------------------------------------------
IEL/MICROLOG/GRN LOG RUN
~ASCII -----------------------------------------------------
# ...
 4400.00000   25.90270    7.97490   67.28050   79.95590   12.50690    5.02890   82.97680   12.50690    7.97490    -999.25    -999.25  241.01300  241.01300   15.96240  -42.45790  -26.29020   15.96240
 4450.00000  500.94360    7.88870   60.46470   63.62940   15.71600    1.38680   22.88220   15.71600    7.88870    -999.25    -999.25  299.03450  299.03450   30.61590  -62.78620  -46.72010   30.61590
 4500.00000  273.05470    8.04080    0.00000    2.26480  441.54030    1.28530   21.20750  441.54030    8.04080    -999.25    -999.25  410.34290  410.34290   87.31270  -56.81370  -40.84920   87.31270
 4550.00000  500.06690    8.00130    0.00000    2.15350  464.36140    0.78190   12.90140  464.36140    8.00130    -999.25    -999.25  483.33670  483.33670   78.23480  -52.99090  -37.12800   78.23480
 4600.00000  238.57900    8.32090    1.69640    4.43630  225.41240    1.81390   29.92930  225.41240    8.32090    -999.25    -999.25  368.36470  368.36470   63.81850  -34.85930  -19.09790   63.81850
 4650.00000  502.34270    8.01870    0.00000    2.13110  469.24380    1.59830   26.37200  469.24380    8.01870    -999.25    -999.25  403.81620  403.81620   74.47340  -36.09800  -20.43820   74.47340
 4700.00000   99.26560    7.91630  106.10710  103.53570    9.65850    1.82220   30.06550    9.65850    7.91630    -999.25    -999.25  305.21880  305.21880   34.84460  -82.87490  -67.31670   34.84460
 4750.00000   75.34260    7.82790   32.79820   39.30680   25.44090    1.64340   27.11610   25.44090    7.82790    -999.25    -999.25  321.84250  321.84250   40.87970  -82.92540  -67.46880   40.87970
 4800.00000  256.60990    7.86650    9.07210   12.45890   80.26360    1.98190   32.70130   80.26360    7.86650    -999.25    -999.25  339.86840  339.86840   49.71490  -85.57960  -70.22460   49.71490
 4850.00000   63.68390    7.76420   18.09430   21.94560   45.56720    1.18390   19.53440   45.56720    7.76420    -999.25    -999.25  258.21540  258.21540   43.62900  -92.11500  -76.86160   43.62900
 4900.00000   18.15030    7.88850   60.96040   71.91450   13.90540    5.56670   91.85050   13.90540    7.88850    -999.25    -999.25  261.50470  261.50470   17.15950  -56.95230  -41.80050   17.15950
 4950.00000   16.79850    7.92120   77.50670   87.69780   11.40280    5.97270   98.54950   11.40280    7.92120    -999.25    -999.25  225.63180  225.63180   13.39340  -39.77950  -24.72920   13.39340
 5000.00000   49.42210    8.02200  126.56490  127.44370    7.84660    5.39710   89.05210    7.84660    8.02200    -999.25    -999.25  250.96360  250.96360   11.60280  -21.00260   -6.05390   11.60280
 5050.00000    7.10260    8.05230  155.49760  169.86580    5.88700    8.98240  148.20960    5.88700    8.05230    -999.25    -999.25  207.89100  207.89100    8.35670  -24.17780   -9.33070    8.35670
 5100.00000    7.55610    8.05050  117.29590  125.80520    7.94880    8.61960  142.22340    7.94880    8.05050    -999.25    -999.25  233.47020  233.47020   10.29680  -25.86950  -11.12400   10.29680
 5150.00000    9.39080    8.13980  109.58110  122.83810    8.14080    7.45480  123.00420    8.14080    8.13980    -999.25    -999.25  218.57510  218.57510   10.66310  -21.92520   -7.28130   10.66310
 5200.00000    8.89700    8.09300  118.92000  125.96360    7.93880    9.10350  150.20780    7.93880    8.09300    -999.25    -999.25  209.23950  209.23950   10.21840  -20.81270   -6.27040   10.21840
 5250.00000   12.81940    8.08600  104.53480  111.68320    8.95390    8.50870  140.39350    8.95390    8.08600    -999.25    -999.25  226.59380  226.59380   11.83260  -32.01130  -17.57060   11.83260
 5300.00000   10.23770    8.08950  107.08490  113.98610    8.77300    9.59150  158.25980    8.77300    8.08950    -999.25    -999.25  214.19530  214.19530   11.55770  -36.73710  -22.39790   11.55770
 5350.00000   12.90060    8.05890   87.61140   94.90640   10.53670    7.79190  128.56640   10.53670    8.05890    -999.25    -999.25  225.97030  225.97030   13.72290  -36.16820  -21.93060   13.72290
 5400.00000   18.60850    8.04240   60.92640   68.11570   14.68090    6.66830  110.02700   14.68090    8.04240    -999.25    -999.25  232.10730  232.10730   21.13640  -26.40600  -12.27000   21.13640
 5450.00000   30.12020    7.95960   63.33840   67.17540   14.88640    6.61300  109.11450   14.88640    7.95960    -999.25    -999.25  228.56830  228.56830   19.66760  -22.67960   -8.64520   19.66760
 5500.00000  409.30870    7.93740   11.51030   13.45040   74.34710    2.68350   44.27770   74.34710    7.93740    -999.25    -999.25  380.77690  380.77690   37.68990  -15.03060   -1.09780   37.68990
 5550.00000  124.85730    7.74600   51.76460   57.52580   17.38350    1.69230   27.92300   17.38350    7.74600    -999.25    -999.25  361.86620  361.86620   38.08460  -62.52250  -48.69130   38.08460
 5600.00000  501.82610    7.84660    3.48520    3.46900  288.27150    1.52650   25.18720  288.27150    7.84660    -999.25    -999.25  436.65080  436.65080   54.42050  -57.37550  -43.64590   54.42050
 5650.00000  502.20280    7.85640    0.00000    2.15530  463.97120    2.09450   34.55920  463.97120    7.85640    -999.25    -999.25  433.85680  433.85680   59.97520 -101.12640  -87.49840   59.97520
 5700.00000   59.81930    7.77690    8.77830   11.17260   89.50430    4.16430   68.71090   89.50430    7.77690    -999.25    -999.25  299.49560  299.49560   40.94850  -97.12570  -83.59920   40.94850
 5750.00000   46.22220    7.76540   56.89320   67.24140   14.87180    1.32300   21.82950   14.87180    7.76540    -999.25    -999.25  295.95050  295.95050   32.96870 -100.05090  -86.62600   32.96870
 5800.00000   20.37260    7.80150   41.77670   50.98010   19.61550    1.31640   21.72060   19.61550    7.80150    -999.25    -999.25  379.95720  379.95720   25.86200  -67.34660  -54.02330   25.86200
 5850.00000   45.13870    7.79880   23.42900   26.57300   37.63220    4.63700   76.51050   37.63220    7.79880    -999.25    -999.25  269.24530  269.24530   27.46450  -26.90100  -13.67930   27.46450
 5900.00000   34.19480    7.89790   45.34980   53.26540   18.77390    5.79890   95.68180   18.77390    7.89790    -999.25    -999.25  232.82720  232.82720   21.44800  -22.63970   -9.51960   21.44800
 5950.00000   20.13060    7.88290   46.73680   54.60300   18.31400    5.91350   97.57270   18.31400    7.88290    -999.25    -999.25  242.97130  242.97130   19.14990  -34.79290  -21.77440   19.14990
 6000.00000  271.60300    7.85320    0.00000    2.14850  465.43290    1.62420   26.79930  465.43290    7.85320    -999.25    -999.25  437.71120  437.71120   62.80400  -54.22110  -41.30420   62.80400
 6050.00000   28.57150    7.83730   14.32790   17.36680   57.58100    1.95400   32.24100   57.58100    7.83730    -999.25    -999.25  381.64220  381.64220   39.62490  -71.25930  -58.44390   39.62490
 6100.00000  175.45240    7.83450    4.75780    8.26870  120.93860    1.50190   24.78140  120.93860    7.83450    -999.25    -999.25  424.15910  424.15910   49.31990  -66.39990  -53.68610   49.31990
 6150.00000  211.77480    7.80730    4.18900    5.57940  179.23060    2.90830   47.98700  179.23060    7.80730    -999.25    -999.25  337.34940  337.34940   51.25900  -51.75780  -39.14560   51.25900
 6200.00000   99.69850    7.84270    8.06400   11.35460   88.06990    1.85460   30.60090   88.06990    7.84270    -999.25    -999.25  373.95650  373.95650   38.86620  -40.99370  -28.48310   38.86620
 6250.00000   92.87210    7.85660   40.18570   47.94190   20.85860    5.30070   87.46160   20.85860    7.85660    -999.25    -999.25  229.24500  229.24500   21.68420  -33.74340  -21.33440   21.68420
 6300.00000   58.77930    7.73700    8.68080   11.92600   83.85070    1.49850   24.72520   83.85070    7.73700    -999.25    -999.25  417.53880  417.53880   42.23150  -80.16240  -67.85500   42.23150
 6350.00000  115.64700    7.88880    8.60240   13.03850   76.69580    2.88810   47.65360   76.69580    7.88880    -999.25    -999.25  328.53410  328.53410   33.53640  -57.48510  -45.27930   33.53640
 6400.00000   23.23290    7.86680   84.87050   92.71110   10.78620    7.17540  118.39410   10.78620    7.86680    -999.25    -999.25  219.70240  219.70240   14.15130  -38.22270  -26.11840   14.15130
