~Version ---------------------------------------------------
VERS.      2.0 : CWLS log ASCII Standard -VERSION 2.0
WRAP.       NO : One line per depth step
CREA. 08/02/17 : LAS Creation Date
~Well ------------------------------------------------------
STRT.FT                        650.0 : START DEPTH
STOP.FT                      10150.0 : STOP DEPTH
STEP.FT                     50.00000 : STEP LENGTH
NULL.                        -999.25 : NULL VALUE
COMP.     THE CALIFORNIA STANDARD CO : COMPANY
WELL. CALSTAN B A IOSEGUN 7-33-63-19 : WELL
FLD .                         KAYBOB : FIELD
LOC .                                : LOCATION
CTRY.                         CANADA : COUNTRY
SRVC.         Schlumberger of Canada : SERVICE COMPANY
DATE.                    08-Oct-1957 : LOGDATE
PROV.                        Alberta : PROVINCE
UWI .               100073306319W500 : UNIQUE WELL ID
SLAT.WGS84                  54.49249 : SURFACE LATITUDE
SLON.WGS84                 -116.8075 : SURFACE LONGITUDE
~Curve Information -----------------------------------------
DEPT  .FT    : Depth Curve
CALWS .IN    : CALIPER [MCALED]
CILDED.MMHO  : CONDUCTIVITY FROM RESISTIVITY LOG
CONDWS.MMHO  : CONDUCTIVITY [1000/DRESWS]
DRESWS.OHMM  : DEEP RESISTIVITY [ILDED] IF ILDED<1;1000/CILDED; ELSE ILDED
GRNED .CU    : GAMMA RAY FROM NEUTRON LOG [ADJ TO ILDED]
GRWS  .CU    : GAMMA RAY [GRNED, CASED HOLE DATA]
ILDED .OHMM  : INDUCTION LOG DEEP RESISTIVITY
LATED .OHMM  : 18 FOOT 8 INCH LATERAL RESISTIVITY FROM IEL
LNED  .OHMM  : 64 INCH LONG NORMAL RESISTIVITY FROM IEL
MCALED.IN    : CALIPER MICROLOG
MLLED .OHMM  : MICROLATEROLOG RESISTIVITY [ADJ TO ILDED]
NEUTED.CU    : NEUTRON FROM NEUTRON LOG [ADJ TO ILDED]
NEUTWS.CU    : NEUTRON [NEUTED]
SNED  .OHMM  : 16 INCH SHORT NORMAL RESISTIVITY FROM IEL
SPRED .MV    : SPONTANEOUS POTENTIAL FROM RESISTIVITY LOG
SPWS  .MV    : SPONTANEOUS POTENTIAL [BASELINE 0 MV] [SPRED]
SRESWS.OHMM  : SHALLOW RESISTIVITY [SNED]
~Params ----------------------------------------------------
LMF .                     KB : LOG MEASURED FROM
DMF .                     KB : DRILLING MEASURED FROM
EKB .FT                 2601 : KELLY BUSHING
EGL .FT                 2588 : GROUND LEVEL
DATE.               10/08/57 : RUN DATE
RUN .                      1 : RUN NUMBER
DD  .FT                10194 : DEPTH DRILLER
DL  .FT                10189 : DEPTH LOGGER
BLI .FT                10188 : BOTTOM LOG INTERVAL
TLI .FT                  825 : TOP LOG INTERVAL
CBD .FT                  825 : CASING BOTTOM DRILLER
CBL .FT                  825 : CASING BOTTOM LOGGER
BS  .IN                    9 : BIT SIZE
BSD .FT                10194 : BIT SIZE AT DEPTH
DFT .                    GEL : DRILLING FLUID TYPE
DFD .                   10.6 : DRILLING FLUID DENSITY
DFV .                    177 : DRILLING FLUID VISCOSITY
DFPH.                    9.5 : DRILLING FLUID PH
DFL .                    5.4 : DRILLING FLUID LOSS
RMS .OHMM                8.0 : RESISTIVITY MUD SAMPLE
RMF .OHMM                1.6 : RESISTIVITY MUD FILTRATE SAMPLE
MFST.DEGF                 62 : MUD FILTRATE SAMPLE TEMPERATURE
RMC .OHMM                2.1 : RESISTIVITY MUD CAKE
MCST.DEGF                 62 : MUD CAKE SAMPLE TEMPERATURE
RMB .OHMM                1.0 : RESISTIVITY MUD AT BHT
TCS .HRS                   2 : TIME CIRCULATED STOPPED
LUN .                   1534 : LOGGING UNIT NUMBER
LUL .                     VV : LOGGING UNIT LOCATION
ENGI.               THOMPSON : RECORDING ENGINEER
WITN.                JOHNSON : WITNESSED BY
CLNT.                A2DTECH : CLIENT CODE
ORIG.            2" 5" PRINT : ORIGIN OF DATA
UWI .       100073306319W500 : UNIQUE WELL ID
DICO. A2D Technologies, Inc. : DIGITIZING COMPANY
~Other -----------------------------------------------------
~ASCII -----------------------------------------------------
# ...
 6800.00000   10.77260   27.06090   23.91660   41.81190    5.15010    5.15010   41.81190  179.33170  167.24460   10.77260   19.44070 1952.87330 1952.87330   69.98020 -193.75930  -96.88450   69.98020
 6850.00000    8.97010   40.51490   35.35480   28.28620    5.40870    5.40870   28.28620  609.20300  200.17720    8.97010   39.53450 1964.82390 1964.82390   75.19960 -253.37450 -157.32080   75.19960
 6900.00000   10.88210   17.02320   14.59620   68.51370    6.73520    6.73520   68.51370  445.15260  267.98330   10.88210  370.36740 1998.40260 1998.40260   96.66660 -239.39550 -144.15880   96.66660
 6950.00000    9.50810  270.39720  261.24670    3.82780   20.07970   20.07970    3.82780   25.97530   13.13750    9.50810   57.88740 1729.94900 1729.94900    8.00920 -147.67960  -53.26400    8.00920
 7000.00000    9.81450  386.88710  346.42370    2.88670   23.42920   23.42920    2.88670    1.98480    6.72260    9.81450    5.69390 1347.14660 1347.14660    4.44540 -134.84020  -41.23750    4.44540
 7050.00000    9.81900  201.34340  195.03820    5.12720   20.67000   20.67000    5.12720    3.66150   15.28410    9.81900   10.68080 1428.49620 1428.49620    9.93200 -126.92360  -34.13380    9.93200
 7100.00000   10.48870   51.12500   43.25410   23.12070   19.94490   19.94490   23.12070   50.05200   56.88170   10.48870   32.41460 1713.80860 1713.80860   31.52210  -98.10820   -6.13950   31.52210
 7150.00000    9.92490   28.81250   26.70380   37.61660   10.76100   10.76100   37.61660  293.64810   99.19780    9.92490   31.23090 2320.16500 2320.16500   56.52840  -95.50380   -4.04580   56.52840
 7200.00000   10.24460   30.89900   25.97940   38.49200    7.89770    7.89770   38.49200  144.96380  102.16580   10.24460   77.89520 2524.41940 2524.41940   46.80340 -120.55680  -29.09880   46.80340
 7250.00000    9.12200   22.89370   20.25400   49.37360   12.58510   12.58510   49.37360   94.93210  115.43800    9.12200  174.30580 1902.63260 1902.63260   58.74260 -111.88600  -20.42800   58.74260
 7300.00000    8.97490   16.59160   14.82570   67.45060   13.86040   13.86040   67.45060  182.65370  136.25600    8.97490  108.34140 1891.59180 1891.59180   67.52130 -102.51260  -11.05460   67.52130
 7350.00000    8.96850   21.39190   18.84530   53.06410   16.57300   16.57300   53.06410  152.83130  111.71820    8.96850  104.33830 1611.79680 1611.79680   59.79360  -98.76460   -7.30660   59.79360
 7400.00000    9.17340   28.98560   24.98560   40.02400   20.21640   20.21640   40.02400   95.93350   87.85630    9.17340   53.90390 1514.65090 1514.65090   45.90910  -95.52660   -4.06850   45.90910
 7450.00000    9.28270    7.42150    3.42150  292.26590   11.20840   11.20840  292.26590  921.07990  404.07210    9.28270  400.46440 1569.02220 1569.02220  125.60240  -93.92280   -2.48730  125.60240
 7500.00000    9.30760   22.12270   20.33930   49.17260   16.70410   16.70410   49.17260  127.74910   92.51950    9.30760   96.79680 1664.82540 1664.82540   48.44910  -99.37050   -8.38360   48.44910
 7550.00000    9.44020   69.47370   65.47370   15.27330   31.50630   31.50630   15.27330   64.94930   42.99390    9.44020   27.57200 1591.14000 1591.14000   20.60260 -105.03770  -14.49930   20.60260
 7600.00000    9.83820    9.05320    5.05310  197.90910    7.32330    7.32330  197.90910  618.15590  864.20240    9.83820   83.57170 2328.33790 2328.33790  184.28010 -125.40110  -35.31580  184.28010
 7650.00000    9.41220    7.98350    3.98350  251.20930    7.04200    7.04200  251.20930  962.06160  650.17000    9.41220  401.53470 2572.82590 2572.82590  122.95570 -146.35600  -56.72150  122.95570
 7700.00000    9.38500   15.44830   11.65310   85.81440    6.45440    6.45440   85.81440 1085.98280  417.86000    9.38500  383.47920 2569.15140 2569.15140   98.28440 -151.56530  -62.38390   98.28440
 7750.00000    9.72130   10.27400    7.56280  132.28740    4.62000    4.62000  132.28740  916.90830  648.30050    9.72130  402.08910 2570.26510 2570.26510  126.46320 -176.89110  -88.15820  126.46320
 7800.00000   10.74280   11.73230    7.73230  129.32750    5.99130    5.99130  129.32750  467.30270  346.24090   10.74280   14.77120 2328.03830 2328.03830   99.67260 -160.74050  -72.45620   99.67260
 7850.00000   10.33700    9.45430    5.45430  183.35540    5.10210    5.10210  183.35540 1318.83840  659.35240   10.33700  100.43290 2341.16210 2341.16210  120.26990 -187.74910  -99.91790  120.26990
 7900.00000   10.72750   13.43760   10.77830   92.79770    5.18920    5.18920   92.79770 1429.33760  311.75390   10.72750  111.58830 2343.20480 2343.20480   81.90290 -220.95590 -133.57550   81.90290
 7950.00000   10.94720    9.00460    5.92430  168.79660    6.64070    6.64070  168.79660  517.99240  361.39710   10.94720   18.87200 1726.04050 1726.04050   99.11810 -190.36200 -103.43460   99.11810
 8000.00000   11.24750   12.89170    4.60470  217.58380    6.27890    6.27890  217.58380 1154.35860  510.55490   11.24750   22.26910 1751.42940 1751.42940  115.11420 -189.33970 -102.86080  115.11420
 8050.00000   11.88350    6.75920    2.75920  362.42390    6.23630    6.23630  362.42390  375.26210  415.19220   11.88350   42.15000 1780.55540 1780.55540  121.67810 -199.50830 -113.47800  121.67810
 8100.00000   11.42960   13.05860    9.05860  111.04330    5.81590    5.81590  111.04330  962.41260  490.58540   11.42960   13.72960 2097.52610 2097.52610   99.04730 -206.92570 -121.34840   99.04730
 8150.00000   11.31280   16.94500   13.22610   75.78320    5.00050    5.00050   75.78320  646.17140  235.42190   11.31280   40.85910 1767.59080 1767.59080   73.82190 -218.68520 -133.55870   73.82190
 8200.00000   11.30000   22.12160   20.48670   48.81210    5.49520    5.49520   48.81210  344.51170  166.92640   11.30000   35.13380 2139.97050 2139.97050   68.50440 -234.26180 -149.58840   68.50440
 8250.00000    9.17780   24.80200   20.80190   48.08470    6.96110    6.96110   48.08470  477.51060  284.39180    9.17780  341.13600 2412.58570 2412.58570  106.36210    -999.25    -999.25  106.36210
 8300.00000   11.08560   10.31140    3.16390  316.06660    7.17790    7.17790  316.06660  114.97830  203.21950   11.08560  158.40410 1979.93210 1979.93210   94.69040 -220.98000 -137.20370   94.69040
 8350.00000    8.70350   26.82930   25.65040   39.23470   12.50630   12.50630   39.23470  353.30420  175.59330    8.70350  127.84560 2016.07570 2016.07570   68.29190 -228.68550 -145.36230   68.29190
 8400.00000    8.14280   11.02500    7.84520  127.47000    5.42970    5.42970  127.47000  722.99170  323.65010    8.14280   40.78490 1542.88770 1542.88770  104.00630 -266.22930 -183.35690  104.00630
 8450.00000   10.51110   28.87530   23.61870   42.33930    7.54550    7.54550   42.33930  133.20000   87.02060   10.51110   20.81640 1435.52890 1435.52890   46.47450 -226.25390 -143.83460   46.47450
 8500.00000   10.33060    9.94930    6.67740  150.00710    7.41700    7.41700  150.00710  578.69140  257.91850   10.33060   30.98460 1751.87880 1751.87880   85.25120 -219.86400 -137.89330   85.25120
 8550.00000    9.01340   22.61190   20.68340   48.34800   11.71820   11.71820   48.34800  413.92090  145.37300    9.01340   93.58710 2055.17870 2055.17870   56.68770 -152.45290  -70.93070   56.68770
 8600.00000    9.62290   39.02150   35.48360   28.20930   21.55910   21.55910   28.20930  304.45240   73.82090    9.62290   57.58220 1792.50290 1792.50290   40.92440 -128.61420  -47.54500   40.92440
 8650.00000   10.24210   17.83490   16.61010   60.21920   12.64900   12.64900   60.21920  103.00870  124.28270   10.24210   57.90620 1858.13550 1858.13550   64.75360 -128.67870  -48.06030   64.75360
 8700.00000    8.96230   19.14910   15.96820   62.62440   14.10090   14.10090   62.62440   82.14890  113.61310    8.96230   64.61830 2238.70650 2238.70650   62.92130 -120.53490  -40.36960   62.92130
 8750.00000    8.99130   24.82860   21.34860   46.84340   15.46570   15.46570   46.84340  137.31340   91.03970    8.99130   69.12160 1910.34700 1910.34700   50.06050 -107.77020  -28.05350   50.06050
 8800.00000    9.15270   34.59660   30.79010   32.47800   17.54080   17.54080   32.47800   66.55380   58.38780    9.15270   44.70360 1812.98300 1812.98300   38.94330 -104.05120  -24.78300   38.94330
