~Version ---------------------------------------------------
VERS.      2.0 : CWLS log ASCII Standard -VERSION 2.0
WRAP.       NO : One line per depth step
CREA. 08/01/17 : LAS Creation Date
~Well ------------------------------------------------------
STRT.FT                        1000.0 : START DEPTH
STOP.FT                        9200.0 : STOP DEPTH
STEP.FT                      50.00000 : STEP LENGTH
NULL.                         -999.25 : NULL VALUE
COMP.                LL&E  CANADA LTD : COMPANY
WELL. LL&E ET AL CHICKADEE 7-35-60-14 : WELL
FLD .                        WINDFALL : FIELD
LOC .                                 : LOCATION
CTRY.                          CANADA : COUNTRY
SRVC.                    Schlumberger : SERVICE COMPANY
DATE.                     10-Nov-1969 : LOGDATE
PROV.                         Alberta : PROVINCE
UWI .                100073506014W500 : UNIQUE WELL ID
SLAT.WGS84                     54.229 : SURFACE LATITUDE
SLON.WGS84                  -115.9821 : SURFACE LONGITUDE
~Curve Information -----------------------------------------
DEPT  .FT    : Depth Curve
CALSED.IN    : CALIPER FROM SONIC LOG
CALWS .IN    : CALIPER [CALSED]
CONDWS.MMHO  : CONDUCTIVITY [1000/DRESWS]
DRESWS.OHMM  : DEEP RESISTIVITY [ILDED]
DTED  .US/F  : DELTA TIME FROM SONIC LOG
DTWS  .US/F  : COMPRESSIONAL SONIC [DTED]
GRSED .GAPI  : GAMMA RAY FROM SONIC LOG
GRWS  .GAPI  : GAMMA RAY [GRSED]
ILDED .OHMM  : DEEP INDUCTION RESISTIVITY FROM RESISTIVITY LOG
ILMED .OHMM  : MEDIUM INDUCTION RESISTIVITY FROM RESISTIVITY LOG
LL8ED .OHMM  : 8 INCH LATEROLOG RESISTIVITY FROM RESISTIVITY LOG
MRESWS.OHMM  : MEDIUM RESISTIVITY [ILMED]
SPRED .MV    : SPONTANEOUS POTENTIAL FROM RESISTIVITY LOG
SPWS  .MV    : SPONTANEOUS POTENTIAL [BASELINE 0 MV, SPRED]
SRESWS.OHMM  : SHALLOW RESISTIVITY [RFOCED]
~Params ----------------------------------------------------
PD  .                     GL : PERMANENT DATUM
LMF .                     KB : LOG MEASURED FROM
DAPD.FT                 13.7 : FEET ABOVE PERMANENT DATUM
EGL .FT               2582.3 : GROUND LEVEL
DATE.               11/10/69 : RUN DATE
RUN .                      1 : RUN NUMBER
DD  .FT                 9222 : DEPTH DRILLER
DL  .FT                 9221 : DEPTH LOGGER
BLI .FT                 9217 : BOTTOM LOG INTERVAL
TLI .FT                 1027 : TOP LOG INTERVAL
CBD .FT                 1027 : CASING BOTTOM DRILLER
CBL .FT                 1028 : CASING BOTTOM LOGGER
BS  .IN                 8.75 : BIT SIZE
BSD .FT                 9222 : BIT SIZE AT DEPTH
DFT .                    GEL : DRILLING FLUID TYPE
DFD .                    9.4 : DRILLING FLUID DENSITY
DFV .                    200 : DRILLING FLUID VISCOSITY
DFPH.                   10.5 : DRILLING FLUID PH
DFL .                    6.4 : DRILLING FLUID LOSS
RMS .OHMM               1.07 : RESISTIVITY MUD SAMPLE
MST .DEGF                 62 : MUD SAMPLE TEMPERATURE
RMF .OHMM               0.79 : RESISTIVITY MUD FILTRATE SAMPLE
MFST.DEGF                 67 : MUD FILTRATE SAMPLE TEMPERATURE
RMC .OHMM               1.26 : RESISTIVITY MUD CAKE
MCST.DEGF                 66 : MUD CAKE SAMPLE TEMPERATURE
MCSS.               MEASURED : MUD CAKE SAMPLE SOURCE
RMB .OHMM               0.79 : RESISTIVITY MUD AT BHT
TCS .HRS                   3 : TIME CIRCULATED STOPPED
LUN .                   7502 : LOGGING UNIT NUMBER
LUL .                    EDM : LOGGING UNIT LOCATION
ENGI.              NICKERSON : RECORDING ENGINEER
WITN.                WOODMAN : WITNESSED BY
CLNT.                A2DTECH : CLIENT CODE
ORIG.            2" 5" PRINT : ORIGIN OF DATA
UWI .       100073506014W500 : UNIQUE WELL ID
DICO. A2D Technologies, Inc. : DIGITIZING COMPANY
~Other -----------------------------------------------------
~ASCII -----------------------------------------------------
# ...
 7900.00000   12.87710   12.87710  238.08390    4.20020   83.41960   83.41960   84.16450   84.16450    4.20020    3.62950    5.16320    3.62950  -31.38290   -3.25280    5.16320
 7950.00000    9.24840    9.24840  132.61990    7.54100   73.46420   73.46420   86.67760   86.67760    7.54100    7.15090    8.83380    7.15090  -40.63590   -7.89700    8.83380
 8000.00000    9.20490    9.20490   97.46490   10.26010   62.43940   62.43940   53.54500   53.54500   10.26010    9.50760   13.61780    9.50760  -40.92660   -4.42420   13.61780
 8050.00000   10.36880   10.36880  155.63960    6.42510   72.01600   72.01600   64.99260   64.99260    6.42510    5.76780    7.76690    5.76780  -47.72050  -13.17390    7.76690
 8100.00000    9.96430    9.96430  206.38980    4.84520   80.33210   80.33210   77.59890   77.59890    4.84520    4.50860    6.41010    4.50860  -49.40630  -16.82840    6.41010
 8150.00000    8.86190    8.86190   74.83290   13.36310   61.64280   61.64280   62.16100   62.16100   13.36310   14.51520   19.54790   14.51520  -33.51270   -2.45440   19.54790
 8200.00000    8.95430    8.95430  128.16790    7.80260   69.02880   69.02880   80.55840   80.55840    7.80260    7.30190    9.99900    7.30190  -42.88050   -8.22880    9.99900
 8250.00000    8.79030    8.79030  104.81740    9.54040   68.33530   68.33530   67.10600   67.10600    9.54040   10.09670   12.82550   10.09670  -48.02610   -9.80450   12.82550
 8300.00000    8.77790    8.77790  157.24010    6.35970   71.43840   71.43840   85.41970   85.41970    6.35970    6.90980    8.81140    6.90980  -50.14550   -8.35410    8.81140
 8350.00000    8.84160    8.84160  114.92540    8.70130   68.66540   68.66540   88.40290   88.40290    8.70130    9.08990   12.18290    9.08990  -50.83220   -5.44740   12.18290
 8400.00000    8.94170    8.94170  134.25160    7.44870   72.69730   72.69730   94.50950   94.50950    7.44870    8.03250   12.88430    8.03250  -51.96760   -3.01300   12.88430
 8450.00000    9.06890    9.06890  152.14770    6.57270   72.34910   72.34910   87.89620   87.89620    6.57270    6.24440    9.04050    6.24440  -51.28650   -4.61730    9.04050
 8500.00000    8.94260    8.94260  143.42260    6.97240   70.58830   70.58830   87.64390   87.64390    6.97240    6.57410    8.50760    6.57410  -48.54050   -3.52370    8.50760
 8550.00000    9.56860    9.56860  169.16470    5.91140   74.67010   74.67010   89.76940   89.76940    5.91140    5.42140    8.01270    5.42140  -47.16540   -3.20210    8.01270
 8600.00000    8.91850    8.91850  118.50170    8.43870   75.92430   75.92430  137.49280  137.49280    8.43870    7.72640    9.83700    7.72640  -33.78270   -4.18420    9.83700
 8650.00000    8.74830    8.74830   35.59300   28.09540   56.28630   56.28630   41.19900   41.19900   28.09540   29.84300   38.76410   29.84300  -28.76180   -4.12900   38.76410
 8700.00000    8.80290    8.80290   11.09940   90.50320   69.11320   69.11320   72.18940   72.18940   90.50320  124.95060  265.96280  124.95060  -16.19010  -10.86460  265.96280
 8750.00000    8.77340    8.77340    0.64920 1540.47450   47.74220   47.74220    9.80560    9.80560 1540.47450 1423.22810 1472.91470 1423.22810  -52.14770  -57.79320 1472.91470
 8800.00000    8.76190    8.76190    0.65200 1533.79110   48.83480   48.83480    7.36710    7.36710 1533.79110 1410.44640 1479.03720 1410.44640  -76.16600  -81.22140 1479.03720
 8850.00000    8.74280    8.74280   10.10990   98.91320   48.56280   48.56280    6.24000    6.24000   98.91320  107.21650  155.52750  107.21650  -65.98250  -70.44390  155.52750
 8900.00000    8.75400    8.75400    3.73630  267.64600   48.59870   48.59870   10.69340   10.69340  267.64600  677.04900 1010.94960  677.04900 -103.75540 -107.62660 1010.94960
 8950.00000    8.14660    8.14660   18.79520   53.31360   50.33200   50.33200    9.47360    9.47360   53.31360   60.23490  139.04580   60.23490 -117.45970 -120.73690  139.04580
 9000.00000    8.54530    8.54530   30.44860   32.84220   48.86370   48.86370    7.31620    7.31620   32.84220   60.62890  101.57370   60.62890 -118.66450 -121.35150  101.57370
 9050.00000    8.67850    8.67850    2.11420  472.98890   49.80930   49.80930   10.47430   10.47430  472.98890  975.35550  402.46690  975.35550 -100.42100 -102.51790  402.46690
 9100.00000    8.65520    8.65520   15.33080   65.22830   51.49810   51.49810    9.81180    9.81180   65.22830   53.83190  144.75690   53.83190  -94.10630  -95.60920  144.75690
 9150.00000    8.64600    8.64600    8.70200  114.91660   48.93490   48.93490   35.95960   35.95960  114.91660  292.51430 1442.08420  292.51430  -21.66700  -22.57970 1442.08420
 9200.00000    8.63130    8.63130  350.11030    2.85860   57.16500   57.16500    -999.25    -999.25    2.85860    3.14900   15.28220    3.14900 -110.85670 -111.64520   15.28220
