~Version ---------------------------------------------------
VERS.      2.0 : CWLS log ASCII Standard -VERSION 2.0
WRAP.       NO : One line per depth step
CREA. 12/12/17 : LAS Creation Date
~Well ------------------------------------------------------
STRT.FT                      1200.0 : START DEPTH
STOP.FT                     11750.0 : STOP DEPTH
STEP.FT                    50.00000 : STEP LENGTH
NULL.                       -999.25 : NULL VALUE
COMP.  DEKALB PETROLEUM CORPORATION : COMPANY
WELL. DEKALB ET AL PEERS 6-32-52-14 : WELL
FLD .                               : FIELD
LOC .                               : LOCATION
CTRY.                        CANADA : COUNTRY
SRVC.                  Schlumberger : SERVICE COMPANY
DATE.                   21-Aug-1968 : LOGDATE
PROV.                       Alberta : PROVINCE
UWI .              100063205214W500 : UNIQUE WELL ID
SLAT.WGS84                 53.53109 : SURFACE LATITUDE
SLON.WGS84                -116.0318 : SURFACE LONGITUDE
~Curve Information -----------------------------------------
DEPT  .FT    : Depth Curve
CALSED.IN    : CALIPER FROM SONIC LOG
CALWS .IN    : CALIPER [CALSED]
CONDWS.MMHO  : CONDUCTIVITY [1000/DRESWS]
DRESWS.OHMM  : DEEP RESISTIVITY [ILDED]
DTED  .US/F  : DELTA-TIME FROM SONIC LOG
DTWS  .US/F  : COMPRESSIONAL SONIC [DTED]
GRSED .GAPI  : GAMMA RAY FROM SONIC LOG
GRWS  .GAPI  : GAMMA RAY [GRSED]
ILDED .OHMM  : DEEP INDUCTION RESISTIVITY FROM RESISTIVITY LOG
ILMED .OHMM  : MEDIUM INDUCTION RESISTIVITY FROM RESISTIVITY LOG
LL8ED .OHMM  : LATEROLOG 8 RESISTIVITY FROM RESISTIVITY LOG
MRESWS.OHMM  : MEDIUM RESISTIVITY [ILMED]
SPRED .MV    : SPONTANEOUS POTENTIAL FROM RESISTIVITY LOG
SPWS  .MV    : SPONTANEOUS POTENTIAL [BASELINE 0 MV, SPRED]
SRESWS.OHMM  : SHALLOW RESISTIVITY [LL8ED]
~Params ----------------------------------------------------
PD  .                     GL : PERMANENT DATUM
EPD .FT               3044.5 : ELEVATION PERMANENT DATUM
LMF .                     KB : LOG MEASURED FROM
DAPD.FT                 13.5 : FEET ABOVE PERMANENT DATUM
EKB .FT                 3058 : KELLY BUSHING
EGL .FT               3044.5 : GROUND LEVEL
DATE.               08/21/68 : RUN DATE
RUN .                      1 : RUN NUMBER
DD  .FT                11760 : DEPTH DRILLER
DL  .FT                11767 : DEPTH LOGGER
BLI .FT                11762 : BOTTOM LOG INTERVAL
TLI .FT                 1227 : TOP LOG INTERVAL
CBD .FT                 1227 : CASING BOTTOM DRILLER
CBL .FT                 1227 : CASING BOTTOM LOGGER
BS  .IN                 8.75 : BIT SIZE
BSD .FT                11760 : BIT SIZE AT DEPTH
DFT .                    GEL : DRILLING FLUID TYPE
DFD .                    9.5 : DRILLING FLUID DENSITY
DFV .                     55 : DRILLING FLUID VISCOSITY
DFPH.                    8.5 : DRILLING FLUID PH
DFL .                    8.4 : DRILLING FLUID LOSS
MSS .             CIRCULATED : MUD SAMPLE SOURCE
RMS .OHMM               2.95 : RESISTIVITY MUD SAMPLE
MST .DEGF                 59 : MUD SAMPLE TEMPERATURE
RMF .OHMM               1.86 : RESISTIVITY MUD FILTRATE SAMPLE
MFST.DEGF                 67 : MUD FILTRATE SAMPLE TEMPERATURE
RMB .OHMM               2.73 : RESISTIVITY MUD AT BHT
TCS .HRS                   4 : TIME CIRCULATED STOPPED
LUN .                   7501 : LOGGING UNIT NUMBER
LUL .                    EDM : LOGGING UNIT LOCATION
ENGI.               STUEHMER : RECORDING ENGINEER
WITN.                 MCLEOD : WITNESSED BY
CLNT.                A2DTECH : CLIENT CODE
ORIG.            2" 5" PRINT : ORIGIN OF DATA
UWI .       100063205214W500 : UNIQUE WELL ID
DICO. A2D Technologies, Inc. : DIGITIZING COMPANY
~Other -----------------------------------------------------
DILL-BCS LOG RUN
ALL DATA FROM SMALL SECTION @ TOP-6588'
~ASCII -----------------------------------------------------
# ...
 8100.00000    9.69610    9.69610    0.75300 1327.99690   50.75960   50.75960   33.36550   33.36550 1327.99690  428.64220  484.27940  428.64220 -174.79440  -59.76810  484.27940
 8150.00000    9.42330    9.42330    3.19120  313.35800   48.84440   48.84440   12.00100   12.00100  313.35800  603.47290  646.93890  603.47290 -263.18090 -148.83990  646.93890
 8200.00000    8.88170    8.88170   59.80720   16.72040   56.54350   56.54350   56.05030   56.05030   16.72040   17.28370   18.75320   17.28370 -169.57480  -55.91900   18.75320
 8250.00000    8.77850    8.77850   80.11660   12.48180   56.70550   56.70550   47.66820   47.66820   12.48180   13.14420   14.28250   13.14420 -168.77790  -55.80730   14.28250
 8300.00000    8.74850    8.74850   75.15230   13.33840   56.98160   56.98160   55.19200   55.19200   13.33840   16.36840   21.26580   16.36840 -163.22810  -50.93930   21.26580
 8350.00000    8.83110    8.83110   11.31400   88.38600   54.52000   54.52000   32.08350   32.08350   88.38600   78.74330  156.14420   78.74330 -147.31100  -35.71090  156.14420
 8400.00000    8.77800    8.77800   16.17090   61.83930   53.43450   53.43450   18.77650   18.77650   61.83930   55.72650  114.25030   55.72650 -192.25660  -81.34170  114.25030
 8450.00000    8.82260    8.82260   22.20190   45.04120   53.91580   53.91580   29.04830   29.04830   45.04120   43.96880   52.39180   43.96880 -148.27880  -38.04910   52.39180
 8500.00000    8.82780    8.82780   35.44670   28.21140   57.36260   57.36260   31.90560   31.90560   28.21140   31.91890   42.23060   31.91890 -139.22620  -29.68180   42.23060
 8550.00000    8.81160    8.81160   27.15670   36.83580   56.66690   56.66690   35.07650   35.07650   36.83580   40.55190   49.59730   40.55190 -126.63530  -17.77270   49.59730
 8600.00000    8.85240    8.85240   22.74950   43.95710   58.40390   58.40390   48.56630   48.56630   43.95710   47.19190   76.66330   47.19190 -118.83460  -10.66060   76.66330
 8650.00000    8.78920    8.78920    0.88170 1134.12460   56.68480   56.68480   47.24620   47.24620 1134.12460  405.41170  551.55680  405.41170 -121.71820  -14.22950  551.55680
 8700.00000    8.48110    8.48110    0.95030 1052.34500   55.66770   55.66770   11.36250   11.36250 1052.34500  285.90330  483.84630  285.90330 -165.45150  -58.35330  483.84630
 8750.00000    8.75570    8.75570    0.70740 1413.72400   52.06460   52.06460   31.32530   31.32530 1413.72400  292.42010  354.68520  292.42010 -149.59760  -42.51640  354.68520
 8800.00000    9.48680    9.48680    0.63610 1572.17680   48.55020   48.55020   13.63610   13.63610 1572.17680 1132.75220 1266.75670 1132.75220 -200.36510  -93.30080 1266.75670
 8850.00000    9.53150    9.53150    0.64920 1540.40500   50.04270   50.04270   19.66180   19.66180 1540.40500  467.41590 1705.86000  467.41590 -234.62350 -127.57630 1705.86000
 8900.00000    9.28620    9.28620    0.68720 1455.17980   47.60520   47.60520    9.85040    9.85040 1455.17980  512.44600  540.94890  512.44600 -237.37760 -130.34740  540.94890
 8950.00000   10.57080   10.57080    1.14520  873.20280   50.95280   50.95280   12.44570   12.44570  873.20280 1011.20660  413.86870 1011.20660 -237.28430 -130.27110  413.86870
 9000.00000   10.30090   10.30090    4.12900  242.18660   72.83500   72.83500   20.93440   20.93440  242.18660  154.40280  190.73190  154.40280 -223.80000 -116.80380  190.73190
 9050.00000    9.20580    9.20580    8.93970  111.88950   48.53070   48.53070    7.57170    7.57170  111.88950   98.48590  128.42640   98.48590 -227.09160 -120.11230  128.42640
 9100.00000    9.58610    9.58610    0.67700 1477.08970   50.76340   50.76340   10.83300   10.83300 1477.08970 1781.10110  332.39160 1781.10110 -238.66700 -131.70470  332.39160
 9150.00000    9.45940    9.45940    3.59270  278.34070   50.68280   50.68280    9.63790    9.63790  278.34070  149.45410  173.25640  149.45410 -228.43390 -121.48860  173.25640
 9200.00000   10.08380   10.08380    3.31980  301.22240   56.37610   56.37610   11.79780   11.79780  301.22240  161.44910  490.90460  161.44910 -263.79060 -156.86230  490.90460
 9250.00000    9.76900    9.76900    1.31430  760.86790   51.09070   51.09070   12.43880   12.43880  760.86790  157.67470  784.68740  157.67470 -236.95490 -130.04360  784.68740
 9300.00000    9.35100    9.35100    0.89710 1114.73840   48.75360   48.75360    9.19870    9.19870 1114.73840 1888.17430  652.08990 1888.17430 -226.18230 -119.28780  652.08990
 9350.00000    8.56520    8.56520   63.82030   15.66900   51.45500   51.45500   15.31990   15.31990   15.66900   28.18120  136.86550   28.18120 -284.92000 -178.04270  136.86550
 9400.00000    9.05150    9.05150    1.08110  924.96540   47.80360   47.80360   19.03120   19.03120  924.96540  353.43620  723.44300  353.43620 -217.03570 -110.17540  723.44300
 9450.00000    8.99900    8.99900    5.85490  170.79630   51.61520   51.61520   27.25640   27.25640  170.79630  161.41950  159.77600  161.41950 -202.40480  -95.56140  159.77600
 9500.00000    9.62710    9.62710    9.03030  110.73870   51.64930   51.64930   22.19010   22.19010  110.73870   75.21320   94.53470   75.21320 -217.74200 -110.91560   94.53470
 9550.00000   10.26600   10.26600    5.88300  170.32720   70.26170   70.26170   17.57240   17.57240  170.32720   88.94170   93.66100   88.94170 -218.42280 -111.61330   93.66100
 9600.00000    8.83110    8.83110    6.09900  163.96110   50.20980   50.20980   28.14220   28.14220  163.96110  146.58830  139.38500  146.58830 -155.95110  -49.15870  139.38500
 9650.00000    8.97990    8.97990   26.31090   38.00710   55.42460   55.42460   38.90430   38.90430   38.00710   49.27490   59.53690   49.27490 -151.73030  -44.95490   59.53690
 9700.00000    8.99260    8.99260   32.09760   31.15500   56.70610   56.70610   39.29040   39.29040   31.15500   36.75100   42.51560   36.75100 -152.88450  -46.12610   42.51560
 9750.00000   10.06330   10.06330  143.98020    6.94540   69.77770   69.77770   61.86660   61.86660    6.94540    7.99370   10.24370    7.99370 -146.99890  -40.25750   10.24370
 9800.00000   14.82480   14.82480  243.62420    4.10480   79.71150   79.71150   67.70370   67.70370    4.10480    4.31290    5.62640    4.31290 -135.34090  -28.61640    5.62640
 9850.00000   11.16280   11.16280  168.40690    5.93800   71.63640   71.63640   58.83900   58.83900    5.93800    6.57030    8.28920    6.57030 -128.25600  -21.54850    8.28920
 9900.00000    9.38990    9.38990   70.32740   14.21920   68.87740   68.87740   70.78660   70.78660   14.21920   16.46590   31.99770   16.46590 -128.41740  -21.72690   31.99770
 9950.00000   10.71250   10.71250   75.07170   13.32060   71.33140   71.33140   56.76250   56.76250   13.32060   12.31220   27.10880   12.31220 -117.39060  -10.71710   27.10880
 10000.00000    9.72470    9.72470   54.90190   18.21430   57.66950   57.66950   37.37340   37.37340   18.21430   24.48900   33.04140   24.48900 -108.65420   -1.80660   33.04140
 10050.00000    9.91560    9.91560   82.81760   12.07780   64.11840   64.11840   56.80120   56.80120   12.07780   14.52430   17.57710   14.52430 -126.89510  -19.15880   17.57710
 10100.00000    9.69540    9.69540   97.69060   10.23640   66.68590   66.68590   58.27130   58.27130   10.23640   12.01790   14.89560   12.01790 -132.24190  -23.60790   14.89560
 10150.00000    9.44210    9.44210  102.01270    9.80270   68.88620   68.88620   67.01520   67.01520    9.80270   11.46940   14.87460   11.46940 -128.68000  -19.15280   14.87460
 10200.00000    9.37130    9.37130  127.10680    7.86740   70.37030   70.37030   73.20580   73.20580    7.86740    9.24650   11.80600    9.24650 -124.38320  -13.96280   11.80600
 10250.00000   10.01140   10.01140  127.78740    7.82550   74.40970   74.40970   76.66680   76.66680    7.82550    9.09850   11.24300    9.09850 -116.63600   -5.32250   11.24300
 10300.00000   10.02860   10.02860  161.67420    6.18540   74.12470   74.12470   82.77300   82.77300    6.18540    6.94160    9.35190    6.94160 -118.35710  -10.89590    9.35190
 10350.00000    9.38370    9.38370  142.11010    7.03680   70.94610   70.94610   71.85600   71.85600    7.03680    8.31130   10.26640    8.31130 -120.29170  -17.14020   10.26640
