~Version ---------------------------------------------------
VERS.      2.0 : CWLS log ASCII Standard -VERSION 2.0
WRAP.       NO : One line per depth step
CREA. 11/20/17 : LAS Creation Date
~Well ------------------------------------------------------
STRT.FT                         1450.0 : START DEPTH
STOP.FT                        13550.0 : STOP DEPTH
STEP.FT                       50.00000 : STEP LENGTH
NULL.                          -999.25 : NULL VALUE
COMP. AMOCO CANADA PETROLEUM CO., LTD. : COMPANY
WELL.            AMOCO TONY 7-16-62-24 : WELL
FLD .                                  : FIELD
LOC .                                  : LOCATION
CTRY.                           CANADA : COUNTRY
SRVC.                     Schlumberger : SERVICE COMPANY
DATE.                      27-Nov-1977 : LOGDATE
PROV.                          Alberta : PROVINCE
UWI .                 100071606224W500 : UNIQUE WELL ID
SLAT.WGS84                    54.36239 : SURFACE LATITUDE
SLON.WGS84                   -117.5361 : SURFACE LONGITUDE
~Curve Information -----------------------------------------
DEPT    .FT    : Depth Curve
CALDED  .IN    : CALIPER FROM DENSITY LOG [ADJ. TO RESISTIVITY LOG]
CALSED  .IN    : CALIPER FROM  SONIC LOG [ADJ. TO RESISTIVITY LOG]
CALWS   .IN    : CALIPER [CALDED]
CONDWS  .MMHO  : CONDUCTIVITY [1000/DRESWS]
DCORWS  .IN    : DENSITY CORRECTION [DRHOED]
DENWS   .IN    : FORMATION BULK DENSITY [CALC. FROM DPOLSWS M=2.71, F=1.00]
DPHILSED.V/V   : DENSITY POROSITY LIMESTONE [M=2.71, F=1.00] FROM DENSITY LOG [ADJ. TO RESISTIVITY LOG]
DPHISSED.V/V   : DENSITY POROSITY SANDSTONE [M=2.65, F=1.00] FROM DENSITY LOG [ADJ. TO RESISTIVITY LOG]
DPOLSWS .V/V   : DENSITY POROSITY LIMESTONE [DPHISSED MATRIX CONVERSION FOR LS, SPL. TO DPHILSED @8451' & SPL. TO CALC. FROM RHOBED M=2.71, F=1.00]
DRESWS  .OHMM  : DEEP RESISTIVITITY [ILDED]
DRHOED  .IN    : DENSITY CORRECTION FROM DENSITY LOG [ADJ. TO RESISTIVITY LOG]
DTED    .US/F  : DELTA TIME FROM SONIC LOG [ADJ. TO RESISTIVITY LOG]
DTWS    .US/F  : COMPRESSIONAL SONIC [DTED]
GRDED   .GAPI  : GAMMA RAY FROM DENSITY LOG [ADJ. TO RESISTIVITY LOG]
GRSED   .GAPI  : GAMMA RAY FROM SONIC LOG [ADJ. TO RESISTIVITY LOG]
GRWS    .GAPI  : GAMMA RAY [GRSED]
ILDED   .OHMM  : DEEP INDUCTION FROM RESISTIVITY LOG
ILMED   .OHMM  : MEDIUM INDUCTION FROM RESISTIVITY LOG
LL8ED   .OHMM  : 8 INCH LATEROLOG RESISTIVITY FROM RESISTIVITY LOG
MRESWS  .OHMM  : MEDIUM RESISTIVITY [ILMED]
NPHILSED.V/V   : NEUTRON POROSITY LIMESTONE FROM DENSITY LOG [ADJ. TO RESISTIVITY LOG]
NPHISSED.V/V   : NEUTRON POROSITY SANDSTONE FROM DENSITY LOG [ADJ. TO RESISTIVITY LOG]
NPOLSWS .V/V   : NEUTRON POROSITY LIMESTONE [NPHISSED MATRIX CONVERSION FOR LIMESTONE, SPL. TO NPHILSED @ 8424']
RHOBED  .IN    : BULK DENSITY FROM DENSITY LOG [ADJ. TO RESISTIVITY LOG]
SPRED   .MV    : SPONTANEOUS POTENTIAL FROM RESISTIVITY LOG
SPWS    .MV    : SPONTANEOUS POTENTIAL [BASELINE 0 MV,SPRED]
SRESWS  .OHMM  : SHALLOW RESISTIVITY [LL8ED]
~Params ----------------------------------------------------
PD  .                     GL : PERMANENT DATUM
EPD .FT                 5402 : ELEVATION PERMANENT DATUM
LMF .                     KB : LOG MEASURED FROM
DAPD.FT                   17 : FEET ABOVE PERMANENT DATUM
DATE.               11/27/77 : RUN DATE
RUN .                      2 : RUN NUMBER
DD  .FT                13685 : DEPTH DRILLER
DL  .FT                13579 : DEPTH LOGGER
BLI .FT                13573 : BOTTOM LOG INTERVAL
TLI .FT                 8448 : TOP LOG INTERVAL
CBD .FT                 8448 : CASING BOTTOM DRILLER
CBL .FT                 8448 : CASING BOTTOM LOGGER
BSD .FT                13685 : BIT SIZE AT DEPTH
DFT .                    8.6 : DRILLING FLUID TYPE
DFD .                     86 : DRILLING FLUID DENSITY
CLNT.                A2DTECH : CLIENT CODE
ORIG.          1" 2.5" PRINT : ORIGIN OF DATA
UWI .       100071606224W500 : UNIQUE WELL ID
DICO. A2D Technologies, Inc. : DIGITIZING COMPANY
~Other -----------------------------------------------------
DIL-BHC-CNL-FDC LOG RUN
RHOB & DRHO FROM 2" SCALE
~ASCII -----------------------------------------------------
# ...
 4050.00000   11.55090   12.22960   11.55090   52.57370    0.11500    2.32250    -999.25    0.19850    0.22660   19.02090    0.11500   84.28460   84.28460   47.73760   52.17560   49.13760   19.02090   15.26020   18.92000   15.26020    -999.25    0.31890    0.27500    2.33190  -62.99570  -15.43500   18.92000
 4100.00000   11.64160   12.02600   11.64160   44.29000    0.07300    2.37430    -999.25    0.16710    0.19630   22.57850    0.07300   82.00420   82.00420   49.00360   53.38120   52.37350   22.57850   17.86390   17.15730   17.86390    -999.25    0.33930    0.29550    2.38470  -64.18080  -16.67920   17.15730
 4150.00000   13.02450   12.30680   13.02450  176.00990    0.23090    2.12270    -999.25    0.31960    0.34350    5.68150    0.23090   91.19140   91.19140   75.15890   84.93280   84.93280    5.68150    4.59140    5.28320    4.59140    -999.25    0.49350    0.45340    2.11860  -50.28940   -2.84640    5.28320
 4200.00000   12.28690   12.21720   12.28690  127.93650    0.13980    2.30780    -999.25    0.20740    0.23520    7.81660    0.13980   83.29620   83.29620   55.19860   56.61550   55.56010    7.81660    7.19320    7.99750    7.19320    -999.25    0.33750    0.29370    2.31290  -50.64210   -3.25810    7.99750
 4250.00000   11.90970   12.36970   11.90970   82.21050    0.16350    2.37150    -999.25    0.16880    0.19800   12.16390    0.16350   83.49110   83.49110   67.01490   75.20340   74.40870   12.16390   11.38850   12.25200   11.38850    -999.25    0.36730    0.32390    2.38420  -51.23370   -3.90840   12.25200
 4300.00000   11.65640   12.32210   11.65640   81.66470    0.13090    2.36270    -999.25    0.17410    0.20310   12.24520    0.13090   91.99650   91.99650   58.79970   68.61550   64.38150   12.24520   11.82370   29.72140   11.82370    -999.25    0.35870    0.31520    2.37080  -63.71570  -16.44920   29.72140
 4350.00000   13.16910   12.15660   13.16910  208.41530    0.08750    2.10790    -999.25    0.32860    0.35210    4.80000    0.08750  115.19990  115.19990   71.12120   72.94380   76.22530    4.80000    3.77140    5.00430    3.77140    -999.25    0.54540    0.50790    2.09960  -50.50290   -3.29540    5.00430
 4400.00000   11.95470   12.72370   11.95470  180.22240    0.10880    2.27540    -999.25    0.22700    0.25410    5.54870    0.10880   99.13020   99.13020   74.10940   75.32850   74.86860    5.54870    4.72650    5.99390    4.72650    -999.25    0.51500    0.47590    2.26790  -51.76340   -4.61450    5.99390
 4450.00000   11.65000   12.45890   11.65000  100.97920    0.12720    2.50960    -999.25    0.08510    0.11720    9.90530    0.12720   85.07590   85.07590   63.29100   69.44960   70.28230    9.90530    8.04740    9.32750    8.04740    -999.25    0.36690    0.32340    2.49530  -52.57910   -5.48930    9.32750
 4500.00000   12.71490   12.61270   12.71490  154.75090    0.15070    2.50410    -999.25    0.08840    0.12040    6.46200    0.15070   86.62380   86.62380   74.76210   79.05470   77.66650    6.46200    6.26410    7.35910    6.26410    -999.25    0.37860    0.33530    2.50400  -51.46540   -4.43430    7.35910
 4550.00000   11.98830   12.51090   11.98830  124.37500    0.08910    2.40320    -999.25    0.14960    0.17940    8.04020    0.08910   82.50520   82.50520   66.29400   68.47060   72.89940    8.04020    7.29960    7.75680    7.29960    -999.25    0.38630    0.34320    2.41520  -50.80200   -3.82960    7.75680
 4600.00000   12.70350   12.51810   12.70350  100.54020    0.07900    2.50790    -999.25    0.08610    0.11820    9.94650    0.07900   85.56750   85.56750   86.38170   94.53740   97.27420    9.94650    8.40760    9.59470    8.40760    -999.25    0.37450    0.33110    2.49870  -52.30840   -5.39500    9.59470
 4650.00000   12.42240   12.63180   12.42240   90.70210    0.07760    2.57460    -999.25    0.04570    0.07920   11.02510    0.07760   83.01280   83.01280   94.23120   97.27040   97.27040   11.02510    9.24570   10.27450    9.24570    -999.25    0.35240    0.30880    2.59540  -52.51850   -5.66370   10.27450
 4700.00000   13.51260   12.65790   13.51260   97.83630    0.08570    2.53800    -999.25    0.06780    0.10060   10.22120    0.08570   84.57950   84.57950  110.93160  114.56390  114.06030   10.22120    8.26030    9.85600    8.26030    -999.25    0.36500    0.32160    2.53670  -52.83310   -6.03740    9.85600
 4750.00000   13.35870   12.68500   13.35870   93.14980    0.05280    2.55930    -999.25    0.05500    0.08820   10.73540    0.05280   87.53990   87.53990  121.33090  125.43250  126.56350   10.73540    9.06910   11.19320    9.06910    -999.25    0.34730    0.30360    2.55330  -51.43710   -4.70010   11.19320
 4800.00000   13.27960   12.62100   13.27960   62.64330    0.05860    2.59820    -999.25    0.03140    0.06540   15.96340    0.05860   84.72380   84.72380  118.15960  121.62830  118.27340   15.96340   12.99820   17.82950   12.99820    -999.25    0.32600    0.28210    2.60130  -50.86150   -4.18320   17.82950
 4850.00000   13.26360   12.65400   13.26360   69.77110    0.11460    2.60990    -999.25    0.02430    0.05850   14.33490    0.11460   83.06310   83.06310  107.22140  113.21560  111.78560   14.33490   12.20570   14.95080   12.20570    -999.25    0.34700    0.30330    2.58570  -50.67270   -4.05350   14.95080
 4900.00000   13.37180   12.66120   13.37180   70.60700    0.12550    2.50000    -999.25    0.09090    0.12280   14.16290    0.12550   80.77600   80.77600   93.74010  104.10070  102.83540   14.16290   12.21280   14.78420   12.21280    -999.25    0.31670    0.27280    2.51160  -46.22790    0.33270   14.78420
 4950.00000   13.13310   12.61570   13.13310   87.72260    0.08120    2.50860    -999.25    0.08570    0.11780   11.39960    0.08120   85.86820   85.86820  109.93690  111.82740  115.33870   11.39960    9.55220   10.80330    9.55220    -999.25    0.37200    0.32860    2.52130  -48.49650   -1.99490   10.80330
 5000.00000   13.11210   12.53950   13.11210  115.00730    0.10400    2.45510    -999.25    0.11810    0.14900    8.69510    0.10400   85.59590   85.59590  111.10790  118.01720  119.92270    8.69510    7.32680    9.01930    7.32680    -999.25    0.39210    0.34910    2.48690  -54.01400   -7.60290    9.01930
 5050.00000   13.15550   12.53950   13.15550  110.05100    0.10860    2.48880    -999.25    0.09770    0.12940    9.08670    0.10860   88.16780   88.16780  118.18600  113.50900  115.34440    9.08670    7.81730    9.63730    7.81730    -999.25    0.38520    0.34210    2.47830  -53.62000   -7.34700    9.63730
 5100.00000   13.06240   12.65050   13.06240  100.24840    0.09270    2.47990    -999.25    0.10310    0.13460    9.97540    0.09270   84.80220   84.80220  112.81870  121.75100  125.74770    9.97540    8.39410    9.91850    8.39410    -999.25    0.34280    0.29910    2.48660  -53.75780   -7.62380    9.91850
 5150.00000   13.11910   12.60050   13.11910   80.70890    0.09520    2.42790    -999.25    0.13460    0.16500   12.39020    0.09520   81.28900   81.28900  103.01580  113.38140  112.39190   12.39020   10.16950   11.74990   10.16950    -999.25    0.31090    0.26700    2.43200  -51.14830   -5.15210   11.74990
 5200.00000   13.08470   12.66330   13.08470   89.28660    0.19270    2.41370    -999.25    0.14320    0.17330   11.20010    0.19270   83.06690   83.06690  105.64780  115.29760  114.37880   11.20010    9.99180   11.61340    9.99180    -999.25    0.34110    0.29730    2.40210  -50.84540   -4.98820   11.61340
 5250.00000   14.77390   12.80060   14.77390  106.28350    0.19150    2.23850    -999.25    0.24940    0.27570    9.40880    0.19150   87.58820   87.58820  115.95260  121.69050  121.37770    9.40880    8.22690   10.14650    8.22690    -999.25    0.38230    0.33910    2.19830  -50.86270   -5.14360   10.14650
 5300.00000   13.83670   12.58730   13.83670  100.53990    0.08870    2.34230    -999.25    0.18650    0.21500    9.94630    0.08870   83.49110   83.49110  108.90140  122.19750  120.74960    9.94630    8.88060   10.29690    8.88060    -999.25    0.34750    0.30380    2.34710  -50.75530   -5.17430   10.29690
