~Version ---------------------------------------------------
VERS. 2.0 : CWLS log ASCII Standard -VERSION 2.0
WRAP.  NO : ONE LINE PER DEPTH STEP
~Well ------------------------------------------------------
STRT.F                      1150.0 : START DEPTH
STOP.F                     11800.0 : STOP DEPTH
STEP.F                    50.00000 : STEP LENGTH
NULL.                      -999.25 : NULL VALUE
COMP.         PETROFINA CANADA LTD : COMPANY
WELL. PCI AMMIN ECONOMY 11-15-68-2 : WELL
FLD .                              : FIELD
LOC .                              : LOCATION
CTRY.                       CANADA : COUNTRY
SRVC.                      Unknown : SERVICE COMPANY
DATE.                  01-Jan-1900 : LOGDATE
PROV.                      Alberta : PROVINCE
UWI .             100111506802W600 : UNIQUE WELL ID
SLAT.WGS84                54.88852 : SURFACE LATITUDE
SLON.WGS84               -118.2198 : SURFACE LONGITUDE
~Curve Information -----------------------------------------
DEPT   .F     : 
GRS    .GAPI  : GAMMA RAY FROM SONIC LOG
CALS   .IN    : CALIPER FROM SONIC LOG
DT     .US/F  : DELTA TIME FROM SONIC LOG
RHOB   .G/C3  : BULK DENSITY
DRHO   .G/C3  : DENSITY CORRECTION
CALD   .IN    : CALIPER FROM DENSITY LOG
GRD    .GAPI  : GAMMA RAY FROM DENSITY LOG
NPHI_SS.DEC   : NEUTRON POROSITY SANDSTONE
DPHI_SS.DEC   : DENSITY POROSITY SANDSTONE
DPHI_LS.DEC   : DENSITY POROSITY LIMESTONE
NPHI_LS.DEC   : NEUTRON POROSITY LIMESTONE
SPR    .MV    : SPONTANEOUS POTENTIAL FROM RESISTIVITY LOG
ILD    .OHMM  : DEEP INDUCTION RESISTIVITY
LL8    .OHMM  : LATEROLOG-8 RESISTIVITY
ILM    .OHMM  : INDUCTION MEDIUM RESISTIVITY
~Params ----------------------------------------------------
PD  .                     GL : PERMANENT DATUM
EPD .FT               2259.3 : ELEVATION PERMANENT DATUM
LMF .                     KB : LOG MEASURED FROM
DAPD.FT                 13.7 : FEET ABOVE PERMANENT DATUM
EKB .FT                 2273 : KELLY BUSHING
EGL .FT               2259.3 : GROUND LEVEL
DATE.               10/12/76 : RUN DATE
RUN .                      1 : RUN NUMBER
DD  .FT                11825 : DEPTH DRILLER
DL  .FT                11801 : DEPTH LOGGER
BLI .FT                11795 : BOTTOM LOG INTERVAL
TLI .FT                 1228 : TOP LOG INTERVAL
CBD .FT                 1232 : CASING BOTTOM DRILLER
CBL .FT                 1228 : CASING BOTTOM LOGGER
BS  .IN                 8.75 : BIT SIZE
BSD .FT                11825 : BIT SIZE AT DEPTH
DFT .                    GEL : DRILLING FLUID TYPE
DFD .                    8.9 : DRILLING FLUID DENSITY
DFV .                    150 : DRILLING FLUID VISCOSITY
DFPH.                   10.5 : DRILLING FLUID PH
DFL .                    5.8 : DRILLING FLUID LOSS
MSS .               FLOWLINE : MUD SAMPLE SOURCE
RMF .OHMM               0.71 : RESISTIVITY MUD FILTRATE SAMPLE
MFST.DEGF                 76 : MUD FILTRATE SAMPLE TEMPERATURE
RMB .OHMM               0.28 : RESISTIVITY MUD AT BHT
TCS .HRS                 4.5 : TIME CIRCULATED STOPPED
LUN .                   7803 : LOGGING UNIT NUMBER
LUL .                     OC : LOGGING UNIT LOCATION
ENGI.                STADNYK : RECORDING ENGINEER
WITN.                  CLARK : WITNESSED BY
CLNT.                A2DTECH : CLIENT CODE
ORIG.          1" 2.5" PRINT : ORIGIN OF DATA
UWI .       100111506802W600 : UNIQUE WELL ID
DICO. A2D Technologies, Inc. : DIGITIZING COMPANY
~Other -----------------------------------------------------
~ASCII -----------------------------------------------------
# ...
 5750.00000   99.40640   10.08400   72.31940    2.66430    0.18330   10.22860  112.39900    0.21890   -0.01310    -999.25    -999.25 -107.80450   13.38760   42.42900   13.88290
 5800.00000   96.73470    9.91060   65.36850    2.70440    0.17340   10.47290  104.21700    0.17120    0.00870    -999.25    -999.25 -106.63340   18.59870   61.98010   20.74740
 5850.00000  108.02810   10.65480   80.41450    2.22200    0.19390   13.81630  121.70220    0.37310    0.34450    -999.25    -999.25 -102.91210    6.73430   16.77530    6.29130
 5900.00000   61.14420    9.98700   65.35780    2.60950    0.12280   10.11260   76.18160    0.14760    0.01960    -999.25    -999.25 -115.30610   30.05300   81.08360   30.86200
 5950.00000   79.94940    9.84190   67.00930    2.56150    0.05180    9.89070   83.26830    0.15310    0.04000    -999.25    -999.25 -112.73020   19.78870   63.64520   21.18740
 6000.00000   62.22230   11.18950  125.59180    1.41760    0.04250   11.15970   68.25180    0.58830    -999.25    -999.25    -999.25 -109.62010   68.68180  182.16890   79.54290
 6050.00000  100.85030   10.19950   69.34260    2.62190    0.08380    9.70350  126.31850    0.21300    0.00830    -999.25    -999.25 -107.06130   26.47720   81.16080   25.61370
 6100.00000  123.23360   11.08510   88.15920    2.01590    0.25230   11.39460  135.36260    0.38230    0.34410    -999.25    -999.25 -105.30140   14.11280   71.90120   12.01850
 6150.00000   88.56440   10.49820   73.91820    2.60070    0.07800   10.32780  113.06860    0.27670    0.14160    -999.25    -999.25 -103.09150   15.02570   63.29750   20.90110
 6200.00000  119.85660   10.45780   74.07680    2.56370    0.11530    9.85390  144.26810    0.24570   -0.00060    -999.25    -999.25 -104.07370   18.92800   45.88350   16.36930
 6250.00000   32.95380    8.92600   73.83500    2.39930    0.17380    8.95210   34.88540    0.20390    0.14620    -999.25    -999.25 -159.40600    3.87390   29.56230    5.60830
 6300.00000   99.60800   10.06330   71.29890    2.43960    0.28820   11.04080  117.94180    0.18670    0.09650    -999.25    -999.25 -101.72660   12.90890   36.48810   13.33990
 6350.00000  121.88600   11.83460   87.82580    2.32280    0.25330   13.91630  144.14780    0.38200    0.23730    -999.25    -999.25  -98.04140    6.28910   30.98980    5.53670
 6400.00000  167.74990   10.60480   66.83950    2.65930    0.17600    -999.25  185.16270    0.39280    0.04300    -999.25    -999.25  -97.79950    3.87900   18.39600    3.55100
 6450.00000  102.91820   12.24870   79.99400    2.44200    0.20710    -999.25  132.38330    0.37610    0.14460    -999.25    -999.25  -96.88170    3.97070   13.44300    3.54080
 6500.00000  110.68080   13.09670  103.22680    2.40960    0.16290    -999.25  134.90480    0.40430    0.14230    -999.25    -999.25  -95.39210    2.97130   12.74850    2.50940
 6550.00000  249.61140    9.32340   74.08900    2.43330    0.06050    9.65670    -999.25    0.22770    0.17840    0.16290    0.22020 -108.34390  254.04550 1449.27310  326.22260
 6600.00000    -999.25    9.46500   90.76180    2.33880    0.04780    9.56070    -999.25    -999.25    -999.25    0.21620    0.24700 -115.95210  290.20880 1433.82070  665.04380
 6650.00000  149.86570    9.66360   68.53760    2.63500    0.04140    9.71900  136.43480    -999.25    -999.25    0.03630    0.07600 -110.44940  212.63630 1428.93310  441.36300
 6700.00000  120.66710    8.58020   64.06190    2.54220    0.04950    9.55060  135.82730    -999.25    -999.25    0.09450    0.10200 -153.02130    6.45820   74.71530    9.49150
 6750.00000   96.74250    9.74510   62.81220    2.64090    0.03610    9.75720  120.65480    -999.25    -999.25    0.01750    0.07030 -119.50660   19.32260   86.23430   20.42240
 6800.00000   92.10940    9.61250   61.93070    2.56920    0.02550    9.65590  102.08300    -999.25    -999.25    0.07660    0.04220 -131.16440   25.96680   99.73430   28.27980
 6850.00000  113.77930    9.59670   61.38250    2.62730    0.03550    9.74900  124.71270    -999.25    -999.25    0.04650    0.05700 -124.70880   39.22680  173.31850   41.71490
 6900.00000  123.83250    9.60610   60.13740    2.64940    0.04870    9.79010  131.53160    -999.25    -999.25    0.04780    0.04340 -127.00500   29.39410  118.95790   31.12320
 6950.00000  101.20110    9.66080   61.37830    2.64620    0.06040    9.76880  126.34370    -999.25    -999.25    0.04030    0.05330 -114.30870   30.09840  104.58790   32.67870
 7000.00000  118.07000    9.76640   62.32210    2.68210    0.05050    9.06350  133.68290    -999.25    -999.25    0.02710    0.07710 -111.77670   38.06820  180.32290   42.23560
 7050.00000  128.57010    9.96840   66.53540    2.68990    0.08660   10.03320  160.09210    -999.25    -999.25    0.02060    0.11320  -95.88440   22.74940   90.63670   24.03000
 7100.00000  100.24880    9.73380   61.26540    2.67750    0.07590    9.71760  117.11180    -999.25    -999.25    0.02580    0.08040 -100.12710   48.91490  202.26680   55.26290
 7150.00000  126.55580    9.90630   64.11650    2.70970    0.09550    9.93840  145.13230    -999.25    -999.25    0.02190    0.10200  -88.24010   44.01830  205.67910   47.82490
 7200.00000  142.40520    9.69300   64.35740    2.64460    0.06120    9.59500  154.94710    -999.25    -999.25    0.02600    0.08810  -98.21410   31.13910  164.02350   35.03530
 7250.00000  126.03920   10.25430   64.79850    2.64440    0.04560   10.37630  147.37930    -999.25    -999.25    0.03060    0.10780  -89.12190   44.42710  171.40720   50.80520
 7300.00000  139.77670   10.13470   65.09850    2.69900    0.06940    9.92860  158.46140    -999.25    -999.25    0.01180    0.11280  -96.40210   35.70880  170.45740   38.42000
 7350.00000   20.04740    9.45090   54.85670    2.65440    0.12170    9.43430   20.58670    -999.25    -999.25    0.02100    0.02610 -125.38550   58.92730  764.79310   69.64600
 7400.00000   28.38150    8.79950   62.99430    2.53910    0.19280    8.85680   35.79250    -999.25    -999.25    0.08050    0.12370 -175.06300    7.52250   97.30050   12.06340
 7450.00000   81.32170    8.85660   62.32340    2.57580    0.18950    8.89520   83.97310    -999.25    -999.25    0.09970    0.16250 -172.92340    2.85640   39.38080    4.88210
 7500.00000   69.07590   10.01120   51.39010    2.20470    0.27730   15.02340   71.86110    -999.25    -999.25    0.27730    0.07190 -163.04170   70.10380  121.91810   71.17730
 7550.00000  123.07600   10.64620   71.27070    2.24190    0.29770   12.83680  132.26030    -999.25    -999.25    0.22490    0.12580  -95.42020   14.27840   74.64100   12.84860
 7600.00000   34.24600    9.98770   61.36630    2.23720    0.30760   13.98590   39.03240    -999.25    -999.25    0.28990    0.02060 -127.06910   30.32550  113.75670   26.10960
 7650.00000   65.76790    9.38580   47.95520    2.88430    0.26770    9.50830   75.79310    -999.25    -999.25   -0.06980    0.04740 -103.74140   27.66310  123.17320   44.41490
 7700.00000   50.54120    9.38370   49.39130    2.80450    0.03860    9.42160   65.49920    -999.25    -999.25   -0.06270    0.03550  -96.10430   98.27600 1234.63660   97.86400
 7750.00000   19.98730    9.55670   46.72720    2.83210    0.09640   10.14210   27.11860    -999.25    -999.25   -0.08800    0.00740 -108.27140  363.06340 1428.22800  323.82320
 7800.00000   22.18200    9.52560   50.97930    2.99700    0.06270    9.56670   19.20590    -999.25    -999.25   -0.14530   -0.00370 -116.42200  100.63650  864.25270  111.09710
 7850.00000   49.39500    9.45500   52.54330    2.74880    0.03400    9.37550   59.94380    -999.25    -999.25   -0.06650    0.04990 -106.24510   36.58660  238.06860   47.79420
 7900.00000   26.86710    9.39160   47.95730    2.81410    0.09320    9.42510   34.10580    -999.25    -999.25   -0.07650    0.03050 -108.26580   54.96060 1408.82980   61.45750
 7950.00000   42.34010    9.30190   46.57740    2.90100    0.11110    9.40630   42.85030    -999.25    -999.25   -0.08480    0.02140 -138.92260  305.37080 1473.37730 2000.78370
 8000.00000   33.94140   10.63030   51.13280    2.30400    0.30250   14.13900   37.20920    -999.25    -999.25    0.20730    0.07540 -165.14290   99.23930  180.59600   87.99910
