~Version ---------------------------------------------------
VERS.      2.0 : CWLS log ASCII Standard -VERSION 2.0
WRAP.       NO : One line per depth step
CREA. 12/18/17 : LAS Creation Date
~Well ------------------------------------------------------
STRT.FT                                  950.0 : START DEPTH
STOP.FT                                 9350.0 : STOP DEPTH
STEP.FT                               50.00000 : STEP LENGTH
NULL.                                  -999.25 : NULL VALUE
COMP. THE BRITISH AMERICAN OIL COMPANY LIMITED : COMPANY
WELL.        B.A. EAST GOOSE RIVER 10-22-66-15 : WELL
FLD .                                          : FIELD
LOC .                                          : LOCATION
CTRY.                                   CANADA : COUNTRY
SRVC.                   Schlumberger of Canada : SERVICE COMPANY
DATE.                              16-Mar-1960 : LOGDATE
PROV.                                  Alberta : PROVINCE
UWI .                         100102206615W500 : UNIQUE WELL ID
SLAT.WGS84                            54.72873 : SURFACE LATITUDE
SLON.WGS84                           -116.1771 : SURFACE LONGITUDE
~Curve Information -----------------------------------------
DEPT  .FT         : Depth Curve
CALWS .IN         : CALIPER [MCALED]
CILDED.MMHO       : CONDUCTIVITY FROM RESISTIVITY LOG
CONDWS.MMHO       : CONDUCTIVITY [1000/DRESWS]
DRESWS.OHMM       : DEEP RESISTIVITY [1000/CILDED IF ILDED <=3.5, ILDED]
DTED  .US/F       : DELTA-T FROM SONIC LOG [ADJ. TO RESISTIVITY LOG]
DTWS  .US/F       : COMPRESSIONAL SONIC [DTED]
GRSED .UgRa-Eq/T  : GAMMA RAY FROM SONIC LOG [ADJ. TO RESISTIVITY LOG]
GRWS  .GAPI       : GAMMA RAY [GRSED*16.5]
ILDED .OHMM       : DEEP INDUCTION FROM RESISTIVITY LOG
MCALED.IN         : MLT  CALIPER FROM MICRO LOG
SNED  .OHMM       : SHORT NORMAL FROM RESISTIVITY LOG
SPRED .MV         : SPONTANEOUS POTENTIAL FROM RESISTIVITY LOG
SPWS  .MV         : SPONTANEOUS POTENTIAL [BASELINE 0 MV, SPRED]
SRESWS.OHMM       : SHALLOW RESISTIVITY [SNED]
~Params ----------------------------------------------------
LMF .                     KB : LOG MEASURED FROM
DMF .                     KB : DRILLING MEASURED FROM
EKB .FT                 3222 : KELLY BUSHING
EGL .FT                 3205 : GROUND LEVEL
DATE.               03/16/60 : RUN DATE
RUN .                      2 : RUN NUMBER
DD  .FT                 9370 : DEPTH DRILLER
DL  .FT                 9378 : DEPTH LOGGER
BLI .FT                 9373 : BOTTOM LOG INTERVAL
TLI .FT                 5000 : TOP LOG INTERVAL
CBD .FT                  975 : CASING BOTTOM DRILLER
BS  .IN                    9 : BIT SIZE
BSD .FT                 9370 : BIT SIZE AT DEPTH
DFT .                    GEL : DRILLING FLUID TYPE
DFD .                     10 : DRILLING FLUID DENSITY
DFV .                    120 : DRILLING FLUID VISCOSITY
DFPH.                     10 : DRILLING FLUID PH
DFL .                    6.2 : DRILLING FLUID LOSS
RMS .OHMM                2.8 : RESISTIVITY MUD SAMPLE
MST .DEGF                 59 : MUD SAMPLE TEMPERATURE
RMF .OHMM               1.41 : RESISTIVITY MUD FILTRATE SAMPLE
MFST.DEGF                 68 : MUD FILTRATE SAMPLE TEMPERATURE
RMC .OHMM               2.56 : RESISTIVITY MUD CAKE
MCST.DEGF                 67 : MUD CAKE SAMPLE TEMPERATURE
RMB .OHMM               0.94 : RESISTIVITY MUD AT BHT
TCS .HRS                 4.5 : TIME CIRCULATED STOPPED
LUN .                  1573C : LOGGING UNIT NUMBER
LUL .                     WC : LOGGING UNIT LOCATION
ENGI.              HAUSEGGER : RECORDING ENGINEER
WITN.                   COTE : WITNESSED BY
CLNT.                A2DTECH : CLIENT CODE
ORIG.            2" 5" PRINT : ORIGIN OF DATA
UWI .       100102206615W500 : UNIQUE WELL ID
DICO. A2D Technologies, Inc. : DIGITIZING COMPANY
~Other -----------------------------------------------------
IEL-BHC-MICRO LOG RUN
~ASCII -----------------------------------------------------
# ...
 5850.00000    9.23920   61.76260   48.31220   20.69870   56.07410   56.07410    1.20830   19.93700   20.69870    9.23920   75.20170 -343.41010 -150.77520   75.20170
 5900.00000    9.87200   18.96700   11.81780   84.61800   53.78230   53.78230    0.97780   16.13290   84.61800    9.87200  115.05120 -345.81480 -150.35630  115.05120
 5950.00000    9.68930   11.73830    3.69620  270.55100   53.11200   53.11200    0.82540   13.61910  270.55100    9.68930   73.15220 -255.04440  -56.74370   73.15220
 6000.00000   10.03530  220.63120  184.43720    5.42190   69.14740   69.14740    3.53360   58.30440    5.42190   10.03530    7.09650 -224.07440  -20.69100    7.09650
 6050.00000    9.58910  302.53080  265.44910    3.76720   70.46780   70.46780    4.38410   72.33760    3.76720    9.58910    9.31740 -248.90760  -47.91620    9.31740
 6100.00000   10.14260  137.08260  109.41640    9.13940   64.16870   64.16870    3.52810   58.21280    9.13940   10.14260   12.61430 -210.43270  -14.19790   12.61430
 6150.00000    9.46780   22.98820   14.38650   69.50940   55.68300   55.68300    1.61510   26.64920   69.50940    9.46780   65.51650 -234.36310  -42.85380   65.51650
 6200.00000    9.96820   16.35630    8.95680  111.64640   59.22220   59.22220    1.35850   22.41530  111.64640    9.96820   76.79180 -204.89980  -18.14710   76.79180
 6250.00000    9.37890   36.10840   25.17040   39.72920   59.38200   59.38200    2.23340   36.85030   39.72920    9.37890   35.16660 -192.02480   -9.99750   35.16660
 6300.00000    9.33090   34.27120   21.48640   46.54100   54.55520   54.55520    1.14730   18.92960   46.54100    9.33090   70.50940 -279.50940  -86.44800   70.50940
 6350.00000    9.55580   26.62630   16.03490   62.36390   58.52530   58.52530    1.47170   24.28390   62.36390    9.55580   48.57300 -228.42200  -33.77200   48.57300
 6400.00000    9.73960   35.79940   24.55020   40.73290   59.91140   59.91140    1.71660   28.32390   40.73290    9.73960   34.80730 -209.81240  -15.61610   34.80730
 6450.00000    9.66190   30.81090   20.64820   48.43040   58.02950   58.02950    1.88960   31.17840   48.43040    9.66190   41.18360 -209.96860  -16.22890   41.18360
 6500.00000    9.21860   15.13340    7.21550  138.59140   59.73100   59.73100    1.98790   32.80040  138.59140    9.21860   75.56810 -212.03050  -18.74450   75.56810
 6550.00000   10.26090   13.71530    5.63590  177.43320   57.58230   57.58230    2.54180   41.93970  177.43320   10.26090   81.92030 -221.87370  -29.04140   81.92030
 6600.00000   14.06680  140.63370  112.78150    8.86670  108.01150  108.01150   10.14580  167.40570    8.86670   14.06680   10.01320 -201.31270   -8.93710   10.01320
 6650.00000   10.85830   17.17110    8.47440  118.00290   55.24000   55.24000    1.20790   19.92950  118.00290   10.85830   78.34050 -254.13610  -63.05680   78.34050
 6700.00000   10.28350    8.65320    2.00290  499.27140   53.61310   53.61310    1.03900   17.14350  499.27140   10.28350  119.24130 -244.91250  -55.19140  119.24130
 6750.00000   10.14460    7.61920    2.00000  500.00000   53.07090   53.07090    0.94780   15.63870  500.00000   10.14460  143.91440 -252.93250  -64.56070  143.91440
 6800.00000   11.10710    7.94860    2.00170  499.56770   52.68040   52.68040    0.92650   15.28730  499.56770   11.10710  113.60790 -298.18740 -111.16490  113.60790
 6850.00000    9.66780    7.75100    2.00590  498.53030   53.25480   53.25480    0.87690   14.46890  498.53030    9.66780  116.57650 -266.62660  -80.96240  116.57650
 6900.00000    9.02150   24.55230   14.57010   68.63350   52.30200   52.30200    0.67640   11.16060   68.63350    9.02150  109.15540 -343.89780 -159.58290  109.15540
 6950.00000    8.90310   34.19670   22.62590   44.19720   56.08020   56.08020    0.71610   11.81480   44.19720    8.90310  112.02780 -364.00410 -181.04740  112.02780
 7000.00000   10.11860   18.43560    9.65750  103.54620   54.96410   54.96410    0.82520   13.61500  103.54620   10.11860  104.01010 -313.72050 -132.11310  104.01010
 7050.00000    9.26570   17.40880    9.23140  108.32550   57.18220   57.18220    0.96280   15.88620  108.32550    9.26570  119.94050 -338.68040 -158.42240  119.94050
 7100.00000    9.99610    6.97780    2.00120  499.70270   51.99600   51.99600    0.79020   13.03910  499.70270    9.99610  129.08780 -324.87760 -145.97780  129.08780
 7150.00000    9.95070    8.21370    2.00000  500.00000   52.69850   52.69850    0.74450   12.28430  500.00000    9.95070  134.27040 -300.81360 -123.26310  134.27040
 7200.00000    9.55130    9.32190    2.12460  470.67700   53.02860   53.02860    0.91750   15.13790  470.67700    9.55130  119.44720 -304.11620 -127.92390  119.44720
 7250.00000    8.58270   70.45710   52.55030   19.02940   59.69810   59.69810    0.59250    9.77540   19.02940    8.58270   65.94510 -357.63630 -182.79340   65.94510
 7300.00000    9.11510   22.57210   12.75530   78.39870   53.51560   53.51560    0.81910   13.51520   78.39870    9.11510  105.74850 -377.09810 -203.60450  105.74850
 7350.00000    9.47970   11.91410    5.34320  187.15460   50.68540   50.68540    0.72010   11.88160  187.15460    9.47970  131.18400 -287.49410 -115.35870  131.18400
 7400.00000    9.68900   41.26160   28.13200   35.54670   55.77990   55.77990    1.21650   20.07140   35.54670    9.68900   51.51200 -215.60360  -44.81760   51.51200
 7450.00000    9.52100   11.11660    2.01220  496.97070   53.38220   53.38220    0.84550   13.95080  496.97070    9.52100  126.77630 -260.17280  -90.74500  126.77630
 7500.00000    9.45470   11.93230    1.99470  501.33630   51.24790   51.24790    1.10810   18.28370  501.33630    9.45470  120.58250 -231.58210  -63.50360  120.58250
 7550.00000    9.83910   13.76580    5.84670  171.03580   52.93540   52.93540    1.51500   24.99750  171.03580    9.83910   56.81300 -182.95890  -15.96300   56.81300
 7600.00000    9.35380   25.35870   20.63370   48.46430   55.93340   55.93340    1.59320   26.28780   48.46430    9.35380   50.60780 -202.02040  -33.39570   50.60780
 7650.00000   12.51740   98.21720   77.25530   12.94410   73.39360   73.39360    3.39150   55.95980   12.94410   12.51740   12.41430 -228.82920  -58.58630   12.41430
 7700.00000    8.50640  116.98520   89.18940   11.21210   67.32500   67.32500    1.29830   21.42190   11.21210    8.50640   35.43060 -360.80080 -188.92910   35.43060
 7750.00000    9.37770   27.26680   16.78760   59.56790   58.74250   58.74250    1.24150   20.48480   59.56790    9.37770   48.80160 -266.27830  -92.78850   48.80160
 7800.00000    9.45210   68.90570   52.91120   18.89960   64.09330   64.09330    2.46980   40.75170   18.89960    9.45210   19.86210 -187.75500  -12.64700   19.86210
 7850.00000    9.96690   90.46070   68.69780   14.55650   63.56550   63.56550    3.34910   55.26010   14.55650    9.96690   15.10760 -174.19510   -3.86440   15.10760
 7900.00000   13.83170  219.70610  193.27030    5.17410   78.29260   78.29260    4.36790   72.07030    5.17410   13.83170    5.34780 -158.58710   -8.79250    5.34780
 7950.00000   15.59660  261.48900  233.17630    4.28860   82.40750   82.40750    3.88640   64.12560    4.28860   15.59660    4.80730 -136.21690  -13.73580    4.80730
 8000.00000   11.32060  155.12060  134.87270    7.41440   68.56040   68.56040    3.97940   65.66010    7.41440   11.32060    7.56240  -97.54720   -4.72050    7.56240
 8050.00000   15.63460  257.75970  229.21590    4.36270   83.66740   83.66740    4.45830   73.56200    4.36270   15.63460    4.76310  -90.72540  -12.20600    4.76310
 8100.00000   15.63700  249.74460  220.68720    4.53130   80.99020   80.99020    4.00380   66.06270    4.53130   15.63700    4.87490  -81.80210  -14.27820    4.87490
 8150.00000   15.68970  253.63370  228.16460    4.38280   81.05810   81.05810    3.67840   60.69360    4.38280   15.68970    4.74520  -80.93570  -15.06330    4.74520
 8200.00000   15.67720  200.04340  168.14640    5.94720   75.37330   75.37330    3.62220   59.76630    5.94720   15.67720    6.17630  -66.90080   -2.96230    6.17630
 8250.00000   10.10700  165.53290  138.13300    7.23940   83.54220   83.54220    5.15320   85.02860    7.23940   10.10700    7.86640 -102.76760  -50.21940    7.86640
