~Version ---------------------------------------------------
VERS.      2.0 : CWLS log ASCII Standard -VERSION 2.0
WRAP.       NO : One line per depth step
CREA. 08/02/13 : LAS Creation Date
~Well ------------------------------------------------------
STRT.FT                      2600.0 : START DEPTH
STOP.FT                     12600.0 : STOP DEPTH
STEP.FT                    50.00000 : STEP LENGTH
NULL.                       -999.25 : NULL VALUE
COMP. AMOCO CANADA COMPANY LIMITED. : COMPANY
WELL.        AMOCO NIPAC 6-20-50-15 : WELL
FLD .                               : FIELD
LOC .                               : LOCATION
CTRY.                        CANADA : COUNTRY
SRVC.                  Schlumberger : SERVICE COMPANY
DATE.                   07-Aug-1978 : LOGDATE
PROV.                       Alberta : PROVINCE
UWI .              100062005015W500 : UNIQUE WELL ID
SLAT.WGS84                 53.32816 : SURFACE LATITUDE
SLON.WGS84                -116.1619 : SURFACE LONGITUDE
~Curve Information -----------------------------------------
DEPT   .FT     : DEPTH FEET
CALD   .MM     : CALIPER [CAL SPL. TO CALD_1 @ 10900'] FROM DENSITY LOG
CALS   .MM     : CALIPER FROM SONIC LOG
DCORED .KG/M3  : DENSITY CORRECTION FROM DENSITY LOG [ADJ. TO RESISTIVITY LOG]
DPHI_LS.dec    : DENSITY POROSITY LIMESTONE [M=2.71,F=1.0] FROM DENSITY LOG
DPHI_SS.dec    : DENSITY POROSITY SANDSTONE [M=2.65,F=1.0] FROM DENSITY LOG
DT     .US/F   : DELTA-T FROM SONIC LOG
GRD    .GAPI   : GAMMA RAY FROM DENSITY LOG
GRS    .GAPI   : GAMMA RAY  [GRS_1 SPL. TO GRS @ 10900']FRPM SONIC LOG
ILD    .OHMM   : DEEP INDUCTION RESISTIVITY FROM RESISTIVITY LOG
ILM    .OHMM   : MEDIUM INDUCTION RESISTIVITY FROM RESISTIVITY LOG
LL8    .OHMM   : LATEROLOG 8 RESISTIVITY FROM RESISTIVITY LOG
NPHI_LS.dec    : NEUTRON POROSITY LIMESTONE FROM DENSITY LOG
NPHI_SS.dec    : NEUTRON POROSITY SANDSTONE FROM DENSITY LOG
RHOB   .KG/M3  : BULK DENSITY  [RHOB SPL. TO RHOB_1 @ 10900']FROM DENSITY LOG
SFL    .OHMM   : SPHERICALLY FOCUSED RESISTIVITY FROM RESISTIVITY LOG
SPR    .MV     : SPONTANEOUS POTENTIAL FROM RESISTIVITY LOG
~Params ----------------------------------------------------
PD  .                     GL : PERMANENT DATUM
EPD .FT               101.84 : ELEVATION PERMANENT DATUM
LMF .                     KB : LOG MEASURED FROM
DAPD.FT                 6.22 : FEET ABOVE PERMANENT DATUM
DMF .                     KB : DRILLING MEASURED FROM
EKB .FT              1017.06 : KELLY BUSHING
EGL .FT              1010.84 : GROUND LEVEL
DATE.               08/07/78 : RUN DATE
RUN .                      3 : RUN NUMBER
DD  .FT               3846.6 : DEPTH DRILLER
DL  .FT                 3846 : DEPTH LOGGER
BLI .FT                 3845 : BOTTOM LOG INTERVAL
TLI .FT                 3290 : TOP LOG INTERVAL
CBD .FT                 2742 : CASING BOTTOM DRILLER
CBL .FT                 2741 : CASING BOTTOM LOGGER
BS  .MM                  216 : BIT SIZE
BSD .FT               3846.6 : BIT SIZE AT DEPTH
RMF .OHMM               1.36 : RESISTIVITY MUD FILTRATE SAMPLE
MFST.DEGF               22.2 : MUD FILTRATE SAMPLE TEMPERATURE
RMC .OHMM               0.94 : RESISTIVITY MUD CAKE
MCST.DEGF               24.4 : MUD CAKE SAMPLE TEMPERATURE
LUN .                   7809 : LOGGING UNIT NUMBER
LUL .                    EDM : LOGGING UNIT LOCATION
ENGI.            GUNN DRONEN : RECORDING ENGINEER
WITN.                CULSHAW : WITNESSED BY
CLNT.                A2DTECH : CLIENT CODE
ORIG.            2" 5" PRINT : ORIGIN OF DATA
UWI .       100062005015W500 : UNIQUE WELL ID
DICO. A2D Technologies, Inc. : DIGITIZING COMPANY
~Other -----------------------------------------------------
~ASCII -----------------------------------------------------
 2600.00000  355.10470  338.91220   54.80000    -999.25    0.09740   77.88740   52.81340   54.82580   11.89200   11.75490   11.03060    -999.25    0.23850 2510.30000    -999.25  -56.28430
 2650.00000  356.06230  330.06030   75.42500    -999.25    0.09670   78.11950   65.68470   64.23680    9.32000    9.54250    9.91210    -999.25    0.25030 2549.60000    -999.25  -53.73760
 2700.00000  335.43240  321.83070   32.70000    -999.25    0.12920   80.30410   59.15210   62.08520   13.69980   12.97900   12.63910    -999.25    0.26260 2430.80000    -999.25  -64.80010
 2750.00000  335.65590  326.88280   35.10000    -999.25    0.06240   81.24320   75.71200   77.01970    8.10980    8.46860    8.99790    -999.25    0.29430 2553.20000    -999.25  -51.22670
 2800.00000  356.60840  326.82430   63.10000    -999.25    0.10030   77.30330   57.96430   69.89300   16.78350   15.94460   15.99880    -999.25    0.22940 2487.30000    -999.25  -57.64710
 2850.00000  360.69020  329.97650   80.80000    -999.25    0.06360   77.40850   60.50260   59.64240   12.96510   13.70710   14.36480    -999.25    0.22500 2540.10000    -999.25  -58.13410
 2900.00000  379.37190  332.81620   61.20000    -999.25    0.04990   72.79860   69.21960   78.57440    9.52730   10.54770   12.80310    -999.25    0.19030 2575.20000    -999.25  -53.06260
 2950.00000  372.09220  332.75020   69.10000    -999.25    0.05260   72.44640   54.22700   56.71630   28.49970   24.06620   22.18120    -999.25    0.18540 2573.10000    -999.25  -60.88950
 3000.00000  431.88890  321.24650   -0.10000    -999.25    0.44190   93.11400   81.46180  101.67920    3.22810    3.02520    6.81150    -999.25    0.48920 2009.20000    -999.25  -51.22080
 3050.00000  405.31800  330.18480  111.55000    -999.25    0.38520   95.67140   70.39350   83.90840    6.06360    6.62160    8.31530    -999.25    0.41040 1929.70000    -999.25  -51.34540
 3100.00000  395.53130  331.07380   83.40000    -999.25    0.38820   89.96190   79.32680   79.72060    6.96570    6.39020    6.37640    -999.25    0.30670 1929.80000    -999.25  -52.74800
 3150.00000  391.89150  331.10680   14.50000    -999.25    0.25220   81.91620   87.60940   96.25830    9.13490    9.33050   10.24920    -999.25    0.34010 2247.40000    -999.25  -53.90030
 3200.00000  367.80980  333.85000   73.50000    -999.25    0.04790   71.30550   39.30840   41.60020   24.74020   24.04600   23.52700    -999.25    0.21760 2551.80000    -999.25  -72.40780
 3250.00000  401.54860  331.57670   31.90000    -999.25    0.17710   84.01190   67.75440   70.26220    5.99570    5.69610    7.44970    -999.25    0.35630 2356.00000    -999.25  -52.66700
 3300.00000  402.12260  327.52790   40.65000    -999.25    0.15010   94.26890   66.58050   73.61440    6.22850    6.52460    6.86830    -999.25    0.37650 2377.70000    -999.25  -51.10240
 3350.00000  418.81810  334.16240  -44.20000    -999.25    0.56480  125.20930   65.80570   78.76690    3.04100    2.80710    4.71740    -999.25    0.48670 1787.00000    -999.25  -49.86050
 3400.00000  366.40260  330.93910  135.60000    -999.25    0.34270   85.06440   61.84590   62.89860    7.74910    8.01120    8.23800    -999.25    0.34450 2068.50000    -999.25  -49.74750
 3450.00000  356.45340  332.88480   21.50000    -999.25    0.39370   85.97660   61.71590   64.71300    5.99140    6.42180    7.33230    -999.25    0.37990 1870.50000    -999.25  -48.87990
 3500.00000  323.92870  321.15760   69.30000    -999.25    0.07500   82.64920   64.86800   76.62920    8.95270    9.46850   10.22490    -999.25    0.30610 2492.20000    -999.25  -50.21090
 3550.00000  329.62600  328.54390   49.70000    -999.25    0.17660   72.89590   77.74940   87.85560    8.69920    9.16940   15.41810    -999.25    0.33220 2470.60000    -999.25  -51.28470
 3600.00000  333.55030  328.62270   46.25000    -999.25    0.11920   85.08890   81.13410   84.36660    6.09600    6.44750    7.49200    -999.25    0.32790 2472.60000    -999.25  -52.23370
 3650.00000  333.25310  326.35440   64.90000    -999.25    0.06600   80.78870   78.74800   79.70800    7.12110    7.70930    9.00130    -999.25    0.27370 2537.60000    -999.25  -53.32560
 3700.00000  323.96680  319.70470   83.90000    -999.25    0.04800   61.70760   38.20190   41.11160   46.20690   40.81970   40.10920    -999.25    0.20830 2543.90000    -999.25  -60.30430
 3750.00000  321.60460  327.13930   35.30000    -999.25    0.11410   79.53750   71.71050   91.29920    8.02500    8.75650   10.18720    -999.25    0.37190 2444.40000    -999.25  -53.73660
 3800.00000  325.80830  327.22060   46.90000    -999.25    0.14360   73.44800   52.24850   62.41160   20.12400   20.69460   21.75180    -999.25    0.31620 2416.70000    -999.25  -55.45420
 3850.00000  334.34020  329.16110   43.80000    -999.25    0.16620   84.96270   71.75450   84.98440    7.30460    7.52300    7.97560    -999.25    0.39200 2357.10000    -999.25  -52.71060
 3900.00000  353.78900  335.79050   13.25000    -999.25    0.28050  106.47280   77.96780   98.10410    4.32470    4.97560    6.58810    -999.25    0.44530 2095.70000    -999.25  -51.41620
 3950.00000  331.58940  327.53300   47.75000    -999.25    0.14310   69.12030   41.74690   51.29580   28.51060   26.02310   25.66330    -999.25    0.25120 2399.90000    -999.25  -53.48240
 4000.00000  338.98840  327.24340   -2.85000    -999.25    0.34790   83.19960   89.30180  110.01710    7.35950    7.84690    8.50300    -999.25    0.35470 2082.50000    -999.25  -51.68220
 4050.00000  333.17690  325.29780   40.85000    -999.25    0.14660   74.56920   55.27870   65.94160   23.00170   24.76470   23.46840    -999.25    0.30470 2417.90000    -999.25  -58.87670
 4100.00000  384.47220  317.99020  -11.10000    -999.25    0.34120   77.79660   60.41730   76.87560    9.45210    9.78030    9.91120    -999.25    0.36990 2118.00000    -999.25  -52.11450
 4150.00000  355.09200  322.81620   19.60000    -999.25    0.34320   83.37560   69.04200   80.90140    8.55540    8.84850    9.95380    -999.25    0.39100 2114.20000    -999.25  -53.42460
 4200.00000  419.00350  326.75070  124.70000    -999.25    0.45240   88.12310   63.32290   80.60620    5.64020    6.12400    6.81340    -999.25    0.40070 1770.50000    -999.25  -53.77770
 4250.00000  377.16210  322.33110   27.35000    -999.25    0.41470   84.54180   66.93160   77.83840    7.74370    8.73810   10.41440    -999.25    0.39720 1912.20000    -999.25  -54.66160
 4300.00000  355.38160  313.12360   78.55000    -999.25    0.21020   74.44080   42.07000   55.77450   21.95910   22.72770   25.53130    -999.25    0.34960 2333.80000    -999.25  -60.88590
 4350.00000  431.90670  327.36280   10.60000    -999.25    0.34750  111.53960   64.49310   87.04150    3.74890    4.04160    4.86580    -999.25    0.46270 1978.70000    -999.25  -53.63930
 4400.00000  340.65210  318.87160  129.70000    -999.25    0.19470   74.88190   51.24950   59.91970   14.55410   14.96620   15.68470    -999.25    0.30870 2269.70000    -999.25  -55.00100
 4450.00000  346.12580  322.15070   -4.10000    -999.25    0.31630   88.09770   67.14970   70.49630    9.09970    9.78210   11.31960    -999.25    0.36780 2141.80000    -999.25  -54.09330
 4500.00000  314.81270  311.80280   64.12500    -999.25    0.06750   71.26870   35.52530   36.10800   55.11610   42.39410   39.12260    -999.25    0.18860 2532.90000    -999.25  -73.57560
 4550.00000  302.47840  310.16190  -51.45000    -999.25    0.14880   74.08100   38.41190   36.87810   39.86530   36.95250   34.01880    -999.25    0.20600 2437.70000    -999.25  -73.76530
 4600.00000  368.26700  322.52160    4.50000    -999.25    0.18320   74.38780   55.97450   56.42580   17.59090   17.02010   16.69690    -999.25    0.24300 2316.20000    -999.25  -52.99540
 4650.00000  317.44920  317.77180   45.80000    -999.25   -0.00090   55.91750   33.83960   37.12030   40.85550   46.28870   69.99760    -999.25    0.08830 2704.70000    -999.25  -56.66070
 4700.00000  334.21830  321.31510   43.27500    -999.25    0.03880   68.44020   38.05530   49.17410   28.26300   29.47220   31.80810    -999.25    0.20470 2582.10000    -999.25  -61.32380
