~Version ---------------------------------------------------
VERS. 2.0 : CWLS log ASCII Standard -VERSION 2.0
WRAP.  NO : ONE LINE PER DEPTH STEP
~Well ------------------------------------------------------
STRT.F                             850.0 : START DEPTH
STOP.F                            7900.0 : STOP DEPTH
STEP.F                          50.00000 : STEP LENGTH
NULL.                            -999.25 : NULL VALUE
COMP.    MICHIGAN WISCONSIN PIPE LINE CO : COMPANY
WELL. MICH WIS PAN AM IOE TIMEU 7-6-65-4 : WELL
FLD .                                    : FIELD
LOC .                                    : LOCATION
CTRY.                             CANADA : COUNTRY
SRVC.                       Schlumberger : SERVICE COMPANY
DATE.                        24-Aug-1968 : LOGDATE
PROV.                            Alberta : PROVINCE
UWI .                   100070606504W500 : UNIQUE WELL ID
SLAT.WGS84                      54.59319 : SURFACE LATITUDE
SLON.WGS84                     -114.5883 : SURFACE LONGITUDE
~Curve Information -----------------------------------------
DEPT.F    0   1   0  0 : 1 MEASURED DEPTH
CILD.MMHO 05 110 46 00 : INDUCTION DEEP CONDUCTIVITY
ILD .OHMM 05 120 46 00 : INDUCTION DEEP RESISTIVITY
SPR .MV   05 010 01 00 : SPONTANEOUS POTENTIAL FROM RESISTIVITY LOG
SN  .OHMM 05 040 16 00 : SHORT NORMAL RESISTIVITY
CALS.IN   60 280 50 00 : CALIPER FROM SONIC LOG
GRS .GAPI 60 310 01 00 : GAMMA RAY FROM SONIC LOG
DT  .US/F 60 500 32 00 : DELTA-T (INTERVAL TRANSIT TIME)
~Params ----------------------------------------------------
PD  .                     GL : PERMANENT DATUM
EPD .FT                 2288 : ELEVATION PERMANENT DATUM
LMF .                     KB : LOG MEASURED FROM
DAPD.FT                   12 : FEET ABOVE PERMANENT DATUM
EKB .FT                 2300 : KELLY BUSHING
EGL .FT                 2288 : GROUND LEVEL
DATE.               08/24/68 : RUN DATE
RUN .                      1 : RUN NUMBER
DD  .FT                 7910 : DEPTH DRILLER
DL  .FT                 7911 : DEPTH LOGGER
BLI .FT                 7910 : BOTTOM LOG INTERVAL
TLI .FT                  820 : TOP LOG INTERVAL
CBD .FT                  820 : CASING BOTTOM DRILLER
CBL .FT                  820 : CASING BOTTOM LOGGER
BS  .IN                7.875 : BIT SIZE
BSD .FT                 7910 : BIT SIZE AT DEPTH
DFT .                    GEL : DRILLING FLUID TYPE
DFD .                    9.5 : DRILLING FLUID DENSITY
DFV .                     80 : DRILLING FLUID VISCOSITY
DFPH.                   10.5 : DRILLING FLUID PH
DFL .                    9.2 : DRILLING FLUID LOSS
RMS .OHMM               0.88 : RESISTIVITY MUD SAMPLE
MST .DEGF                 70 : MUD SAMPLE TEMPERATURE
RMF .OHMM                0.7 : RESISTIVITY MUD FILTRATE SAMPLE
MFST.DEGF                 70 : MUD FILTRATE SAMPLE TEMPERATURE
RMC .OHMM               1.26 : RESISTIVITY MUD CAKE
MCST.DEGF                 75 : MUD CAKE SAMPLE TEMPERATURE
RMB .OHMM               0.42 : RESISTIVITY MUD AT BHT
TCS .HRS                   3 : TIME CIRCULATED STOPPED
LUN .                   7501 : LOGGING UNIT NUMBER
LUL .                    EDM : LOGGING UNIT LOCATION
ENGI.               STUEHMER : RECORDING ENGINEER
WITN.                   PEEL : WITNESSED BY
CLNT.                A2DTECH : CLIENT CODE
ORIG.            2" 5" PRINT : ORIGIN OF DATA
UWI .       100070606504W500 : UNIQUE WELL ID
DICO. A2D Technologies, Inc. : DIGITIZING COMPANY
~Other -----------------------------------------------------
~ASCII -----------------------------------------------------
# ...
 5350.00000  113.94080    9.23640 -116.75260   12.31860   11.33270   51.94010   75.50960
 5400.00000   85.03300   11.73660 -115.46780   14.21440   10.24390   45.27170   65.43590
 5450.00000    1.33200  501.08840 -119.57530   98.69890    9.25420   25.49380   54.97820
 5500.00000   73.06000   13.70370 -110.48100   16.33410    9.66040   47.19110   63.48030
 5550.00000   99.93580   10.42290 -107.31880   12.36020   10.07660   47.80700   68.80910
 5600.00000  148.35190    7.09430 -113.53090    7.62360   11.82450   64.17270   77.56240
 5650.00000  265.35330    3.89160 -123.95000    4.39360   14.55900   74.40650   88.46690
 5700.00000  229.49050    4.30220 -117.27350    5.06140   13.78000   64.33390   79.39100
 5750.00000  196.20410    4.91680 -113.99530    5.90480   14.27690   70.64980   80.54210
 5800.00000  204.64530    5.06150 -111.12430    6.30550   11.89770   68.78400   81.50190
 5850.00000   12.44250   82.32580 -107.37710   52.86470    9.35100   44.15520   56.48210
 5900.00000  137.66560    6.88980 -108.79830    7.63950   14.98440   58.72220   77.42800
 5950.00000  154.23990    6.61740 -101.28600    7.67950   11.90190   44.58800   70.65640
 6000.00000   52.05960   19.06690  -98.14670   21.08410   10.75630   27.71680   57.44380
 6050.00000   15.50620   59.26900 -103.70270   50.06740   10.20440   15.72450   54.17990
 6100.00000    9.03560  144.30390 -105.15600   52.38790   10.20440   23.56770   54.97980
 6150.00000   47.62360   21.22470  -96.83140   21.52050   11.01490   42.68270   61.54590
 6200.00000    3.71590  259.91880 -108.16170   75.83090    9.40910   18.08570   53.88960
 6250.00000  116.29580    8.91050 -103.94000   11.01720   13.08390   69.58860   75.59750
 6300.00000   73.88740   13.28300  -94.17850   16.12400   10.84240   67.92930   65.78310
 6350.00000   18.90410   55.80470  -98.51560   50.65650    9.47720   28.68220   58.73090
 6400.00000   50.19900   19.55900  -86.87260   25.85670   10.19540   26.10880   66.67260
 6450.00000   77.45390   12.68260  -80.92990   20.69190   10.07910   80.51620   62.33670
 6500.00000  188.43290    4.94630  -91.33470    8.08510    9.82980  121.38210   69.01930
 6550.00000  177.36070    5.27270  -83.72360   10.30620   10.75890   86.30790   75.01250
 6600.00000   99.30430   10.07000  -65.12900   18.09140    9.95880   69.45970   57.87990
 6650.00000  180.21170    5.54910  -70.60770   12.66760   10.51280   90.15750   66.54100
 6700.00000  151.21690    6.26760  -61.72380   10.79840   10.06660   88.86190   66.46400
 6750.00000  222.62410    4.49180  -67.66510    5.72170   11.70740  123.27370   76.34670
 6800.00000  194.60300    4.91650  -63.27370    6.82210   10.83950  107.68280   73.64490
 6850.00000    6.63150    -999.25 -107.00670  119.67830    9.63410   24.53050   49.83090
 6900.00000  215.62220    4.63560  -89.60420   10.61180    9.16640   54.07990   63.91710
 6950.00000   41.45700   23.94500 -111.06350   27.25130    9.00690   34.02780   48.69730
 7000.00000   58.60010   17.30400  -80.79060   18.79480    8.83860   37.62970   52.23230
 7050.00000  135.25490    7.47070  -81.92920   10.18800    9.25850   73.48660   58.48670
 7100.00000   57.74170   17.31100 -121.35820   18.52350    9.33190   44.73480   53.57450
 7150.00000  131.08120    7.62960 -143.91620   10.45110    9.50530   90.41900   58.12600
 7200.00000  139.02620    7.19770 -165.20090   10.66750    9.45590  113.19290   66.49830
 7250.00000  140.04540    7.14040 -178.45300   10.62730    9.55870  134.90330   72.21820
 7300.00000  305.98830    3.26520 -164.01590    5.22430   10.03980   66.51520   74.73940
 7350.00000  142.36750    7.02550 -110.48020    9.14620   12.42520  119.88650   70.87070
 7400.00000   75.12620   13.31070  -68.70650   17.12480   10.85270   78.94840   70.73400
 7450.00000  146.41470    6.70660  -57.25320    7.74810   13.04900   89.53940   78.52540
 7500.00000  154.35890    6.47860  -25.04060    7.78250   15.21560   97.93470   80.26420
 7550.00000  108.77880    9.19330  -12.06770   13.68530   10.29000  128.88440   76.50570
 7600.00000   98.92930   10.10740  -14.56330   14.97610    8.98860  135.76450   68.08300
 7650.00000  152.72790    6.44240  -10.51220    9.72010    9.46070  145.84110   70.48300
 7700.00000  138.93480    7.32970  -14.24050   13.13850    8.93330  100.19470   67.49040
 7750.00000  149.74400    6.67870  -50.50130   11.06410    8.68710  144.73250   69.94920
 7800.00000  213.57520    4.68110 -101.32620   13.46080    8.69810   59.25310   63.71260
 7850.00000  391.80050    2.90880 -146.40880   16.47270    8.69740   64.00330   65.73750
 7900.00000   86.51420   11.70370  -98.07780   10.75260    8.84500    0.59530   58.68640
