~Version ---------------------------------------------------
VERS.      2.0 : CWLS log ASCII Standard -VERSION 2.0
WRAP.       NO : One line per depth step
CREA. 11/16/17 : LAS Creation Date
~Well ------------------------------------------------------
STRT.FT                          800.0 : START DEPTH
STOP.FT                        13150.0 : STOP DEPTH
STEP.FT                       50.00000 : STEP LENGTH
NULL.                          -999.25 : NULL VALUE
COMP. SOCONY MOBIL OIL OF CANADA, LTD. : COMPANY
WELL.     MOBIL CHEDDERVILLE 4-22-37-7 : WELL
FLD .                                  : FIELD
LOC .                                  : LOCATION
CTRY.                           CANADA : COUNTRY
SRVC.                     Schlumberger : SERVICE COMPANY
DATE.                      02-Jun-1964 : LOGDATE
PROV.                          Alberta : PROVINCE
UWI .                 100042203707W500 : UNIQUE WELL ID
SLAT.WGS84                    52.18951 : SURFACE LATITUDE
SLON.WGS84                   -114.9248 : SURFACE LONGITUDE
~Curve Information -----------------------------------------
DEPT  .FT    : Depth Curve
CALDED.IN    : CALIPER FROM FDL LOG [ADJ. TO RESISTIVITY LOG]
CALSED.IN    : CALIPER FROM SONIC LOG [ADJ. TO RESISTIVITY LOG]
CALWS .IN    : CALIPER [CALDED]
CILDED.MMHO  : CONDUCTIVITY FROM IEL LOG
CONDWS.MMHO  : CONDUCTIVITY [1000/DRESWS]
DRESWS.OHMM  : DEEP RESISTIVITY [1000/CILDED IF ILDED < 1, ILDED]
DT1ED .US/F  : DELTA TIME (1' SPACING) FROM SONIC LOG [ADJ. TO RESISTIVITY]
DTED  .US/F  : DELTA TIME (3' SPACING) FROM SONIC LOG [ADJ. TO RESISTIVITY]
DTWS  .US/F  : COMPRESSIONAL SONIC [DTED]
FDENED.CPS   : FORMATION DENSITY FROM FDL LOG [ADJ. TO RESISTIVITY]
GRDED .GAPI  : GAMMA RAY  FROM FDL LOG [ADJ. TO RESISTIVITY]
GRSED .GAPI  : GAMMA RAY FROM SONIC LOG [ADJ. TO RESISTIVITY]
GRWS  .GAPI  : GAMMA RAY [GRSED]
ILDED .OHMM  : INDUCTION DEEP RESISTIVITY FROM IEL LOG
SNED  .OHMM  : SHORT NORMAL RESISTIVITY FROM IEL LOG
SPRED .MV    : SPONTANEOUS POTENTIAL FROM IEL LOG
SPWS  .MV    : SPONTANEOUS POTENTIAL [BASELINE 0 MV, SPRED]
SRESWS.OHMM  : SHALLOW RESISTIVITY [SNED]
~Params ----------------------------------------------------
PD  .                     GL : PERMANENT DATUM
EPD .FT                 3420 : ELEVATION PERMANENT DATUM
LMF .                     KB : LOG MEASURED FROM
DAPD.FT                   15 : FEET ABOVE PERMANENT DATUM
EKB .FT                 3435 : KELLY BUSHING
EGL .FT                 3420 : GROUND LEVEL
DATE.               06/02/64 : RUN DATE
RUN .                      2 : RUN NUMBER
DD  .FT                13163 : DEPTH DRILLER
DL  .FT                13169 : DEPTH LOGGER
BLI .FT                13168 : BOTTOM LOG INTERVAL
TLI .FT                 9963 : TOP LOG INTERVAL
CBD .FT                 1290 : CASING BOTTOM DRILLER
CBL .FT                 1290 : CASING BOTTOM LOGGER
BS  .IN                    9 : BIT SIZE
BSD .FT                13163 : BIT SIZE AT DEPTH
DFT .              LIME BASE : DRILLING FLUID TYPE
DFD .                    9.2 : DRILLING FLUID DENSITY
DFV .                    165 : DRILLING FLUID VISCOSITY
DFPH.                     13 : DRILLING FLUID PH
DFL .                      5 : DRILLING FLUID LOSS
RMF .OHMM               0.44 : RESISTIVITY MUD FILTRATE SAMPLE
MFST.DEGF                 82 : MUD FILTRATE SAMPLE TEMPERATURE
RMC .OHMM               0.97 : RESISTIVITY MUD CAKE
MCST.DEGF                 80 : MUD CAKE SAMPLE TEMPERATURE
RMB .OHMM               0.29 : RESISTIVITY MUD AT BHT
TCS .HRS                   2 : TIME CIRCULATED STOPPED
LUN .                   1576 : LOGGING UNIT NUMBER
LUL .                     DV : LOGGING UNIT LOCATION
ENGI.               WILLIAMS : RECORDING ENGINEER
WITN.               LONGMORE : WITNESSED BY
CLNT.                A2DTECH : CLIENT CODE
ORIG.            2" 5" PRINT : ORIGIN OF DATA
UWI .       100042203707W500 : UNIQUE WELL ID
DICO. A2D Technologies, Inc. : DIGITIZING COMPANY
~Other -----------------------------------------------------
~ASCII -----------------------------------------------------
# ...
 6650.00000   10.98160   10.02560   10.02560   67.73440   67.47460   14.82040    -999.25   80.99020   80.99020 2000.00000    -999.25  105.88460  105.88460   14.82040   20.47820  -59.53850   -3.01090   20.47820
 6700.00000   10.82740   10.24700   10.24700   81.01900   80.45570   12.42920    -999.25   82.86710   82.86710 2000.00000    -999.25  104.02210  104.02210   12.42920   16.54360  -58.78240   -2.50610   16.54360
 6750.00000   10.26100    9.98100    9.98100   90.99770   87.58330   11.41770    -999.25   76.85230   76.85230 1701.61060    -999.25   91.82600   91.82600   11.41770   14.17250  -59.42570   -3.40080   14.17250
 6800.00000   10.51610    9.65760    9.65760   98.86060   97.43930   10.26280    -999.25   79.54700   79.54700 1849.33630    -999.25   99.04510   99.04510   10.26280   13.20590  -58.86610   -3.09250   13.20590
 6850.00000   10.60910    9.90710    9.90710  116.84500  117.09460    8.54010    -999.25   80.11290   80.11290 1565.21410    -999.25   95.33240   95.33240    8.54010   10.91470  -59.74300   -4.22070   10.91470
 6900.00000   11.00520    9.75890    9.75890  111.09960  111.07040    9.00330    -999.25   74.37000   74.37000 2000.00000    -999.25   82.30810   82.30810    9.00330   11.64430  -59.01490   -3.74390   11.64430
 6950.00000   11.16140   11.16980   11.16980  134.92760  137.22500    7.28730    -999.25   84.09200   84.09200 2000.00000    -999.25   92.29170   92.29170    7.28730    9.79000  -58.14240   -3.12270    9.79000
 7000.00000   11.29560   10.29360   10.29360  112.43030  114.44000    8.73820    -999.25   80.18530   80.18530 2000.00000    -999.25   95.17710   95.17710    8.73820   11.00800  -56.06100   -1.29260   11.00800
 7050.00000   11.21010   10.56430   10.56430  122.09960  121.67670    8.21850    -999.25   82.24370   82.24370 2000.00000    -999.25   98.69860   98.69860    8.21850   10.54040  -57.10350   -2.88700   10.54040
 7100.00000   11.01810    9.89510    9.89510  110.86360  111.46280    8.97160    -999.25   81.03820   81.03820 2000.00000    -999.25  100.39570  100.39570    8.97160   11.97530  -58.60550   -5.01590   11.97530
 7150.00000   11.13760    9.86210    9.86210  101.70220   99.62540   10.03760    -999.25   77.89950   77.89950 2000.00000   93.10500   90.94170   90.94170   10.03760   12.83310  -56.06470   -3.10210   12.83310
 7200.00000   11.71290   10.53570   10.53570  154.02220  157.37130    6.35440    -999.25   84.32200   84.32200 2000.00000   98.68140   99.88820   99.88820    6.35440    8.78540  -54.48150   -1.80790    8.78540
 7250.00000   12.29450   11.51570   11.51570  150.52930  155.12770    6.44630    -999.25   87.44020   87.44020 2000.00000  100.27440  100.44820  100.44820    6.44630    8.87100  -57.30390   -4.32080    8.87100
 7300.00000   12.52890   11.09740   11.09740  124.00920  118.47360    8.44070    -999.25   74.69580   74.69580 2000.00000   96.95120   98.45890   98.45890    8.44070    9.68810  -57.40160   -4.10910    9.68810
 7350.00000   11.81500   11.49870   11.49870  112.00300  111.19390    8.99330    -999.25   80.39230   80.39230 1518.08820   93.54830   92.95770   92.95770    8.99330   11.59550  -58.05400   -4.45210   11.59550
 7400.00000   10.73650   10.10580   10.10580   69.83150   67.78420   14.75270    -999.25   68.69070   68.69070 1342.03920   76.01310   79.19840   79.19840   14.75270   17.98590  -57.86330   -3.95200   17.98590
 7450.00000   10.62650   10.24960   10.24960  105.81400  103.59370    9.65310    -999.25   76.21020   76.21020 2000.00000    -999.25   95.16080   95.16080    9.65310   11.62010  -59.76400   -5.54330   11.62010
 7500.00000   12.74050   10.17110   10.17110  107.50300  105.92550    9.44060    -999.25   76.34110   76.34110 1693.82600    -999.25   96.16120   96.16120    9.44060   11.92760  -61.83500   -7.30480   11.92760
 7550.00000   12.34130   10.26540   10.26540  120.93170  119.23210    8.38700    -999.25   79.62930   79.62930 1027.16220    -999.25  100.76400  100.76400    8.38700   10.99700  -58.03190   -3.19230   10.99700
 7600.00000   14.55300   10.43530   10.43530  114.78950  114.79210    8.71140    -999.25   78.78350   78.78350 1221.87510    -999.25  107.11090  107.11090    8.71140   11.35400  -58.28930   -3.26850   11.35400
 7650.00000   14.56540   10.93330   10.93330  147.55100  148.65690    6.72690    -999.25   84.88790   84.88790  849.59000    -999.25  103.51240  103.51240    6.72690    9.75940  -57.85130   -2.94820    9.75940
 7700.00000   13.71040   10.27630   10.27630  145.44520  146.48150    6.82680    -999.25   88.57980   88.57980  911.94920    -999.25  104.95160  104.95160    6.82680    9.75850  -57.89740   -3.11210    9.75850
 7750.00000   14.27410    9.75260    9.75260   98.30280   96.94900   10.31470    -999.25   89.60110   89.60110 1232.47200    -999.25  114.40510  114.40510   10.31470   14.43400  -58.28270   -3.61510   14.43400
 7800.00000   12.25680    9.25900    9.25900   78.06870   74.97380   13.33800    -999.25   81.83400   81.83400 1629.80590    -999.25  115.05580  115.05580   13.33800   19.14580  -56.09740   -1.54760   19.14580
 7850.00000   13.74320    9.79970    9.79970   95.93360   90.69640   11.02580    -999.25   86.39400   86.39400 1454.08880    -999.25  114.62220  114.62220   11.02580   15.58680  -56.85450   -2.42240   15.58680
 7900.00000   12.85950    9.61220    9.61220   91.29450   85.41020   11.70820    -999.25   84.30070   84.30070 1288.36360    -999.25   99.40610   99.40610   11.70820   16.47890  -56.90460   -2.59030   16.47890
 7950.00000   10.71360    9.56870    9.56870   49.91960   48.04640   20.81320    -999.25   78.85990   78.85990  475.26590    -999.25   90.34370   90.34370   20.81320   24.45680  -57.64840   -3.45180   24.45680
 8000.00000   14.59940    9.98400    9.98400   77.52560   73.02790   13.69340    -999.25   84.54430   84.54430  438.48860    -999.25   99.16760   99.16760   13.69340   18.62460  -55.41530   -1.33650   18.62460
 8050.00000   14.58910   12.28340   12.28340  118.10490  112.80950    8.86450    -999.25   84.07130   84.07130  545.25620    -999.25  104.03730  104.03730    8.86450   12.79080  -55.65120   -2.31490   12.79080
 8100.00000   14.60860   13.04230   13.04230   70.69390   64.81130   15.42940    -999.25   70.95280   70.95280  535.89720    -999.25  117.22780  117.22780   15.42940   16.73270  -56.57180   -5.13820   16.73270
 8150.00000   14.44330   12.31290   12.31290   89.47060   87.28360   11.45690    -999.25   92.19710   92.19710 1326.37300    -999.25  117.69320  117.69320   11.45690   16.90890  -50.93020   -1.39930   16.90890
 8200.00000   11.50530   11.99870   11.99870  112.51900  111.95200    8.93240    -999.25   94.35020   94.35020 1914.13560  117.59550  117.12520  117.24440    8.93240   12.76690  -52.36510   -2.60100   12.76690
 8250.00000   13.60990   11.92390   11.92390  103.88080  102.38560    9.76700    -999.25   92.52200   92.52200 1981.77010  130.51730  132.10790  132.10790    9.76700   13.78240  -56.75710   -5.46880   13.78240
 8300.00000   10.59030    9.46500    9.46500   56.31290   55.26660   18.09410    -999.25   75.52690   75.52690  698.30380  142.50790  142.06300  142.06300   18.09410   27.76000  -54.23350   -1.42100   27.76000
 8350.00000   13.96380   11.65550   11.65550  182.44680  190.61420    5.24620    -999.25   84.46610   84.46610 1659.77990   86.56610   88.18090   88.18090    5.24620    7.40260  -57.21190   -3.88140    7.40260
 8400.00000   11.01070    9.90580    9.90580   50.25910   47.49830   21.05340    -999.25   70.58790   70.58790 1337.63180   54.61500   52.73570   52.73570   21.05340   24.45870  -67.24390  -13.96140   24.45870
 8450.00000   11.29320   10.30170   10.30170   98.34790   96.93210   10.31650    -999.25   74.94080   74.94080  710.52840  100.69340  101.63020  101.44440   10.31650   14.44160  -55.69230   -2.45790   14.44160
 8500.00000   11.63860   10.57600   10.57600  144.68880  145.84060    6.85680    -999.25   76.94350   76.94350 1928.15780   89.62680   91.07620   91.07620    6.85680    9.47940  -54.79130   -1.96840    9.47940
 8550.00000   11.65350   10.40230   10.40230  117.43860  111.64200    8.95720    -999.25   70.28990   70.28990  435.87230   64.74160   65.07040   65.07040    8.95720   10.84960  -55.61590   -3.41430   10.84960
