~Version ---------------------------------------------------
VERS.      2.0 : CWLS log ASCII Standard -VERSION 2.0
WRAP.       NO : One line per depth step
CREA. 11/16/17 : LAS Creation Date
~Well ------------------------------------------------------
STRT.FT                       1100.0 : START DEPTH
STOP.FT                      10650.0 : STOP DEPTH
STEP.FT                     50.00000 : STEP LENGTH
NULL.                        -999.25 : NULL VALUE
COMP.           PETROFINA CANADA LTD : COMPANY
WELL. FINA AMOCO HB PASSCK 10-6-61-1 : WELL
FLD .                             WC : FIELD
LOC .                                : LOCATION
CTRY.                         CANADA : COUNTRY
SRVC.                   Schlumberger : SERVICE COMPANY
DATE.                    16-Nov-1976 : LOGDATE
PROV.                        Alberta : PROVINCE
UWI .               100100606117W500 : UNIQUE WELL ID
SLAT.WGS84                  54.24964 : SURFACE LATITUDE
SLON.WGS84                 -116.5333 : SURFACE LONGITUDE
~Curve Information -----------------------------------------
DEPT    .FT    : Depth Curve
CALDED  .IN    : CALIPER FROM DENSITY LOG
CALSED  .IN    : CALIPER FROM SONIC LOG [ADJ. TO GRDED]
CALWS   .IN    : CALIPER [CALSED SPL. TO CALDED @ 2270']
CILDED  .MMHO  : CONDUCTIVITY FROM RESISTIVITY LOG
CONDWS  .MMHO  : CONDUCTIVITY [1000/DRESWS]
DCORED  .G/C3  : DENSITY CORRECTION FROM DENSITY LOG
DCORWS  .G/C3  : DENSITY CORRECTION [DCORED]
DENWS   .G/C3  : FORMATION BULK DENSITY [RHOBED]
DPHILSED.V/V   : DENSITY POROSITY LIMESTONE [M=2.71, F=1.00] FROM DENSITY LOG [ADJ. TO RHOBED]
DPHISSED.V/V   : DENSITY POROSITY SANDSTONE [M=2.65, F=1.00] FROM DENSITY LOG [ADJ. TO RHOBED]
DPOLSWS .V/V   : DENSITY POROSITY LIMESTONE [CALC FROM DENWS, M=2.71, F=1.00]
DRESWS  .OHMM  : DEEP RESISTIVITY [1000/CILDED IF ILDED<=1.9, ILDED & SPL. TO ILDED @ 2250']
DTED    .US/F  : DELTA TIME FROM SONIC LOG [ADJ. TO GRDED]
DTWS    .US/F  : COMPRESSIONAL SONIC [DTED]
GRDED   .GAPI  : GAMMA RAY FROM DENSITY LOG
GRSED   .GAPI  : GAMMA RAY FROM SONIC LOG [ADJ. TO GRDED]
GRWS    .GAPI  : GAMMA RAY [GRSED SPL. TO GRDED @ 2276']
ILDED   .OHMM  : DEEP INDUCTION RESISTIVITY FROM RESISTIVITY LOG
ILMED   .OHMM  : MEDIUM INDUCTION RESISTIVITY FROM RESISTIVITY LOG
LL8ED   .OHMM  : 8 INCH LATEROLOG RESISTIVITY FROM RESISTIVITY LOG
MRESWS  .OHMM  : MEDIUM RESISTIVITY [ILMED]
NPHILSED.V/V   : NEUTRON POROSITY LIMESTONE FROM DENSITY LOG [ADJ. TO RHOBED]
NPHISSED.V/V   : NEUTRON POROSITY SANDSTONE FROM DENSITY LOG [ADJ. TO RHOBED]
NPOLSWS .V/V   : NEUTRON POROSITY LIMESTONE [SS CONVERTED TO  LS & SPL. TO NPHILSED @ 6854.5']
RHOBED  .G/C3  : BULK DENSITY FROM DENSITY LOG
SPRED   .MV    : SPONTANEOUS POTENTIAL FROM RESISTIVITY LOG
SPWS    .MV    : SPONTANEOUS POTENTIAL [BASELINE 0 MV, SPRED]
SRESWS  .OHMM  : SHALLOW RESISTIVITY [LL8ED]
~Params ----------------------------------------------------
PD  .                     GL : PERMANENT DATUM
EPD .FT                 3080 : ELEVATION PERMANENT DATUM
LMF .                     KB : LOG MEASURED FROM
DAPD.FT                   16 : FEET ABOVE PERMANENT DATUM
EKB .FT                 3096 : KELLY BUSHING
EGL .FT                 3080 : GROUND LEVEL
DATE.               11/16/76 : RUN DATE
RUN .                      2 : RUN NUMBER
DD  .FT                10680 : DEPTH DRILLER
DL  .FT                10679 : DEPTH LOGGER
BLI .FT                10673 : BOTTOM LOG INTERVAL
TLI .FT                 7468 : TOP LOG INTERVAL
CBD .FT                 1102 : CASING BOTTOM DRILLER
CBL .FT                 1102 : CASING BOTTOM LOGGER
BS  .IN                 8.75 : BIT SIZE
BSD .FT                10680 : BIT SIZE AT DEPTH
DFT .                    GEL : DRILLING FLUID TYPE
DFD .                    9.2 : DRILLING FLUID DENSITY
DFV .                     94 : DRILLING FLUID VISCOSITY
DFPH.                     10 : DRILLING FLUID PH
DFL .                    8.2 : DRILLING FLUID LOSS
MSS .               FLOWLINE : MUD SAMPLE SOURCE
RMS .OHMM               1.57 : RESISTIVITY MUD SAMPLE
MST .DEGF                 65 : MUD SAMPLE TEMPERATURE
RMF .OHMM               1.76 : RESISTIVITY MUD FILTRATE SAMPLE
MFST.DEGF                 68 : MUD FILTRATE SAMPLE TEMPERATURE
TCS .HRS                 2.5 : TIME CIRCULATED STOPPED
LUN .                   7800 : LOGGING UNIT NUMBER
LUL .                    EDM : LOGGING UNIT LOCATION
ENGI.     ROBELLI LEDUG BIGG : RECORDING ENGINEER
WITN.                CHARLES : WITNESSED BY
CLNT.                A2DTECH : CLIENT CODE
ORIG.            2" 5" PRINT : ORIGIN OF DATA
UWI .       100100606117W500 : UNIQUE WELL ID
DICO. A2D Technologies, Inc. : DIGITIZING COMPANY
~Other -----------------------------------------------------
~ASCII -----------------------------------------------------
# ...
 8600.00000   11.53580    9.83850   11.53580    -999.25    0.66040    0.16410    0.16410    2.54660    0.08860    -999.25    0.09560 1514.22300   51.78080   51.78080   11.35720   12.26650   11.35720 1514.22300 1608.90030  939.63420 1608.90030    0.02820    -999.25    0.02820    2.54660  -85.94700  -87.92900  939.63420
 8650.00000   12.65450   10.02560   12.65450    -999.25    3.01450    0.17370    0.17370    2.43020    0.15680    -999.25    0.16360  337.25010   50.77910   50.77910   11.07160   10.62020   11.07160  337.25010 1473.28460  179.85780 1473.28460    0.02340    -999.25    0.02340    2.43020  -85.31660  -86.05680  179.85780
 8700.00000   10.00000    9.40920   10.00000    -999.25    6.42510    0.11800    0.11800    2.59140    0.06690    -999.25    0.06940  155.64070   52.99380   52.99380    8.28200    7.45710    8.28200  155.64070  167.71490  115.18290  167.71490    0.04170    -999.25    0.04170    2.59140  -86.92170  -86.41180  115.18290
 8750.00000    9.78970    9.37090    9.78970    -999.25   10.02100   -0.00540   -0.00540    2.80830   -0.06790    -999.25   -0.05750  103.36150   52.22950   52.22950   18.53460   15.43800   18.53460  103.36150   72.91190  224.63440   72.91190    0.02610    -999.25    0.02610    2.80830  -64.69100  -62.93920  224.63440
 8800.00000   10.33560    9.97410   10.33560    -999.25   73.83180    0.08120    0.08120    2.83960   -0.08390    -999.25   -0.07570   13.54900   51.71200   51.71200   23.76730   23.46990   23.76730   13.54900   12.71490   14.83040   12.71490    0.05040    -999.25    0.05040    2.83960  -36.20710  -33.51470   14.83040
 8850.00000   10.50490    9.31510   10.50490    -999.25    9.46460    0.07400    0.07400    2.51920    0.11860    -999.25    0.11160  105.65660   50.83180   50.83180   16.58140   19.03960   16.58140  105.65660   57.96650  153.23230   57.96650    0.07060    -999.25    0.07060    2.51920 -107.86120 -105.56430  153.23230
 8900.00000   12.35600    9.89100   12.35600    -999.25   18.93890    0.22450    0.22450    2.38950    0.19120    -999.25    0.18740   52.86520   53.86140   53.86140   29.86640   31.73550   29.86640   52.86520   67.86250   60.52470   67.86250    0.09420    -999.25    0.09420    2.38950  -77.85170  -75.94770   60.52470
 8950.00000   11.95390    9.73380   11.95390    -999.25    0.79740    0.15500    0.15500    2.30170    0.24500    -999.25    0.23880 1254.12060   55.38630   55.38630   23.67050   25.01370   23.67050 1254.12060 1372.91630  448.49710 1372.91630    0.09840    -999.25    0.09840    2.30170  -64.07690  -62.56850  448.49710
 9000.00000    9.82170    9.41620    9.82170    -999.25    0.92740   -0.02140   -0.02140    2.69410    0.01410    -999.25    0.00940 1080.05920   54.24570   54.24570   35.28610   37.88590   35.28610 1080.05920  361.44480  287.60010  361.44480    0.02100    -999.25    0.02100    2.69410  -14.40730  -13.29190  287.60010
 9050.00000    9.70050    9.32660    9.70050    -999.25    3.09880   -0.02500   -0.02500    2.69730    0.00590    -999.25    0.00740  323.17850   53.19420   53.19420   30.86930   29.28900   30.86930  323.17850  197.00780  220.45740  197.00780    0.01860    -999.25    0.01860    2.69730  -19.97470  -19.25220  220.45740
 9100.00000    9.58780    9.37580    9.58780    -999.25    0.68450    0.00690    0.00690    2.73010   -0.00740    -999.25   -0.01180 1461.01120   52.08220   52.08220   27.28310   25.10370   27.28310 1461.01120 1559.78650  889.69940 1559.78650    0.01140    -999.25    0.01140    2.73010  -31.77730  -31.45040  889.69940
 9150.00000    9.56310    9.30660    9.56310    -999.25    2.54010   -0.00430   -0.00430    2.70340    0.00210    -999.25    0.00390  396.03680   53.54520   53.54520   28.96910   29.32780   28.96910  396.03680  307.72630  229.22390  307.72630    0.01490    -999.25    0.01490    2.70340  -23.05980  -23.12580  229.22390
 9200.00000    9.65900    9.09030    9.65900    -999.25    6.27150   -0.01030   -0.01030    2.70090   -0.01200    -999.25    0.00530  159.45050   52.25790   52.25790   24.21140   23.19860   24.21140  159.45050  138.30620  152.11310  138.30620    0.01820    -999.25    0.01820    2.70090  -21.66250  -22.12410  152.11310
 9250.00000    9.85900    9.26220    9.85900    -999.25   55.15640   -0.02610   -0.02610    2.69000    0.00780    -999.25    0.01170   18.14050   60.38330   60.38330   41.72820   41.57610   41.72820   18.14050   16.12680   20.58140   16.12680    0.07460    -999.25    0.07460    2.69000   -7.59920   -8.45370   20.58140
 9300.00000    9.88840    9.35490    9.88840    -999.25   96.97410   -0.01290   -0.01290    2.67820    0.01470    -999.25    0.01850   10.31210   68.38960   68.38960   64.22250   66.26120   64.22250   10.31210    9.12340   13.35930    9.12340    0.12800    -999.25    0.12800    2.67820   -6.93520   -8.18270   13.35930
 9350.00000    9.81570    9.44160    9.81570    -999.25   99.06970   -0.01650   -0.01650    2.67600    0.01700    -999.25    0.01990   10.09390   66.21520   66.21520   61.31790   65.11730   61.31790   10.09390    9.25850   13.01780    9.25850    0.12770    -999.25    0.12770    2.67600   -7.33690   -8.97990   13.01780
 9400.00000    9.88830    9.37920    9.88830    -999.25   86.40890   -0.00320   -0.00320    2.69560    0.00660    -999.25    0.00840   11.57570   65.04660   65.04660   63.83290   59.01540   63.83290   11.57570   10.01690   13.98600   10.01690    0.11520    -999.25    0.11520    2.69560   -9.26320  -11.29920   13.98600
 9450.00000   10.20830    9.65200   10.20830    -999.25  111.74060   -0.00110   -0.00110    2.67240    0.00950    -999.25    0.02200    8.94930   69.08140   69.08140   76.72700   75.90220   76.72700    8.94930    7.86960   10.28440    7.86960    0.15140    -999.25    0.15140    2.67240   -2.13810   -4.56960   10.28440
 9500.00000    9.97120    9.49300    9.97120    -999.25    8.94020   -0.01860   -0.01860    2.54290    0.10690    -999.25    0.09770  115.47280   72.53160   72.53160   88.31890   83.14090   88.31890  115.47280   77.29400  171.27360   77.29400    0.18960    -999.25    0.18960    2.54290   -9.56240  -12.38690  171.27360
 9550.00000   12.31830   10.35210   12.31830    -999.25   64.56500    0.23720    0.23720    2.49380    0.14330    -999.25    0.12640   15.50660   73.67010   73.67010   82.92330   90.03920   82.92330   15.50660   12.56460   25.54340   12.56460    0.19950    -999.25    0.19950    2.49380  -10.44110  -13.65860   25.54340
 9600.00000   14.42110   11.09000   14.42110    -999.25  170.07090    0.23770    0.23770    2.24290    0.27980    -999.25    0.27320    5.87990   78.46420   78.46420   82.15780   84.22140   82.15780    5.87990    5.50030    7.58720    5.50030    0.25580    -999.25    0.25580    2.24290  -14.11030  -17.72330    7.58720
 9650.00000   10.13660    9.67660   10.13660    -999.25   22.37020   -0.00400   -0.00400    2.65640    0.02910    -999.25    0.03130   44.76780   67.03900   67.03900   73.87300   78.93600   73.87300   44.76780   32.50430   89.20130   32.50430    0.13880    -999.25    0.13880    2.65640    0.33330   -3.61320   89.20130
 9700.00000   10.14260    9.61590   10.14260    -999.25   68.30370   -0.00940   -0.00940    2.68810    0.01840    -999.25    0.01280   14.64050   59.51460   59.51460   59.52290   56.82970   59.52290   14.64050   13.13630   18.65600   13.13630    0.07320    -999.25    0.07320    2.68810   -0.35150   -4.29800   18.65600
 9750.00000   10.30510    9.96370   10.30510    -999.25  107.63740   -0.01090   -0.01090    2.64930    0.04120    -999.25    0.03550    9.29120   70.34870   70.34870   91.42670  100.26700   91.42670    9.29120    8.29750   12.00600    8.29750    0.18300    -999.25    0.18300    2.64930   -2.89570   -6.84220   12.00600
 9800.00000   11.04340   10.28750   11.04340    -999.25  136.93850   -0.00370   -0.00370    2.68120    0.02150    -999.25    0.01690    7.30440   70.48520   70.48520   92.25940   94.35480   92.25940    7.30440    6.44280    9.34820    6.44280    0.16260    -999.25    0.16260    2.68120   -7.57040  -11.51690    9.34820
