~Version ---------------------------------------------------
VERS.      2.0 : CWLS log ASCII Standard -VERSION 2.0
WRAP.       NO : One line per depth step
CREA. 08/21/13 : LAS Creation Date
~Well ------------------------------------------------------
STRT.M                      450.0 : START DEPTH
STOP.M                     4050.0 : STOP DEPTH
STEP.M                   50.00000 : STEP LENGTH
NULL.                     -999.25 : NULL VALUE
COMP.                PETRO CANADA : COMPANY
WELL. PC NEWPORT EDSON 4-35-50-18 : WELL
FLD .                       EDSON : FIELD
LOC .                             : LOCATION
CTRY.                      CANADA : COUNTRY
SRVC.                Schlumberger : SERVICE COMPANY
DATE.                 12-Apr-1988 : LOGDATE
PROV.                     Alberta : PROVINCE
UWI .            100043505018W500 : UNIQUE WELL ID
SLAT.WGS84               53.35424 : SURFACE LATITUDE
SLON.WGS84                -116.53 : SURFACE LONGITUDE
~Curve Information -----------------------------------------
DEPT    .M      : DEPTH METER
AHT10ED .OHMM   : 10 INCH RESISTIVITY ONE FOOT RESOLUTION FROM AIT LOG
AHT20ED .OHMM   : 20 INCH RESISTIVITY ONE FOOT RESOLUTION FROM AIT LOG
AHT30ED .OHMM   : 30 INCH RESISTIVITY ONE FOOT RESOLUTION FROM AIT LOG
AHT60ED .OHMM   : 60 INCH RESISTIVITY ONE FOOT RESOLUTION FROM AIT LOG
AHT90ED .OHMM   : 90 INCH RESISTIVITY ONE FOOT RESOLUTION FROM AIT LOG
CAL2ED  .MM     : CALIPER 2 HORIZONTAL FROM DENSITY LOG
CALWS   .MM     : CALIPER [HCALDED]
CONDWS  .MMHO   : CONDUCTIVITY [1000/DRESWS]
DCORWS  .KG/M3  : DENSITY CORRECTION [HDRAED]
DENWS   .KG/M3  : FORMATION BULK DENSITY [CALC. FROM DPOLSWS M=2710,F=1000]
DNPHED  .V/V    : DELTA THERMAL NEUTRON POROSITY SANDSTONE [M=2650,F=1000] FROM DENSITY LOG
DPHZLSED.V/V    : DENSITY POROSITY LIMESTONE [M=2710,F=1000] FROM DENSITY LOG
DPHZSSED.V/V    : DENSITY POROSITY SANDSTONE [M=2650,F=1000] FROM DENSITY LOG
DPOLSWS .V/V    : DENSITY POROSITY LIMESTONE [DPHISSED CONVERRED TO LIMESTONE, SPL. TO DPHILSED @ 2984M - 2987.82M]
DRESWS  .OHMM   : DEEP RESISTIVITY AHT90ED]
DTED    .US/M   : DELTA TIME FROM SONIC LOG
DTWS    .US/M   : COMPRESSIONAL SONIC [DTED]
GRDED   .GAPI   : GAMMA RAY FROM DENSITY LOG
GRWS    .GAPI   : GAMMA RAY [GRDED]
HCALDED .MM     : CALIPER FROM DENSITY LOG
HDRAED  .KG/M3  : DENSITY CORRECTION FROM DENSITY LOG
HPRAED  .B/E    : HRDD PHOTOELECTRIC FACTOR CORRECTION FROM DENSITY LOG
MRESWS  .OHMM   : MEDIUM RESISTIVITY AHT30ED]
NPOLSWS .V/V    : NEUTRON POROSITY LIMESTONE [NPHISSED MATRIX CONVERSION FOR LIMESTONE FROM BALER ATLAS (CNL-2420), SPL. TO NPHILSED @ 2980M]
NPORLSED.V/V    : NEUTRON POROSITY LIMESTONE FROM DENSITY LOG
NPORSSED.V/V    : NEUTRON POROSITY SANDSTONE FROM DENSITY LOG
PEFWS   .B/E    : PHOTOELECTRIC FACTOR [HPRAED SPL. TO PEFZED @ 2087.89M]
PEFZED  .B/E    : PHOTO ELECTRIC FACTOR FROM DENSITY LOG
RHOZED  .KG/M3  : BULK DENSITY HRDD STANDARD RESOLUTION FROM DENSITY LOG [ADJ. TO DPHZSSED/DPHZLSED]
RXOZED  .OHMM   : MICRO RESISTIVITY FROM AIT LOG
SPRED   .MV     : SPONTANEOUS POTENTIAL FROM AIT LOG
SPWS    .MV     : SPONTANEOUS POTENTIAL [BASELINE 0 MV,SPRED]
SRESWS  .OHMM   : SHALLOW RESISTIVITY [AHT10ED]
TENSED  .N      : TENSION FROM SONIC LOG
~Params ----------------------------------------------------
PD  .                           GL : PERMANENT DATUM
EPD .M                      995.13 : ELEVATION PERMANENT DATUM
LMF .                           KB : LOG MEASURED FROM
DAPD.M                         7.6 : FEET ABOVE PERMANENT DATUM
DMF .                           KB : DRILLING MEASURED FROM
EKB .M                     1002.75 : KELLY BUSHING
EDF .M                     1002.45 : DRILLING FLOOR
EGL .M                      995.13 : GROUND LEVEL
DATE.                     04/12/98 : RUN DATE
RUN .                            2 : RUN NUMBER
DD  .M                        4095 : DEPTH DRILLER
DL  .M                        4091 : DEPTH LOGGER
BLI .M                        4091 : BOTTOM LOG INTERVAL
TLI .M                        2927 : TOP LOG INTERVAL
CS  .MM                      244.5 : CASING SIZE
CBD .M                        2989 : CASING BOTTOM DRILLER
CBL .M                        2987 : CASING BOTTOM LOGGER
BS  .MM                        216 : BIT SIZE
BSD .M                        4095 : BIT SIZE AT DEPTH
DFT .                  GEL POLYMER : DRILLING FLUID TYPE
DFD .                         1245 : DRILLING FLUID DENSITY
DFV .                           65 : DRILLING FLUID VISCOSITY
DFPH.                          4.5 : DRILLING FLUID PH
DFL .                         11.5 : DRILLING FLUID LOSS
MSS .                     FLOWLINE : MUD SAMPLE SOURCE
RMS .OHMM                     1.14 : RESISTIVITY MUD SAMPLE
MST .DEGC                       12 : MUD SAMPLE TEMPERATURE
RMF .OHMM                     0.93 : RESISTIVITY MUD FILTRATE SAMPLE
MFST.DEGC                       12 : MUD FILTRATE SAMPLE TEMPERATURE
RMC .OHMM                     0.55 : RESISTIVITY MUD CAKE
MCST.DEGC                      118 : MUD CAKE SAMPLE TEMPERATURE
MFSS.                         MEAS : MUD FILTRATE SAMPLE SOURCE
MCSS.                         MEAS : MUD CAKE SAMPLE SOURCE
RMB .OHMM                    0.274 : RESISTIVITY MUD AT BHT
TCS .HRS                      2030 : TIME CIRCULATED STOPPED
TLAB.HRS                       630 : TIME LOGGER AT BOTTOM
LUN .                         2111 : LOGGING UNIT NUMBER
LUL .                     NISKU ES : LOGGING UNIT LOCATION
ENGI.                       HARVEY : RECORDING ENGINEER
WITN.                     MARSLAND : WITNESSED BY
CLNT.                      A2DTECH : CLIENT CODE
ORIG. 6.5IN/100M 16.5IN/100M PRINT : ORIGIN OF DATA
UWI .             100043505018W500 : UNIQUE WELL ID
DICO.       A2D Technologies, Inc. : DIGITIZING COMPANY
~Other -----------------------------------------------------
PEX-AIT-TDL-CNL-XY-DSLT LOG RUN IN COMBO.
NEUTRON MATRIX CONVERSION FOR LIMESTONE FROM BALER ATLAS (CNL-2420)
~ASCII -----------------------------------------------------
# ...
 2550.00000    8.90020    7.56350    7.23740    6.69880    6.34510  319.25570  321.90000  157.60190   92.68640 2604.62500   -0.03020    -999.25    0.02750    0.06160    6.34510  267.55110  267.55110  111.12770  111.12770  321.90000   92.68640    0.99910    7.23740    0.28940    -999.25    0.28940    5.79520    5.79520 2613.12060    -999.25    -999.25    -999.25    8.90020 19587.32230
 2600.00000    6.71180    5.88780    5.46860    5.29510    4.99860  315.12790  363.45730  200.05600  121.27150 2512.72000   -0.04550    -999.25    0.08320    0.11540    4.99860  269.47290  269.47290   91.88440   91.88440  363.45730  121.27150    1.22050    5.46860    0.25190    -999.25    0.25190   10.00000   10.00000 2430.26880    -999.25    -999.25    -999.25    6.71180 19950.21480
 2650.00000   13.87790   11.19610   10.59920    9.87750    8.68380  312.47270  310.81210  115.15700   26.92990 2582.51500   -0.02780    -999.25    0.04090    0.07460    8.68380  234.16200  234.16200   73.17010   73.17010  310.81210   26.92990    2.02110   10.59920    0.21890    -999.25    0.21890    5.79590    5.79590 2576.59690    -999.25    -999.25    -999.25   13.87790 21585.41800
 2700.00000   10.32970    9.78280    8.67610    8.02400    7.38150  313.37990  314.76000  135.47380   26.24380 2660.72500   -0.02910    -999.25   -0.00650    0.02880    7.38150  252.85000  252.85000   89.38710   89.38710  314.76000   26.24380    2.97260    8.67610    0.29830    -999.25    0.29830    8.23860    8.23860 2678.16770    -999.25    -999.25    -999.25   10.32970 20944.16410
 2750.00000   16.21680   12.42910   11.38800    9.83500    9.60640  314.31240  312.66360  104.09730   44.67140 2650.99000   -0.02570    -999.25   -0.00060    0.03450    9.60640  226.59210  226.59210   66.56690   66.56690  312.66360   44.67140    0.81950   11.38800    0.15650    -999.25    0.15650    4.24170    4.24170 2663.73710    -999.25    -999.25    -999.25   16.21680 20871.53520
 2800.00000   41.93480   31.98450   30.05600   28.65290   27.57820  311.31430  314.02630   36.26050   12.19840 2670.13000   -0.02450    -999.25   -0.01220    0.02330   27.57820  211.72170  211.72170   61.90950   61.90950  314.02630   12.19840    0.05950   30.05600    0.13070    -999.25    0.13070    3.20600    3.20600 2676.46440    -999.25    -999.25    -999.25   41.93480 20937.56050
 2850.00000   57.03850   31.96050   26.68540   22.57680   18.79650  311.26910  318.65190   53.20140  131.55640 2743.22500   -0.02750    -999.25   -0.05650   -0.01940   18.79650  219.35020  219.35020   65.91850   65.91850  318.65190  131.55640    2.34480   26.68540    0.17170    -999.25    0.17170    9.36040    9.36040 2695.11790    -999.25    -999.25    -999.25   57.03850 21053.42970
 2900.00000   26.77200   18.81960   17.63080   15.58260   14.61960  310.16990  315.57500   68.40130  143.64050 2640.76000   -0.02760    -999.25    0.00560    0.04050   14.61960  225.62540  225.62540   93.73430   93.73430  315.57500  143.64050    3.01600   17.63080    0.18490    -999.25    0.18490    9.32120    9.32120 2570.86740    -999.25    -999.25    -999.25   26.77200 21247.54100
 2950.00000   28.87080   21.09020   17.92220   17.52770   16.85420  360.74710  312.60680   59.33240    8.82310 2641.09000   -0.02600    -999.25    0.00540    0.04030   16.85420  216.81770  216.81770  103.71740  103.71740  312.60680    8.82310    0.03620   17.92220    0.16750    -999.25    0.16750    2.69520    2.69520 2619.97000    -999.25    -999.25    -999.25   28.87080 21586.15040
 3000.00000    -999.25    -999.25  200.57610 1509.86510 1122.41200  216.55440  228.00770    0.89090    6.11870 2632.36600    -999.25    0.04540    -999.25    0.04540 1122.41200  170.57940  170.57940   26.41700   26.41700  228.00770    6.11870    -999.25  200.57610    0.00090    0.00090    -999.25    2.42860    2.42860 2646.36470  710.24080 -111.93210  -77.11420    -999.25 20047.04300
 3050.00000    -999.25    -999.25   68.77780   50.64370   59.05760  230.62680  237.16340   16.93260  167.65440 2785.92400    -999.25   -0.04440    -999.25   -0.04440   59.05760  158.73830  158.73830   25.16640   25.16640  237.16340  167.65440    -999.25   68.77780    0.03530    0.03530    -999.25    2.76900    2.76900 2775.11650   37.34950  -98.58420  -63.76630    -999.25 20778.88480
 3100.00000    -999.25    -999.25   38.36130   58.09570   42.54070  213.51630  214.63940   23.50690    1.64360 2778.57100    -999.25   -0.04010    -999.25   -0.04010   42.54070  174.08060  174.08060   37.38840   37.38840  214.63940    1.64360    -999.25   38.36130    0.05550    0.05550    -999.25    3.54710    3.54710 2785.78780   58.90430  -77.69050  -42.87260    -999.25 21161.36910
 3150.00000    -999.25    -999.25  174.80010   48.75220   42.94670  211.00630  281.44960   23.28470  304.89380 2511.98200    -999.25    0.11580    -999.25    0.11580   42.94670  164.31590  164.31590   18.90280   18.90280  281.44960  304.89380    -999.25  174.80010    0.05290    0.05290    -999.25    4.26870    4.26870 2510.52470    4.63710 -116.86690  -89.32790    -999.25 21497.25780
 3200.00000    -999.25    -999.25   38.77260   27.96600   31.39200  254.07260  212.65970   31.85520  303.07680 2618.85700    -999.25    0.05330    -999.25    0.05330   31.39200  179.38650  179.38650   37.81910   37.81910  212.65970  303.07680    -999.25   38.77260    0.07100    0.07100    -999.25    2.62680    2.62680 2630.70340    8.76040  -44.99380  -31.03490    -999.25 21684.87300
 3250.00000    -999.25    -999.25   51.04360   80.69790   61.12200  270.67600  216.05320   16.36070    2.87590 2693.07100    -999.25    0.00990    -999.25    0.00990   61.12200  176.47640  176.47640   28.30920   28.30920  216.05320    2.87590    -999.25   51.04360    0.03050    0.03050    -999.25    4.35550    4.35550 2724.60130  123.20050  -60.12860  -38.63100    -999.25 21744.49220
 3300.00000    -999.25    -999.25   16.42660   18.54510   17.21850  233.71770  232.63440   58.07710   22.36860 2724.19300    -999.25   -0.00830    -999.25   -0.00830   17.21850  206.30530  206.30530   74.72150   74.72150  232.63440   22.36860    -999.25   16.42660    0.11400    0.11400    -999.25    3.26720    3.26720 2735.24340   27.46310  -59.58930  -13.46530    -999.25 22230.43750
 3350.00000    -999.25    -999.25  216.06620 1232.11040  992.40040  246.49760  216.57590    1.00770    1.77300 2716.84000    -999.25   -0.00400    -999.25   -0.00400  992.40040  159.08790  159.08790   11.89780   11.89780  216.57590    1.77300    -999.25  216.06620    0.00830    0.00830    -999.25    4.87940    4.87940 2701.86960 1430.56880 -230.47580 -187.19200    -999.25 22320.12500
 3400.00000    -999.25    -999.25   57.28050   59.61200   43.98590  214.18110  211.56700   22.73460   -5.04640 2725.73200    -999.25   -0.00920    -999.25   -0.00920   43.98590  160.24170  160.24170    6.50290    6.50290  211.56700   -5.04640    -999.25   57.28050    0.01350    0.01350    -999.25    4.74760    4.74760 2708.77560  173.51210 -186.53520 -152.92860    -999.25 22611.17380
 3450.00000    -999.25    -999.25  392.67050  180.73950  318.18820  214.86230  280.93580    3.14280  231.22640 2654.25400    -999.25    0.03260    -999.25    0.03260  318.18820  159.09430  159.09430    8.39230    8.39230  280.93580  231.22640    -999.25  392.67050    0.01000    0.01000    -999.25    5.04170    5.04170 2661.26560   10.39750 -159.97690 -136.04740    -999.25 22837.21090
 3500.00000    -999.25    -999.25  330.32530   61.11720   63.99070  211.04110  293.15890   15.62730  331.37860 2628.09100    -999.25    0.04790    -999.25    0.04790   63.99070  162.78740  162.78740   10.72240   10.72240  293.15890  331.37860    -999.25  330.32530    0.00110    0.00110    -999.25    4.98970    4.98970 2623.38720    6.54300 -200.60320 -186.35090    -999.25 23330.38670
 3550.00000    -999.25    -999.25  475.13410 1410.30090  628.04750  213.15350  281.26730    1.59220  237.85680 2500.69600    -999.25    0.12240    -999.25    0.12240  628.04750  158.02990  158.02990   14.04410   14.04410  281.26730  237.85680    -999.25  475.13410    0.05600    0.05600    -999.25    4.26050    4.26050 2503.93800    3.91930 -167.50660 -162.93140    -999.25 23465.42580
