~Version ---------------------------------------------------
VERS.      2.0 : CWLS log ASCII Standard -VERSION 2.0
WRAP.       NO : One line per depth step
CREA. 01/03/18 : LAS Creation Date
~Well ------------------------------------------------------
STRT.FT                      750.0 : START DEPTH
STOP.FT                     9100.0 : STOP DEPTH
STEP.FT                   50.00000 : STEP LENGTH
NULL.                      -999.25 : NULL VALUE
COMP.            SABINE CANADA LTD : COMPANY
WELL. SABINE VIRGHILLS 14-32-64-12 : WELL
FLD .                              : FIELD
LOC .                              : LOCATION
CTRY.                       CANADA : COUNTRY
SRVC.                 Schlumberger : SERVICE COMPANY
DATE.                  13-Nov-1977 : LOGDATE
PROV.                      Alberta : PROVINCE
UWI .             100143206412W500 : UNIQUE WELL ID
SLAT.WGS84                54.58613 : SURFACE LATITUDE
SLON.WGS84               -115.7817 : SURFACE LONGITUDE
~Curve Information -----------------------------------------
DEPT  .FT    : Depth Curve
CALSED.IN    : CALIPER FROM SONIC LOG
CALWS .IN    : CALIPER [CALSED]
CONDWS.MMHO  : CONDUCTIVITY [1000/DRESWS]
DRESWS.OHMM  : DEEP RESISTIVITY [ILDED]
DTED  .US/F  : DELTA TIME FROM SONIC LOG
DTWS  .US/F  : DELTA TIME [DTED]
GRNED .CU    : GAMMA RAY FROM CBL LOG [DEP. ADJ. TO GRSED]
GRSED .GAPI  : GAMMA RAY FROM SONIC LOG
GRWS  .GAPI  : GAMMA RAY [GRSED]
ILDED .OHMM  : INDUCTION LOG DEEP RESISTIVITY
ILMED .OHMM  : INDUCTION LOG MEDIUM RESISTIVITY
LL8ED .OHMM  : 8 INCH LATEROLOG RESISTIVITY
MRESWS.OHMM  : MEDIUM RESISTIVITY [ILMED]
NEUTED.CU    : NEUTRON FROM CBL LOG [DEP. ADJ. TO GRSED]
NEUTWS.CU    : NEUTRON [NEUTED]
SPRED .MV    : SPONTANEOUS POTENTIAL FROM RESISTIVITY LOG
SPWS  .MV    : SPONTANEOUS POTENTIAL [BASELINE 0 MV] [SPRED]
SRESWS.OHMM  : SHALLOW RESISTIVITY [LL8ED]
~Params ----------------------------------------------------
PD  .                     GL : PERMANENT DATUM
EPD .FT               3348.7 : ELEVATION PERMANENT DATUM
LMF .                     KB : LOG MEASURED FROM
DAPD.FT                 14.3 : FEET ABOVE PERMANENT DATUM
EKB .FT                 3363 : KELLY BUSHING
EGL .FT               3348.7 : GROUND LEVEL
DATE.               11/13/77 : RUN DATE
RUN .                      1 : RUN NUMBER
DD  .FT                 9128 : DEPTH DRILLER
DL  .FT                 9134 : DEPTH LOGGER
BLI .FT                 9128 : BOTTOM LOG INTERVAL
TLI .FT                  720 : TOP LOG INTERVAL
CBD .FT                  716 : CASING BOTTOM DRILLER
CBL .FT                  720 : CASING BOTTOM LOGGER
BS  .IN                7.875 : BIT SIZE
BSD .FT                 9134 : BIT SIZE AT DEPTH
DFT .                    GEL : DRILLING FLUID TYPE
DFD .                    9.1 : DRILLING FLUID DENSITY
DFV .                     94 : DRILLING FLUID VISCOSITY
DFPH.                    9.4 : DRILLING FLUID PH
MSS .               FLOWLINE : MUD SAMPLE SOURCE
RMS .OHMM               2.75 : RESISTIVITY MUD SAMPLE
MST .DEGF                 58 : MUD SAMPLE TEMPERATURE
RMF .OHMM               2.59 : RESISTIVITY MUD FILTRATE SAMPLE
MFST.DEGF                 58 : MUD FILTRATE SAMPLE TEMPERATURE
RMC .OHMM               2.13 : RESISTIVITY MUD CAKE
MCST.DEGF                 62 : MUD CAKE SAMPLE TEMPERATURE
RMB .OHMM               1.04 : RESISTIVITY MUD AT BHT
TCS .HRS                   4 : TIME CIRCULATED STOPPED
LUN .                   7730 : LOGGING UNIT NUMBER
LUL .                    EDM : LOGGING UNIT LOCATION
ENGI.        ACKERMAN BERGEN : RECORDING ENGINEER
WITN.              VANDERLEE : WITNESSED BY
CLNT.                A2DTECH : CLIENT CODE
ORIG.            2" 5" PRINT : ORIGIN OF DATA
UWI .       100143206412W500 : UNIQUE WELL ID
DICO. A2D Technologies, Inc. : DIGITIZING COMPANY
~Other -----------------------------------------------------
~ASCII -----------------------------------------------------
# ...
 4650.00000    8.98690    8.98690  197.20750    5.07080  105.05250  105.05250    -999.25   89.23600   89.23600    5.07080    4.88380    4.77020    4.88380    -999.25    -999.25  -79.15900   -6.69420    4.77020
 4700.00000    8.55420    8.55420  124.80190    8.01270   68.63540   68.63540    -999.25   56.64200   56.64200    8.01270   10.90630   14.56370   10.90630    -999.25    -999.25 -111.17140  -39.38640   14.56370
 4750.00000    8.47250    8.47250  159.43110    6.27230   82.19670   82.19670    -999.25   67.86430   67.86430    6.27230    8.18180    9.32320    8.18180    -999.25    -999.25 -101.69620  -30.59090    9.32320
 4800.00000    8.39530    8.39530  167.21870    5.98160   82.82710   82.82710    -999.25   84.88800   84.88800    5.98160    7.67630    9.80780    7.67630    -999.25    -999.25  -96.17140  -25.74250    9.80780
 4850.00000    8.66000    8.66000  152.98010    6.53680   84.42600   84.42600    -999.25   81.86250   81.86250    6.53680    7.38820    7.20320    7.38820    -999.25    -999.25  -74.64770   -4.90190    7.20320
 4900.00000    8.73190    8.73190  160.65290    6.22460   81.56370   81.56370    -999.25   97.12620   97.12620    6.22460    6.83920    7.25690    6.83920    -999.25    -999.25  -75.58270   -6.51660    7.25690
 4950.00000    8.55770    8.55770  120.19380    8.31990  106.51170  106.51170    -999.25   61.47040   61.47040    8.31990   14.80960   21.85070   14.80960    -999.25    -999.25 -110.17950  -41.79320   21.85070
 5000.00000    8.91610    8.91610  194.39370    5.14420   83.98810   83.98810    -999.25   92.18850   92.18850    5.14420    5.84110    5.35210    5.84110    -999.25    -999.25  -72.85940   -5.15280    5.35210
 5050.00000    8.31660    8.31660  167.15550    5.98270   83.43590   83.43590    -999.25   63.81460   63.81460    5.98270   10.05630   15.25960   10.05630    -999.25    -999.25 -122.09940  -55.06920   15.25960
 5100.00000    9.01990    9.01990  199.31830    5.01710   81.31920   81.31920    -999.25   98.41140   98.41140    5.01710    5.82290    5.55250    5.82290    -999.25    -999.25  -72.93670   -6.58960    5.55250
 5150.00000    8.95580    8.95580  182.88220    5.46800   82.18310   82.18310    -999.25  105.10670  105.10670    5.46800    6.37110    6.17410    6.37110    -999.25    -999.25  -73.69170   -8.02430    6.17410
 5200.00000    9.87420    9.87420  316.13560    3.16320   89.67390   89.67390    -999.25   92.01390   92.01390    3.16320    3.70880    3.46600    3.70880    -999.25    -999.25  -69.02640   -4.03880    3.46600
 5250.00000    9.33680    9.33680  165.42870    6.04490   71.62670   71.62670    -999.25   97.93610   97.93610    6.04490    6.85530    7.21770    6.85530    -999.25    -999.25  -72.45700   -8.18130    7.21770
 5300.00000    9.47740    9.47740  185.03250    5.40820   94.92910   94.92910    -999.25  117.70350  117.70350    5.40820    6.17060    6.36110    6.17060    -999.25    -999.25  -66.96160   -3.43850    6.36110
 5350.00000    9.25800    9.25800  157.56470    6.34660   84.26920   84.26920    -999.25  125.87440  125.87440    6.34660    7.40080    7.96130    7.40080    -999.25    -999.25  -71.69410   -8.93130    7.96130
 5400.00000    8.75720    8.75720   92.92640   10.76120   75.06480   75.06480    -999.25   46.75640   46.75640   10.76120   16.88780   27.31190   16.88780    -999.25    -999.25 -116.48480  -54.47850   27.31190
 5450.00000    9.00380    9.00380  208.95580    4.78570   84.07410   84.07410    -999.25   86.25500   86.25500    4.78570    5.66950   10.44650    5.66950    -999.25    -999.25  -93.12340  -31.87350   10.44650
 5500.00000    9.65570    9.65570  203.27680    4.91940   72.23650   72.23650    -999.25  114.01400  114.01400    4.91940    5.81620    7.17660    5.81620    -999.25    -999.25  -70.33320   -9.83980    7.17660
 5550.00000    8.49970    8.49970  321.92330    3.11300   68.63880   68.63880    -999.25   36.59900   36.59900    3.11300    4.55380    9.98220    4.55380    -999.25    -999.25 -143.87930  -84.13860    9.98220
 5600.00000    8.73210    8.73210   20.27960   49.31060   50.17100   50.17100    -999.25   16.79220   16.79220   49.31060   81.58240  294.42800   81.58240    -999.25    -999.25 -120.75070  -61.77020  294.42800
 5650.00000    8.18880    8.18880   91.44950   10.93500   54.67090   54.67090    -999.25   20.11350   20.11350   10.93500   20.46440  126.38900   20.46440    -999.25    -999.25 -180.66460 -122.44050  126.38900
 5700.00000    8.43220    8.43220   23.63060   42.31800   50.55100   50.55100    -999.25   13.58570   13.58570   42.31800   68.62760  506.77690   68.62760    -999.25    -999.25 -169.86630 -112.39870  506.77690
 5750.00000    8.86810    8.86810   17.20020   58.13890   49.40430   49.40430    -999.25   15.14910   15.14910   58.13890  112.72610  309.81500  112.72610    -999.25    -999.25 -116.59360  -59.88250  309.81500
 5800.00000    8.51620    8.51620  203.50280    4.91820   66.11640   66.11640    -999.25   82.42880   82.42880    4.91820    5.90790    7.45710    5.90790    -999.25    -999.25  -81.42390  -25.46540    7.45710
 5850.00000    8.16110    8.16110  552.63890    1.80950   66.57520   66.57520    -999.25   48.41770   48.41770    1.80950    3.28730   14.27630    3.28730    -999.25    -999.25 -155.71400 -100.51580   14.27630
 5900.00000    8.85970    8.85970   14.40610   69.41510   51.35710   51.35710    -999.25   22.01580   22.01580   69.41510   75.27630   68.68260   75.27630    -999.25    -999.25 -115.66090  -61.21910   68.68260
 5950.00000    8.46240    8.46240   11.02170   90.73000   52.47540   52.47540    -999.25   31.00240   31.00240   90.73000  102.26510  142.77670  102.26510    -999.25    -999.25  -60.65290   -6.96760  142.77670
 6000.00000    8.53130    8.53130   30.54110   32.74280   54.59460   54.59460    -999.25   36.92480   36.92480   32.74280   35.45240   44.15680   35.45240    -999.25    -999.25  -71.61000  -18.68110   44.15680
 6050.00000    8.30050    8.30050   35.60460   28.08640   54.91630   54.91630    -999.25   37.39070   37.39070   28.08640   32.91620   36.83290   32.91620    -999.25    -999.25  -60.27500   -8.09880   36.83290
 6100.00000    8.26640    8.26640   40.59030   24.63640   57.76350   57.76350    -999.25   40.65440   40.65440   24.63640   28.51790   30.08800   28.51790    -999.25    -999.25  -64.28930  -12.87330   30.08800
 6150.00000    8.25680    8.25680   35.62310   28.07170   55.72830   55.72830    -999.25   27.99940   27.99940   28.07170   32.04350   36.08390   32.04350    -999.25    -999.25  -79.35840  -28.69890   36.08390
 6200.00000    8.33000    8.33000   43.13260   23.18430   57.91060   57.91060    -999.25   45.34930   45.34930   23.18430   26.44240   28.52090   26.44240    -999.25    -999.25  -66.83700  -16.93390   28.52090
 6250.00000    8.53610    8.53610   94.13180   10.62340   60.19410   60.19410    -999.25   60.65870   60.65870   10.62340   13.25410   15.60630   13.25410    -999.25    -999.25  -59.79960  -10.65300   15.60630
 6300.00000    9.76110    9.76110  206.25150    4.84850   82.34580   82.34580    -999.25  135.02660  135.02660    4.84850    5.59250    5.82450    5.59250    -999.25    -999.25  -63.32700  -14.93310    5.82450
 6350.00000    8.70370    8.70370  109.15600    9.16120   60.98900   60.98900    -999.25   92.44190   92.44190    9.16120   10.93810   10.19210   10.93810    -999.25    -999.25  -74.27830  -26.64460   10.19210
 6400.00000    8.44900    8.44900    6.25880  159.77480   51.29080   51.29080    -999.25   15.70140   15.70140  159.77480  218.41460  587.41780  218.41460    -999.25    -999.25  -81.38260  -34.23090  587.41780
 6450.00000    8.59680    8.59680   21.69940   46.08420   50.30510   50.30510    -999.25   16.69330   16.69330   46.08420   55.32950   67.35450   55.32950    -999.25    -999.25 -142.71350  -95.75810   67.35450
 6500.00000    8.59030    8.59030   19.55010   51.15070   49.62190   49.62190    -999.25   22.89690   22.89690   51.15070   56.58200   73.53400   56.58200    -999.25    -999.25  -88.96340  -42.20440   73.53400
 6550.00000    8.70670    8.70670    2.66100  376.47440   48.44360   48.44360    -999.25   15.45400   15.45400  376.47440  341.27540  829.97600  341.27540    -999.25    -999.25 -140.78640  -94.22270  829.97600
