~Version ---------------------------------------------------
VERS.      2.0 : CWLS log ASCII Standard -VERSION 2.0
WRAP.       NO : One line per depth step
CREA. 12/01/17 : LAS Creation Date
~Well ------------------------------------------------------
STRT.FT                        300.0 : START DEPTH
STOP.FT                      17800.0 : STOP DEPTH
STEP.FT                     50.00000 : STEP LENGTH
NULL.                        -999.25 : NULL VALUE
COMP.           BPOG OPERATIONS LTD. : COMPANY
WELL. BP MOBIL CREE ROUGH 4-21-38-12 : WELL
FLD .                                : FIELD
LOC .                                : LOCATION
CTRY.                         CANADA : COUNTRY
SRVC.                   Schlumberger : SERVICE COMPANY
DATE.                    26-Oct-1973 : LOGDATE
PROV.                        Alberta : PROVINCE
UWI .               100042103812W500 : UNIQUE WELL ID
SLAT.WGS84                  52.27739 : SURFACE LATITUDE
SLON.WGS84                 -115.6641 : SURFACE LONGITUDE
~Curve Information -----------------------------------------
DEPT  .FT    : Depth Curve
CALSED.IN    : CALIPER FROM SONIC LOG [ADJ. TO RESISTIVITY LOG]
CALWS .IN    : CALIPER [CALSED]
CILDED.MMHO  : CONDUCTIVITY FROM RESISTIVITY LOG
CONDWS.MMHO  : CONDUCTIVITY [1000/DRESWS]
DRESWS.OHMM  : DEEP RESISTIVITY [ILDED]
DTED  .US/F  : DELTA-T FROM SONIC LOG [ADJ. TO RESISTIVITY LOG]
DTWS  .US/F  : COMPRESSIONAL SONIC [DTED]
GRNED .CU    : GAMMA RAY FROM GRN LOG [ADJ. TO RESISTIVITY LOG]
GRSED .CU    : GAMMA RAY FROM SONIC LOG [ADJ. TO RESISTIVITY LOG]
GRWS  .GAPI  : GAMMA RAY [GRSED] GRWS IN CSG. @ 13195'-13297' @ 10API ADDED
ILDED .OHMM  : DEEP INDUCTION RESISTIVITY FROM RESISTIVITY LOG
ILMED .OHMM  : MEDIUM INDUCTION RESISTIVITY FROM RESISTIVITY LOG
LL8ED .OHMM  : LATEROLOG 8 FROM RESISTIVITY LOG
MRESWS.OHMM  : MEDIUM RESISTIVITY [ILMED]
NEUTED.CU    : NEUTRON FROM GRN LOG [ADJ. TO RESISTIVITY LOG]
NEUTWS.CU    : NEUTRON [NEUTED]
SNED  .OHMM  : SHORT NORMAL RESISTIVITY 16" FROM RESISTIVITY LOG
SPRED .MV    : SPONTANEOUS POTENTIAL FROM RESISTIVITY LOG
SPWS  .MV    : SPONTANEOUS POTENTIAL [BASELINE 0 MV,SPRED]
SRESWS.OHMM  : SHALLOW RESISTIVITY [LL8ED SPL. TO SNED @ 2008']
~Params ----------------------------------------------------
PD  .                     GL : PERMANENT DATUM
EPD .FT                 5371 : ELEVATION PERMANENT DATUM
LMF .                     KB : LOG MEASURED FROM
DAPD.FT                   24 : FEET ABOVE PERMANENT DATUM
EKB .FT                 5395 : KELLY BUSHING
EGL .FT                 5371 : GROUND LEVEL
DATE.               10/26/73 : RUN DATE
RUN .                      2 : RUN NUMBER
DD  .FT                17815 : DEPTH DRILLER
DL  .FT                17792 : DEPTH LOGGER
BLI .FT                17791 : BOTTOM LOG INTERVAL
TLI .FT                13299 : TOP LOG INTERVAL
CBD .FT                13265 : CASING BOTTOM DRILLER
CBL .FT                13299 : CASING BOTTOM LOGGER
BS  .IN                 8.25 : BIT SIZE
BSD .FT                17815 : BIT SIZE AT DEPTH
DFT .               GEL CHEM : DRILLING FLUID TYPE
DFD .                    8.9 : DRILLING FLUID DENSITY
DFV .                     41 : DRILLING FLUID VISCOSITY
DFPH.                    9.5 : DRILLING FLUID PH
DFL .                   11.9 : DRILLING FLUID LOSS
RMS .OHMM               1.05 : RESISTIVITY MUD SAMPLE
MST .DEGF                 72 : MUD SAMPLE TEMPERATURE
RMF .OHMM               0.76 : RESISTIVITY MUD FILTRATE SAMPLE
MFST.DEGF                 70 : MUD FILTRATE SAMPLE TEMPERATURE
RMB .OHMM               0.31 : RESISTIVITY MUD AT BHT
TCS .HRS                   5 : TIME CIRCULATED STOPPED
LUN .                   7640 : LOGGING UNIT NUMBER
LUL .                     RD : LOGGING UNIT LOCATION
ENGI.           NIXON KOVACS : RECORDING ENGINEER
WITN.      WILLIAMS COSTELLO : WITNESSED BY
CLNT.                A2DTECH : CLIENT CODE
ORIG.            2" 5" PRINT : ORIGIN OF DATA
UWI .       100042103812W500 : UNIQUE WELL ID
DICO. A2D Technologies, Inc. : DIGITIZING COMPANY
~Other -----------------------------------------------------
DIL-IEL-BHC-GRN LOG RUN.
SNED MISSING IN SEVERAL DEPTH AS PER PRINT.
~ASCII -----------------------------------------------------
# ...
 14300.00000    8.07410    8.07410  293.11760  333.16670    3.00150   61.15380   61.15380   10.25470    8.16370    8.16370    3.00150    -999.25    -999.25    -999.25  378.53910  378.53910   18.79130  -71.32740  -43.32880   18.79130
 14350.00000    8.66570    8.66570    5.79730    4.30000  232.55720   51.67030   51.67030    8.92290    6.42580    6.42580  232.55720    -999.25    -999.25    -999.25  517.02610  517.02610  109.05570  -64.64870  -36.39410  109.05570
 14400.00000    9.90910    9.90910    7.91490    6.38310  156.66440   56.20020   56.20020   21.41880   30.16880   30.16880  156.66440    -999.25    -999.25    -999.25  295.33580  295.33580   70.21490  -48.85640  -20.34590   70.21490
 14450.00000    9.08610    9.08610    4.92230    4.43090  226.31490   51.05850   51.05850   18.43840   26.02200   26.02200  226.31490    -999.25    -999.25    -999.25  554.14390  554.14390  105.77210  -33.89540   -5.12770  105.77210
 14500.00000    8.98660    8.98660    3.03070    2.11590  472.61450   52.10480   52.10480   25.63230   33.10740   33.10740  472.61450    -999.25    -999.25    -999.25  549.61150  549.61150  114.17040  -37.17080   -8.28190  114.17040
 14550.00000    8.85220    8.85220   11.87460   10.27730   97.30220   51.60280   51.60280   14.89390   16.15730   16.15730   97.30220    -999.25    -999.25    -999.25  323.78680  323.78680  104.19210  -44.14690  -15.56290  104.19210
 14600.00000    9.34400    9.34400    2.35600    1.62870  613.99910   48.36610   48.36610    9.31000    7.35320    7.35320  613.99910    -999.25    -999.25    -999.25  685.43980  685.43980  107.16620  -52.79890  -24.52790  107.16620
 14650.00000    9.11050    9.11050    1.19470    0.95670 1045.23020   48.60620   48.60620    9.86550    5.23330    5.23330 1045.23020    -999.25    -999.25    -999.25  804.16610  804.16610  151.32190  -64.33820  -36.38030  151.32190
 14700.00000    8.89480    8.89480   30.09860   29.48500   34.10510   48.12300   48.12300   13.08530   10.87230   10.87230   34.10510    -999.25    -999.25    -999.25  716.21550  716.21550   99.45540  -76.92000  -49.27680   99.45540
 14750.00000    9.48930    9.48930    8.56270    7.22730  138.36350   51.59600   51.59600   34.91530   47.07200   47.07200  138.36350    -999.25    -999.25    -999.25  322.81980  322.81980   40.98320  -49.95720  -22.62550   40.98320
 14800.00000    9.38330    9.38330    5.13710    4.52800  220.84950   70.88890   70.88890    -999.25   51.29350   51.29350  220.84950    -999.25    -999.25    -999.25    -999.25    -999.25    -999.25  -39.06040  -12.04180    -999.25
 14850.00000    8.93580    8.93580    3.16150    2.35840  424.01720   55.06860   55.06860    -999.25   11.12830   11.12830  424.01720    -999.25    -999.25    -999.25    -999.25    -999.25  119.40180  -33.08440   -6.37890  119.40180
 14900.00000    8.76190    8.76190   10.09670    8.40850  118.92730   52.99210   52.99210    -999.25   40.18320   40.18320  118.92730    -999.25    -999.25    -999.25    -999.25    -999.25    -999.25  -30.48430   -4.09180    -999.25
 14950.00000    8.37560    8.37560    8.99840    7.69560  129.94610   51.46100   51.46100    -999.25   32.84900   32.84900  129.94610    -999.25    -999.25    -999.25    -999.25    -999.25    -999.25  -32.92610   -6.84830    -999.25
 15000.00000    8.32800    8.32800    1.71900    1.02070  979.74020   50.92360   50.92360    -999.25   22.07650   22.07650  979.74020    -999.25    -999.25    -999.25    -999.25    -999.25  147.98600  -36.31850  -10.55220  147.98600
 15050.00000    8.26460    8.26460    4.37840    3.45990  289.02320   51.58020   51.58020    -999.25   19.14490   19.14490  289.02320    -999.25    -999.25    -999.25    -999.25    -999.25  129.28660  -31.22680   -5.77360  129.28660
 15100.00000    8.28960    8.28960    6.76600    5.72610  174.63960   51.53260   51.53260    -999.25   19.88690   19.88690  174.63960    -999.25    -999.25    -999.25    -999.25    -999.25  118.66760  -32.99000   -7.84990  118.66760
 15150.00000    9.29660    9.29660  112.99820  121.58940    8.22440   72.48880   72.48880    -999.25   76.51210   76.51210    8.22440    -999.25    -999.25    -999.25    -999.25    -999.25   18.71150  -32.46290   -7.63580   18.71150
 15200.00000    8.78320    8.78320   22.50830   21.58680   46.32460   55.30910   55.30910    -999.25   35.08470   35.08470   46.32460    -999.25    -999.25    -999.25    -999.25    -999.25   51.43200  -32.21370   -7.70130   51.43200
 15250.00000    8.67240    8.67240   20.09010   19.41690   51.50140   57.71770   57.71770    -999.25   32.49410   32.49410   51.50140    -999.25    -999.25    -999.25    -999.25    -999.25   53.66640  -31.49500   -7.29410   53.66640
 15300.00000    9.66190    9.66190  141.66030  152.85380    6.54220   84.70920   84.70920   38.88260   81.78670   81.78670    6.54220    -999.25    -999.25    -999.25   86.97320   86.97320   10.73510  -27.79160   -3.90380   10.73510
 15350.00000    9.37910    9.37910    4.94490    3.77420  264.95710   49.21370   49.21370   13.86300   11.64480   11.64480  264.95710    -999.25    -999.25    -999.25  618.30820  618.30820  147.88040  -37.82570  -14.28950  147.88040
 15400.00000    9.04320    9.04320    1.54250    1.03340  967.70390   49.92790   49.92790   15.99190   18.51780   18.51780  967.70390    -999.25    -999.25    -999.25  419.39060  419.39060    -999.25  -44.57750  -21.42580    -999.25
 15450.00000    8.68940    8.68940    8.10350    6.99240  143.01820   48.82810   48.82810   10.44430   11.48320   11.48320  143.01820    -999.25    -999.25    -999.25  720.32600  720.32600  175.73880  -41.98870  -19.22350  175.73880
 15500.00000    8.64940    8.64940    6.23650    5.15810  193.86920   48.99120   48.99120   11.56360    8.63030    8.63030  193.86920    -999.25    -999.25    -999.25  622.86640  622.86640  120.06100  -35.10990  -12.72720  120.06100
 15550.00000    9.21840    9.21840   10.17040    7.54310  132.57140   50.10110   50.10110   11.25130    9.34600    9.34600  132.57140    -999.25    -999.25    -999.25  503.42440  503.42440  149.19590  -40.99810  -18.99990  149.19590
 15600.00000    8.93360    8.93360    6.21390    4.80110  208.28580   48.07270   48.07270   17.57910   15.77040   15.77040  208.28580    -999.25    -999.25    -999.25  556.12380  556.12380  120.72880  -47.63140  -26.01770  120.72880
 15650.00000    9.11140    9.11140    8.16020    7.13510  140.15260   47.91900   47.91900   16.20170   11.14530   11.14530  140.15260    -999.25    -999.25    -999.25  324.36270  324.36270    -999.25  -67.56050  -46.33130    -999.25
 15700.00000    9.16970    9.16970    5.44160    3.77360  285.36540   49.43080   49.43080   10.85160    8.18900    8.18900  285.36540    -999.25    -999.25    -999.25  467.65790  467.65790  126.03730  -75.24560  -54.40280  126.03730
 15750.00000    8.23150    8.23150   16.40080   15.52550   64.41010   50.80900   50.80900   10.45700    6.39120    6.39120   64.41010    -999.25    -999.25    -999.25  425.65140  425.65140   70.63710  -81.54490  -61.08470   70.63710
 15800.00000    8.31860    8.31860   16.46240   15.59170   64.13650   48.84750   48.84750    9.37550    6.17770    6.17770   64.13650    -999.25    -999.25    -999.25  404.04820  404.04820   66.19020  -75.06060  -54.98490   66.19020
 15850.00000    8.86730    8.86730   12.29110   11.43790   87.42840   48.97560   48.97560   17.05130   12.39830   12.39830   87.42840    -999.25    -999.25    -999.25  574.93480  574.93480   98.27770  -76.72870  -57.03750   98.27770
 15900.00000    8.05690    8.05690   15.51560   14.20240   70.41070   56.13720   56.13720   10.87900   11.25610   11.25610   70.41070    -999.25    -999.25    -999.25  465.09750  465.09750   99.21160  -75.06830  -55.76160   99.21160
 15950.00000    8.73550    8.73550    5.95330    5.00970  199.61180   59.28730   59.28730   10.27450    7.82000    7.82000  199.61180    -999.25    -999.25    -999.25  533.89560  533.89560  133.33670  -57.75320  -38.83300  133.33670
 16000.00000    8.25560    8.25560    4.53990    3.36420  297.24480   49.94210   49.94210   10.44450    9.44270    9.44270  297.24480    -999.25    -999.25    -999.25  853.69070  853.69070  172.67060  -53.47410  -34.93640  172.67060
