~Version ---------------------------------------------------
VERS.      2.0 : CWLS log ASCII Standard -VERSION 2.0
WRAP.       NO : One line per depth step
CREA. 11/20/17 : LAS Creation Date
~Well ------------------------------------------------------
STRT.FT                          850.0 : START DEPTH
STOP.FT                         9050.0 : STOP DEPTH
STEP.FT                       50.00000 : STEP LENGTH
NULL.                          -999.25 : NULL VALUE
COMP.      BLUEMOUNT RESOURCES LIMITED : COMPANY
WELL. BLUEMOUNT WHITECOURT 10-36-59-13 : WELL
FLD .                                  : FIELD
LOC .                                  : LOCATION
CTRY.                           CANADA : COUNTRY
SRVC.                          Unknown : SERVICE COMPANY
DATE.                      30-Jan-1973 : LOGDATE
PROV.                          Alberta : PROVINCE
UWI .                 100103605913W500 : UNIQUE WELL ID
SLAT.WGS84                    54.14792 : SURFACE LATITUDE
SLON.WGS84                   -115.8081 : SURFACE LONGITUDE
~Curve Information -----------------------------------------
DEPT    .FT    : Depth Curve
CALDED  .IN    : CALIPER FROM DENSITY LOG [ADJ. TO RESISTIVITY LOG]
CALSED  .IN    : CALIPER FROM SONIC LOG [ADJ. TO RESISTIVITY LOG]
CALWS   .IN    : CALIPER [CALSED SPL. TO CALDED @ 2283']
CONDWS  .MMHO  : CONDUCTIVITY [1000/DRESWS]
DCORED  .G/C3  : DENSITY CORRECTION FROM DENSITY LOG [ADJ. TO RESISTIVITY LOG]
DCORWS  .G/C3  : DENSITY CORRECTION [DCORED]
DENWS   .G/C3  : FORMATION BULK DENSITY [CALC. FROM DPOLSWS, M=2.71, F=1.00]
DPHILSED.V/V   : DENSITY POROSITY LIMESTONE [M=2.71, F=1.00] FROM DENSITY LOG [ADJ. TO RESISTIVITY LOG]
DPOLSWS .V/V   : DENSITY POROSITY LIMESTONE [DPHILSED]
DRESWS  .OHMM  : DEEP RESISTIVITY [ILDED]
DTED    .US/F  : DELTA-T FROM SONIC LOG [ADJ. TO RESISTIVITY LOG]
DTWS    .US/F  : COMPRESSIONAL SONIC [DTED]
GRDED   .GAPI  : GAMMA RAY FROM DENSITY LOG [ADJ. TO RESISTIVITY LOG]
GRSED   .GAPI  : GAMMA RAY FROM SONIC LOG [ADJ. TO RESISTIVITY LOG]
GRWS    .GAPI  : GAMMA RAY [GRSED SPL. TO GRDED @ 2280'] GRSED IN CSG TOP-914' ADDED 40 GAPI
ILDED   .OHMM  : DEEP INDUCTION RESISTIVITY FROM RESISTIVITY LOG
ILMED   .OHMM  : MEDIUM INDUCTION RESISTIVITY FROM RESISTIVITY LOG
LL8ED   .OHMM  : LATEROLOG 8 RESISTIVITY FROM RESISTIVITY LOG
MRESWS  .OHMM  : MEDIUM RESISTIVITY [ILMED]
NPHILSED.V/V   : NEUTRON POROSITY LIMESTONE FROM DENSITY LOG [ADJ. TO RESISTIVITY LOG]
NPOLSWS .V/V   : NEUTRON POROSITY LIMESTONE [NPHILSED]
RHOBED  .G/C3  : BULK DENSITY FROM DENSITY LOG [ADJ. TO RESISTIVITY LOG]
SPRED   .MV    : SPONTANEOUS POTENTIAL FROM RESISTIVITY LOG
SPWS    .MV    : SPONTANEOUS POTENTIAL [BASELINE 0 MV, SPRED]
SRESWS  .OHMM  : SHALLOW RESISTIVITY [LL8ED]
~Params ----------------------------------------------------
PD  .                     GL : PERMANENT DATUM
EPD .FT                 2542 : ELEVATION PERMANENT DATUM
LMF .                     KB : LOG MEASURED FROM
DAPD.FT                 17.3 : FEET ABOVE PERMANENT DATUM
EKB .FT               2559.3 : KELLY BUSHING
EGL .FT                 2542 : GROUND LEVEL
DATE.               01/30/73 : RUN DATE
RUN .                      1 : RUN NUMBER
DD  .FT                 9060 : DEPTH DRILLER
DL  .FT                 9056 : DEPTH LOGGER
BLI .FT                 9053 : BOTTOM LOG INTERVAL
TLI .FT                  911 : TOP LOG INTERVAL
CBD .FT                  912 : CASING BOTTOM DRILLER
CBL .FT                  911 : CASING BOTTOM LOGGER
BS  .IN                 8.75 : BIT SIZE
BSD .FT                 9060 : BIT SIZE AT DEPTH
DFT .               GEL CHEM : DRILLING FLUID TYPE
DFD .                    9.2 : DRILLING FLUID DENSITY
DFV .                     80 : DRILLING FLUID VISCOSITY
DFPH.                   10.5 : DRILLING FLUID PH
DFL .                    8.8 : DRILLING FLUID LOSS
MSS .             CIRCULATED : MUD SAMPLE SOURCE
RMS .OHMM               1.83 : RESISTIVITY MUD SAMPLE
MST .DEGF                 76 : MUD SAMPLE TEMPERATURE
RMF .OHMM               1.59 : RESISTIVITY MUD FILTRATE SAMPLE
MFST.DEGF                 57 : MUD FILTRATE SAMPLE TEMPERATURE
RMC .OHMM                3.6 : RESISTIVITY MUD CAKE
MCST.DEGF                 76 : MUD CAKE SAMPLE TEMPERATURE
RMB .OHMM                0.9 : RESISTIVITY MUD AT BHT
TCS .HRS                   4 : TIME CIRCULATED STOPPED
LUN .                   5671 : LOGGING UNIT NUMBER
LUL .                    EDM : LOGGING UNIT LOCATION
ENGI.                 CALVIN : RECORDING ENGINEER
WITN.         SCHWAB DRYDALE : WITNESSED BY
CLNT.                A2DTECH : CLIENT CODE
ORIG.            2" 5" PRINT : ORIGIN OF DATA
UWI .       100103605913W500 : UNIQUE WELL ID
DICO. A2D Technologies, Inc. : DIGITIZING COMPANY
~Other -----------------------------------------------------
DI-LL-CNFD-SONIC LOG RUN
RHOBED & DCORED FROM 2" LOG
~ASCII -----------------------------------------------------
# ...
 6450.00000    8.03100    8.88310    8.03100    0.71590    0.02880    0.02880    2.73230   -0.01300   -0.01300 1396.84670   49.59610   49.59610   13.05920   17.48410   13.05920 1396.84670 1345.24020 1455.13540 1345.24020    0.01420    0.01420    2.72810 -106.18130  -80.56870 1455.13540
 6500.00000    7.97530    8.84850    7.97530    0.73050    0.01240    0.01240    2.72300   -0.00760   -0.00760 1368.88090   49.55290   49.55290   14.35120   20.09350   14.35120 1368.88090 1137.09400 1445.79720 1137.09400    0.01110    0.01110    2.72130 -116.80810  -90.70560 1445.79720
 6550.00000    8.06700    8.83340    8.06700    9.89490    0.01920    0.01920    2.68950    0.01200    0.01200  101.06230   51.46650   51.46650   11.33590   13.20160   11.33590  101.06230  116.39710  311.26290  116.39710    0.02720    0.02720    2.68490 -137.09880 -110.50400  311.26290
 6600.00000    7.93570    8.84270    7.93570   14.78650    0.01370    0.01370    2.65700    0.03100    0.03100   67.62940   51.37870   51.37870   12.42820   17.28090   12.42820   67.62940   73.88840  286.24710   73.88840    0.03070    0.03070    2.65240 -143.74540 -116.65820  286.24710
 6650.00000    8.02560    8.57970    8.02560    0.91510    0.01220    0.01220    2.73220   -0.01300   -0.01300 1092.73910   49.24440   49.24440   12.44910   15.42550   12.44910 1092.73910  699.68180 1050.71720  699.68180    0.01070    0.01070    2.72340 -138.30670 -110.72720 1050.71720
 6700.00000    8.23170    9.13320    8.23170    0.96420    0.03620    0.03620    2.70060    0.00550    0.00550 1058.89990   48.48790   48.48790   10.08430   14.20720   10.08430 1058.89990 1349.87590 1456.61980 1349.87590    0.02370    0.02370    2.68980 -149.82230 -121.74800 1456.61980
 6750.00000    8.26670    9.04520    8.26670   17.09870    0.02300    0.02300    2.71910   -0.00530   -0.00530   58.48410   50.64810   50.64810    9.80650   12.72880    9.80650   58.48410   62.14070  258.09230   62.14070    0.03240    0.03240    2.71190 -154.36040 -125.79630  258.09230
 6800.00000    8.20260    8.94610    8.20260   22.26710    0.03150    0.03150    2.75890   -0.02860   -0.02860   44.90940   49.55240   49.55240   10.37270   14.65120   10.37270   44.90940   47.72250  187.97720   47.72250    0.03160    0.03160    2.75100 -147.34680 -118.29030  187.97720
 6850.00000    8.30850    9.03090    8.30850    1.05790    0.00720    0.00720    2.72740   -0.01020   -0.01020  945.25240   48.72760   48.72760   13.80710   19.58580   13.80710  945.25240  505.25990  743.83630  505.25990    0.01500    0.01500    2.71990 -143.17670 -113.62790  743.83630
 6900.00000    8.44400    9.18050    8.44400    3.48620    0.02970    0.02970    2.75980   -0.02910   -0.02910  286.84710   49.08060   49.08060   13.20320   16.67140   13.20320  286.84710  196.53200  298.10500  196.53200    0.01150    0.01150    2.75380 -134.84220 -104.80110  298.10500
 6950.00000    8.22750    9.03150    8.22750    2.36140    0.02690    0.02690    2.72870   -0.01100   -0.01100  430.98690   49.37070   49.37070   13.07640   14.30270   13.07640  430.98690  355.60490 1151.34350  355.60490    0.02150    0.02150    2.72010 -144.86790 -114.33200 1151.34350
 7000.00000    8.15650    9.10690    8.15650   35.15660    0.07520    0.07520    2.74570   -0.02090   -0.02090   28.44420   50.94860   50.94860   11.99130   14.20610   11.99130   28.44420   43.63720  204.08260   43.63720    0.09670    0.09670    2.73990 -173.61330 -142.58750  204.08260
 7050.00000    7.99890    8.70510    7.99890   86.52170    0.17210    0.17210    2.65090    0.03450    0.03450   11.55780   55.64150   55.64150   10.98300   12.70380   10.98300   11.55780   15.49280   54.99520   15.49280    0.08930    0.08930    2.64520 -199.08030 -167.56220   54.99520
 7100.00000    8.21280    9.01190    8.21280    7.24260    0.01000    0.01000    2.90670   -0.11500   -0.11500  138.07170   48.53770   48.53770   17.72930   21.56420   17.72930  138.07170  248.20060 1460.63590  248.20060    0.02220    0.02220    2.89920 -158.92920 -126.91880 1460.63590
 7150.00000    8.11800    9.01680    8.11800    6.14080    0.02640    0.02640    2.89740   -0.10960   -0.10960  162.84620   49.13110   49.13110   29.57260   39.12030   29.57260  162.84620  284.18560 1425.21500  284.18560    0.02490    0.02490    2.87740 -135.87410 -103.37140 1425.21500
 7200.00000    7.75270    8.71830    7.75270   80.08980    0.08900    0.08900    2.75170   -0.02440   -0.02440   12.52100   51.03660   51.03660   20.81540   24.82280   20.81540   12.52100   17.65370  132.07980   17.65370    0.13220    0.13220    2.75880 -150.89860 -117.90110  132.07980
 7250.00000    8.10440    8.93600    8.10440   24.87620    0.02790    0.02790    2.78780   -0.04550   -0.04550   40.19900   50.83110   50.83110   44.98570   49.84380   44.98570   40.19900   45.08540   53.24980   45.08540    0.11060    0.11060    2.78930 -107.39770  -73.91030   53.24980
 7300.00000    8.35040    9.19670    8.35040   58.17740    0.01640    0.01640    2.79300   -0.04850   -0.04850   17.18880   53.27620   53.27620   31.41460   41.66550   31.41460   17.18880   18.27640   27.81090   18.27640    0.12080    0.12080    2.74280  -88.94110  -54.96140   27.81090
 7350.00000    8.10070    8.86620    8.10070   11.32100    0.01930    0.01930    2.74350   -0.01960   -0.01960   88.33170   52.94390   52.94390   28.91600   40.70530   28.91600   88.33170   98.87120  119.73140   98.87120    0.05460    0.05460    2.75520  -48.24230  -13.77030  119.73140
 7400.00000    8.03390    8.88500    8.03390   18.37940    0.00750    0.00750    2.72320   -0.00770   -0.00770   54.40870   54.76340   54.76340   29.19580   40.04280   29.19580   54.40870   59.55810   84.22190   59.55810    0.05850    0.05850    2.73010  -43.42120   -8.45680   84.22190
 7450.00000    8.24110    8.87290    8.24110   98.11210    0.03100    0.03100    2.69590    0.00830    0.00830   10.19440   64.08460   64.08460   46.51080   61.13240   46.51080   10.19440   11.15530   16.88030   11.15530    0.12390    0.12390    2.69550  -38.13320   -2.67410   16.88030
 7500.00000    8.27900    8.78530    8.27900   99.03440    0.00210    0.00210    2.71500   -0.00290   -0.00290   10.09750   64.02930   64.02930   57.36420   71.21650   57.36420   10.09750   10.97780   15.05830   10.97780    0.14710    0.14710    2.71770  -38.51330   -2.56430   15.05830
 7550.00000   10.38290   10.57170   10.38290  185.25380    0.20370    0.20370    2.44770    0.15340    0.15340    5.39800   82.14280   82.14280   86.10780  117.36850   86.10780    5.39800    5.61690    8.55400    5.61690    0.26460    0.26460    2.45140  -43.32020   -7.84380    8.55400
 7600.00000    9.39270    9.97480    9.39270  243.80730    0.12290    0.12290    2.56540    0.08460    0.08460    4.10160   82.81560   82.81560   94.48470  120.68870   94.48470    4.10160    4.28260    6.54310    4.28260    0.35780    0.35780    2.56370  -50.38230  -15.41880    6.54310
 7650.00000    9.99570   10.52180    9.99570  251.68000    0.17220    0.17220    2.38770    0.18850    0.18850    3.97330   82.28480   82.28480   93.28290  119.17100   93.28290    3.97330    4.28680    6.52250    4.28680    0.34860    0.34860    2.39480  -40.85500   -6.40430    6.52250
 7700.00000    8.09340    8.70630    8.09340   34.13300    0.04230    0.04230    2.70560    0.00260    0.00260   29.32210   68.36480   68.36480   76.63410  101.03380   76.63410   29.32210   34.81240   57.07360   34.81240    0.21410    0.21410    2.70030  -43.57640   -9.64110   57.07360
 7750.00000   10.36650   10.10070   10.36650  180.75010    0.22910    0.22910    2.07370    0.37210    0.37210    5.53250   77.69040   77.69040   81.15450  102.29270   81.15450    5.53250    5.80400    7.99810    5.80400    0.33800    0.33800    2.07560  -56.32560  -22.90060    7.99810
 7800.00000    9.46380    9.89750    9.46380  164.65780    0.16070    0.16070    2.55700    0.08950    0.08950    6.07320   75.57560   75.57560   82.22460  109.03020   82.22460    6.07320    6.86060   10.23550    6.86060    0.26350    0.26350    2.55000  -50.98040  -18.06820   10.23550
