~Version ---------------------------------------------------
VERS.      2.0 : CWLS log ASCII Standard -VERSION 2.0
WRAP.       NO : One line per depth step
CREA. 09/09/14 : LAS Creation Date
~Well ------------------------------------------------------
STRT.FT                            1500.0 : START DEPTH
STOP.FT                           10450.0 : STOP DEPTH
STEP.FT                          50.00000 : STEP LENGTH
NULL.                             -999.25 : NULL VALUE
COMP.                CHEVRON STANDARD LTD : COMPANY
WELL. CHEVRON ET AL HEAVYSOUND 3-25-61-17 : WELL
FLD .                                     : FIELD
LOC .                                     : LOCATION
CTRY.                              CANADA : COUNTRY
SRVC.                        Schlumberger : SERVICE COMPANY
DATE.                         27-Nov-1977 : LOGDATE
PROV.                             Alberta : PROVINCE
UWI .                    100032506117W500 : UNIQUE WELL ID
SLAT.WGS84                       54.30091 : SURFACE LATITUDE
SLON.WGS84                       -116.419 : SURFACE LONGITUDE
~Curve Information -----------------------------------------
DEPT   .FT    : Depth Curve
CALD   .IN    : CALIPER FROM DENSITY LOG
CALS   .IN    : CALIPER FROM SONIC LOG
DPHI_LS.DEC   : DENSITY POROSITY LIMESTONE FROM DENSITY LOG
DPHI_SS.DEC   : DENSITY POROSITY SANDSTONE FROM DENSITY LOG
DRHO   .G/C3  : BULK DENSITY CORRECTION FROM DENSITY LOG
DT     .US/F  : DELTA-T (INTERVAL TRANSIT TIME)
GRD    .GAPI  : GAMMA RAY FROM DENSITY LOG
GRN    .CU    : GAMMA RAY FROM GRN LOG
GRS    .GAPI  : GAMMA RAY FROM SONIC LOG
ILD    .OHMM  : INDUCTION DEEP RESISTIVITY
ILM    .OHMM  : INDUCTION MEDIUM RESISTIVITY
LL8    .OHMM  : LATEROLOG 8
NEUT   .CU    : NEUTRON FROM GRN LOG
NPHI_LS.DEC   : NEUTRON POROSITY LIMESTONE FROM DENSITY LOG
NPHI_SS.DEC   : NEUTRON POROSITY SANDSTONE FROM DENSITY LOG
RHOB   .G/C3  : BULK DENSITY FROM DENSITY LOG
SPR    .MV    : SPONTANEOUS POTENTIAL FROM RESISTIVITY LOG
TEND   .LBF   : TENSION FROM DENSITY LOG
TENS   .LBF   : TENSION FROM SONIC LOG
~Params ----------------------------------------------------
PD  .                     GL : PERMANENT DATUM
EPD .FT                 3014 : ELEVATION PERMANENT DATUM
LMF .                     KB : LOG MEASURED FROM
DAPD.FT                   19 : FEET ABOVE PERMANENT DATUM
EKB .FT                 3033 : KELLY BUSHING
EGL .FT                 3014 : GROUND LEVEL
DATE.               11/27/77 : RUN DATE
RUN .                      1 : RUN NUMBER
DD  .FT                10428 : DEPTH DRILLER
DL  .FT                10435 : DEPTH LOGGER
BLI .FT                10429 : BOTTOM LOG INTERVAL
TLI .FT                 1501 : TOP LOG INTERVAL
CS  .IN                9.625 : CASING SIZE
CBD .FT                 1500 : CASING BOTTOM DRILLER
CBL .FT                 1501 : CASING BOTTOM LOGGER
DFT .                GEL OIL : DRILLING FLUID TYPE
DFD .                    9.1 : DRILLING FLUID DENSITY
DFV .                     83 : DRILLING FLUID VISCOSITY
MSS .               FLOWLINE : MUD SAMPLE SOURCE
RMS .OHMM               1.69 : RESISTIVITY MUD SAMPLE
MST .DEGF                 60 : MUD SAMPLE TEMPERATURE
RMF .OHMM               1.11 : RESISTIVITY MUD FILTRATE SAMPLE
MFST.DEGF                 54 : MUD FILTRATE SAMPLE TEMPERATURE
TCS .HRS                   4 : TIME CIRCULATED STOPPED
LUN .                   7670 : LOGGING UNIT NUMBER
LUL .                    EDM : LOGGING UNIT LOCATION
ENGI.                   DALY : RECORDING ENGINEER
WITN.     RICHARDSON SPRAGUE : WITNESSED BY
CLNT.                A2DTECH : CLIENT CODE
ORIG.            2" 5" PRINT : ORIGIN OF DATA
UWI .       100032506117W500 : UNIQUE WELL ID
DICO. A2D Technologies, Inc. : DIGITIZING COMPANY
~Other -----------------------------------------------------
~ASCII -----------------------------------------------------
# ...
 5200.00000    -999.25   11.45740    -999.25    -999.25    -999.25   90.94400    -999.25    -999.25  133.26970    4.96620    5.33400    6.85890    -999.25    -999.25    -999.25    -999.25  -38.95050    -999.25 1478.49840
 5250.00000    -999.25    9.96190    -999.25    -999.25    -999.25  101.07110    -999.25    -999.25  238.80930    5.49060    5.81020    7.95540    -999.25    -999.25    -999.25    -999.25  -38.87980    -999.25 1598.76940
 5300.00000   12.79530   10.84750    -999.25    -999.25    0.14680   89.39440  113.00880    -999.25   99.70140    3.51870    3.67140    4.90320    -999.25    -999.25    -999.25    2.18340  -37.90310    -999.25 1575.63200
 5350.00000   12.51610   10.40090    -999.25    0.24320    0.25140   88.28360  109.29930    -999.25   94.41850    4.04740    4.22760    5.13860    -999.25    -999.25    0.33170    2.25090  -37.06850 1346.73060 1578.24170
 5400.00000    9.79190    9.45940    -999.25    0.04140    0.02460   72.65560   75.17220    -999.25   78.80310   11.96050   13.79270   20.19000    -999.25    -999.25    0.19540    2.58520  -44.41180 1389.55260 1681.50050
 5450.00000   13.14300   12.11400    -999.25    0.31000    0.09080   93.86550   97.54920    -999.25  101.92070    2.62630    2.86700    3.40360    -999.25    -999.25    0.46240    2.20600  -37.57610 1340.41990 1613.37600
 5500.00000   11.15040   10.88370    -999.25    0.00680    0.00290   76.19580   88.85250    -999.25   87.33980    8.34960    8.88590    9.72880    -999.25    -999.25    0.27470    2.59520  -50.59400 1294.91560 1691.06580
 5550.00000   10.82770   10.13300    -999.25   -0.00240    0.00030   76.38810   53.20770    -999.25   44.68330   15.66470   16.31660   18.35340    -999.25    -999.25    0.16230    2.58890  -66.99260 1262.98010 1754.40990
 5600.00000   12.53570   11.79740    -999.25    0.34570    0.10830   83.50080   93.74240   38.76300   81.94850    6.37290    6.80130    5.50490  590.10640    -999.25    0.47310    2.07380  -38.85080 1315.24990 1743.03080
 5650.00000   14.43010   12.63870    -999.25    0.29470    0.18670  106.96390   99.08380   45.87320   89.48790    7.20330    8.66530   11.41870  263.20790    -999.25    0.51960    2.16670  -35.14600 1384.30310 1766.31210
 5700.00000   12.63170   11.18880    -999.25    0.04180    0.00370   71.00830   69.34090   31.25400   57.86580    9.38670    9.76400   11.73630  751.23990    -999.25    0.19690    2.56860  -45.38640 1421.88450 1906.97010
 5750.00000   13.08990   11.16700    -999.25    0.26610    0.02130   68.62980  100.89860   43.61530   98.15000   14.20430   15.77380   18.20550  684.94280    -999.25    0.39690    2.47020  -38.12940 1403.73750 1966.68430
 5800.00000   11.16920   10.47870    -999.25    0.07700    0.01820   69.08370   57.09340   28.44960   49.93620   14.23060   18.26430   23.86660  616.14790    -999.25    0.17860    2.54670  -76.88860 1271.20150 1851.07540
 5850.00000   11.64930   10.99230    -999.25    0.08840    0.00630   72.80880   65.07230   33.73210   59.02830    8.03860    8.87210   12.09480  485.50480    -999.25    0.19730    2.50430  -57.25060 1255.88200 1893.76670
 5900.00000   11.34130   10.14680    -999.25    0.01180    0.00190   65.18840   49.18470   20.72380   50.09900   15.44160   20.47130   34.04060  637.03310    -999.25    0.12400    2.59520  -63.85380 1321.87180 1988.28040
 5950.00000   10.84710    9.98340    -999.25    0.11560    0.01520   69.97660   57.45130   20.32550   54.19890   11.10090   13.31120   19.00470  403.54140    -999.25    0.21210    2.50830  -68.08980 1348.91110 1908.78780
 6000.00000   10.67630   10.63450    -999.25    0.05920    0.01290   75.80470   69.71840   34.64930   76.08490    8.15490    9.49470   12.92690  383.07040    -999.25    0.25960    2.55490  -44.46480 1382.02940 1989.04520
 6050.00000   10.91690   10.31840    -999.25   -0.00260    0.01610   68.90580   85.63700   37.66490   83.18450   11.49660   12.25230   13.94430  285.72820    -999.25    0.25900    2.65600  -30.63700 1300.07860 1828.35690
 6100.00000   11.37660   10.73200    -999.25    0.06000    0.02670   72.60870   83.44590   35.45950   82.18260    9.23190    9.49080   12.70800  414.71720    -999.25    0.29200    2.49920  -28.83750 1340.38400 1874.46560
 6150.00000   11.90960   10.96010    -999.25    0.18490    0.25740   77.22370   96.10290   37.94280   87.06190    7.65800    8.24480   11.11620  201.72600    -999.25    0.28650    2.40750  -27.80210 1314.69890 1853.06770
 6200.00000   11.50900   11.32470    -999.25    0.06290    0.01470   74.98720   54.71190   30.12190   56.22720   14.50730   14.92710   21.66890  285.55080    -999.25    0.20320    2.48600 -115.28680 1341.56290 1868.71910
 6250.00000    9.17720    9.19020    -999.25    0.15790    0.04760   67.91940   33.26470   19.82740   36.29920   18.01300   29.09160   27.01920  594.72300    -999.25    0.16570    2.40780 -135.75660 1325.89550 1910.34460
 6300.00000   10.69010    9.56300    -999.25    0.12530    0.06170   76.43700   50.46860   16.65290   28.49290    6.77980    9.69950   16.05700  551.15330    -999.25    0.22370    2.38940 -151.43410 1409.36230 1924.26750
 6350.00000   14.55760   13.33940    -999.25    0.38240    0.09760   94.04370   90.50620   40.51670  105.54670    3.86950    4.10560    5.38780  139.21660    -999.25    0.55430    1.78370  -74.28290 1371.02650 1895.40030
 6400.00000   15.33910   12.38950    -999.25    0.40950    0.13980   94.34010  101.85020   36.01330   97.68090    4.70370    5.03300    6.96440  194.15530    -999.25    0.47970    1.91970  -74.14160 1234.94600 1977.42410
 6450.00000    -999.25   12.85380    -999.25    -999.25    -999.25   90.81110    -999.25    -999.25   92.05880    7.53760    8.44630   10.95040    -999.25    -999.25    -999.25    -999.25  -76.74590    -999.25 2021.14930
 6500.00000    -999.25   10.69640    -999.25    -999.25    -999.25   77.94740    -999.25    -999.25   84.45310    8.87650   10.14920   14.93400    -999.25    -999.25    -999.25    -999.25   -6.08640    -999.25 2063.76930
 6550.00000    9.62420    9.27680    -999.25    0.10520    0.00110   63.45040  243.42560    -999.25  226.58900   68.08830   82.06760  103.90620    -999.25    -999.25    0.21660    2.49580  -13.05800 1349.47610 2036.79130
 6600.00000   10.11260    9.81450    -999.25    0.03120    0.01500   64.25970   85.34870    -999.25   70.63060   39.78300   42.38710   60.57290    -999.25    -999.25    0.16860    2.61170  -25.12810 1359.85520 2402.82100
 6650.00000   10.26240    9.68630    -999.25    0.01510   -0.00630   63.38680  109.46790    -999.25   98.73470   18.22010   19.34810   24.21550    -999.25    -999.25    0.13280    2.63870   -4.84160 1342.49500 1620.59990
 6700.00000    9.16140    8.47530    -999.25    0.12830    0.05850   73.16810   57.71540    -999.25   53.49740    2.09970    3.81040   16.55210    -999.25    -999.25    0.24850    2.50530 -187.48710 1294.09140 1406.01760
 6750.00000   10.82470   10.29130    -999.25   -0.00560    0.09590   49.47320   26.65750    -999.25   15.62050   25.89000   27.64430   47.55700    -999.25    -999.25    0.08630    2.65700 -113.06900 1389.94380 1523.92610
 6800.00000    -999.25    9.72070    -999.25    -999.25    -999.25   54.84910    -999.25    -999.25   24.81110    9.11300    9.18530   22.41220    -999.25    -999.25    -999.25    -999.25 -105.05900    -999.25 1580.60800
 6850.00000    -999.25    9.90280    -999.25    -999.25    -999.25   53.56700    -999.25    -999.25   44.10330   32.59610   47.68420   82.47920    -999.25    -999.25    -999.25    -999.25 -113.63660    -999.25 1610.26890
 6900.00000    -999.25    9.56830    -999.25    -999.25    -999.25   51.81360    -999.25    -999.25   15.55410   21.70130   24.44000   77.04070    -999.25    -999.25    -999.25    -999.25 -136.13780    -999.25 1504.50400
 6950.00000    -999.25    9.51590    -999.25    -999.25    -999.25   52.57250    -999.25    -999.25   16.34130   16.97140   28.75320  100.78700    -999.25    -999.25    -999.25    -999.25 -188.39380    -999.25 1470.83650
 7000.00000    -999.25   10.07330    -999.25    -999.25    -999.25   48.73690    -999.25    -999.25    9.62800   36.95900   51.98390  183.21480    -999.25    -999.25    -999.25    -999.25 -170.65610    -999.25 1602.42350
