~Version ---------------------------------------------------
VERS.      2.0 : CWLS log ASCII Standard -VERSION 2.0
WRAP.       NO : One line per depth step
CREA. 10/13/14 : LAS Creation Date
~Well ------------------------------------------------------
STRT.ft                              300.0 : START DEPTH
STOP.ft                            15450.0 : STOP DEPTH
STEP.ft                           50.00000 : STEP LENGTH
NULL.                              -999.25 : NULL VALUE
COMP.                        BANFF OIL LTD : COMPANY
WELL. BANFF AQUIT CHIEFCO WAWA 11-20-42-13 : WELL
FLD .                                      : FIELD
LOC .                                      : LOCATION
CTRY.                               CANADA : COUNTRY
SRVC.               Schlumberger of Canada : SERVICE COMPANY
DATE.                          07-Apr-1970 : LOGDATE
PROV.                              Alberta : PROVINCE
UWI .                     100112004213W500 : UNIQUE WELL ID
SLAT.WGS84                        52.63304 : SURFACE LATITUDE
SLON.WGS84                       -115.8375 : SURFACE LONGITUDE
~Curve Information -----------------------------------------
DEPT   .ft                : DEPTH FEET
CALD   .IN   45 280 60 00 : CALIPER FROM DENSITY LOG
CALN   .IN   41 280 60 00 : CALIPER FROM NEUTRON LOG
CALS   .IN   60 280 50 00 : CALIPER FROM SONIC LOG
CORR   .G/C3 45 356 01 00 : DENSITY CORRECTION
DPHI_LS.DEC  45 890 10 00 : DENSITY POROSITY LIMESTONE
DT     .US/F 60 500 00 00 : DELTA-T (INTERVAL TRANSIT TIME)
GRD    .GAPI 45 310 01 00 : GAMMA RAY FROM DENSITY LOG
GRD_R  .GAPI 45 310 01 00 : GAMMA RAY FROM DENSITY LOG FROM REPEAT
GRN    .GAPI 41 310 01 00 : GAMMA RAY FROM GRN LOG
GRS    .GAPI 60 310 01 00 : GAMMA RAY FROM SONIC LOG
ILD    .OHMM 07 120 46 00 : INDUCTION DEEP RESISTIVITY
ILM    .OHMM 07 120 44 00 : INDUCTION MEDIUM RESISTIVITY
ILM_R  .OHMM 07 120 44 00 : INDUCTION MEDIUM RESISTIVITY FROM REPEAT
LL8    .OHMM 07 220 08 00 : LATEROLOG 8
RHOB   .G/C3 45 350 01 00 : BULK DENSITY
SNP_LS .DEC  41 890 01 00 : SIDEWALL NEUTRON POROSITY [LIMESTONE]
SPR    .MV   07 010 01 00 : SPONTANEOUS POTENTIAL FROM RESISTIVITY LOG
SPR_R  .MV   07 010 01 00 : SPONTANEOUS POTENTIAL FROM RESISTIVITY LOG FROM REPEAT
~Params ----------------------------------------------------
PD  .                     GL : PERMANENT DATUM
EPD .FT                 4345 : ELEVATION PERMANENT DATUM
LMF .                     KB : LOG MEASURED FROM
DAPD.FT                   14 : FEET ABOVE PERMANENT DATUM
EKB .FT                 4359 : KELLY BUSHING
EGL .FT                 4345 : GROUND LEVEL
DATE.               06/04/70 : RUN DATE
RUN .                      3 : RUN NUMBER
DD  .FT                15476 : DEPTH DRILLER
DL  .FT                15473 : DEPTH LOGGER
BLI .FT                15471 : BOTTOM LOG INTERVAL
TLI .FT                14327 : TOP LOG INTERVAL
CBD .FT                12360 : CASING BOTTOM DRILLER
CBL .FT                12355 : CASING BOTTOM LOGGER
BS  .IN                    6 : BIT SIZE
BSD .FT                15476 : BIT SIZE AT DEPTH
DFT .               GEL CHEM : DRILLING FLUID TYPE
DFD .                    8.9 : DRILLING FLUID DENSITY
DFV .                     47 : DRILLING FLUID VISCOSITY
DFPH.                     11 : DRILLING FLUID PH
DFL .                   12.4 : DRILLING FLUID LOSS
MSS .               FLOWLINE : MUD SAMPLE SOURCE
RMS .OHMM               2.62 : RESISTIVITY MUD SAMPLE
TCS .HRS                   4 : TIME CIRCULATED STOPPED
LUN .                  CSU C : LOGGING UNIT NUMBER
LUL .                 364 RD : LOGGING UNIT LOCATION
ENGI.                 MEGSON : RECORDING ENGINEER
WITN.                BRINKER : WITNESSED BY
CLNT.                A2DTECH : CLIENT CODE
ORIG.        2" 5" 10" PRINT : ORIGIN OF DATA
UWI .       100112004213W500 : UNIQUE WELL ID
DICO. A2D Technologies, Inc. : DIGITIZING COMPANY
~Other -----------------------------------------------------
~ASCII -----------------------------------------------------
# ...
 13850.00000    6.14140    6.13020    6.08110    0.03540   -0.03000   47.94680    -999.25    -999.25   40.60120   40.17090 1617.49340 1566.17130    -999.25 1868.10660    2.79120    0.02970    -999.25    -999.25
 13900.00000    7.89270    8.63930    6.46790    0.22930    0.26210   47.48060    -999.25    -999.25   10.48430    7.28820 1685.81710  229.12160    -999.25 1786.41050    2.05460    0.11880    -999.25    -999.25
 13950.00000    6.00320    5.40730    6.08280    0.03980   -0.02240   50.96460    -999.25    -999.25   57.46040   49.11060  234.57370  270.90800    -999.25 1699.21550    2.76720    0.04660    -999.25    -999.25
 14000.00000    7.12490    5.82780    6.14030    0.24810    0.00670   50.03950    -999.25    -999.25   18.22960   16.07150 1672.82470 1565.54970    -999.25 1754.99280    2.67070    0.02200    -999.25    -999.25
 14050.00000    6.87020    5.92370    6.10010    0.23710   -0.00990   49.61150    -999.25    -999.25   18.49500   16.55150  560.96250 1493.95950    -999.25 1766.72050    2.73850    0.02090    -999.25    -999.25
 14100.00000    7.39940    6.07880    6.29490    0.17370    0.01390   67.62990    -999.25    -999.25   65.72990   64.75460    5.85580    5.92630    -999.25    8.21320    2.68600    0.07500    -999.25    -999.25
 14150.00000    6.81380    4.97000    6.46850    0.06110    0.01710   68.56780    -999.25    -999.25   83.53430   81.67620    4.71140    4.53390    -999.25    6.51200    2.66240    0.11390    -999.25    -999.25
 14200.00000    7.42670    5.98270    6.57390    0.05410    0.00820   67.72200    -999.25    -999.25   73.78680   67.45550    5.99190    5.77640    -999.25    8.29640    2.67100    0.07480  -57.93330    -999.25
 14250.00000    8.80200    6.37330    7.15020    0.25600    0.11240   77.02130    -999.25    -999.25  109.04740   98.31190    3.12070    2.98150    -999.25    4.29470    2.43410    0.16180 -261.22540    -999.25
 14300.00000    6.91530    5.31500    6.42140    0.07090    0.02490   73.21530    -999.25    -999.25   99.31440   95.89680    3.14630    2.99630    -999.25    4.34730    2.66700    0.14110 -306.82840    -999.25
 14350.00000    6.63930    -999.25    6.35040    0.01090    0.00160   66.56400    -999.25    -999.25    -999.25   74.28300    5.35000    -999.25    -999.25    8.06690    2.70140    -999.25    -999.25    -999.25
 14400.00000    6.60210    -999.25    6.40950    0.04970    0.01060   70.72100    -999.25    -999.25    -999.25   95.30810    4.88190    -999.25    -999.25    7.02090    2.69030    -999.25    -999.25    -999.25
 14450.00000    6.43820    -999.25    6.38460    0.04210    0.02310   73.66500    -999.25    -999.25    -999.25  102.78350    4.22290    -999.25    -999.25    5.98410    2.63940    -999.25    -999.25    -999.25
 14500.00000    6.68600    -999.25    6.24260   -0.00110   -0.01100   71.76530    -999.25    -999.25    -999.25  100.91080    4.39030    -999.25    -999.25    6.11250    2.74270    -999.25    -999.25    -999.25
 14550.00000    6.77270    -999.25    6.32300    0.01180    0.00100   68.07790    -999.25    -999.25    -999.25   72.36000    5.79540    -999.25    -999.25    7.98580    2.72520    -999.25    -999.25    -999.25
 14600.00000    7.08050    -999.25    6.23580    0.05540   -0.01840   68.48000    -999.25    -999.25    -999.25   77.94260    5.41930    -999.25    -999.25    7.32460    2.74950    -999.25    -999.25    -999.25
 14650.00000    6.44800    -999.25    6.12240    0.01050   -0.00680   68.08160    -999.25    -999.25    -999.25   82.45920    5.15630    -999.25    -999.25    7.77810    2.71320    -999.25    -999.25    -999.25
 14700.00000    6.47890    -999.25    6.12000    0.05050    0.00070   66.42370    -999.25    -999.25    -999.25   67.54040    6.00850    -999.25    -999.25    7.89960    2.70280    -999.25    -999.25    -999.25
 14750.00000    6.59660    -999.25    6.16320    0.10900    0.02340   72.44340    -999.25    -999.25    -999.25   79.42720    4.16150    -999.25    -999.25    5.72590    2.65700    -999.25    -999.25    -999.25
 14800.00000    6.65670    -999.25    6.12550    0.04280   -0.02090   65.31250    -999.25    -999.25    -999.25   63.29590    8.83170    -999.25    -999.25   12.24930    2.75970    -999.25    -999.25    -999.25
 14850.00000    6.77620    -999.25    6.08420    0.08000    0.05620   88.89150    -999.25    -999.25    -999.25  160.32220   22.50850    -999.25    -999.25   23.76830    2.58200    -999.25    -999.25    -999.25
 14900.00000    6.68050    -999.25    6.13590    0.02990    0.02170   69.99230    -999.25    -999.25    -999.25   55.76160   20.93800    -999.25    -999.25   30.61260    2.65510    -999.25    -999.25    -999.25
 14950.00000    9.03390    -999.25    7.12490    0.25150    0.29320   79.24440    -999.25    -999.25    -999.25   81.29020    5.68660    -999.25    -999.25    6.52420    1.96010    -999.25    -999.25    -999.25
 15000.00000    7.17670    -999.25    6.41770    0.06670   -0.00400   42.62210    -999.25    -999.25    -999.25   17.13760   67.79480    -999.25    -999.25  185.62320    2.72890    -999.25    -999.25    -999.25
 15050.00000    8.18360    -999.25    6.45080    0.25120    0.18540   74.55730    -999.25    -999.25    -999.25   64.79350    8.96260    -999.25    -999.25    5.53500    2.23040    -999.25    -999.25    -999.25
 15100.00000    6.42800    -999.25    6.00420    0.02980   -0.00230   65.47420    -999.25    -999.25    -999.25   47.41300   17.95570    -999.25    -999.25   36.24560    2.71950    -999.25    -999.25    -999.25
 15150.00000    6.65750    -999.25    5.99500    0.11540    0.05680   52.38300    -999.25    -999.25    -999.25   29.58270   46.37470    -999.25    -999.25  357.96520    2.56540    -999.25    -999.25    -999.25
 15200.00000    5.99580    -999.25    5.89250    0.01310   -0.00110   55.83210    -999.25  101.45290    -999.25   27.23040   34.41950    -999.25    -999.25   42.00490    2.71070    -999.25    -999.25    -999.25
 15250.00000    5.97840    -999.25    5.95770    0.02100    0.01510   79.90290    -999.25   39.37790    -999.25   40.47670   21.44890    -999.25   23.98730   30.64560    2.68350    -999.25    -999.25  -87.47720
 15300.00000    5.86110    -999.25    5.99210    0.06640    0.01840   55.50140    -999.25   48.54710    -999.25   26.41260  108.25180    -999.25   17.59860  122.47740    2.65990    -999.25    -999.25 -107.84620
 15350.00000    6.19730    -999.25    5.93230    0.02390   -0.01560   60.69850    -999.25   38.08590    -999.25   14.01480 1315.51350    -999.25 1507.74380 1184.06350    2.75270    -999.25    -999.25  -41.25810
 15400.00000    5.81870    -999.25    5.91610    0.03090   -0.00760   58.07440    -999.25   47.04410    -999.25   12.41500 1356.13310    -999.25 1482.93730  703.03430    2.71930    -999.25    -999.25  -54.10690
 15450.00000    5.65700    -999.25    5.93690    0.01060    0.00600   52.13170    -999.25   46.14230    -999.25    -999.25  255.30870    -999.25  417.21220  209.86450    2.68870    -999.25    -999.25  -58.60170
