~Version ---------------------------------------------------
VERS.      2.0 : CWLS log ASCII Standard -VERSION 2.0
WRAP.       NO : One line per depth step
CREA. 12/01/17 : LAS Creation Date
~Well ------------------------------------------------------
STRT.FT                        1050.0 : START DEPTH
STOP.FT                        9950.0 : STOP DEPTH
STEP.FT                      50.00000 : STEP LENGTH
NULL.                         -999.25 : NULL VALUE
COMP.          PACIFIC PETROLEUMS LTD : COMPANY
WELL. PACIFIC ET AL KAYBOB 6-23-63-18 : WELL
FLD .                                 : FIELD
LOC .                                 : LOCATION
CTRY.                          CANADA : COUNTRY
SRVC.          Schlumberger of Canada : SERVICE COMPANY
DATE.                     28-Feb-1971 : LOGDATE
PROV.                         Alberta : PROVINCE
UWI .                100062306318W500 : UNIQUE WELL ID
SLAT.WGS84                   54.46224 : SURFACE LATITUDE
SLON.WGS84                  -116.6138 : SURFACE LONGITUDE
~Curve Information -----------------------------------------
DEPT  .FT    : Depth Curve
CALSED.IN    : CALIPER FROM SONIC LOG [ADJ. TO RESISTIVITY LOG]
CALWS .IN    : CALIPER [CALSED]
CILDED.MMHO  : DEEP INDUCTION CONDUCTIVITY FROM RESISTIVITY LOG
CONDWS.MMHO  : CONDUCTIVITY [1000/DRESWS]
DRESWS.OHMM  : DEEP RESISTIVITY [1000/CILDED IF ILDED<1,ILDED & SPL. TO ILDED @ 4488'
DTED  .US/F  : DELTA-T FROM SONIC LOG [ADJ. TO RESISTIVITY LOG]
DTWS  .US/F  : COMPRESSIONAL SONIC [DTED]
GRSED .GAPI  : GAMMA RAY FROM SONIC LOG [ADJ. TO RESISTIVITY LOG]
GRWS  .GAPI  : AMMA RAY [GRSED]
ILDED .OHMM  : DEEP INDUCTION FROM RESISTIVITY LOG
ILMED .OHMM  : MEDIUM INDUCTION FROM RESISTIVITY LOG
LL8ED .OHMM  : LATEROLOG 8 RESISTIVITY FROM RESISTIVITY LOG
MRESWS.OHMM  : MEDIUM RESISTIVITY [ILMED]
SPRED .MV    : SPONTANEOUS POTENTIAL FROM RESISTIVITY LOG
SPWS  .MV    : SPONTANEOUS POTENTIAL [BASELINE 0 MV,SPRED]
SRESWS.OHMM  : SHALLOW RESISTIVITY [LL8ED]
~Params ----------------------------------------------------
PD  .                     GL : PERMANENT DATUM
EPD .FT               2627.5 : ELEVATION PERMANENT DATUM
LMF .                     KB : LOG MEASURED FROM
DAPD.FT                 17.5 : FEET ABOVE PERMANENT DATUM
EKB .FT                 2645 : KELLY BUSHING
EGL .FT               2627.5 : GROUND LEVEL
DATE.               02/28/71 : RUN DATE
RUN .                      1 : RUN NUMBER
DD  .FT                 9960 : DEPTH DRILLER
DL  .FT                 9964 : DEPTH LOGGER
BLI .FT                 9958 : BOTTOM LOG INTERVAL
TLI .FT                 1035 : TOP LOG INTERVAL
CBD .FT                 1035 : CASING BOTTOM DRILLER
CBL .FT                 1035 : CASING BOTTOM LOGGER
BS  .IN                 8.75 : BIT SIZE
BSD .FT                 9960 : BIT SIZE AT DEPTH
DFT .              FRESH GEL : DRILLING FLUID TYPE
DFD .                    9.5 : DRILLING FLUID DENSITY
DFV .                     90 : DRILLING FLUID VISCOSITY
DFPH.                    9.5 : DRILLING FLUID PH
DFL .                    9.2 : DRILLING FLUID LOSS
MSS .               FLOWLINE : MUD SAMPLE SOURCE
RMS .OHMM               2.04 : RESISTIVITY MUD SAMPLE
MST .DEGF                 60 : MUD SAMPLE TEMPERATURE
RMF .OHMM               1.79 : RESISTIVITY MUD FILTRATE SAMPLE
MFST.DEGF                 60 : MUD FILTRATE SAMPLE TEMPERATURE
RMC .OHMM                1.7 : RESISTIVITY MUD CAKE
MCST.DEGF                 64 : MUD CAKE SAMPLE TEMPERATURE
RMB .OHMM               0.55 : RESISTIVITY MUD AT BHT
TCS .HRS                   5 : TIME CIRCULATED STOPPED
LUN .                   7501 : LOGGING UNIT NUMBER
LUL .                    EDM : LOGGING UNIT LOCATION
ENGI.                 BUFTON : RECORDING ENGINEER
WITN.                SHEDDEN : WITNESSED BY
CLNT.                A2DTECH : CLIENT CODE
ORIG.            2" 5" PRINT : ORIGIN OF DATA
UWI .       100062306318W500 : UNIQUE WELL ID
DICO. A2D Technologies, Inc. : DIGITIZING COMPANY
~Other -----------------------------------------------------
DIL-BHC LOG RUN
ALL DATA FROM TOP TO 4488' FROM 2" SCALE SECTION
~ASCII -----------------------------------------------------
# ...
 5350.00000   10.80750   10.80750    -999.25   78.82770   12.68590   75.48930   75.48930   71.78480   71.78480   12.68590   15.35340   21.39300   15.35340  -62.26840   -4.65250   21.39300
 5400.00000   11.52370   11.52370    -999.25  154.52850    6.47130   76.26820   76.26820   40.46230   40.46230    6.47130    7.81970   13.16650    7.81970  -92.20360  -35.04330   13.16650
 5450.00000   13.09820   13.09820    -999.25   66.84980   14.95890   84.18180   84.18180   72.35220   72.35220   14.95890   11.17810   17.31990   11.17810  -62.81960   -6.10570   17.31990
 5500.00000   11.37160   11.37160    -999.25  169.61800    5.89560   74.87080   74.87080   43.73250   43.73250    5.89560    6.82090    8.88030    6.82090  -89.77470  -33.50430    8.88030
 5550.00000   11.22340   11.22340    -999.25  105.31190    9.49560   75.85900   75.85900   70.87180   70.87180    9.49560   10.42440   12.80340   10.42440  -60.97630   -5.14940   12.80340
 5600.00000   11.69420   11.69420    -999.25   98.72550   10.12910   75.65530   75.65530   70.80220   70.80220   10.12910   11.14160   12.63360   11.14160  -58.16980   -2.78930   12.63360
 5650.00000   11.84970   11.84970    -999.25  136.38470    7.33220   78.57200   78.57200   57.82320   57.82320    7.33220    8.30010    9.90070    8.30010  -57.52290   -2.58590    9.90070
 5700.00000   11.92240   11.92240    -999.25   54.10790   18.48160   70.97020   70.97020   44.84320   44.84320   18.48160   19.96040   24.16760   19.96040  -67.17180  -12.68120   24.16760
 5750.00000   10.11510   10.11510    -999.25   36.54360   27.36460   64.44670   64.44670   53.23210   53.23210   27.36460   29.66520   36.46030   29.66520  -56.96340   -2.91630   36.46030
 5800.00000   10.14090   10.14090    -999.25   89.93940   11.11860   71.71590   71.71590   87.01890   87.01890   11.11860   11.73300   14.79190   11.73300  -56.38090   -3.37870   14.79190
 5850.00000   13.50580   13.50580    -999.25  311.50710    3.21020   96.03800   96.03800   70.42570   70.42570    3.21020    3.53600    3.93990    3.53600  -56.10140   -4.16730    3.93990
 5900.00000   11.74890   11.74890    -999.25  217.86970    4.58990   84.47200   84.47200   72.05230   72.05230    4.58990    4.97800    6.39430    4.97800  -54.41760   -3.54460    6.39430
 5950.00000   12.36660   12.36660    -999.25   93.34100   10.71340  117.51270  117.51270   98.32720   98.32720   10.71340   12.55050   18.05930   12.55050  -53.34880   -3.54390   18.05930
 6000.00000   11.61460   11.61460    -999.25  160.09990    6.24610   99.55600   99.55600   72.37680   72.37680    6.24610    5.09930   16.00990    5.09930  -56.09780   -7.00970   16.00990
 6050.00000    9.21050    9.21050    -999.25    3.62970  275.50830   70.38290   70.38290   23.83190   23.83190  275.50830  178.83560  324.29320  178.83560  -68.83110  -20.40760  324.29320
 6100.00000    9.98490    9.98490    -999.25   83.83850   11.92770   50.17890   50.17890   52.89800   52.89800   11.92770   13.04130   15.14260   13.04130  -88.03430  -40.27980   15.14260
 6150.00000   10.39120   10.39120    -999.25   84.80040   11.79240   64.35000   64.35000   70.47880   70.47880   11.79240   13.09570   16.27520   13.09570  -68.07070  -20.98080   16.27520
 6200.00000   10.10880   10.10880    -999.25   34.60240   28.89970   51.51740   51.51740   13.96460   13.96460   28.89970   49.54560   59.08040   49.54560 -104.35980  -57.93890   59.08040
 6250.00000    9.88920    9.88920    -999.25   35.23190   28.38340   50.85860   50.85860   10.33990   10.33990   28.38340   46.05620  120.19760   46.05620 -128.05400  -82.29770  120.19760
 6300.00000   10.02910   10.02910    -999.25   97.03650   10.30540   58.90530   58.90530   26.06670   26.06670   10.30540   11.82950   15.78670   11.82950 -107.95880  -62.86710   15.78670
 6350.00000   10.29290   10.29290    -999.25   23.86360   41.90490   57.98750   57.98750   50.59190   50.59190   41.90490   54.01100   65.73780   54.01100  -52.08930   -7.66650   65.73780
 6400.00000    9.88000    9.88000    -999.25  600.67280    1.66480   68.48480   68.48480   29.46000   29.46000    1.66480    2.00520    6.20230    2.00520 -145.09860 -101.34040    6.20230
 6450.00000   10.62230   10.62230    -999.25  180.93650    5.52680   57.88140   57.88140   15.86630   15.86630    5.52680   11.09050   84.52150   11.09050 -131.89400  -88.80480   84.52150
 6500.00000   10.61950   10.61950    -999.25  442.22350    2.26130   62.50590   62.50590   38.43140   38.43140    2.26130    2.52110    8.66310    2.52110 -131.07950  -88.65490    8.66310
 6550.00000   10.52160   10.52160    -999.25   14.70020   68.02650   50.78840   50.78840   10.00050   10.00050   68.02650  144.78400  387.31920  144.78400 -124.67840  -82.91840  387.31920
 6600.00000    9.69050    9.69050    -999.25   67.69610   14.77190   54.91420   54.91420   10.28450   10.28450   14.77190   25.33890   55.55440   25.33890 -169.32670 -128.23570   55.55440
 6650.00000   10.31630   10.31630    -999.25   31.45160   31.79490   51.99500   51.99500    9.03000    9.03000   31.79490   38.88260  150.80330   38.88260 -148.08480 -107.65840  150.80330
 6700.00000   10.10680   10.10680    -999.25  131.65860    7.59540   62.99530   62.99530   65.45810   65.45810    7.59540    8.53970   16.47600    8.53970  -57.65810  -17.90070   16.47600
 6750.00000   10.31830   10.31830    -999.25  274.14540    3.64770   63.33880   63.33880   71.88620   71.88620    3.64770    4.60070   18.30790    4.60070  -86.69650  -47.60370   18.30790
 6800.00000   10.08850   10.08850    -999.25  290.63850    3.44070   57.42060   57.42060   56.02710   56.02710    3.44070    5.95340   44.19250    5.95340 -120.51930  -82.29990   44.19250
 6850.00000   10.01660   10.01660    -999.25   59.17610   16.89870   57.78830   57.78830   45.38660   45.38660   16.89870   18.22460   21.97130   18.22460  -55.74400  -18.76420   21.97130
 6900.00000    9.87860    9.87860    -999.25    9.02950  110.74750   52.39870   52.39870   16.66050   16.66050  110.74750  406.13180  359.39590  406.13180  -54.54680  -18.79850  359.39590
 6950.00000    9.60190    9.60190    -999.25   35.46480   28.19700   55.45790   55.45790   19.04220   19.04220   28.19700   30.55710   41.66260   30.55710  -52.90570  -18.39700   41.66260
 7000.00000    9.23620    9.23620    -999.25   14.60040   68.49150   54.23040   54.23040   24.25350   24.25350   68.49150   82.65880  139.04980   82.65880  -47.05440  -13.77720  139.04980
 7050.00000    9.08720    9.08720    -999.25    3.95810  252.64670   52.06110   52.06110   16.84840   16.84840  252.64670  246.96740  363.63050  246.96740  -60.12430  -28.07860  363.63050
 7100.00000    9.05390    9.05390    -999.25   13.22000   75.64270   55.47630   55.47630   34.26660   34.26660   75.64270  103.63320  122.75720  103.63320  -35.59820   -4.79210  122.75720
 7150.00000    9.04100    9.04100    -999.25    4.37910  228.35770   52.94210   52.94210   33.80080   33.80080  228.35770  951.45450  288.37950  951.45450  -53.19080  -23.08690  288.37950
 7200.00000    9.08800    9.08800    -999.25    5.07650  196.98520   54.18150   54.18150   31.58750   31.58750  196.98520  168.35670  281.04250  168.35670  -42.89230  -13.23410  281.04250
 7250.00000    9.15310    9.15310    -999.25   14.61140   68.43990   56.88470   56.88470   45.68700   45.68700   68.43990   57.05110   91.67940   57.05110  -38.28460   -9.06910   91.67940
 7300.00000    9.69510    9.69510    -999.25   96.43390   10.36980   59.43650   59.43650   72.37010   72.37010   10.36980   11.30270   13.54740   11.30270  -61.68860  -32.91590   13.54740
 7350.00000    9.36570    9.36570    -999.25    6.98210  143.22430   51.31350   51.31350   29.49880   29.49880  143.22430  131.10050  191.92020  131.10050  -49.78890  -21.61720  191.92020
 7400.00000    9.14010    9.14010    -999.25    1.13280  882.74570   49.48130   49.48130    8.41460    8.41460  882.74570  274.26240  375.63010  274.26240 -108.62900  -81.15670  375.63010
 7450.00000    9.01110    9.01110    -999.25    0.57630 1735.08500   49.65310   49.65310    8.16450    8.16450 1735.08500  158.49360  182.71380  158.49360 -109.40340  -82.63510  182.71380
