~Version ---------------------------------------------------
VERS.      2.0 : CWLS log ASCII Standard -VERSION 2.0
WRAP.       NO : One line per depth step
CREA. 09/30/14 : LAS Creation Date
~Well ------------------------------------------------------
STRT.M                           450.0 : START DEPTH
STOP.M                          4850.0 : STOP DEPTH
STEP.M                        50.00000 : STEP LENGTH
NULL.                          -999.25 : NULL VALUE
COMP. AQUITAINE COMPANY OF CANADA LTD. : COMPANY
WELL.           AQUIT BRAZR 6-29-45-14 : WELL
FLD .                                  : FIELD
LOC .                                  : LOCATION
CTRY.                           CANADA : COUNTRY
SRVC.                     Schlumberger : SERVICE COMPANY
DATE.                      21-Jun-1979 : LOGDATE
PROV.                          Alberta : PROVINCE
UWI .                 100062904514W500 : UNIQUE WELL ID
SLAT.WGS84                    52.90648 : SURFACE LATITUDE
SLON.WGS84                   -115.9986 : SURFACE LONGITUDE
~Curve Information -----------------------------------------
DEPT    .M      : DEPTH METER
CALDED  .MM     : CALIPER FROM DENSITY LOG [ADJ. TO RESITIVITY LOG]
CALSED  .MM     : CALIPER FROM SONIC LOG
CALWS   .MM     : CALIPER [CALSED SPL. TO CALDED @ 4866M]
CILDED  .MMHO   : CONDUCTIVITY FROM RESISTIVITY LOG
CONDWS  .MMHO   : CONDUCTIVITY [1000/DRESWS]
DCORED  .KG/M3  : DENSITY CORRECTION FROM DENSITY LOG [ADJ. TO DPHILSED/DPHISSED/RESITIVITY LOG]
DCORWS  .KG/M3  : DENSITY CORRECTION [DCORED]
DENWS   .KG/M3  : FORMATION BULK DENSITY [CALC. FROM DPOLSWS, M=2710, F=1000]
DPHILSED.V/V    : DENSITY POROSITY LIMESTONE [M=2710,F=1000] FROM DENSITY LOG [ADJ. TO RESITIVITY LOG]
DPHISSED.V/V    : DENSITY POROSITY SANDSTONE [M=2650,F=1000] FROM DENSITY LOG [ADJ. TO RESITIVITY LOG]
DPOLSWS .V/V    : DENSITY POROSITY LIMESTONE [DPHISSED CONVERTED TO LIMESTONE MATRIX, M=2710 F=1000 SPL.TO DPHILSED @ 3170.2M]
DRESWS  .OHMM   : DEEP RESISTIVITY [ILDED]
DTED    .US/M   : DELTA TIME FROM SONIC LOG
DTWS    .US/M   : COMPRESSIONAL SONIC [DTED]
GRDED   .GAPI   : GAMMA RAY FROM DENSITY LOG [ADJ. TO RESITIVITY LOG]
GRSED   .GAPI   : GAMMA RAY FROM SONIC LOG
GRWS    .GAPI   : GAMM RAY [GRSED SPL. TO GRDED FROM 2911M-2941.8M &  4860.7M-BOTTOM] GRWS (+20 API ) IN CSG. FROM 2927M-2942M
ILDED   .OHMM   : DEEP INDUCTION LOG RESISTIVITY FROM RESISTIVITY LOG
ILMED   .OHMM   : MEDIUM INDUCTION LOG RESISTIVITY FROM RESISTIVITY LOG
MRESWS  .OHMM   : MEDIUM RESISTIVITY [ILMED]
NPHILSED.V/V    : NEUTRON POROSITY LIMESTONE FROM DENSITY LOG [ADJ. TO RESITIVITY LOG]
NPHISSED.V/V    : NEUTRON POROSITY SANDSTONE FROM DENSITY LOG [ADJ. TO RESITIVITY LOG]
NPOLSWS .V/V    : NEUTRON POROSITY LIMESTONE [NPHISSED MATRIX (SLB) CONVERSION FOR LIMESTONE, SPL.TO NPHILSED @ 3170.1M]
RHOBED  .KG/M3  : BULK DENSITY FROM DENSITY LOG [ADJ. TO DPHILSED/DPHISSED/RESITIVITY LOG]
SFLED   .OHMM   : SPHERICALLY FOCUSED LOG RESISTIVITY FROM RESISTIVITY LOG
SPRED   .MV     : SPONTANEOUS POTENTIAL FROM RESISTIVITY LOG
SPWS    .MV     : SPONTANEOUS POTENTIAL [BASELINE 0 MV, SPRED]
SRESWS  .OHMM   : SHALLOW RESISTIVITY [SFLED]
~Params ----------------------------------------------------
PD  .                         GL : PERMANENT DATUM
EPD .M                    1146.6 : ELEVATION PERMANENT DATUM
LMF .                         KB : LOG MEASURED FROM
DAPD.M                       8.7 : FEET ABOVE PERMANENT DATUM
DMF .                         KB : DRILLING MEASURED FROM
EKB .M                    1155.3 : KELLY BUSHING
EGL .M                    1146.6 : GROUND LEVEL
DATE.                   06/21/79 : RUN DATE
RUN .                          2 : RUN NUMBER
DD  .M                    4891.6 : DEPTH DRILLER
DL  .M                      4879 : DEPTH LOGGER
BLI .M                      4881 : BOTTOM LOG INTERVAL
TLI .M                    2941.5 : TOP LOG INTERVAL
CBD .M                      2944 : CASING BOTTOM DRILLER
CBL .M                    2941.5 : CASING BOTTOM LOGGER
BS  .M                     215.9 : BIT SIZE
BSD .M                    4891.6 : BIT SIZE AT DEPTH
DFT .                   GEL CHEM : DRILLING FLUID TYPE
DFD .                       1020 : DRILLING FLUID DENSITY
DFV .                        100 : DRILLING FLUID VISCOSITY
DFPH.                       10.5 : DRILLING FLUID PH
DFL .                          8 : DRILLING FLUID LOSS
MSS .                   FLOWLINE : MUD SAMPLE SOURCE
RMS .OHMM                   1.26 : RESISTIVITY MUD SAMPLE
MST .DEGC                   26.7 : MUD SAMPLE TEMPERATURE
RMF .OHMM                   0.62 : RESISTIVITY MUD FILTRATE SAMPLE
MFST.DEGC                   25.6 : MUD FILTRATE SAMPLE TEMPERATURE
RMC .OHMM                   1.21 : RESISTIVITY MUD CAKE
MCST.DEGC                   17.8 : MUD CAKE SAMPLE TEMPERATURE
MFSS.                      PRESS : MUD FILTRATE SAMPLE SOURCE
MCSS.                      PRESS : MUD CAKE SAMPLE SOURCE
RMB .OHMM                   0.41 : RESISTIVITY MUD AT BHT
TCS .HRS                    1800 : TIME CIRCULATED STOPPED
TLAB.HRS                     600 : TIME LOGGER AT BOTTOM
LUN .                       8123 : LOGGING UNIT NUMBER
LUL .                         RD : LOGGING UNIT LOCATION
ENGI.            PARROTT PIERACC : RECORDING ENGINEER
WITN.                   WILLIAMS : WITNESSED BY
CLNT.                    A2DTECH : CLIENT CODE
ORIG. 6.5"/100M 16.5"/100M PRINT : ORIGIN OF DATA
UWI .           100062904514W500 : UNIQUE WELL ID
DICO.     A2D Technologies, Inc. : DIGITIZING COMPANY
~Other -----------------------------------------------------
DIL-BHC TOOLS RUN IN COMBO. & CNLD TOOLS RUN
ALL DIL-BHC TOOLS FROM TOP TO 1500M FROM 2" SCALE SECTION
~ASCII -----------------------------------------------------
# ...
 1700.00000  332.66300  321.73420  321.73420    -999.25   90.66590   14.19530   14.19530 2542.42000    -999.25    0.06520    0.09800   11.02950  250.77610  250.77610   86.17370   81.03570   81.03570   11.02950   10.60560   10.60560    -999.25    0.28560    0.24160 2539.89670    9.64560 -263.92980   -4.36240    9.64560
 1750.00000  333.34570  326.03500  326.03500    -999.25  130.08130   14.44370   14.44370 2447.54500    -999.25    0.12270    0.15350    7.68750  294.85220  294.85220  127.64130  107.45330  107.45330    7.68750    7.26230    7.26230    -999.25    0.35020    0.30660 2442.45140    9.17350 -264.51140   -5.00730    9.17350
 1800.00000  359.85170  334.40010  334.40010    -999.25   66.80380  249.23340  249.23340 2230.40500    -999.25    0.25430    0.28050   14.96920  256.49920  256.49920   75.36870   69.12090   69.12090   14.96920   13.37350   13.37350    -999.25    0.37840    0.33510 2217.19140   13.32770 -269.36780  -10.66710   13.32770
 1850.00000  314.45720  320.55940  320.55940    -999.25   18.06150   18.49240   18.49240 2624.59000    -999.25    0.01540    0.04990   55.36630  191.45100  191.45100   40.93360   39.55440   39.55440   55.36630   51.60010   51.60010    -999.25    0.13690    0.09450 2631.04420  106.28990 -267.88110  -14.11230  106.28990
 1900.00000  353.20730  324.45010  324.45010    -999.25   60.49460  249.48940  249.48940 2261.09500    -999.25    0.23570    0.26250   16.53040  244.59060  244.59060   70.95820   72.51210   72.51210   16.53040   18.99740   18.99740    -999.25    0.34160    0.29790 2213.21880   15.57930 -251.13000   -2.29320   15.57930
 1950.00000  303.10070  316.23840  316.23840    -999.25   41.08290   69.25010   69.25010 2602.31500    -999.25    0.02890    0.06300   24.34100  235.56150  235.56150   67.86290   73.19250   73.19250   24.34100   19.32260   19.32260    -999.25    0.28390    0.23990 2592.54860   20.66660 -251.27650   -6.52220   20.66660
 2000.00000  372.35220  324.70910  324.70910    -999.25   23.25680  214.22050  214.22050 2129.92000    -999.25    0.31520    0.33920   42.99810  216.58580  216.58580   48.97510   55.02200   55.02200   42.99810   42.70200   42.70200    -999.25    0.22110    0.17740 2126.32520   42.91630 -249.43250   -8.29130   42.91630
 2050.00000  363.49440  344.98690  344.98690    -999.25   83.69180   69.09660   69.09660 2472.95500    -999.25    0.10730    0.13860   11.94860  266.82610  266.82610   65.32750   71.11100   71.11100   11.94860   11.31170   11.31170    -999.25    0.45940    0.41800 2474.26810   11.73960 -250.47800   -5.35140   11.73960
 2100.00000  356.37470  343.53490  343.53490    -999.25   57.66150   26.69250   26.69250 2580.37000    -999.25    0.04220    0.07580   17.34260  239.35240  239.35240    -999.25   82.54860   82.54860   17.34260   17.81280   17.81280    -999.25    0.25040    0.20650 2576.38380   18.23870 -264.53160  -15.02140   18.23870
 2150.00000    -999.25  341.03040  341.03040    -999.25   84.46370    -999.25    -999.25    -999.25    -999.25    -999.25    -999.25   11.83940  241.96740  241.96740    -999.25  103.25980  103.25980   11.83940   12.10520   12.10520    -999.25    -999.25    -999.25    -999.25   12.44660 -261.99570   -9.88840   12.44660
 2200.00000    -999.25  325.64410  325.64410    -999.25   67.70020    -999.25    -999.25    -999.25    -999.25    -999.25    -999.25   14.77100  256.82120  256.82120    -999.25  106.58940  106.58940   14.77100   15.22960   15.22960    -999.25    -999.25    -999.25    -999.25   16.40120 -262.25170   -7.54730   16.40120
 2250.00000    -999.25  337.51910  337.51910    -999.25   78.06770    -999.25    -999.25    -999.25    -999.25    -999.25    -999.25   12.80940  255.21270  255.21270    -999.25   94.77280   94.77280   12.80940   13.18620   13.18620    -999.25    -999.25    -999.25    -999.25   12.12440 -262.40650   -6.16450   12.12440
 2300.00000    -999.25  322.92240  322.92240    -999.25  114.51870    -999.25    -999.25    -999.25    -999.25    -999.25    -999.25    8.73220  260.77180  260.77180    -999.25   97.64950   97.64950    8.73220    8.98960    8.98960    -999.25    -999.25    -999.25    -999.25    9.13020 -260.38310   -3.22580    9.13020
 2350.00000    -999.25  337.82940  337.82940    -999.25  148.76520    -999.25    -999.25    -999.25    -999.25    -999.25    -999.25    6.72200  266.15740  266.15740    -999.25   75.22770   75.22770    6.72200    7.02350    7.02350    -999.25    -999.25    -999.25    -999.25    7.26010 -261.54200   -3.06050    7.26010
 2400.00000  320.24450  318.52040  318.52040    -999.25  115.93260   -1.39420   -1.39420 2590.60000    -999.25    0.03600    0.06980    8.62570  252.02470  252.02470  108.38510  102.34330  102.34330    8.62570    8.74780    8.74780    -999.25    0.25850    0.21460 2587.94040    9.08080 -261.65580   -2.65170    9.08080
 2450.00000  346.85320  322.77590  322.77590    -999.25  118.53540  118.16500  118.16500 2647.36000    -999.25    0.00160    0.03660    8.43630  262.72050  262.72050  109.03550  101.49500  101.49500    8.43630    8.74270    8.74270    -999.25    0.28280    0.23880 2651.55080    8.96400 -263.91770   -4.39100    8.96400
 2500.00000  312.83360  318.10200  318.10200    -999.25   68.89090  222.66020  222.66020 2544.56500    -999.25    0.06390    0.09670   14.51570  239.69300  239.69300   87.11490   82.86360   82.86360   14.51570   14.94260   14.94260    -999.25    0.23980    0.19600 2531.18310   15.47500 -260.90140   -0.85210   15.47500
 2550.00000  328.05610  315.65010  315.65010    -999.25  127.65520  187.73570  187.73570 2423.12500    -999.25    0.13750    0.16780    7.83360  263.29390  263.29390  114.99790  110.26440  110.26440    7.83360    8.12320    8.12320    -999.25    0.34740    0.30370 2423.65970    8.50880 -268.20250   -7.22290    8.50880
 2600.00000    -999.25  315.89860  315.89860    -999.25  108.66970    -999.25    -999.25    -999.25    -999.25    -999.25    -999.25    9.20220  274.90640  274.90640    -999.25  122.90110  122.90110    9.20220    9.68540    9.68540    -999.25    -999.25    -999.25    -999.25   10.74970 -262.38260   -0.57560   10.74970
 2650.00000    -999.25  325.97510  325.97510    -999.25  120.85910    -999.25    -999.25    -999.25    -999.25    -999.25    -999.25    8.27410  274.68430  274.68430    -999.25  117.08220  117.08220    8.27410    8.70980    8.70980    -999.25    -999.25    -999.25    -999.25    9.92920 -262.09780   -1.59900    9.92920
 2700.00000    -999.25  321.93880  321.93880    -999.25   98.39610    -999.25    -999.25    -999.25    -999.25    -999.25    -999.25   10.16300  277.00600  277.00600    -999.25  113.97180  113.97180   10.16300   10.76470   10.76470    -999.25    -999.25    -999.25    -999.25   12.65750 -260.75860   -1.56800   12.65750
 2750.00000    -999.25  319.89020  319.89020    -999.25  112.99180    -999.25    -999.25    -999.25    -999.25    -999.25    -999.25    8.85020  278.93160  278.93160    -999.25  109.82070  109.82070    8.85020    9.23990    9.23990    -999.25    -999.25    -999.25    -999.25   10.95360 -259.14170   -1.25930   10.95360
 2800.00000  317.62340  320.11420  320.11420    -999.25  143.02060   80.50610   80.50610 2620.30000    -999.25    0.01800    0.05250    6.99200  271.49080  271.49080  110.22600  106.14510  106.14510    6.99200    7.22210    7.22210    -999.25    0.31130    0.26740 2615.93510    8.08180 -265.36820   -8.12430    8.08180
 2850.00000  320.06130  325.30040  325.30040    -999.25  126.11450   21.95910   21.95910 2614.69000    -999.25    0.02140    0.05570    7.92930  261.57510  261.57510  120.23710  113.10310  113.10310    7.92930    8.23680    8.23680    -999.25    0.30580    0.26180 2612.28000    9.30600 -261.02640   -4.40030    9.30600
 2900.00000  311.62780  316.40230  316.40230    -999.25   64.71990   20.41650   20.41650 2560.57000    -999.25    0.05420    0.08740   15.45120  225.57640  225.57640   63.16010   55.29440   55.29440   15.45120   16.53260   16.53260    -999.25    0.14110    0.09870 2556.61720   17.34370 -260.39660   -4.28300   17.34370
