~Version ---------------------------------------------------
VERS.      2.0 : CWLS log ASCII Standard -VERSION 2.0
WRAP.       NO : One line per depth step
CREA. 08/31/13 : LAS Creation Date
~Well ------------------------------------------------------
STRT.M                         400.0 : START DEPTH
STOP.M                        2850.0 : STOP DEPTH
STEP.M                      50.00000 : STEP LENGTH
NULL.                        -999.25 : NULL VALUE
COMP.    GULF CANADA RESOURCES LTDS. : COMPANY
WELL. GULF UNIT GOOSE RIVER 1-18-67- : WELL
FLD .                                : FIELD
LOC .                                : LOCATION
CTRY.                         CANADA : COUNTRY
SRVC.                        Unknown : SERVICE COMPANY
DATE.                    21-Feb-1995 : LOGDATE
PROV.                        Alberta : PROVINCE
UWI .               100011806718W500 : UNIQUE WELL ID
SLAT.WGS84                  54.79379 : SURFACE LATITUDE
SLON.WGS84                  -116.722 : SURFACE LONGITUDE
~Curve Information -----------------------------------------
DEPT    .M      : DEPTH METER
CALWS   .MM     : CALIPER [CALXDED]
CALXDED .MM     : CALIPER X FROM DENSITY LOG [ADJ. TO RESISTIVITY LOG]
CALXSED .MM     : CALIPER X FROM SONIC LOG
CALYDED .MM     : CALIPER Y FROM DENSITY LOG [ADJ. TO RESISTIVITY LOG]
CONDWS  .MMHO   : CONDUCTIVITY [1000/DRESWS]
DCORWS  .KG/M3  : DENSITY CORRECTION [DRHOED]
DENWS   .KG/M3  : BULK DENSITY [RHOBED]
DPOLSWS .V/V    : DENSITY POROSITY LIMESTONE [CALC. FROM DENWS, M=2710,F=1000]
DPORLSED.V/V    : DENSITY POROSITY LIMESTONE [M=2710, F=1000] FROM DENSITY LOG [ADJ. TO RESISTIVITY LOG]
DRESWS  .OHMM   : DEEP RESISTIVITY [STIDED]
DRHOED  .KG/M3  : DENSITY CORRECTION FROM DENSITY LOG [ADJ. TO RESISTIVITY LOG]
DTED    .US/M   : DELTA-T FROM SONIC LOG
DTWS    .US/M   : COMPRESSIONAL SONIC [DTED]
GRDED   .GAPI   : GAMMA RAY FROM DENSITY LOG [ADJ. TO RESISTIVITY LOG]
GRRED   .GAPI   : GAMMA RAY FROM RESISTIVITY LOG
GRWS    .GAPI   : GAMMA RAY [GRRED SPL. TO GRDED FROM 385M-393M]
MRESWS  .OHMM   : MEDIUM RESISTIVITY [STIMED]
NPOLSWS .V/V    : NEUTRON POROSITY LIMESTONE [NPORLSED]
NPORLSED.V/V    : NEUTRON POROSITY LIMESTONE FROM DENSITY LOG [ADJ. TO RESISTIVITY LOG]
PEED    .B/E    : PHOTO ELECTRIC FACTOR FROM DENSITY LOG [ADJ. TO RESISTIVITY LOG]
PEFWS   .B/E    : PHOTOELECTRIC FACTOR [PEED]
RHOBED  .KG/M3  : BULK DENSITY FROM DENSITY LOG [ADJ. TO RESISTIVITY LOG]
SFLED   .OHMM   : SPHERICALLY FOCUSED RESISTIVITY FROM RESISTIVITY LOG
SPRED   .MV     : SPONTANEOUS POTENTIAL FROM RESISTIVITY LOG
SPWS    .MV     : SPONTANEOUS POTENTIAL [BASELINE 0MV,SPRED]
SRESWS  .OHMM   : SHALLOW RESISTIVITY [SFLED]
STIDED  .OHMM   : SIMULTANEOUS TRIPLE INDUCTION DEEP RESISTIVITY FROM RESISTIVITY LOG
STIMED  .OHMM   : SIMULTANEOUS TRIPLE INDUCTION MEDIUM RESISTIVITY FROM RESISTIVITY LOG
TENDED  .N      : TENSION FROM DENSITY LOG [ADJ. TO RESISTIVITY LOG]
TENRED  .N      : TENSION FROM RESISTIVITY LOG
~Params ----------------------------------------------------
PD  .                         GL : PERMANENT DATUM
EPD .M                     753.1 : ELEVATION PERMANENT DATUM
LMF .                         KB : LOG MEASURED FROM
DAPD.M                      4.85 : FEET ABOVE PERMANENT DATUM
DMF .                         KB : DRILLING MEASURED FROM
EKB .M                    757.95 : KELLY BUSHING
EGL .M                     753.1 : GROUND LEVEL
DATE.                   02/21/95 : RUN DATE
RUN .                          1 : RUN NUMBER
DD  .M                      2882 : DEPTH DRILLER
DL  .M                    2882.9 : DEPTH LOGGER
BLI .M                    2880.8 : BOTTOM LOG INTERVAL
TLI .M                     407.3 : TOP LOG INTERVAL
CS  .MM                    219.1 : CASING SIZE
CBD .M                       407 : CASING BOTTOM DRILLER
CBL .M                     407.3 : CASING BOTTOM LOGGER
BS  .MM                      200 : BIT SIZE
BSD .M                      2882 : BIT SIZE AT DEPTH
DFT .               GEL CHEMICAL : DRILLING FLUID TYPE
DFD .                       1125 : DRILLING FLUID DENSITY
DFV .                         92 : DRILLING FLUID VISCOSITY
DFPH.                        9.5 : DRILLING FLUID PH
DFL .                        8.5 : DRILLING FLUID LOSS
MSS .                   FLOWLINE : MUD SAMPLE SOURCE
RMS .OHMM                    4.4 : RESISTIVITY MUD SAMPLE
MST .DEGC                     14 : MUD SAMPLE TEMPERATURE
RMF .OHMM                   1.96 : RESISTIVITY MUD FILTRATE SAMPLE
MFST.DEGC                     17 : MUD FILTRATE SAMPLE TEMPERATURE
RMC .OHMM                   1.96 : RESISTIVITY MUD CAKE
MCST.DEGC                     17 : MUD CAKE SAMPLE TEMPERATURE
RMB .OHMM                    1.4 : RESISTIVITY MUD AT BHT
TCS .HRS                       5 : TIME CIRCULATED STOPPED
LUN .                        344 : LOGGING UNIT NUMBER
LUL .                   EDMONTON : LOGGING UNIT LOCATION
ENGI.                    RUSSILL : RECORDING ENGINEER
WITN.                      BOUMA : WITNESSED BY
CLNT.                    A2DTECH : CLIENT CODE
ORIG. 6.5"/100M 16.5"/100M PRINT : ORIGIN OF DATA
UWI .           100011806718W500 : UNIQUE WELL ID
DICO.     A2D Technologies, Inc. : DIGITIZING COMPANY
~Other -----------------------------------------------------
SLT-CNT-GR-STI-BHC LOG RUN
~ASCII -----------------------------------------------------
# ...
 1600.00000  269.36620  269.36620  261.45930  267.69640  168.58290    -999.25    -999.25    -999.25    -999.25    5.93180    -999.25  206.64590  206.64590   58.28960   55.31760   55.31760    6.69790    -999.25    -999.25    -999.25    -999.25    -999.25    8.58220 -118.40800  -42.46000    8.58220    5.93180    6.69790 11641.71040 11271.24070
 1650.00000  248.66570  248.66570  249.73100  250.28110   62.05980    -999.25    -999.25    -999.25    -999.25   16.11350    -999.25  172.28610  172.28610   30.93660   27.45040   27.45040   25.73890    -999.25    -999.25    -999.25    -999.25    -999.25   82.43540 -170.95990  -96.91930   82.43540   16.11350   25.73890 11930.83100 11316.55070
 1700.00000  250.16770  250.16770  252.56740  259.18850   69.38130    -999.25    -999.25    -999.25    -999.25   14.41310    -999.25  198.45460  198.45460   37.59060   37.17070   37.17070   29.75530    -999.25    -999.25    -999.25    -999.25    -999.25   63.36950 -179.85420 -107.72100   63.36950   14.41310   29.75530 12311.17570 11716.70830
 1750.00000  257.54380  257.54380  259.45600  259.92570  102.57250    -999.25    -999.25    -999.25    -999.25    9.74920    -999.25  180.50590  180.50590   17.25690   18.58560   18.58560   11.26830    -999.25    -999.25    -999.25    -999.25    -999.25   21.03330 -135.49070  -65.26490   21.03330    9.74920   11.26830 12436.04620 11882.47610
 1800.00000  239.61050  239.61050  263.59190  266.07030   20.63220    -999.25    -999.25    -999.25    -999.25   48.46790    -999.25  171.76500  171.76500   12.55070   15.84850   15.84850   83.80440    -999.25    -999.25    -999.25    -999.25    -999.25  205.22450 -174.38460 -106.06620  205.22450   48.46790   83.80440 12699.98100 11969.58790
 1850.00000  245.38920  245.38920  245.62540  247.96880   55.32230    -999.25    -999.25    -999.25    -999.25   18.07590    -999.25  180.83580  180.83580   44.98190   31.60660   31.60660   32.39070    -999.25    -999.25    -999.25    -999.25    -999.25   38.79940 -135.17800  -68.76700   38.79940   18.07590   32.39070 12977.61810 12251.74660
 1900.00000  246.51300  246.51300  238.10160  255.43410   13.99140    -999.25    -999.25    -999.25    -999.25   71.47240    -999.25  177.46730  177.46730   25.11660   27.22590   27.22590  169.11440    -999.25    -999.25    -999.25    -999.25    -999.25  206.45870  -89.01650  -24.51290  206.45870   71.47240  169.11440 13131.92470 12444.24120
 1950.00000  232.14690  232.14690  226.82230  235.38750   11.88180    -999.25    -999.25    -999.25    -999.25   84.16200    -999.25  173.91660  173.91660   29.35440   34.25910   34.25910  103.23580    -999.25    -999.25    -999.25    -999.25    -999.25  116.80260  -66.82260  -15.21060  116.80260   84.16200  103.23580 13476.92250 12567.43690
 2000.00000  241.27580  241.27580  229.39460  234.27380   16.36560    -999.25    -999.25    -999.25    -999.25   61.10390    -999.25  178.48520  178.48520   37.52760   36.62750   36.62750   68.66910    -999.25    -999.25    -999.25    -999.25    -999.25   80.71200  -63.52740  -30.98560   80.71200   61.10390   68.66910 13528.47960 12899.31470
 2050.00000  265.36220  265.36220  256.70370  256.75200   75.24620    -999.25    -999.25    -999.25    -999.25   13.28970    -999.25  199.59220  199.59220   85.25960   75.92450   75.92450   12.79540    -999.25    -999.25    -999.25    -999.25    -999.25   15.61170  -54.32570  -34.97110   15.61170   13.28970   12.79540 13942.17850 13096.34870
 2100.00000  243.68290  243.68290  275.51110  265.29730    0.63200    -999.25    -999.25    -999.25    -999.25 1582.19150    -999.25  161.73780  161.73780   13.22880   16.79030   16.79030 1127.46060    -999.25    -999.25    -999.25    -999.25    -999.25  611.20310  -41.47360  -21.70900  611.20310 1582.19150 1127.46060 14075.14070 13428.76960
 2150.00000  210.00590  210.00590  264.01760  260.84810   29.52810    -999.25    -999.25    -999.25    -999.25   33.86610    -999.25  172.73610  172.73610   13.07550   12.90590   12.90590   54.45630    -999.25    -999.25    -999.25    -999.25    -999.25  219.10170 -129.45280 -109.27830  219.10170   33.86610   54.45630 14568.46000 13541.30430
 2200.00000  212.54080  212.54080  258.89990  260.40240    2.25990    -999.25    -999.25    -999.25    -999.25  442.49960    -999.25  162.40380  162.40380   10.09690   14.90160   14.90160  524.47000    -999.25    -999.25    -999.25    -999.25    -999.25  286.06550  -90.34020  -69.75570  286.06550  442.49960  524.47000 14960.86570 13652.54140
 2250.00000  216.41680  216.41680  264.47360  252.10210   21.06580    -999.25    -999.25    -999.25    -999.25   47.47030    -999.25  170.91370  170.91370   14.62540   11.71860   11.71860   52.95380    -999.25    -999.25    -999.25    -999.25    -999.25  123.14940  -96.21270  -73.82240  123.14940   47.47030   52.95380 14335.54760 13967.96300
 2300.00000  215.80980  215.80980  246.52300  247.21510   18.46890   11.56700 2789.72290   -0.04660   -0.05430   54.14520   11.56700  157.44260  157.44260   20.05870   20.69520   20.69520  135.28750    0.03080    0.03080    4.09430    4.09430 2789.72290  626.36990  -92.90160  -65.00680  626.36990   54.14520  135.28750 14242.01310 14110.92440
 2350.00000  225.69880  225.69880  227.05910  221.56450   17.05220   -8.38120 2800.05620   -0.05270   -0.04420   58.64350   -8.38120  164.67230  164.67230   27.40180   28.50990   28.50990   69.71970    0.05350    0.05350    3.76960    3.76960 2800.05620   79.69690  -99.33230  -65.93310   79.69690   58.64350   69.71970 14490.68020 14336.53780
 2400.00000  249.53120  249.53120  231.91130  233.68630   70.80200    5.98410 2721.85990   -0.00690   -0.00720   14.12390    5.98410  199.24950  199.24950   61.43460   57.37480   57.37480   14.92280    0.16300    0.16300    3.85740    3.85740 2721.85990   16.49750  -47.86970   -5.00950   16.49750   14.12390   14.92280 14825.76210 14651.24190
 2450.00000  319.29770  319.29770  386.79560  426.61960  184.11800  189.72650 2545.99580    0.09590    0.10380    5.43130  189.72650  249.18290  249.18290   75.54510   77.75630   77.75630    5.00150    0.42710    0.42710    2.61500    2.61500 2545.99580    5.74790  -91.04110  -35.78340    5.74790    5.43130    5.00150 15077.95310 14791.31770
 2500.00000  338.09010  338.09010  435.73440  425.78450  196.42510  107.38490 2461.29030    0.14540    0.14470    5.09100  107.38490  254.34710  254.34710   65.11870   74.16800   74.16800    4.69910    0.46240    0.46240    2.56420    2.56420 2461.29030    5.71280  -72.10590   -4.45080    5.71280    5.09100    4.69910 14934.33520 14810.08120
 2550.00000  249.35760  249.35760  240.02340  239.32060   79.12830   90.03070 2703.27490    0.00390    0.00740   12.63770   90.03070  214.74460  214.74460   73.48200   74.11300   74.11300   13.11010    0.18020    0.18020    4.14260    4.14260 2703.27490   15.59340  -71.67410   -7.94920   15.59340   12.63770   13.11010 15445.84770 15071.17670
 2600.00000  273.47090  273.47090  266.58650  247.42780  106.47930  103.38740 2681.98680    0.01640    0.01700    9.39150  103.38740  222.28020  222.28020   76.62280   76.42740   76.42740   10.15790    0.17490    0.17490    3.55670    3.55670 2681.98680   12.59830  -52.32420  -12.39440   12.59830    9.39150   10.15790 15720.19000 15413.45180
 2650.00000  246.08220  246.08220  288.17430  250.11680  157.11660  167.52140 2498.35520    0.12380    0.05130    6.36470  167.52140  244.63790  244.63790  102.08300  104.59630  104.59630    7.36570    0.26050    0.26050    2.68840    2.68840 2498.35520    8.53480  -57.70280  -34.70310    8.53480    6.36470    7.36570 15899.59700 15611.66810
 2700.00000  241.44090  241.44090  215.52520  219.56570   19.74680   -6.20360 2596.02390    0.06670    0.07230   50.64110   -6.20360  238.61100  238.61100  114.41360  110.70090  110.70090   62.37520    0.15950    0.15950    3.29540    3.29540 2596.02390   88.84720  -11.05450   -4.98490   88.84720   50.64110   62.37520 15896.82130 15752.31820
 2750.00000  217.96020  217.96020  215.70300  221.66060   14.31510   -6.24200 2703.68750    0.00370    0.00060   69.85640   -6.24200  169.46650  169.46650   24.30950   24.02030   24.02030  108.76010    0.03480    0.03480    5.34500    5.34500 2703.68750  130.60170  -10.42840  -11.81550  130.60170   69.85640  108.76010 16266.24390 15860.45670
