~Version ---------------------------------------------------
VERS. 2.0 : CWLS log ASCII Standard -VERSION 2.0
WRAP.  NO : ONE LINE PER DEPTH STEP
~Well ------------------------------------------------------
STRT.F                                300.0 : START DEPTH
STOP.F                              11400.0 : STOP DEPTH
STEP.F                             50.00000 : STEP LENGTH
NULL.                               -999.25 : NULL VALUE
COMP.                  CHEVRON STANDARD LTD : COMPANY
WELL. CHEVRON CLARK 14-34-58-18 10-34-58-18 : WELL
FLD .                          KAYBOB SOUTH : FIELD
LOC .                                       : LOCATION
CTRY.                                CANADA : COUNTRY
SRVC.                          Schlumberger : SERVICE COMPANY
DATE.                           26-Oct-1968 : LOGDATE
PROV.                               Alberta : PROVINCE
UWI .                      100103405818W500 : UNIQUE WELL ID
SLAT.WGS84                         54.05952 : SURFACE LATITUDE
SLON.WGS84                        -116.5853 : SURFACE LONGITUDE
~Curve Information -----------------------------------------
DEPT  .F                 : 
GR    .GAPI 01 310 01 00 : GAMMA RAY
GR_1  .GAPI 00 000 00 01 : GAMMA RAY
CALN  .IN   42 280 60 00 : CALIPER
ILD   .OHMM 07 120 46 00 : INDUCTION LOG DEEP
ILM   .OHMM 07 120 44 00 : INDUCTION LOG MEDIUM
LL8   .OHMM 07 220 08 00 : LATEROLOG-8 RES.
SPR   .MV   07 010 01 00 : SPONTANEOUS POTENTIAL
CALS  .IN   60 280 50 00 : CALIPER FROM SONIC LOG
DT    .US/F 60 520 00 00 : INTERVAL TRANSIT TIME
GRS   .GAPI 60 310 01 00 : GAMMA RAY FROM SONIC LOG
SNP_DM.                  : 
~Params ----------------------------------------------------
PD  .                     GL : PERMANENT DATUM
EPD .FT               3407.1 : ELEVATION PERMANENT DATUM
LMF .                     KB : LOG MEASURED FROM
DAPD.FT                 13.9 : FEET ABOVE PERMANENT DATUM
DMF .                     KB : DRILLING MEASURED FROM
EKB .FT                 3421 : KELLY BUSHING
EDF .FT                 3407 : DRILLING FLOOR
EGL .FT               3407.1 : GROUND LEVEL
DATE.               10/26/68 : RUN DATE
RUN .                      1 : RUN NUMBER
DD  .FT                11418 : DEPTH DRILLER
DL  .FT                11421 : DEPTH LOGGER
BLI .FT                11420 : BOTTOM LOG INTERVAL
TLI .FT                10900 : TOP LOG INTERVAL
CBD .FT                 2021 : CASING BOTTOM DRILLER
CBL .FT                 2021 : CASING BOTTOM LOGGER
BS  .IN                 8.75 : BIT SIZE
BSD .FT                11418 : BIT SIZE AT DEPTH
DFT .                    GEL : DRILLING FLUID TYPE
DFD .                    9.4 : DRILLING FLUID DENSITY
DFV .                    148 : DRILLING FLUID VISCOSITY
DFPH.                   11.5 : DRILLING FLUID PH
DFL .                    6.4 : DRILLING FLUID LOSS
RMS .OHMM                1.0 : RESISTIVITY MUD SAMPLE
MST .DEGF                 62 : MUD SAMPLE TEMPERATURE
RMF .OHMM               0.84 : RESISTIVITY MUD FILTRATE SAMPLE
MFST.DEGF                 70 : MUD FILTRATE SAMPLE TEMPERATURE
RMC .OHMM               1.22 : RESISTIVITY MUD CAKE
MCST.DEGF                 70 : MUD CAKE SAMPLE TEMPERATURE
TCS .HRS                 300 : TIME CIRCULATED STOPPED
LUN .                   7501 : LOGGING UNIT NUMBER
LUL .                    EDM : LOGGING UNIT LOCATION
ENGI.               STUEHMER : RECORDING ENGINEER
WITN.                HOVDEBO : WITNESSED BY
CLNT.                A2DTECH : CLIENT CODE
ORIG.        2" 5" 10" PRINT : ORIGIN OF DATA
UWI .       100103405818W500 : UNIQUE WELL ID
DICO. A2D Technologies, Inc. : DIGITIZING COMPANY
~Other -----------------------------------------------------
~ASCII -----------------------------------------------------
# ...
 3350.00000   57.64560  112.96870    -999.25    3.84320    3.46690    2.82180  -52.89550   11.09620   99.46430   67.89330    -999.25
 3400.00000   64.39440  110.42120    -999.25    5.07500    4.40420    4.21110  -57.91100   11.25800   85.39050   45.71010    -999.25
 3450.00000   51.99970   96.28680    -999.25    9.31250    7.90360    6.74710  -61.59710   10.49280   85.30820   41.59140    -999.25
 3500.00000   61.13210  104.45910    -999.25    6.33830    4.52540    4.97110  -58.47070   11.28150   91.15490   55.97450    -999.25
 3550.00000   25.38330   50.64060    -999.25   18.64860   14.40080   11.26970  -68.91430    9.67020   88.45640   35.41100    -999.25
 3600.00000   43.94810   90.91110    -999.25    5.94000    5.43330    4.68920 -126.80250   10.62900   84.17770   51.44670    -999.25
 3650.00000   53.34220   89.25630    -999.25    6.88240    5.53770    5.51880 -122.68640   10.57120   82.97630   52.84670    -999.25
 3700.00000   39.02790   69.58140    -999.25   12.70580   11.22020    9.64170 -131.59380    9.60400   85.63510   37.48310    -999.25
 3750.00000   37.37030   65.16090    -999.25   32.78470   27.65080   28.56900 -126.99800    9.02230   82.71960   33.73080    -999.25
 3800.00000   41.59180   64.18880    -999.25    4.46170    4.06890    3.33620 -114.00010   11.32490   94.64740   61.28730    -999.25
 3850.00000   50.03730   78.41700    -999.25    4.62190    4.27530    3.75180 -117.07120   11.60560   96.43340   51.10120    -999.25
 3900.00000   43.83600   69.31650    -999.25    5.30380    5.01350    4.91990 -114.13770   11.78380   92.92730   61.12220    -999.25
 3950.00000   45.16920   75.56680    -999.25    5.38080    5.18900    4.77400 -110.38920   11.63250   95.61180   50.01860    -999.25
 4000.00000   37.26320   72.23860    -999.25    5.93070    4.56780    4.00080 -110.21230    9.97850   80.61010   41.68620    -999.25
 4050.00000   27.86560   52.80180    -999.25    7.07250    6.72320    5.72620 -116.74690   10.19990   87.35000   51.71290    -999.25
 4100.00000   46.65550   76.54640    -999.25    4.40890    3.84410    3.26970 -109.55350   11.15540   90.24780   49.28440    -999.25
 4150.00000   23.34210   49.48300    -999.25   29.27010   22.31690   21.22930 -126.29180    9.50840   82.23590   36.36370    -999.25
 4200.00000   43.97220   75.51350    -999.25    5.30230    4.92170    4.89510 -113.53040   12.54680   98.29080   53.36660    -999.25
 4250.00000   39.14570   73.80140    -999.25   10.41510    9.38060    6.52250 -119.54160   10.39590   78.97100   38.82840    -999.25
 4300.00000   39.19200   87.23250    -999.25    5.31620    4.98230    4.46420 -112.71620   11.91320   95.38890   60.76870    -999.25
 4350.00000   33.97670   63.01960    -999.25    8.92090    8.30210    8.14910 -117.81600   10.38420   78.13990   45.11520    -999.25
 4400.00000   37.68610   56.63430    -999.25    6.13960    5.24170    4.47650 -114.20320   11.97940   66.83210   56.72160    -999.25
 4450.00000   36.73140   71.33660    -999.25    7.41020    6.96300    5.55260 -117.19010   11.72030   89.92300   54.10520    -999.25
 4500.00000   47.19850   82.28740    -999.25    4.88830    4.63610    3.49450 -113.45460   11.01670   92.43180   58.04700    -999.25
 4550.00000   54.96120   93.94860    -999.25   11.71080   10.23530    9.72560 -114.95160   10.74340   86.91690   65.99200    -999.25
 4600.00000   56.95630  112.66930    -999.25    7.39760    6.67040    5.93930 -114.52230   11.78070   89.22150   73.01420    -999.25
 4650.00000   54.07770   93.21050    -999.25    7.64980    6.49900    6.18080 -112.98510   12.12390   86.59950   74.82910    -999.25
 4700.00000   64.43290  102.90030    -999.25    8.89200    7.61320    7.25680 -113.61600   11.18580   90.49500   72.27310    -999.25
 4750.00000   62.22990  108.39320    -999.25    7.52780    6.96270    6.56240 -114.53830   11.34210   90.60920   75.40100    -999.25
 4800.00000   82.21420  161.00790    -999.25   11.68330    9.87450   11.09140 -116.34760   10.12210   85.50660   96.18180    -999.25
 4850.00000   72.31200  132.36600    -999.25    9.64680    9.06510    8.80460 -115.16690   11.57740   87.86760   76.41060    -999.25
 4900.00000   60.84560  113.08260    -999.25    8.30270    7.35870    6.92920 -114.45380    9.92300   85.42410   85.79480    -999.25
 4950.00000   63.56900  120.51140    -999.25    6.62530    5.81890    5.13300 -114.37140   10.17520   85.45770   85.80120    -999.25
 5000.00000   53.65450  116.76740    -999.25    7.86900    6.73820    6.19120 -114.35710    9.65760   86.17460   87.72680    -999.25
 5050.00000   61.01620  105.83270    -999.25    7.84620    7.11080    6.15730 -114.12660    9.74090   85.98930   77.37610    -999.25
 5100.00000   53.31130  101.41960    -999.25   10.13680    9.15510    7.46260 -115.13950   10.85460   80.77380   73.94450    -999.25
 5150.00000   75.86830  121.23840    -999.25    8.64140    7.71470    6.75060 -113.98690   11.14400   80.11120   81.01850    -999.25
 5200.00000   71.72240  118.08220    -999.25    6.86320    6.10380    5.76450 -112.27460   11.63160   89.03870   80.37020    -999.25
 5250.00000   65.28550  112.26080    -999.25    7.49520    6.51530    6.23570 -116.95670   12.30520   86.88580   82.69590    -999.25
 5300.00000   59.62910  101.87610    -999.25    7.31480    6.64360    6.29490 -110.57600   11.87380   86.82550   71.79550    -999.25
 5350.00000   24.89350   40.64640    -999.25   14.03470   14.62350   19.75720 -133.78310    9.67380   77.87950   54.55580    -999.25
 5400.00000   61.41300  110.78320    -999.25   12.64910   11.56170   10.82310 -113.87180   10.95290   80.36250   78.85820    -999.25
 5450.00000   64.09740  137.16240    -999.25   10.19710    9.31630    8.99110 -122.43750   11.28650   84.54510   77.55310    -999.25
 5500.00000   64.98710  107.96690    -999.25    9.24000    8.26390    7.79270 -115.83400   11.66570   84.06760   78.51740    -999.25
 5550.00000   66.19960  110.30660    -999.25   10.02270    9.00520    8.01160 -110.95210   11.24750   82.80390   78.40140    -999.25
 5600.00000   64.18170  120.37490    -999.25    7.77040    7.06170    6.38930 -112.62980   11.58130   82.77370   85.88200    -999.25
 5650.00000   66.79950  115.57560    -999.25    9.21740    8.41240    7.93740 -109.97390   12.14510   84.39070   78.34720    -999.25
 5700.00000   64.60720  117.89830    -999.25    7.90390    7.66410    7.31410 -107.98950   11.68920   90.64020   87.53010    -999.25
 5750.00000   79.26750  134.46800    -999.25   10.92420   10.57330   10.10270 -109.89490   10.39670   88.28070   91.60160    -999.25
 5800.00000   58.07580  105.92470    -999.25    9.70450    9.24970    8.85530 -109.10680   10.56750   88.50470   90.03000    -999.25
 5850.00000   74.17190  159.01650    -999.25   16.89730   15.47500   17.78010 -110.21600   10.06720   88.78280   91.64840    -999.25
 5900.00000   58.50830   84.74850    -999.25   12.62510   11.86290   13.45760 -109.20310    9.97820   92.25700  100.00660    -999.25
 5950.00000   75.61830  126.17720    -999.25   19.89360   18.15100   24.00170 -109.57280    9.34990   97.15170  106.18470    -999.25
 6000.00000   65.20960  115.57270    -999.25   19.33920   17.49480   18.04310 -106.69990    9.39200   78.79970   68.44000    -999.25
 6050.00000   66.45680  106.62890    -999.25    8.45670    7.57320    7.12970 -105.40650   11.31400   80.48040   73.77430    -999.25
 6100.00000   48.03390   79.39910    -999.25    8.30030    7.50620    6.92950 -105.79290   11.60630   81.56630   69.33630    -999.25
 6150.00000   53.41830   93.29670    -999.25    8.17960    7.84350    6.69090 -106.99380   10.78790   77.42370   77.16140    -999.25
 6200.00000   69.72830  124.70420    -999.25    8.19870    7.86780    7.09520 -108.37850   11.03220   79.89550   80.08970    -999.25
 6250.00000   51.33500  110.51800    -999.25   15.88170   14.71970   16.67000 -117.41440   10.24570   73.07010   68.51790    -999.25
 6300.00000   60.15310  110.77860    -999.25    8.63680    8.17420    7.67460 -103.61150   12.12010   79.50280   84.89280    -999.25
 6350.00000   59.75410  103.39130    -999.25    5.33780    5.03470    4.80700  -99.81240   14.95690   88.47640   86.18640    -999.25
