~Version ---------------------------------------------------
VERS. 2.0 : CWLS log ASCII Standard -VERSION 2.0
WRAP.  NO : ONE LINE PER DEPTH STEP
~Well ------------------------------------------------------
STRT.M                       350.0 : START DEPTH
STOP.M                      3600.0 : STOP DEPTH
STEP.M                    50.00000 : STEP LENGTH
NULL.                      -999.25 : NULL VALUE
COMP. HUDSONS BAY OIL & GAS CO LTD : COMPANY
WELL.   HB ET AL KAYBOBS 7-5-58-18 : WELL
FLD .                           WC : FIELD
LOC .                              : LOCATION
CTRY.                       CANADA : COUNTRY
SRVC.                 Schlumberger : SERVICE COMPANY
DATE.                  15-May-1980 : LOGDATE
PROV.                      Alberta : PROVINCE
UWI .             100070505818W500 : UNIQUE WELL ID
SLAT.WGS84                 53.9828 : SURFACE LATITUDE
SLON.WGS84               -116.6361 : SURFACE LONGITUDE
~Curve Information -----------------------------------------
DEPT    .M                                                        : DEPTH METERS
CALDED  .MM                                                       : CALIPER FROM CNFD LOG, DEPTH ADJUSTED WITH [SPRED]
CALSED  .MM                                                       : CALIPER FROM SONIC LOG, DEPTH ADJUSTED WITH [SPRED]
CALWS   .MM                                                       : CALIPER [CALDED], SPLICED WITH [CALSED] FROM 344-1550
CILDED  .MMHO                                                     : CONDUCTIVITY FROM RESISTIVITY LOG
CONDWS  .MMHO                                                     : CONDUCTIVITY [1000/DRESWS]
DCORED  .KG/M3                                                    : DENSITY CORRECTION FROM CNFD LOG, DEPTH ADJUSTED WITH [SPRED]
DCORWS  .KG/M3                                                    : DENISTY CORRECTION [DCORED]
DENWS   .KG/M3                                                    : BULK DENSITY [RHOBED]
DPHILSED.V/V                                                      : DENSITY POROSITY [M=2710 F=1000] FROM CNFC LOG, DEPTH ADJUSTED WITH [SPRED]
DPHISSED.V/V                                                      : DENSITY POROSITY [M=2650 F=1000] FROM CNFD LOG, DEPTH ADJUSTED WITH [SPRED]
DPOLSWS .V/V l DENSITY POROSITY LIMESTONE [CLACULATED FROM DENWS] : DENSITY POROSITY LIMESTONE [CLACULATED FROM DENWS]
DRESWS  .OHMM                                                     : DEEP RESISTIVITY [ILDED] IF DRESWS<1;1000/CONDWS<1550>[ILDED]
DTED    .US/M                                                     : DELTA TIME FROM SONIC LOG, DEPTH ADJUSTED WITH [SPRED]
DTWS    .US/M                                                     : DELTA TIME [DTED]
GRDED   .GAPI                                                     : GAMMA RAY FROM CNFD LOG, DEPTH ADJUSTED WITH [SPRED]
GRSED   .GAPI                                                     : GAMMA RAY FROM SONIC LOG, DEPTH ADJUSTED WITH [SPRED]
GRWS    .GAPI                                                     : GAMMA RAY [GRDED]
ILDED   .OHMM                                                     : INDUCTION LOG DEEP RESISTIVITY
ILMED   .OHMM                                                     : INDUCTION LOG MEDIUM RESISTIVITY
MRESWS  .OHMM                                                     : MEDIUM RESISTIVITY [ILMED]
NPHILSED.V/V                                                      : NEUTRON POROSITY LIMESTONE FROM CNFD LOG, DEPTH ADJUSTED WITH [SPRED]
NPHISSED.V/V                                                      : NEUTRON POROSITY SANDSTONE FROM CNFD LOG, DEPTH ADJUSTED WITH [SPRED]
NPOLSWS .V/V                                                      : NEUTRON POROSITY LIMESTONE [NPHILSED], SPLICED WITH CONVERTED FROM NPHISSED (1550-2456)]
RHOBED  .KG/M3                                                    : BULK DENSITY FROM CNFD LOG, DEPTH ADJUSTED WITH [SPRED]
SFLED   .OHMM                                                     : SPHERICALLY FOCUSED LOG RESISTIVITY
SPRED   .MV                                                       : SPONTANEOUS POTENTIAL FROM RESISTIVITY LOG
SPWS    .MV                                                       : SPONTANEOUS POTENTIAL [BASELINE 0 MV] [SPRED]
SRESWS  .OHMM                                                     : SHALLOW RESISTIVITY [SFLED]
~Params ----------------------------------------------------
PD  .                         GL : PERMANENT DATUM
EPD .M                      1036 : ELEVATION PERMANENT DATUM
LMF .                         KB : LOG MEASURED FROM
DAPD.M                         5 : FEET ABOVE PERMANENT DATUM
DMF .                         KB : DRILLING MEASURED FROM
EKB .M                      1041 : KELLY BUSHING
EGL .M                      1036 : GROUND LEVEL
DATE.                   05/15/80 : RUN DATE
RUN .                          1 : RUN NUMBER
DD  .M                      3627 : DEPTH DRILLER
DL  .M                    3626.9 : DEPTH LOGGER
BLI .M                      3626 : BOTTOM LOG INTERVAL
TLI .M                       377 : TOP LOG INTERVAL
CS  .MM                      244 : CASING SIZE
CBD .M                       378 : CASING BOTTOM DRILLER
CBL .M                       377 : CASING BOTTOM LOGGER
BS  .MM                      222 : BIT SIZE
BSD .M                      3627 : BIT SIZE AT DEPTH
DFT .                   GEL CHEM : DRILLING FLUID TYPE
DFD .                       1120 : DRILLING FLUID DENSITY
DFV .                        112 : DRILLING FLUID VISCOSITY
DFPH.                       10.5 : DRILLING FLUID PH
DFL .                         11 : DRILLING FLUID LOSS
MSS .                   MUD TANK : MUD SAMPLE SOURCE
RMS .OHMM                   2.35 : RESISTIVITY MUD SAMPLE
MST .DEGC                   23.3 : MUD SAMPLE TEMPERATURE
RMF .OHMM                   1.87 : RESISTIVITY MUD FILTRATE SAMPLE
MFST.DEGC                   21.7 : MUD FILTRATE SAMPLE TEMPERATURE
MFSS.                   MT PRESS : MUD FILTRATE SAMPLE SOURCE
RMB .OHMM                   0.86 : RESISTIVITY MUD AT BHT
TCS .HRS                    2300 : TIME CIRCULATED STOPPED
TLAB.HRS                     730 : TIME LOGGER AT BOTTOM
LUN .                       8156 : LOGGING UNIT NUMBER
LUL .                      EDSON : LOGGING UNIT LOCATION
ENGI.            DOWNEY MISSIUNA : RECORDING ENGINEER
WITN.                      GOUGH : WITNESSED BY
CLNT.                    A2DTECH : CLIENT CODE
ORIG. 6.5"/100M 16.5"/100M PRINT : ORIGIN OF DATA
UWI .           100070505818W500 : UNIQUE WELL ID
DICO.     A2D Technologies, Inc. : DIGITIZING COMPANY
~Other -----------------------------------------------------
~ASCII -----------------------------------------------------
# ...
 1600.00000  259.25330  251.87370  259.25330    -999.25  126.49580  118.44770  118.44770 2531.53640    -999.25    0.07250    0.10440    7.90540  271.30910  271.30910  103.54780  108.34530  108.34530    7.90540    8.12070    8.12070    -999.25    0.27570    0.23170 2531.53640    8.31890  -23.52290   -5.09030    8.31890
 1650.00000  288.25130  253.56850  288.25130    -999.25  143.38770  179.73830  179.73830 2343.93240    -999.25    0.18620    0.21410    6.97410  264.98070  264.98070  103.98700  110.54610  110.54610    6.97410    7.21270    7.21270    -999.25    0.27680    0.23280 2343.93240    7.43580  -16.85270   -0.51020    7.43580
 1700.00000  285.21810  247.49400  285.21810    -999.25  110.24510  204.95950  204.95950 2157.78200    -999.25    0.30130    0.32290    9.07070  253.08550  253.08550   99.70130  105.77960  105.77960    9.07070    9.28140    9.28140    -999.25    0.24480    0.20090 2157.78200    9.53770  -21.65450   -6.09810    9.53770
 1750.00000  264.55380  262.12990  264.55380    -999.25   96.76330   96.91600   96.91600 2050.34810    -999.25    0.35660    0.38580   10.33450  256.19050  256.19050  109.31970  119.44200  119.44200   10.33450   10.59490   10.59490    -999.25    0.25010    0.20620 2050.34810   11.57910  -21.33330   -6.22060   11.57910
 1800.00000  280.28410  249.28290  280.28410    -999.25  114.99540  143.92260  143.92260 2204.22580    -999.25    0.26650    0.29580    8.69600  255.96770  255.96770  104.90710  117.43410  117.43410    8.69600    8.91810    8.91810    -999.25    0.26280    0.21880 2204.22580    9.64210  -19.72430   -5.05530    9.64210
 1850.00000  292.15730  239.32290  292.15730    -999.25   85.95350  244.09870  244.09870 2389.29470    -999.25    0.15310    0.18750   11.63420  280.94580  280.94580  124.05730  125.78490  125.78490   11.63420   12.12390   12.12390    -999.25    0.26630    0.22230 2389.29470   14.27720  -17.89040   -3.66510   14.27720
 1900.00000  280.80490  238.88630  280.80490    -999.25   77.12420  246.42970  246.42970 2386.14700    -999.25    0.15350    0.18940   12.96610  289.40070  289.40070  132.53420  134.08270  134.08270   12.96610   13.38500   13.38500    -999.25    0.28390    0.23990 2386.14700   16.67890  -17.21580   -3.43420   16.67890
 1950.00000  345.00290  260.02650  345.00290    -999.25  125.50670   44.47400   44.47400 2535.96290    -999.25    0.06380    0.10180    7.96770  253.85300  253.85300   94.36940   96.82670   96.82670    7.96770    8.16470    8.16470    -999.25    0.18980    0.14650 2535.96290    8.31100  -18.93110   -5.74370    8.31100
 2000.00000  295.78190  249.09860  295.78190    -999.25  106.24730  239.02790  239.02790 2392.81670    -999.25    0.14990    0.18550    9.41200  251.12130  251.12130   96.36110   95.47850   95.47850    9.41200   10.03170   10.03170    -999.25    0.21240    0.16880 2392.81670   10.94700  -16.67740   -4.18610   10.94700
 2050.00000  367.57290  244.44370  367.57290    -999.25  168.88470   27.96190   27.96190 1540.66970    -999.25    0.67300    0.68380    5.92120  297.75230  297.75230  119.16090  132.31220  132.31220    5.92120    5.78970    5.78970    -999.25    0.30710    0.26310 1540.66970    6.67820  -15.05430   -3.25910    6.67820
 2100.00000  258.18500  229.70570  258.18500    -999.25   59.82540   96.77200   96.77200 2180.48270    -999.25    0.28370    0.30970   16.71530  225.14710  225.14710   53.93000   62.09850   62.09850   16.71530   17.84260   17.84260    -999.25    0.17430    0.13130 2180.48270   19.20140  -25.45930  -14.36020   19.20140
 2150.00000  275.84840  250.43360  275.84840    -999.25   45.06010   12.03910   12.03910 2610.66750    -999.25    0.02290    0.05810   22.19260  220.64730  220.64730   61.94580   62.29910   62.29910   22.19260   24.04750   24.04750    -999.25    0.17000    0.12700 2610.66750   24.69970  -20.92600  -10.52300   24.69970
 2200.00000  271.38950  254.95110  271.38950    -999.25   63.36930  249.13530  249.13530 2587.24460    -999.25    0.04110    0.07180   15.78050  229.06660  229.06660   76.81520   90.46430   90.46430   15.78050   16.49050   16.49050    -999.25    0.21210    0.16850 2587.24460   21.31680  -23.41960  -12.85940   21.31680
 2250.00000  257.26380  257.28020  257.26380    -999.25   67.05330   17.56020   17.56020 2633.91670    -999.25    0.01080    0.04450   14.91350  230.46370  230.46370   85.79170   87.57010   87.57010   14.91350   15.66550   15.66550    -999.25    0.20830    0.16480 2633.91670   18.61700  -14.72950   -3.50680   18.61700
 2300.00000  258.94680  251.75780  258.94680    -999.25   35.02550   29.70140   29.70140 2672.09910    -999.25   -0.01550    0.02220   28.55060  196.85330  196.85330   33.40000   38.35070   38.35070   28.55060   37.13270   37.13270    -999.25    0.06270    0.02600 2672.09910  101.86880  -29.15750  -17.27220  101.86880
 2350.00000  240.50440  242.87080  240.50440    -999.25   29.26420   -8.17620   -8.17620 2659.69900    -999.25   -0.00410    0.02940   34.17140  194.23880  194.23880   52.51380   53.21530   53.21530   34.17140   42.60630   42.60630    -999.25    0.09820    0.05700 2659.69900   79.15240  -21.17530   -8.62740   79.15240
 2400.00000  308.94020  231.72750  308.94020    -999.25   26.03600  190.57720  190.57720 2111.32640    -999.25    0.32080    0.35010   38.40830  219.62050  219.62050   47.70780   52.30040   52.30040   38.40830   36.69750   36.69750    -999.25    0.11650    0.07440 2111.32640   54.71770  -40.78480  -27.57440   54.71770
 2450.00000  228.34560  219.97060  228.34560    -999.25    2.46420   42.60640   42.60640 2652.39990    -999.25   -0.00310    0.03370  405.80450  183.47320  183.47320   32.34370   26.55830   26.55830  405.80450  279.14760  279.14760    -999.25    0.02740   -0.00070 2652.39990  551.93270  -30.60230  -16.72930  551.93270
 2500.00000  253.85930  239.48520  253.85930    -999.25   46.47100    2.39070    2.39070 2691.32810    0.00940    -999.25    0.01090   21.51880  199.92140  199.92140   86.55490   91.40890   91.40890   21.51880   26.46790   26.46790    0.03480    -999.25    0.03480 2691.32810   51.72260  -19.11200   -4.57640   51.72260
 2550.00000  278.57030  233.57800  278.57030    -999.25   52.41450  248.20420  248.20420 2772.11450   -0.03810    -999.25   -0.03630   19.07870  180.70120  180.70120   50.97090   59.26010   59.26010   19.07870   21.52970   21.52970    0.06060    -999.25    0.06060 2772.11450   36.07840  -56.63530  -41.43720   36.07840
 2600.00000  258.61580  253.01710  258.61580    -999.25    3.82350   -3.43990   -3.43990 2895.90480   -0.10090    -999.25   -0.10870  261.53850  168.70790  168.70790   19.06220   20.94490   20.94490  261.53850  173.09560  173.09560   -0.00180    -999.25   -0.00180 2895.90480  366.62620  -85.45870  -69.59800  366.62620
 2650.00000  237.42250  234.95740  237.42250    -999.25   77.92410   12.34980   12.34980 2656.43530    0.03120    -999.25    0.03130   12.83300  196.31280  196.31280   67.12230   69.88650   69.88650   12.83300   16.97570   16.97570    0.11880    -999.25    0.11880 2656.43530   52.36130  -22.89620  -37.49480   52.36130
 2700.00000  271.93720  259.88090  271.93720    -999.25   52.67590   65.85440   65.85440 2671.18920    0.02070    -999.25    0.02270   18.98400  180.73860  180.73860   29.21110   31.41680   31.41680   18.98400   15.31300   15.31300    0.01700    -999.25    0.01700 2671.18920   27.95550   21.82210   -7.91210   27.95550
 2750.00000  237.74410  230.95570  237.74410    -999.25    9.58430    4.82400    4.82400 2685.65160    0.01310    -999.25    0.01420  104.33760  173.95750  173.95750   21.54640   25.30010   25.30010  104.33760   93.16690   93.16690    0.01450    -999.25    0.01450 2685.65160  110.42160    7.37290  -22.76440  110.42160
 2800.00000  279.05970  235.16900  279.05970    -999.25    4.07990  201.48050  201.48050 2635.28030    0.04100    -999.25    0.04370  245.10310  166.22050  166.22050   18.07240   21.86640   21.86640  245.10310  151.32770  151.32770    0.00640    -999.25    0.00640 2635.28030 1693.82480   -8.67720  -39.21760 1693.82480
