~Version ---------------------------------------------------
VERS.      2.0 : CWLS log ASCII Standard -VERSION 2.0
WRAP.       NO : One line per depth step
CREA. 11/15/17 : LAS Creation Date
~Well ------------------------------------------------------
STRT.FT                                 750.0 : START DEPTH
STOP.FT                                8300.0 : STOP DEPTH
STEP.FT                              50.00000 : STEP LENGTH
NULL.                                 -999.25 : NULL VALUE
COMP.                  EXXONMOBIL CANADA LTD. : COMPANY
WELL. MOBIL OIL EQUITY SOUTH 14-1-31-23 #14-1 : WELL
FLD .                                         : FIELD
LOC .                                         : LOCATION
CTRY.                                  CANADA : COUNTRY
SRVC.                            Schlumberger : SERVICE COMPANY
DATE.                             02-Oct-1957 : LOGDATE
PROV.                                 Alberta : PROVINCE
UWI .                        100140103123W400 : UNIQUE WELL ID
SLAT.WGS84                           51.63251 : SURFACE LATITUDE
SLON.WGS84                          -113.1369 : SURFACE LONGITUDE
~Curve Information -----------------------------------------
DEPT  .FT         : Depth Curve
CALMED.IN         : CALIPER FROM MICROLATEROLOG
CALWS .IN         : CALIPER [MCALED SPL. TO CALMED @ 5476']
CONDWS.MMHO       : CONDUCTIVITY [1000/DRESWS]
DRESWS.OHMM       : DEEP RESISTIVITY [LNED]
GRNED .UgRa-Eq/T  : GAMMA RAY FROM GRN LOG
GRWS  .GAPI       : GAMMA RAY [GRNED*16.5]
LL7ED .OHMM       : LATEROLOG 7 FROM LATEROLOG
LNED  .OHMM       : 64 INCH LONG NORMAL RESISTIVITY FROM ELECRICAL LOG
LT18ED.OHMM       : 18 FOOT 8 INCH LATERAL FROM ELECRICAL LOG
MCALED.mm         : MLT (MICROLOG) CALIPER FROM MICROLOG
MLLED .OHMM       : MICRO FOCUSED LATEROLOG RESISTIVITY FROM MICROLATEROLOG
MRESWS.OHMM       : MEDIUM RESISTIVITY [LL7ED]
NEUTED.CPS        : NEUTRON FROM GRN LOG
NEUTWS.CPS        : NEUTRON [NEUTED]
SNED  .OHMM       : 16 INCH SHORT NORMAL RESISTIVITY FROM ELECRICAL LOG
SPR1ED.MV         : SPONTANEOUS POTENTIAL FROM LATEROLOG
SPRED .MV         : SPONTANEOUS POTENTIAL FROM ELECRICAL LOG
SPWS  .MV         : SPONTANEOUS POTENTIAL [SPRED SPL. TO SPR1ED @ 5828', BASELINE 0 MV, SPRED]
SRESWS.OHMM       : SHALLOW RESISTIVITY [SNED]
~Params ----------------------------------------------------
LMF .                     KB : LOG MEASURED FROM
DMF .                     KB : DRILLING MEASURED FROM
EKB .FT                 3027 : KELLY BUSHING
EGL .FT               2016.8 : GROUND LEVEL
DATE.               10/02/57 : RUN DATE
RUN .                      1 : RUN NUMBER
DD  .FT                 8343 : DEPTH DRILLER
DL  .FT                 8345 : DEPTH LOGGER
BLI .FT                 8341 : BOTTOM LOG INTERVAL
TLI .FT                 5300 : TOP LOG INTERVAL
CBD .FT                  748 : CASING BOTTOM DRILLER
CBL .FT                  748 : CASING BOTTOM LOGGER
BS  .IN                    9 : BIT SIZE
BSD .FT                 8343 : BIT SIZE AT DEPTH
DFT .               OIL EMUL : DRILLING FLUID TYPE
DFD .                    9.9 : DRILLING FLUID DENSITY
DFV .                     78 : DRILLING FLUID VISCOSITY
DFPH.                      8 : DRILLING FLUID PH
DFL .                    4.9 : DRILLING FLUID LOSS
TCS .HRS                 2.5 : TIME CIRCULATED STOPPED
LUN .                   2741 : LOGGING UNIT NUMBER
LUL .                   STET : LOGGING UNIT LOCATION
ENGI.               FORESTER : RECORDING ENGINEER
WITN.                 MCCINN : WITNESSED BY
CLNT.                A2DTECH : CLIENT CODE
ORIG.            2" 5" PRINT : ORIGIN OF DATA
UWI .       100140103123W400 : UNIQUE WELL ID
DICO. A2D Technologies, Inc. : DIGITIZING COMPANY
~Other -----------------------------------------------------
~ASCII -----------------------------------------------------
# ...
 4450.00000    -999.25    -999.25  102.52890    9.75350    -999.25    -999.25    -999.25    9.75350    5.94340    -999.25    -999.25    -999.25    -999.25    -999.25   15.30070    -999.25  -38.51850   -8.51920   15.30070
 4500.00000    -999.25    -999.25  305.00820    3.27860    -999.25    -999.25    -999.25    3.27860    2.93270  288.82090    -999.25    -999.25    -999.25    -999.25    4.74890    -999.25  -39.33970   -9.45690    4.74890
 4550.00000    -999.25    -999.25  352.13750    2.83980    -999.25    -999.25    -999.25    2.83980    2.41350  287.42390    -999.25    -999.25    -999.25    -999.25    4.04700    -999.25  -39.26060   -9.61020    4.04700
 4600.00000    -999.25    -999.25   94.51800   10.58000    -999.25    -999.25    -999.25   10.58000   10.71350  235.75010    -999.25    -999.25    -999.25    -999.25   12.51220    -999.25  -53.43660  -24.02010   12.51220
 4650.00000    -999.25    -999.25   59.13870   16.90940    -999.25    -999.25    -999.25   16.90940   12.58180  240.44150    -999.25    -999.25    -999.25    -999.25   18.48360    -999.25  -47.02500  -17.84090   18.48360
 4700.00000    -999.25    -999.25   94.47750   10.58590    -999.25    -999.25    -999.25   10.58590   13.00020  244.73790    -999.25    -999.25    -999.25    -999.25   13.82890    -999.25  -40.20410  -11.25390   13.82890
 4750.00000    -999.25    -999.25  351.48150    2.84510    -999.25    -999.25    -999.25    2.84510    3.14920  352.80350    -999.25    -999.25    -999.25    -999.25    3.75930    -999.25  -41.32860  -12.61080    3.75930
 4800.00000    -999.25    -999.25  772.79750    1.29400    -999.25    -999.25    -999.25    1.29400    1.93610  369.36430    -999.25    -999.25    -999.25    -999.25    1.96310    -999.25  -38.20400   -9.71850    1.96310
 4850.00000    -999.25    -999.25  154.24240    6.48330    -999.25    -999.25    -999.25    6.48330    4.43790  255.44020    -999.25    -999.25    -999.25    -999.25    7.29410    -999.25  -41.60820  -13.35660    7.29410
 4900.00000    -999.25    -999.25   74.70830   13.38540    -999.25    -999.25    -999.25   13.38540    5.37640  279.11550    -999.25    -999.25    -999.25    -999.25   10.73210    -999.25  -53.93380  -25.91460   10.73210
 4950.00000    -999.25    -999.25   67.18900   14.88410    -999.25    -999.25    -999.25   14.88410    8.13420  254.21970    -999.25    -999.25    -999.25    -999.25    8.55500    -999.25  -31.53140   -3.74610    8.55500
 5000.00000    -999.25    -999.25   11.37750   87.89280    -999.25    -999.25    -999.25   87.89280  164.14200  349.16110    -999.25    -999.25    -999.25    -999.25   65.50390    -999.25  -39.78610  -15.17970   65.50390
 5050.00000    -999.25    -999.25   52.71120   18.97130    -999.25    -999.25    -999.25   18.97130   10.41080  267.68810    -999.25    -999.25    -999.25    -999.25   13.34350    -999.25  -25.94110   -8.79060   13.34350
 5100.00000    -999.25    -999.25   70.45630   14.19320    -999.25    -999.25    -999.25   14.19320    9.12400  277.34770    -999.25    -999.25    -999.25    -999.25   12.10490    -999.25  -63.85040  -49.14760   12.10490
 5150.00000    -999.25    -999.25  140.13650    7.13590    -999.25    -999.25    -999.25    7.13590   13.01060  364.36550    -999.25    -999.25    -999.25    -999.25    8.12600    -999.25  -99.77850  -84.99520    8.12600
 5200.00000    -999.25    -999.25  127.10970    7.86780    -999.25    -999.25    -999.25    7.86780    3.71920  279.27810    -999.25    -999.25    -999.25    -999.25    6.94100  -37.79030  -60.66630  -45.80190    6.94100
 5250.00000   15.66340   15.66340  168.98460    5.91770    -999.25    -999.25    6.04090    5.91770    1.60140  390.41830    5.80730    6.04090    -999.25    -999.25    6.77950  -32.30060  -51.32140  -36.37650    6.77950
 5300.00000   10.25400   10.25400   56.13090   17.81550    5.28500   87.20250   19.42040   17.81550    5.85900  257.25630   74.60280   19.42040  287.16110  287.16110   16.05710  -43.44600  -63.65590  -48.63050   16.05710
 5350.00000    9.98430    9.98430    7.28680  137.23410    3.57780   59.03370  132.69740  137.23410  137.00980  248.76250   66.54150  132.69740  425.22300  425.22300   90.60520  -43.37890  -59.04290  -43.93650   90.60520
 5400.00000   10.61660   10.61660    4.24660  235.48400    1.92020   31.68330  146.72440  235.48400   47.98490  258.25450  648.19310  146.72440  357.41700  357.41700  134.77060  -52.90260  -37.29010  -22.10320  134.77060
 5450.00000    9.61980    9.61980    5.69230  175.67870    2.38000   39.26920  195.12970  175.67870  206.58890  237.72240  253.85260  195.12970  353.55240  353.55240  108.40920  -52.62140  -52.36670  -37.09870  108.40920
 5500.00000    9.82860    9.82860   37.66860   26.54730    1.86130   30.71140   33.65190   26.54730   34.28760  241.21620   53.17370   33.65190  321.87750  321.87750   23.64500  -48.48390  -50.53280  -35.18430   23.64500
 5550.00000   10.44850   10.44850   36.26040   27.57830    4.39520   72.52080   27.06960   27.57830   21.02680  250.31190   60.86500   27.06960  291.22550  291.22550   23.93830  -48.16830  -50.72480  -35.29580   23.93830
 5600.00000   10.72960   10.72960   65.67580   15.22630    4.92430   81.25090   20.28030   15.22630   14.21520  250.04010   65.67240   20.28030  252.68170  252.68170   18.05230  -44.98880  -47.13510  -31.62510   18.05230
 5650.00000   10.24770   10.24770   57.50960   17.38840    4.38920   72.42180   23.00400   17.38840   14.23610  240.25610   67.11590   23.00400  273.57180  273.57180   21.62790  -43.14550  -36.66480  -21.07420   21.62790
 5700.00000   10.16070   10.16070   75.33040   13.27490    4.62300   76.27950   18.36420   13.27490   10.43590  239.16260   67.68430   18.36420  281.46020  281.46020   17.12300  -34.63760  -32.07050  -16.39890   17.12300
 5750.00000   10.04150   10.04150   70.09920   14.26550    5.26570   86.88410   19.53890   14.26550   10.30530  237.38840   73.54060   19.53890  288.11140  288.11140   17.71500  -29.65960  -26.04730  -10.29520   17.71500
 5800.00000   10.45530   10.45530   86.90290   11.50710    5.97820   98.64030   16.77660   11.50710    8.31700  238.96320   62.37160   16.77660  287.43730  287.43730   14.99780  -34.25140  -26.69820  -18.42950   14.99780
 5850.00000   10.82380   10.82380   90.96780   10.99290    6.11450  100.88920   15.11190   10.99290    8.05810  236.67210   14.42130   15.11190  290.57030  290.57030   13.78310  -64.89960  -20.57740  -49.40750   13.78310
 5900.00000    9.57400    9.57400    -999.25    -999.25    4.39050   72.44330   35.03120    -999.25    -999.25    -999.25   42.53880   35.03120  345.85540  345.85540   37.47740  -90.42190  -21.79750  -75.25750   37.47740
 5950.00000    9.13880    9.13880    -999.25    -999.25    0.93110   15.36320  464.03920    -999.25    -999.25    -999.25  333.06010  464.03920  439.33520  439.33520    -999.25 -126.84960    -999.25 -112.01500    -999.25
 6000.00000    9.15800    9.15800    -999.25    -999.25    2.06410   34.05760   89.74310    -999.25    -999.25    -999.25  399.17510   89.74310  374.97600  374.97600    -999.25  -85.80330    -999.25  -71.29630    -999.25
 6050.00000    8.99710    8.99710    -999.25    -999.25    1.20530   19.88750  181.11330    -999.25    -999.25    -999.25  206.03780  181.11330  410.43740  410.43740    -999.25  -92.85330    -999.25  -78.67400    -999.25
 6100.00000    9.03690    9.03690    -999.25    -999.25    0.77640   12.81060  388.65370    -999.25    -999.25    -999.25  414.48170  388.65370  408.62060  408.62060    -999.25 -110.19180    -999.25  -96.34230    -999.25
 6150.00000    9.11430    9.11430    -999.25    -999.25    0.68200   11.25300  247.51820    -999.25    -999.25    -999.25  197.32250  247.51820  418.86300  418.86300    -999.25  -51.87210    -999.25  -38.35030    -999.25
 6200.00000    9.14780    9.14780    -999.25    -999.25    0.95460   15.75010  188.64690    -999.25    -999.25    -999.25  111.16350  188.64690  415.84080  415.84080    -999.25  -37.78470    -999.25  -24.59270    -999.25
 6250.00000    9.20830    9.20830    -999.25    -999.25    1.19680   19.74720  322.55220    -999.25    -999.25    -999.25  362.87090  322.55220  399.69700  399.69700    -999.25  -42.48630    -999.25  -29.62190    -999.25
