~Version ---------------------------------------------------
VERS.      2.0 : CWLS log ASCII Standard -VERSION 2.0
WRAP.       NO : One line per depth step
CREA. 08/30/13 : LAS Creation Date
~Well ------------------------------------------------------
STRT.M                            350.0 : START DEPTH
STOP.M                           3500.0 : STOP DEPTH
STEP.M                         50.00000 : STEP LENGTH
NULL.                           -999.25 : NULL VALUE
COMP. HUDSONS BAY OIL & GAS COMPANY LTD : COMPANY
WELL.    HB DEB ET AL CARROT CREEK 8-18 : WELL
FLD .                                   : FIELD
LOC .                                   : LOCATION
CTRY.                            CANADA : COUNTRY
SRVC.                      Schlumberger : SERVICE COMPANY
DATE.                       04-Apr-1981 : LOGDATE
PROV.                           Alberta : PROVINCE
UWI .                  100081805214W500 : UNIQUE WELL ID
SLAT.WGS84                     53.48753 : SURFACE LATITUDE
SLON.WGS84                    -116.0458 : SURFACE LONGITUDE
~Curve Information -----------------------------------------
DEPT    .M      : DEPTH METER
CALDED  .MM     : CALIPER FROM DENSITY LOG [ADJ. TO RESISTIVITY LOG]
CALSED  .MM     : CALIPER FROM SONIC LOG
CALWS   .MM     : CALIPER [CALDED]
CILDED  .MMHO   : CONDUCTIVITY FROM RESISTIVITY LOG
CONDWS  .MMHO   : CONDUCTIVITY [1000/DRESWS]
DCORED  .KG/M3  : DENSITY CORRECTION FROM DENSITY LOG [ADJ. TO RESISTIVITY LOG]
DCORWS  .KG/M3  : DENSITY CORRECTION [DCORED]
DENWS   .KG/M3  : FORMATION BULK DENSITY [CALC. FROM DPOLSWS,M=2710,F=1000]
DPHILSED.V/V    : DENSITY POROSITY LIMESTONE [M=2710,F=1000] FROM DENSITY LOG [ADJ. TO RESISTIVITY LOG]
DPHISSED.V/V    : DENSITY POROSITY SANDSTONE [M=2650,F=1000] FROM DENSITY LOG [ADJ. TO RESISTIVITY LOG]
DPOLSWS .V/V    : DENSITY POROSITY LIMESTONE [DPHISSED CONVERTED TO LIMESTONE MATRIX,M=2710,F=1000,SPL. TO DPHILSED @ 2436M]
DRESWS  .OHMM   : DEEP RESISTIVITY [ILDED]
DTED    .US/M   : DELTA-T FROM SONIC LOG
DTWS    .US/M   : COMPRESSIONAL SONIC [DTED]
GRDED   .GAPI   : GAMMA RAY FROM DENSITY LOG [ADJ. TO RESISTIVITY LOG]
GRSED   .GAPI   : GAMMA RAY FROM SONIC LOG
GRWS    .GAPI   : GAMMA RAY [GRSED SPL. TO GRDED @ 3512M]
ILDED   .OHMM   : DEEP INDUCTION FROM RESISTIVITY LOG
ILMED   .OHMM   : MEDIUM INDUCTION FROM RESISTIVITY LOG
MRESWS  .OHMM   : MEDIUM RESISTIVITY [ILMED]
NPHILSED.V/V    : NEUTRON POROSITY LIMESTONE FROM DENSITY LOG [ADJ. TO RESISTIVITY LOG]
NPHISSED.V/V    : NEUTRON POROSITY SANDSTONE FROM DENSITY LOG [ADJ. TO RESISTIVITY LOG]
NPOLSWS .V/V    : NEUTRON POROSITY LIMESTONE [NPHISSED MATRIX CONVERSION FOR LIMESTONE,SPL. TO NPHILSED @ 2736M]
RHOBED  .KG/M3  : BULK DENSITY FROM DENSITY LOG [ADJ. TO RESISTIVITY LOG/DPHILSED]
SFLED   .OHMM   : SPHERICALLY FOCUSED FROM RESISTIVITY LOG
SPRED   .MV     : SPONTANEOUS POTENTIAL FROM RESISTIVITY LOG
SPWS    .MV     : SPONTANEOUS POTENTIAL [BASELINE 0 MV,SPRED]
SRESWS  .OHMM   : SHALLOW RESISTIVITY [SFLED]
~Params ----------------------------------------------------
PD  .                         GL : PERMANENT DATUM
EPD .M                     956.7 : ELEVATION PERMANENT DATUM
LMF .                         KB : LOG MEASURED FROM
DAPD.M                         7 : FEET ABOVE PERMANENT DATUM
DMF .                         KB : DRILLING MEASURED FROM
EKB .M                     963.7 : KELLY BUSHING
EGL .M                     956.7 : GROUND LEVEL
DATE.                   04/04/81 : RUN DATE
RUN .                          1 : RUN NUMBER
DD  .M                      3532 : DEPTH DRILLER
DL  .M                    3532.7 : DEPTH LOGGER
BLI .M                    3531.8 : BOTTOM LOG INTERVAL
TLI .M                     361.7 : TOP LOG INTERVAL
CS  .MM                      244 : CASING SIZE
CBD .M                       362 : CASING BOTTOM DRILLER
CBL .M                     361.7 : CASING BOTTOM LOGGER
BS  .MM                      222 : BIT SIZE
BSD .M                      3532 : BIT SIZE AT DEPTH
DFT .                   GEL CHEM : DRILLING FLUID TYPE
DFD .                       1115 : DRILLING FLUID DENSITY
DFV .                         93 : DRILLING FLUID VISCOSITY
DFPH.                         10 : DRILLING FLUID PH
DFL .                       10.8 : DRILLING FLUID LOSS
MSS .                CIRCULATION : MUD SAMPLE SOURCE
RMS .OHMM                   1.35 : RESISTIVITY MUD SAMPLE
MST .DEGC                  17.22 : MUD SAMPLE TEMPERATURE
RMF .OHMM                   1.09 : RESISTIVITY MUD FILTRATE SAMPLE
MFST.DEGC                  15.55 : MUD FILTRATE SAMPLE TEMPERATURE
MFSS.                      PRESS : MUD FILTRATE SAMPLE SOURCE
MCSS.                       MEAS : MUD CAKE SAMPLE SOURCE
RMB .OHMM                  0.415 : RESISTIVITY MUD AT BHT
TCS .HRS                     445 : TIME CIRCULATED STOPPED
TLAB.HRS                    1330 : TIME LOGGER AT BOTTOM
LUN .                       8218 : LOGGING UNIT NUMBER
LUL .                      EDSON : LOGGING UNIT LOCATION
ENGI.                        PAO : RECORDING ENGINEER
WITN.                       KYBA : WITNESSED BY
CLNT.                    A2DTECH : CLIENT CODE
ORIG. 6.5"/100M 16.5"/100M PRINT : ORIGIN OF DATA
UWI .           100081805214W500 : UNIQUE WELL ID
DICO.     A2D Technologies, Inc. : DIGITIZING COMPANY
~Other -----------------------------------------------------
DIL-SFL-BHC RUN IN COMBO & CNFD LOG RAN.
RHOB & DCOR ARE FROM SMALL SCALE.
NEUTRON MATRIX CONVERSION: SCHLUMBERGER.
~ASCII -----------------------------------------------------
# ...
 2850.00000  319.86560  248.76790  319.86560    -999.25    4.08870  128.26860  128.26860 2549.51650    0.09380    -999.25    0.09380  247.24810  166.07130  166.07130   12.42330   10.69710   10.69710  247.24810  497.27960  497.27960   -0.00430    -999.25   -0.00430 2564.10000  138.57550 -108.67880  -90.72060  138.57550
 2900.00000  234.30280  237.31870  234.30280    -999.25    0.65200   34.57080   34.57080 2899.46800   -0.11080    -999.25   -0.11080 1533.71360  160.72880  160.72880   13.31690   13.63470   13.63470 1533.71360 2000.00000 2000.00000    0.00370    -999.25    0.00370 2890.65070 1793.84990 -116.95790  -99.49540 1793.84990
 2950.00000  229.42740  238.76710  229.42740    -999.25   13.38070   -0.03550   -0.03550 2727.10000   -0.01000    -999.25   -0.01000   74.73430  178.60200  178.60200   66.00490   65.34540   65.34540   74.73430   55.35890   55.35890    0.08840    -999.25    0.08840 2740.12160   82.15290  -87.58120  -70.61440   82.15290
 3000.00000  233.39360  239.14280  233.39360    -999.25    9.34990   -7.28370   -7.28370 2705.21200    0.00280    -999.25    0.00280  106.95260  178.48520  178.48520   39.28560   41.32770   41.32770  106.95260  114.30460  114.30460    0.03560    -999.25    0.03560 2693.91410  148.09120  -33.83390  -17.36280  148.09120
 3050.00000  310.48380  311.12110  310.48380    -999.25  143.34860  136.36200  136.36200 2442.55600    0.15640    -999.25    0.15640    6.97600  254.31050  254.31050   84.51800   84.82250   84.82250    6.97600    6.28670    6.28670    0.30560    -999.25    0.30560 2438.44950    7.73760  -27.56050  -20.34350    7.73760
 3100.00000  291.05430  261.15860  291.05430    -999.25   68.47440  176.71210  176.71210 2555.75800    0.09020    -999.25    0.09020   14.60400  198.99610  198.99610   57.04370   59.54750   59.54750   14.60400   17.19090   17.19090    0.09680    -999.25    0.09680 2541.74850   24.25650  -13.46180  -16.28690   24.25650
 3150.00000  243.52800  245.16140  243.52800    -999.25   74.04610    5.39090    5.39090 2720.08900   -0.00590    -999.25   -0.00590   13.50510  212.32790  212.32790   83.97300   78.56670   78.56670   13.50510   15.08250   15.08250    0.14420    -999.25    0.14420 2716.61280   19.19870  -31.90760  -35.21330   19.19870
 3200.00000  235.16090  251.74860  235.16090    -999.25   74.22910   -2.38090   -2.38090 2716.66900   -0.00390    -999.25   -0.00390   13.47180  228.65940  228.65940   93.27240   99.00150   99.00150   13.47180   13.95180   13.95180    0.19800    -999.25    0.19800 2708.73560   16.60490  -26.91190  -30.69810   16.60490
 3250.00000  238.22990  250.62510  238.22990    -999.25  111.01260   15.66260   15.66260 2683.15300    0.01570    -999.25    0.01570    9.01360  230.91460  230.91460   88.92020   80.58800   80.58800    9.01360    9.27780    9.27780    0.21920    -999.25    0.21920 2678.36080   10.94490  -17.21980  -21.48660   10.94490
 3300.00000  231.35420  232.31390  231.35420    -999.25   10.22430    5.09640    5.09640 2566.27450    0.08410    -999.25    0.08410   98.34470  244.17170  244.17170   66.06390   76.56620   76.56620   98.34470  116.99160  116.99160    0.10880    -999.25    0.10880 2579.28850  208.05250  -41.59120  -45.86660  208.05250
 3350.00000  235.03680  237.53240  235.03680    -999.25   21.65980   -1.34050   -1.34050 2714.61700   -0.00270    -999.25   -0.00270   46.46310  190.99300  190.99300   49.11130   49.04430   49.04430   46.46310   50.55420   50.55420    0.06110    -999.25    0.06110 2716.58800   88.33320  -69.42620  -73.70160   88.33320
 3400.00000  238.09010  235.24000  238.09010    -999.25    9.00400   26.26600   26.26600 2685.54700    0.01430    -999.25    0.01430  111.12020  166.21900  166.21900   19.63880   19.80480   19.80480  111.12020  200.52740  200.52740    0.00880    -999.25    0.00880 2691.83480  425.02840  -66.55760  -70.83300  425.02840
 3450.00000  243.38730  234.90790  243.38730    -999.25    3.60370  243.96280  243.96280 2746.08100   -0.02110    -999.25   -0.02110  277.49150  171.59500  171.59500   29.01160   29.10250   29.10250  277.49150  271.33810  271.33810    0.01000    -999.25    0.01000 2717.38480  296.72710  -79.76370  -84.03910  296.72710
 3500.00000  233.69180  231.53770  233.69180    -999.25   34.19680    4.82870    4.82870 2651.00500    0.03450    -999.25    0.03450   29.24250  177.14200  177.14200   38.48540   40.08330   40.08330   29.24250   42.80030   42.80030    0.00330    -999.25    0.00330 2660.99710   82.55590 -167.12510 -171.40050   82.55590
