~Version ---------------------------------------------------
VERS.      2.0 : CWLS log ASCII Standard -VERSION 2.0
WRAP.       NO : One line per depth step
CREA. 08/02/17 : LAS Creation Date
~Well ------------------------------------------------------
STRT.FT                    300.0 : START DEPTH
STOP.FT                  10400.0 : STOP DEPTH
STEP.FT                 50.00000 : STEP LENGTH
NULL.                    -999.25 : NULL VALUE
COMP.     PHILLIPS PETROLEUM CO. : COMPANY
WELL. PHILLIPS KAYBOB 7-22-64-19 : WELL
FLD .                     KAYBOB : FIELD
LOC .                            : LOCATION
CTRY.                     CANADA : COUNTRY
SRVC.               Schlumberger : SERVICE COMPANY
DATE.                14-Jun-1957 : LOGDATE
PROV.                    Alberta : PROVINCE
UWI .           100072206419W500 : UNIQUE WELL ID
SLAT.WGS84              54.55064 : SURFACE LATITUDE
SLON.WGS84             -116.7821 : SURFACE LONGITUDE
~Curve Information -----------------------------------------
DEPT  .FT    : Depth Curve
CALED .IN    : CALIPER FROM CALIPER LOG
CALWS .IN    : CALIPER [CALED SPL. TO MCALED @ 9798']
CONDWS.MMHO  : CONDUCTIVITY [1000/DRESWS]
DRESWS.OHMM  : DEEP RESISTIVITY [LNED]
GRED  .CPS   : GAMMA RAY FROM RADIOACTIVITY LOG
GRNED .GAPI  : GAMMA RAY FROM GRN LOG
GRWS  .GAPI  : GAMMA RAY [GRED SPL. TO GRNED @ 196.5']
LNED  .OHMM  : LONG NORMAL RESISTIVITY FROM IEL LOG
LT18ED.OHMM  : LATERAL 18' FROM IEL LOG
MCALED.IN    : MLT (MICROLOG) CALIPER FROM MLL-CAL LOG
MLLED .OHMM  : MICRO FOCUSED LATEROLOG RESISTIVITY FROM MLL LOG
NEUTED.NAPI  : NEUTRON FROM GRN LOG
NEUTWS.NAPI  : NEUTRON [NEUTED]
SNED  .OHMM  : SHORT NORMAL RESISTIVITY FROM IEL LOG
SPRED .MV    : SPONTANEOUS POTENTIAL FROM IEL LOG
SPWS  .MV    : SPONTANEOUS POTENTIAL [BASELINE 0 MV, SPRED]
SRESWS.OHMM  : SHALLOW RESISTIVITY [SNED]
~Params ----------------------------------------------------
LMF .                     KB : LOG MEASURED FROM
DMF .                     KB : DRILLING MEASURED FROM
EKB .FT                 2450 : KELLY BUSHING
EGL .FT               2435.4 : GROUND LEVEL
DATE.               06/14/57 : RUN DATE
RUN .                      2 : RUN NUMBER
DD  .FT                10445 : DEPTH DRILLER
DL  .FT                10449 : DEPTH LOGGER
BLI .FT                10448 : BOTTOM LOG INTERVAL
TLI .FT                 9798 : TOP LOG INTERVAL
CBD .FT                 9803 : CASING BOTTOM DRILLER
CBL .FT                 9798 : CASING BOTTOM LOGGER
BS  .IN                    6 : BIT SIZE
BSD .FT                10445 : BIT SIZE AT DEPTH
DFT .                    GEL : DRILLING FLUID TYPE
DFD .                   10.6 : DRILLING FLUID DENSITY
DFV .                     96 : DRILLING FLUID VISCOSITY
DFPH.                    9.5 : DRILLING FLUID PH
DFL .                    4.2 : DRILLING FLUID LOSS
RMS .OHMM                2.3 : RESISTIVITY MUD SAMPLE
MST .DEGF                 62 : MUD SAMPLE TEMPERATURE
RMF .OHMM                2.3 : RESISTIVITY MUD FILTRATE SAMPLE
MFST.DEGF                 62 : MUD FILTRATE SAMPLE TEMPERATURE
RMC .OHMM               0.64 : RESISTIVITY MUD CAKE
MCST.DEGF                219 : MUD CAKE SAMPLE TEMPERATURE
RMB .OHMM               0.66 : RESISTIVITY MUD AT BHT
TCS .HRS                   2 : TIME CIRCULATED STOPPED
LUN .                   1534 : LOGGING UNIT NUMBER
LUL .                    V V : LOGGING UNIT LOCATION
ENGI.               THOMPSON : RECORDING ENGINEER
WITN.                HANKINS : WITNESSED BY
CLNT.                A2DTECH : CLIENT CODE
ORIG.            2" 5" PRINT : ORIGIN OF DATA
UWI .       100072206419W500 : UNIQUE WELL ID
DICO. A2D Technologies, Inc. : DIGITIZING COMPANY
~Other -----------------------------------------------------
~ASCII -----------------------------------------------------
  300.00000   17.71430   17.71430    -999.25    -999.25   13.57690   44.71580   44.71580    -999.25    -999.25    -999.25    -999.25  175.72770  175.72770    -999.25    -999.25    -999.25    -999.25
  350.00000   17.50030   17.50030    -999.25    -999.25   14.20050   44.53350   44.53350    -999.25    -999.25    -999.25    -999.25  194.31830  194.31830    -999.25    -999.25    -999.25    -999.25
  400.00000   17.37690   17.37690    -999.25    -999.25   12.28940   31.48360   31.48360    -999.25    -999.25    -999.25    -999.25  184.18940  184.18940    -999.25    -999.25    -999.25    -999.25
  450.00000   17.73180   17.73180    -999.25    -999.25   12.42660   31.79220   31.79220    -999.25    -999.25    -999.25    -999.25  170.94060  170.94060    -999.25    -999.25    -999.25    -999.25
  500.00000   17.86620   17.86620    -999.25    -999.25   13.19200   49.16500   49.16500    -999.25    -999.25    -999.25    -999.25  161.34050  161.34050    -999.25    -999.25    -999.25    -999.25
  550.00000   17.38280   17.38280    -999.25    -999.25   14.18040   34.09230   34.09230    -999.25    -999.25    -999.25    -999.25  187.09600  187.09600    -999.25    -999.25    -999.25    -999.25
  600.00000   18.15070   18.15070    -999.25    -999.25   12.13280   43.02700   43.02700    -999.25    -999.25    -999.25    -999.25  165.86710  165.86710    -999.25    -999.25    -999.25    -999.25
  650.00000   17.67930   17.67930    -999.25    -999.25   14.19510   39.89040   39.89040    -999.25    -999.25    -999.25    -999.25  173.83790  173.83790    -999.25    -999.25    -999.25    -999.25
  700.00000   18.37600   18.37600    -999.25    -999.25   12.76740   26.12610   26.12610    -999.25    -999.25    -999.25    -999.25  170.13270  170.13270    -999.25    -999.25    -999.25    -999.25
  750.00000   17.26840   17.26840    -999.25    -999.25   11.51820   42.08330   42.08330    -999.25    -999.25    -999.25    -999.25  174.20070  174.20070    -999.25    -999.25    -999.25    -999.25
  800.00000   17.46430   17.46430    -999.25    -999.25   11.53190   25.71030   25.71030    -999.25    -999.25    -999.25    -999.25  198.79670  198.79670    -999.25    -999.25    -999.25    -999.25
  850.00000   17.26550   17.26550    -999.25    -999.25   10.89900   32.18820   32.18820    -999.25    -999.25    -999.25    -999.25  165.54420  165.54420    -999.25    -999.25    -999.25    -999.25
  900.00000   17.48540   17.48540    -999.25    -999.25   12.88760   42.01230   42.01230    -999.25    -999.25    -999.25    -999.25  181.31880  181.31880    -999.25    -999.25    -999.25    -999.25
  950.00000   17.22260   17.22260    -999.25    -999.25   15.58670   32.77730   32.77730    -999.25    -999.25    -999.25    -999.25  178.81930  178.81930    -999.25    -999.25    -999.25    -999.25
 1000.00000   17.54090   17.54090    -999.25    -999.25   18.44870   43.13100   43.13100    -999.25    -999.25    -999.25    -999.25  177.76400  177.76400    -999.25    -999.25    -999.25    -999.25
 1050.00000   17.45340   17.45340    -999.25    -999.25   24.05760   44.29920   44.29920    -999.25    -999.25    -999.25    -999.25  167.86720  167.86720    -999.25    -999.25    -999.25    -999.25
 1100.00000   17.19000   17.19000    -999.25    -999.25   27.42810   50.35800   50.35800    -999.25    -999.25    -999.25    -999.25  186.02320  186.02320    -999.25    -999.25    -999.25    -999.25
 1150.00000   17.22160   17.22160    -999.25    -999.25   19.09600   44.63580   44.63580    -999.25    -999.25    -999.25    -999.25  191.18610  191.18610    -999.25    -999.25    -999.25    -999.25
 1200.00000   17.48090   17.48090    -999.25    -999.25   48.18400   38.34930   38.34930    -999.25    -999.25    -999.25    -999.25  185.47310  185.47310    -999.25    -999.25    -999.25    -999.25
 1250.00000   17.38890   17.38890    -999.25    -999.25   23.58180   45.59450   45.59450    -999.25    -999.25    -999.25    -999.25  204.15260  204.15260    -999.25    -999.25    -999.25    -999.25
 1300.00000   17.45090   17.45090    -999.25    -999.25   24.16190   43.65240   43.65240    -999.25    -999.25    -999.25    -999.25  206.02060  206.02060    -999.25    -999.25    -999.25    -999.25
 1350.00000   17.29530   17.29530    -999.25    -999.25   26.99980   50.82490   50.82490    -999.25    -999.25    -999.25    -999.25  205.31560  205.31560    -999.25    -999.25    -999.25    -999.25
 1400.00000   17.53190   17.53190    -999.25    -999.25   26.24910   44.00060   44.00060    -999.25    -999.25    -999.25    -999.25  194.72450  194.72450    -999.25    -999.25    -999.25    -999.25
 1450.00000   17.74680   17.74680    -999.25    -999.25   26.60160   36.89070   36.89070    -999.25    -999.25    -999.25    -999.25  187.89440  187.89440    -999.25    -999.25    -999.25    -999.25
 1500.00000    -999.25    -999.25    -999.25    -999.25   28.66330   34.66150   34.66150    -999.25    -999.25    -999.25    -999.25  208.75400  208.75400    -999.25    -999.25    -999.25    -999.25
 1550.00000   12.43870   12.43870  152.43540    6.56030   30.04710   49.01980   49.01980    6.56030    7.41130    -999.25    -999.25  208.32050  208.32050    4.75820  -81.97470   -3.46860    4.75820
 1600.00000   12.58490   12.58490  264.69730    3.77790   37.01820   68.08070   68.08070    3.77790    3.71970    -999.25    -999.25  199.06540  199.06540    2.55050  -79.52360   -1.01750    2.55050
 1650.00000   11.31600   11.31600  218.24050    4.58210   38.14560   69.77190   69.77190    4.58210    4.22170    -999.25    -999.25  211.89710  211.89710    3.18900  -79.23960   -0.73350    3.18900
 1700.00000   11.24410   11.24410  217.21190    4.60380   54.86790   65.44400   65.44400    4.60380   10.05530    -999.25    -999.25  201.77500  201.77500    2.88060  -79.60130   -1.28840    2.88060
 1750.00000    9.62750    9.62750   54.62870   18.30540   25.53390   48.27730   48.27730   18.30540    8.30800    -999.25    -999.25  224.78140  224.78140   15.48750  -92.06330  -13.94490   15.48750
 1800.00000   10.71680   10.71680  173.51020    5.76360   42.86520   65.00920   65.00920    5.76360    5.21130    -999.25    -999.25  193.76840  193.76840    3.72020  -80.43540   -2.51140    3.72020
 1850.00000   10.76110   10.76110  161.80710    6.18020   51.03690   64.60580   64.60580    6.18020    7.13100    -999.25    -999.25  202.06660  202.06660    4.17180  -79.85220   -2.12400    4.17180
 1900.00000   10.80980   10.80980  149.33170    6.69650   50.37010   57.43980   57.43980    6.69650    7.94070    -999.25    -999.25  205.98180  205.98180    4.42570  -81.16160   -3.62790    4.42570
 1950.00000   11.38410   11.38410  149.81720    6.67480   38.71260   63.70150   63.70150    6.67480    5.72710    -999.25    -999.25  213.76050  213.76050    6.27820  -78.68500   -1.34700    6.27820
 2000.00000   10.98360   10.98360  177.14790    5.64500   34.68780   48.41260   48.41260    5.64500    3.86520    -999.25    -999.25  192.29080  192.29080    3.48560  -79.17200   -2.02850    3.48560
 2050.00000   11.61450   11.61450  185.78570    5.38260  122.64040   48.22620   48.22620    5.38260    7.07660    -999.25    -999.25  194.24820  194.24820    3.35560  -80.05500   -3.10600    3.35560
 2100.00000   11.56840   11.56840  130.65410    7.65380   32.56820   58.08000   58.08000    7.65380    4.21320    -999.25    -999.25  202.64530  202.64530    4.28420  -80.28220   -3.52890    4.28420
 2150.00000   12.18710   12.18710  162.31920    6.16070   32.74580   59.58810   59.58810    6.16070    4.71290    -999.25    -999.25  214.50220  214.50220    3.74540  -79.74440   -3.18560    3.74540
 2200.00000   11.78050   11.78050  194.90140    5.13080   91.84940   52.46500   52.46500    5.13080    5.83930    -999.25    -999.25  209.50910  209.50910    4.31330  -79.30860   -2.94550    4.31330
 2250.00000   11.39370   11.39370  196.24390    5.09570   42.61460   53.78010   53.78010    5.09570    7.43230    -999.25    -999.25  204.14260  204.14260    4.26310  -79.48550   -3.31690    4.26310
 2300.00000   10.84540   10.84540  173.70680    5.75690   44.72610   62.30570   62.30570    5.75690    6.70740    -999.25    -999.25  210.30710  210.30710    4.77630  -79.84500   -3.87090    4.77630
