~Version ---------------------------------------------------
VERS. 2.0 : CWLS log ASCII Standard -VERSION 2.0
WRAP.  NO : ONE LINE PER DEPTH STEP
~Well ------------------------------------------------------
STRT.M                           450.0 : START DEPTH
STOP.M                          3300.0 : STOP DEPTH
STEP.M                        50.00000 : STEP LENGTH
NULL.                          -999.25 : NULL VALUE
COMP. AMOCO CANADA PETROLEUM CO., LTD. : COMPANY
WELL.       AMOCO HB PEMBINA 9-18-49-9 : WELL
FLD .                          PEMBLNA : FIELD
LOC .                                  : LOCATION
CTRY.                           CANADA : COUNTRY
SRVC.                     Schlumberger : SERVICE COMPANY
DATE.                      22-Dec-1980 : LOGDATE
PROV.                          Alberta : PROVINCE
UWI .                 100091804909W500 : UNIQUE WELL ID
SLAT.WGS84                    53.23032 : SURFACE LATITUDE
SLON.WGS84                   -115.2987 : SURFACE LONGITUDE
~Curve Information -----------------------------------------
DEPT    .M      : DEPTH METERS
CALDED  .MM     : CALIPER FROM DENSITY LOG
CALSED  .MM     : CALIPER FROM SONIC LOG
CALWS   .MM     : CALIPER [CALDED]
CILDED  .MMHO   : CONDUCTIVITY FROM RESISTIVITY LOG
CONDWS  .MMHO   : CONDUCTIVITY [1000/DRESWS]
DCORED  .KG/M3  : DENITY CORRECTION FROM DENSITY LOG
DCORWS  .KG/M3  : DENITY CORRECTION FROM DENSITY LOG
DENWS   .KG/M3  : BULK DENSITY [RHOBED]
DPHILSED.V/V    : DENSITY POROSITY [M=2710 F=1000] FROM DENSITY LOG
DPHISSED.V/V    : DENSITY POROSITY [M=2650 F=1000] FROM DENSITY LOG
DPOLSWS .V/V    : DENSITY PROSITY LIMESTONE [CALCULATED FROM DENWS]
DRESWS  .OHMM   : DEEP RESISTIVITY [ILDED] IF DRESWS<1;1000/CONDWS
DRHOED  .KG/M3  : DENSITY CORRECTION FROM DENSITY LOG
DTED    .US/M   : DELTA TIME FROM SONIC LOG
DTWS    .US/M   : DELTA TIME [DTED]
GRDED   .GAPI   : GAMMA RAY FROM DENSITY LOG
GRSED   .GAPI   : GAMMA RAY FROM SONIC LOG
GRWS    .GAPI   : GAMMA RAY [GRDED]
ILDED   .OHMM   : INDUCTION LOG DEEP RESISTIVITY
ILMED   .OHMM   : INDUCTION LOG MEDIUM RESISTIVITY
MRESWS  .OHMM   : MEDIUM RESISTIVITY [ILMED]
NPHILSED.V/V    : NEUTRON POROSITY LIMESTONE FROM DENSITY LOG
NPHISSED.V/V    : NEUTRON POROSITY SANDSTONE FROM DENSITY LOG
NPOLSWS .V/V    : NEUTRON POROSITY LIMESTONE [NPHILSED], CHANGE MATRIX FROM SNADSTONE TO LIMESTONE [DEPTH 430.5-2160]
RHOBED  .KG/M3  : BULK DENSITY FROM DENSITY LOG
SFLED   .OHMM   : SPHERICALLY FOCUSED LOG RESISTIVITY
SPRED   .MV     : SPONTANEOUS POTENTIAL FROM RESISTIVITY LOG
SPWS    .MV     : SPONTANEOUS POTENTIAL [BASELINE 0 MV] [SPRED]
SRESWS  .OHMM   : SHALLOW RESISTIVITY [SFLED]
~Params ----------------------------------------------------
PD  .                         GL : PERMANENT DATUM
EPD .M                     919.7 : ELEVATION PERMANENT DATUM
LMF .                         KB : LOG MEASURED FROM
DAPD.M                       8.4 : FEET ABOVE PERMANENT DATUM
DMF .                         KB : DRILLING MEASURED FROM
EKB .M                     928.1 : KELLY BUSHING
EGL .M                     919.7 : GROUND LEVEL
DATE.                   12/22/80 : RUN DATE
RUN .                          2 : RUN NUMBER
DD  .M                      3300 : DEPTH DRILLER
DL  .M                      3301 : DEPTH LOGGER
BLI .M                      3300 : BOTTOM LOG INTERVAL
TLI .M                      2595 : TOP LOG INTERVAL
CS  .MM                    244.5 : CASING SIZE
CBD .M                      2593 : CASING BOTTOM DRILLER
CBL .M                      2595 : CASING BOTTOM LOGGER
BS  .MM                      216 : BIT SIZE
BSD .M                      3300 : BIT SIZE AT DEPTH
DFT .         GEL BENEX 5% CRUDE : DRILLING FLUID TYPE
DFD .                       1100 : DRILLING FLUID DENSITY
DFV .                        114 : DRILLING FLUID VISCOSITY
DFPH.                         10 : DRILLING FLUID PH
DFL .                        7.5 : DRILLING FLUID LOSS
MSS .                   FLOWLINE : MUD SAMPLE SOURCE
RMS .OHMM                   1.46 : RESISTIVITY MUD SAMPLE
MST .DEGC                   16.7 : MUD SAMPLE TEMPERATURE
RMF .OHMM                   0.95 : RESISTIVITY MUD FILTRATE SAMPLE
MFST.DEGC                   14.4 : MUD FILTRATE SAMPLE TEMPERATURE
RMC .OHMM                   1.48 : RESISTIVITY MUD CAKE
MCST.DEGC                   18.9 : MUD CAKE SAMPLE TEMPERATURE
MFSS.                        MUD : MUD FILTRATE SAMPLE SOURCE
MCSS.                  MUD PRESS : MUD CAKE SAMPLE SOURCE
RMB .OHMM                   0.49 : RESISTIVITY MUD AT BHT
TCS .HRS                     630 : TIME CIRCULATED STOPPED
TLAB.HRS                    1600 : TIME LOGGER AT BOTTOM
LUN .                       8112 : LOGGING UNIT NUMBER
LUL .                      EDSON : LOGGING UNIT LOCATION
ENGI.                      LLOYD : RECORDING ENGINEER
WITN.                      MAGEE : WITNESSED BY
CLNT.                    A2DTECH : CLIENT CODE
ORIG. 6.5"/100M 16.5"/100M PRINT : ORIGIN OF DATA
UWI .           100091804909W500 : UNIQUE WELL ID
DICO.     A2D Technologies, Inc. : DIGITIZING COMPANY
~Other -----------------------------------------------------
~ASCII -----------------------------------------------------
# ...
 1700.00000  354.72560  325.41490  354.72560    -999.25   98.35160    7.07150    7.07150 2146.13480    -999.25    0.30510    0.32970   10.16760    -999.25  264.19150  264.19150   70.35960   75.85770   70.35960   10.16760    9.00750    9.00750    -999.25    0.42300    0.38020 2146.13480    9.42990  -36.89190  -10.34610    9.42990
 1750.00000  346.36400  313.65910  346.36400    -999.25   81.96790   36.33070   36.33070 2140.34010    -999.25    0.30430    0.33310   12.19990    -999.25  282.89230  282.89230   78.61110   84.69850   78.61110   12.19990   11.20250   11.20250    -999.25    0.44850    0.40850 2140.34010   12.17610  -39.24840  -13.07400   12.17610
 1800.00000  311.13330  311.05930  311.13330    -999.25   43.53450    8.97310    8.97310 2504.42240    -999.25    0.09050    0.12020   22.97030    -999.25  257.65540  257.65540   85.59550   81.24450   85.59550   22.97030   21.23840   21.23840    -999.25    0.34230    0.29300 2504.42240   31.33560  -39.53800  -13.73500   31.33560
 1850.00000  335.47480  322.09230  335.47480    -999.25   81.66930   43.01750   43.01750 2531.18750    -999.25    0.07160    0.10460   12.24450    -999.25  282.34300  282.34300  107.65120  111.45980  107.65120   12.24450   11.17930   11.17930    -999.25    0.35340    0.30480 2531.18750   13.20330  -35.57180  -10.14020   13.20330
 1900.00000  352.07210  340.09470  352.07210    -999.25  162.55930   65.46930   65.46930 2459.44510    -999.25    0.11260    0.14650    6.15160    -999.25  310.39140  310.39140  115.19680  110.06360  115.19680    6.15160    5.53310    5.53310    -999.25    0.42840    0.38610 2459.44510    6.31590  -30.78810   -5.72790    6.31590
 1950.00000  313.37660  311.21930  313.37660    -999.25   58.62870   15.15110   15.15110 2598.82810    -999.25    0.03080    0.06500   17.05650    -999.25  225.82190  225.82190   71.98350   66.06490   71.98350   17.05650   16.30210   16.30210    -999.25    0.15290    0.10640 2598.82810   16.61190  -41.22390  -16.53510   16.61190
 2000.00000  323.56560  311.30040  323.56560    -999.25   91.84000   54.14000   54.14000 2525.22510    -999.25    0.07490    0.10810   10.88850    -999.25  237.09300  237.09300   44.42380   50.30110   44.42380   10.88850   10.47530   10.47530    -999.25    0.29890    0.24750 2525.22510   10.39010  -48.93930  -24.62200   10.39010
 2050.00000  323.11590  320.35210  323.11590    -999.25   60.99420    3.42100    3.42100 2557.54170    -999.25    0.05350    0.08920   16.39500    -999.25  232.27560  232.27560   58.20660   58.58830   58.20660   16.39500   15.13660   15.13660    -999.25    0.26790    0.21540 2557.54170   15.15480  -63.65930  -39.71340   15.15480
 2100.00000  329.07400  326.97200  329.07400    -999.25   43.41900   12.39190   12.39190 2621.99930    -999.25    0.01390    0.05150   23.03140    -999.25  215.27900  215.27900   54.08490   54.81290   54.08490   23.03140   19.84210   19.84210    -999.25    0.17330    0.12470 2621.99930   21.48880  -43.37360  -19.79910   21.48880
 2150.00000  374.91150  327.06400  374.91150    -999.25  173.50870  147.38350  147.38350 2518.69700    -999.25    0.08720    0.11190    5.76340    -999.25  238.38360  238.38360   85.18610   72.09770   85.18610    5.76340    5.73470    5.73470    -999.25    0.32470    0.27440 2518.69700   14.45080  -32.98920   -9.78610   14.45080
 2200.00000  304.58580  311.06880  304.58580   11.13380   12.06310    7.17470    7.17470 2425.99760    0.13270    0.13690    0.16610   82.89750    -999.25  203.28850  203.28850   15.89680   16.19210   15.89680   82.89750   71.08480   71.08480    0.10800    0.17010    0.10800 2425.99760  188.83470  -87.13080  -57.72580  188.83470
 2250.00000  305.31000  322.45950  305.31000   20.73300   24.03910   20.92490   20.92490 2732.96220   -0.01570    -999.25   -0.01340   41.59890    -999.25  181.60700  181.60700   34.52120   31.44220   34.52120   41.59890   38.87620   38.87620    0.11080    -999.25    0.11080 2732.96220   91.10770  -60.89380  -24.68410   91.10770
 2300.00000  301.33460  326.26320  301.33460   11.73480   11.62800   21.41900   21.41900 2771.91190   -0.03740    -999.25   -0.03620   85.99920    -999.25  192.61480  192.61480   29.67520   24.88310   29.67520   85.99920   36.95250   36.95250    0.06230    -999.25    0.06230 2771.91190   66.18280  -76.66100  -33.64660   66.18280
 2350.00000  309.24180  306.98800  309.24180    0.60840    0.59060   50.45410   50.45410 2688.86470    0.00890    -999.25    0.01240 1693.08470    -999.25  170.09500  170.09500   21.56860   21.68730   21.56860 1693.08470  158.45590  158.45590    0.04390    -999.25    0.04390 2688.86470  434.01960  -75.61990  -25.80080  434.01960
 2400.00000  307.95830  309.35090  307.95830    -999.25    0.64960   48.46180   48.46180 2629.07860    0.04580    -999.25    0.04730 1539.33070    -999.25  176.65160  176.65160   35.29720   34.16580   35.29720 1539.33070  163.84540  163.84540    0.09080    -999.25    0.09080 2629.07860  467.54270  -77.76760  -21.14380  467.54270
 2450.00000  302.14240  321.18410  302.14240   21.96170   23.96080   44.29430   44.29430 2746.49270   -0.02480    -999.25   -0.02130   41.73480    -999.25  184.33150  184.33150   14.02840   14.47800   14.02840   41.73480   20.18590   20.18590    0.08390    -999.25    0.08390 2746.49270   36.34840  -83.54800  -20.11950   36.34840
 2500.00000  286.43150  292.83020  286.43150  328.20350  328.56910   11.30490   11.30490 2477.32180    0.13300    -999.25    0.13610    3.04350    -999.25  173.69710  173.69710   11.12790   12.62940   11.12790    3.04350    4.13940    4.13940    0.27410    -999.25    0.27410 2477.32180   12.59000 -109.26080  -39.02760   12.59000
 2550.00000  284.62110  293.77610  284.62110  338.60370  327.09670   23.15350   23.15350 2481.66990    0.13280    -999.25    0.13350    3.05720    -999.25  183.77290  183.77290   13.43800   12.86050   13.43800    3.05720    4.47290    4.47290    0.25160    -999.25    0.25160 2481.66990   13.55040 -108.30580  -31.26790   13.55040
 2600.00000  367.31520  250.46000  367.31520    9.11530    9.82880    -999.25    -999.25    -999.25    -999.25    -999.25    -999.25  101.74210    -999.25  185.81880  185.81880    9.91600   13.48470    9.91600  101.74210 1912.64060 1912.64060    0.15170    -999.25    0.15170    -999.25   91.65950  -34.89520  -28.02670   91.65950
 2650.00000  265.89070  230.30640  265.89070    3.60740    1.15020    -999.25  249.45090 2571.78030    0.09060    -999.25    0.08080  869.43840  249.45090  158.83110  158.83110   13.24270   12.99420   13.24270  869.43840  107.71270  107.71270    0.05360    -999.25    0.05360 2571.78030  602.51980  -28.67890  -65.81850  602.51980
 2700.00000  293.89360  233.06910  293.89360    -999.25    0.48900    -999.25  145.30530 2577.97510    0.07790    -999.25    0.07720 2045.06600  145.30530  166.01150  166.01150   14.48510   18.09840   14.48510 2045.06600  250.12380  250.12380    0.01260    -999.25    0.01260 2577.97510    -999.25   40.57380  -40.57380    -999.25
 2750.00000  226.19060  219.76640  226.19060   11.61820   13.43760    -999.25   -2.65640 2761.63670   -0.03000    -999.25   -0.03020   74.41800   -2.65640  176.40060  176.40060   36.21450   40.30600   36.21450   74.41800   65.23490   65.23490    0.03670    -999.25    0.03670 2761.63670  128.48320   49.27710  -51.66700  128.48320
 2800.00000  223.77130  217.97330  223.77130  147.25990  151.17840    -999.25   -4.22710 2696.16800    0.00780    -999.25    0.00810    6.61470   -4.22710  229.03740  229.03740   85.10830   87.63530   85.10830    6.61470    6.75320    6.75320    0.19200    -999.25    0.19200 2696.16800    8.56150   63.95450  -39.68100    8.56150
 2850.00000  241.06360  224.07650  241.06360  304.88870  308.14740    -999.25  212.58060 2442.47830    0.14140    -999.25    0.15640    3.24520  212.58060  265.73520  265.73520   98.84790  107.58510   98.84790    3.24520    3.39410    3.39410    0.27250    -999.25    0.27250 2442.47830    4.06800   65.77830  -40.54870    4.06800
 2900.00000  252.18990  225.54450  252.18990  239.04330  246.98070    -999.25  128.05620 2599.05980    0.06810    -999.25    0.06490    4.04890  128.05620  253.98550  253.98550   85.22630   99.02370   85.22630    4.04890    4.25780    4.25780    0.24890    -999.25    0.24890 2599.05980    5.19350   35.35900  -73.65940    5.19350
