~Version ---------------------------------------------------
VERS.      2.0 : CWLS log ASCII Standard -VERSION 2.0
WRAP.       NO : One line per depth step
CREA. 08/22/14 : LAS Creation Date
~Well ------------------------------------------------------
STRT.FT                 1143.82546 : START DEPTH
STOP.FT                11159.82546 : STOP DEPTH
STEP.FT                    0.50000 : STEP LENGTH
NULL.                      -999.25 : NULL VALUE
COMP.            TRIAD OIL CO. LTD : COMPANY
WELL. TRIAD PAN AM ANTE 2-27-66-25 : WELL
FLD .                              : FIELD
LOC .                              : LOCATION
CTRY.                       CANADA : COUNTRY
SRVC.                   Lane Wells : SERVICE COMPANY
DATE.                  15-Aug-1967 : LOGDATE
PROV.                      Alberta : PROVINCE
UWI .             100022706625W500 : UNIQUE WELL ID
SLAT.WGS84                54.73614 : SURFACE LATITUDE
SLON.WGS84                 -117.69 : SURFACE LONGITUDE
~Curve Information -----------------------------------------
DEPT.FT    : DEPTH FEET
CALS.IN    : CALIPER FROM SONIC LOG
DT  .US/F  : DELTA TIME FROM SONIC LOG
GRS .GAPI  : GAMMA RAY FROM SONIC LOG
ILD .OHMM  : INDUCTION LOG DEEP RESISTIVITY
SN  .OHMM  : 16 INCH SHORT NORMAL RESISTIVITY FROM IEL
SPR .MV    : SPONTANEOUS POTENTIAL FROM RESISTIVITY LOG
~Params ----------------------------------------------------
PD  .                     GL : PERMANENT DATUM
EPD .FT               2399.7 : ELEVATION PERMANENT DATUM
LMF .                     KB : LOG MEASURED FROM
DAPD.FT                   15 : FEET ABOVE PERMANENT DATUM
DMF .                     KB : DRILLING MEASURED FROM
EKB .FT               2414.7 : KELLY BUSHING
EGL .FT               2399.7 : GROUND LEVEL
DATE.               08/15/67 : RUN DATE
RUN .                      1 : RUN NUMBER
DD  .FT                11172 : DEPTH DRILLER
DL  .FT                11160 : DEPTH LOGGER
BLI .FT                11156 : BOTTOM LOG INTERVAL
TLI .FT                 1144 : TOP LOG INTERVAL
CS  .IN                9.625 : CASING SIZE
CBD .FT                 1145 : CASING BOTTOM DRILLER
CBL .FT                 1144 : CASING BOTTOM LOGGER
BS  .IN                7.625 : BIT SIZE
BSD .FT                11172 : BIT SIZE AT DEPTH
DFT .                MUD GEL : DRILLING FLUID TYPE
DFD .                    9.9 : DRILLING FLUID DENSITY
DFV .                     89 : DRILLING FLUID VISCOSITY
DFPH.                      9 : DRILLING FLUID PH
DFL .                    7.2 : DRILLING FLUID LOSS
MSS .                   CIRC : MUD SAMPLE SOURCE
RMS .OHMM                3.0 : RESISTIVITY MUD SAMPLE
MST .DEGF                 86 : MUD SAMPLE TEMPERATURE
RMF .OHMM                2.4 : RESISTIVITY MUD FILTRATE SAMPLE
MFST.DEGF                 86 : MUD FILTRATE SAMPLE TEMPERATURE
RMC .OHMM                3.2 : RESISTIVITY MUD CAKE
MCST.DEGF                 86 : MUD CAKE SAMPLE TEMPERATURE
MFSS.                   MEAS : MUD FILTRATE SAMPLE SOURCE
MCSS.                   MEAS : MUD CAKE SAMPLE SOURCE
RMB .OHMM                1.2 : RESISTIVITY MUD AT BHT
TCS .HRS                   6 : TIME CIRCULATED STOPPED
LUN .                   1256 : LOGGING UNIT NUMBER
LUL .                    EDM : LOGGING UNIT LOCATION
ENGI.      KOWALCHUK DOMSTAD : RECORDING ENGINEER
WITN.            DANIELEWICZ : WITNESSED BY
CLNT.                A2DTECH : CLIENT CODE
ORIG.            2" 5" PRINT : ORIGIN OF DATA
UWI .       100022706625W500 : UNIQUE WELL ID
DICO. A2D Technologies, Inc. : DIGITIZING COMPANY
~Other -----------------------------------------------------
~ASCII -----------------------------------------------------
# ...
 4491.32546   14.74000   99.00500  117.74200    4.64100    4.14200  -79.14400
 4491.82546   14.73940   98.59450  117.81950    4.64100    4.14200  -78.95330
 4492.32546   14.74700   98.56700  117.95900    4.64100    4.14200  -78.50300
 4492.82546   14.75150   99.40380  117.69320    4.64100    4.14200  -78.32240
 4493.32546   14.74100   99.30100  116.05900    4.64100    4.14200  -77.85800
 4493.82546   14.73030   98.84340  114.23060    4.64100    4.14200  -77.87930
 4494.32546   14.70580   97.77260  110.08470    4.64100    4.14200  -78.12030
 4494.82546   14.70500   97.78230  109.12680    4.64100    4.14200  -78.29580
 4495.32546   14.72330   97.34370  107.52720    4.64100    4.14200  -78.45930
 4495.82546   14.73550   96.88330  106.45820    4.64100    4.14200  -78.31850
 4496.32546   14.76060   96.74480  105.49660    4.64100    4.14200  -77.90570
 4496.82546   14.77330   97.35370  106.34220    4.64100    4.14200  -77.85410
 4497.32546   14.81780  100.70970  108.94210    4.64100    4.14200  -78.03440
 4497.82546   14.85830  102.67410  110.18760    4.64100    4.14200  -78.17450
 4498.32546   14.95490  101.87690  110.41740    4.64100    4.14200  -78.45660
 4498.82546   14.99480  100.64970  111.11830    4.64100    4.14200  -78.59770
 4499.32546   15.05830  100.56190  114.96630    4.64100    4.14200  -78.86470
 4499.82546   15.08850  100.95560  117.13550    4.64100    4.14200  -78.92600
 4500.32546   15.10360  100.75960  123.62910    4.64100    4.14200  -78.92600
 4500.82546   15.02100  101.75000  126.25900    4.64100    4.14200  -78.75700
 4501.32546   14.97600  100.68840  126.17470    4.64100    4.14200  -78.63960
 4501.82546   14.87400   99.18400  125.43800    4.64300    4.14200  -78.38100
 4502.32546   14.82720   99.08730  123.48900    4.64540    4.14200  -78.27010
 4502.82546   14.77100  100.55000  125.26400    4.54200    4.14200  -78.00700
 4503.32546   14.75810  100.04430  126.72260    4.53860    4.14200  -77.90080
 4503.82546   14.73400  100.65500  120.70000    4.53100    4.14200  -77.86400
 4504.32546   14.74040   99.96300  119.10700    4.52940    4.14200  -77.98760
 4504.82546   14.76960   99.61030  116.00270    4.52460    4.14030  -78.29500
 4505.32546   14.76700   98.97480  115.85110    4.52200    4.13350  -78.44970
 4505.82546   14.74860   97.04070  114.81360    4.51680    4.11650  -78.75860
 4506.32546   14.74090   97.61190  113.66130    4.51410    4.10790  -78.91320
 4506.82546   14.67650   99.32060  111.62970    4.50970    4.09090  -79.22840
 4507.32546   14.63130   98.36040  112.38230    4.50730    4.08230  -79.24190
 4507.82546   14.58050   96.32880  114.55910    4.50200    4.06530  -79.06360
 4508.32546   14.57600   96.27380  115.14180    4.49940    4.05670  -78.95190
 4508.82546   14.57600   96.88070  113.95720    4.49480    4.03970  -78.72810
 4509.32546   14.57600   96.56520  112.40290    4.49250    4.03120  -78.61660
 4509.82546   14.57600   96.13650  111.41600    4.48730    4.01410  -78.39280
 4510.32546   14.57600   96.62600  111.57660    4.48460    4.00560  -78.28100
 4510.82546   14.57600   97.76340  111.38770    4.48000    3.98850  -78.05790
 4511.32546   14.57600   98.85000  110.92100    4.47500    3.97100  -77.83000
 4511.82546   14.57600   99.06900  111.79440    4.47250    3.96290  -77.79950
 4512.32546   14.57600   99.05000  110.71800    4.46700    3.94500  -77.89400
 4512.82546   14.57600   98.40040  112.93370    4.46460    3.93730  -77.95950
 4513.32546   14.57600   97.57100  112.86100    4.46000    3.91900  -78.11600
 4513.82546   14.57770   97.40270  113.23500    4.45780    3.91170  -78.17800
 4514.32546   14.58200   96.79100  110.04400    4.45200    3.89300  -78.33800
 4514.82546   14.58360   96.29000  107.36850    4.44990    3.88610  -78.39650
 4515.32546   14.58750   95.86620  106.27250    4.44550    3.86910  -78.54230
 4515.82546   14.58950   96.35680  107.32090    4.44450    3.86050  -78.61560
 4516.32546   14.59340   96.36480  109.93490    4.36230    3.84590  -78.76180
 4516.82546   14.59450   96.65610  111.99720    4.29230    3.81610  -78.83780
 4517.32546   14.59580   97.74260  112.59280    4.14770    3.73430  -78.83810
 4517.82546   14.59560   98.19290  112.80340    4.07580    3.69180  -78.75550
 4518.32546   14.59570   97.71350  113.37290    3.93200    3.60650  -78.55920
 4518.82546   14.59560   97.02400  111.93330    3.85980    3.56390  -78.46080
 4519.32546   14.59570   96.01360  112.20530    3.78190    3.47720  -78.26390
 4519.82546   14.59560   96.14530  112.81930    3.81620    3.46910  -78.16550
 4520.32546   14.58950   97.05880  113.67750    3.95460    3.54530  -77.96800
 4520.82546   14.57960   97.75780  114.60560    4.02350    3.60010  -77.86750
 4521.32546   14.55130  100.76880  115.13890    4.16130    3.70970  -77.77740
 4521.82546   14.52200  104.54600  115.33500    4.30400    3.82300  -77.85000
 4522.32546   14.50590  105.88850  115.18200    4.36910    3.87440  -77.89150
 4522.82546   14.49000  107.25000  114.88500    4.51400    3.99000  -77.98400
 4523.32546   14.48650  106.72850  113.72490    4.57630    4.03940  -78.02280
 4523.82546   14.47600  105.75000  112.01200    4.72500    4.15700  -78.11700
 4524.32546   14.47270  103.78070  110.65540    4.78340    4.20370  -78.15430
 4524.82546   14.46200   99.22900  107.97600    4.93600    4.32500  -78.25000
 4525.32546   14.45830   97.98030  107.76810    4.98900    4.36910  -78.28520
 4525.82546   14.44910   96.51000  108.95990    5.02860    4.42240  -78.37310
 4526.32546   14.44450   96.00290  109.97840    5.01810    4.40630  -78.41710
 4526.82546   14.44100   94.82480  110.03750    4.99450    4.35560  -78.50740
 4527.32546   14.44560   93.80670  110.53520    4.98310    4.33000  -78.47990
 4527.82546   14.45950   90.83120  112.35940    4.96080    4.27960  -78.34140
 4528.32546   14.46630   89.85730  113.27120    4.94920    4.25420  -78.26420
 4528.82546   14.50620   89.77180  113.78730    4.92640    4.20380  -78.10930
 4529.32546   14.54510   90.52410  113.26940    4.91520    4.17840  -78.03190
 4529.82546   14.63370   92.29810  112.55150    4.89290    4.12730  -77.87560
 4530.32546   14.67800   93.45950  112.38700    4.88180    4.10200  -77.80680
 4530.82546   14.76720   96.26620  111.24190    4.85810    4.05220  -77.93360
 4531.32546   14.80850   97.57620  110.22250    4.82920    4.02320  -78.11370
 4531.82546   14.88140  100.12760  106.17540    4.62520    3.95890  -78.47400
 4532.32546   14.95400  103.75000   99.05100    4.30100    3.89400  -78.84800
 4532.82546   14.93670  104.42830   95.70690    4.15670    3.86380  -78.82030
 4533.32546   14.81700  106.68000   89.98800    4.04500    3.79700  -78.63300
 4533.82546   14.77660  105.17920   90.88610    4.04910    3.76890  -78.53120
 4534.32546   14.73400  101.05000   93.57000    4.06000    3.70100  -78.28400
 4534.82546   14.72620   98.16920   92.66590    4.06390    3.67390  -78.18760
 4535.32546   14.70350   92.50850   89.60120    4.07390    3.61040  -77.96020
 4535.82546   14.68740   91.81800   87.67480    4.07870    3.57790  -77.84560
 4536.32546   14.64750   92.77900   83.79450    4.08780    3.55820  -77.61760
 4536.82546   14.62190   94.25220   82.74250    4.09240    3.56980  -77.50260
 4537.32546   14.56970  100.60920   82.71950    4.10240    3.59870  -77.47810
 4537.82546   14.54360  103.01520   82.86630    4.10720    3.61260  -77.62440
 4538.32546   14.48730  106.44690   83.56260    4.11640    3.64100  -77.99860
 4538.82546   14.47320  108.34790   83.88020    4.12140    3.65540  -78.18510
 4539.32546   14.46210  112.35030   83.66890    4.13120    3.68430  -78.46390
 4539.82546   14.46510  110.03070   83.80840    4.13580    3.69870  -78.47530
 4540.32546   14.49070  100.65290   84.58150    4.14500    3.72760  -78.38040
 4540.82546   14.49980   98.44560   84.23510    4.14990    3.74170  -78.33370
 4541.32546   14.46910   95.77100   82.23910    4.15970    3.76990  -78.23990
 4541.82546   14.43630   94.75000   81.21400    4.16430    3.78430  -78.19300
 4542.32546   14.38880   96.52990   81.97700    4.17420    3.81320  -78.09910
