~Version ---------------------------------------------------
VERS.      2.0 : CWLS log ASCII Standard -VERSION 2.0
WRAP.       NO : One line per depth step
CREA. 10/27/17 : LAS Creation Date
~Well ------------------------------------------------------
STRT.FT                              1150.0 : START DEPTH
STOP.FT                             12400.0 : STOP DEPTH
STEP.FT                            50.00000 : STEP LENGTH
NULL.                               -999.25 : NULL VALUE
COMP. HUDSONS BAY OIL & GAS COMPANY LIMITED : COMPANY
WELL.        HB SHELL SIMONETTE 13-23-63-25 : WELL
FLD .                                       : FIELD
LOC .                                       : LOCATION
CTRY.                                CANADA : COUNTRY
SRVC.                          Schlumberger : SERVICE COMPANY
DATE.                           12-Mar-1973 : LOGDATE
PROV.                               Alberta : PROVINCE
UWI .                      100132306325W500 : UNIQUE WELL ID
SLAT.WGS84                            54.47 : SURFACE LATITUDE
SLON.WGS84                        -117.6781 : SURFACE LONGITUDE
~Curve Information -----------------------------------------
DEPT   .FT    : Depth Curve
ASNED  .OHMM  : AMPLIFIED SHORT NORMAL RESISTIVITY FROM IEL LOG [ADJ. TO DIL LOG]
CALSED .IN    : CALIPER FROM SONIC LOG
CALWS  .IN    : CALIPER [CALSED]
CILD1ED.MMHO  : CONDUCTIVITY FROM IEL LOG [ADJ. TO DIL LOG]
CILDED .MMHO  : CONDUCTIVITY FROM DIL LOG
CONDWS .MMHO  : CONDUCTIVITY [1000/DRESWS]
DRESWS .OHMM  : DEEP RESISTIVITY [SPLICED ILDED/ILD1ED AT 1737/3618] [FROM TOP TO 1737 IF ILDED<5;1000/CILDED;ELSE ILDED/ILD1ED<1;1000/CILD1ED;ELSED ILD1ED]
DTED   .US/F  : DELTA TIME FROM SONIC LOG [DEPTH ADJ TO RESISTIVITY LOG]
DTWS   .US/F  : COMPRESSIONAL SONIC [DTED]
GRNED  .GAPI  : GAMMA RAY FROM GRN LOG
GRSED  .GAPI  : GAMMA RAY FROM SONIC LOG
GRWS   .GAPI  : GAMMA RAY [GRSED SPL.  TO GRNED @ 11962']
ILD1ED .OHMM  : DEEP INDUCTION RESISTIVITY  FROM IEL LOG [ADJ. TO DIL LOG]
ILDED  .OHMM  : DEEP  INDUCTION RESISTIVITY FROM DIL LOG
ILMED  .OHMM  : MEDIUM INDUCTION RESISTIVITY FROM DIL LOG
LL8ED  .OHMM  : LATEROLOG 8 FROM DIL LOG
MRESWS .OHMM  : MEDIUM RESISTIVITY [ILMED]
NEUTED .NAPI  : NEUTRON FROM GRN LOG [DEPTH ADJ TO RESISTIVITY LOG]
NEUTWS .NAPI  : NEUTRON [NEUTED]
SPED   .MV    : SPONTANEOUS POTENTIAL [SPRED SPL. TO SPR1ED @ 11990']
SPR1ED .MV    : SPONTANEOUS POTENTIAL FROM IEL LOG [ADJ. TO DIL LOG]
SPRED  .MV    : SPONTANEOUS POTENTIAL FROM DIL LOG
SPWS   .MV    : SPONTANEOUS POTENIAL [BASELINE 0 MV, SPRED]
SRESWS .OHMM  : SHALLOW RESISTIVITY [LL8ED SPL. TO ASNED @ 11946']
~Params ----------------------------------------------------
PD  .                     GL : PERMANENT DATUM
EPD .FT                 2976 : ELEVATION PERMANENT DATUM
LMF .                     KB : LOG MEASURED FROM
DAPD.FT                   21 : FEET ABOVE PERMANENT DATUM
EKB .FT                 2997 : KELLY BUSHING
EGL .FT                 2976 : GROUND LEVEL
DATE.             03/12/1973 : RUN DATE
RUN .                      1 : RUN NUMBER
DD  .FT                12400 : DEPTH DRILLER
DL  .FT                11435 : DEPTH LOGGER
BLI .FT                12434 : BOTTOM LOG INTERVAL
TLI .FT                11300 : TOP LOG INTERVAL
CS  .IN               13.375 : CASING SIZE
BS  .IN                 8.75 : BIT SIZE
BSD .FT                12434 : BIT SIZE AT DEPTH
DFT .              FRESH GEL : DRILLING FLUID TYPE
DFD .                    9.3 : DRILLING FLUID DENSITY
DFV .                    400 : DRILLING FLUID VISCOSITY
DFPH.                   10.5 : DRILLING FLUID PH
DFL .                    8.4 : DRILLING FLUID LOSS
RMB .OHMM                1.1 : RESISTIVITY MUD AT BHT
LUN .               7670 EDM : LOGGING UNIT NUMBER
ENGI.                 CALVIN : RECORDING ENGINEER
WITN.                FOGARTY : WITNESSED BY
CLNT.                A2DTECH : CLIENT CODE
ORIG.            2" 5' PRINT : ORIGIN OF DATA
UWI .       100132306325W500 : UNIQUE WELL ID
DICO. A2D Technologies, Inc. : DIGITIZING COMPANY
~Other -----------------------------------------------------
DIL-IEL-GRN-BCS LOG RUN
SUFFIX OF THE CURVES ARE NOT REMOVED DUE TO DIFFERENT TOOL. BUT THEY HAVE SAME MNEMONICS
~ASCII -----------------------------------------------------
 1150.00000    -999.25    -999.25    -999.25    -999.25    -999.25    -999.25    -999.25    -999.25    -999.25    -999.25   39.05600   39.05600    -999.25    -999.25    -999.25    -999.25    -999.25    -999.25    -999.25    -999.25    -999.25    -999.25    -999.25    -999.25
 1200.00000    -999.25    -999.25    -999.25    -999.25    -999.25    -999.25    -999.25    -999.25    -999.25    -999.25   42.14040   42.14040    -999.25    -999.25    -999.25    -999.25    -999.25    -999.25    -999.25    -999.25    -999.25    -999.25    -999.25    -999.25
 1250.00000    -999.25    -999.25    -999.25    -999.25    -999.25    -999.25    -999.25    -999.25    -999.25    -999.25   45.29950   45.29950    -999.25    -999.25    -999.25    -999.25    -999.25    -999.25    -999.25    -999.25    -999.25    -999.25    -999.25    -999.25
 1300.00000    -999.25   11.93560   11.93560    -999.25  117.25190  103.22050    9.68800  111.02050  111.02050    -999.25   63.19450   63.19450    -999.25    9.68800    -999.25   16.45460    -999.25    -999.25    -999.25 -144.92360    -999.25 -155.92360  -18.52760   16.45460
 1350.00000    -999.25    9.85520    9.85520    -999.25  252.77550  252.77550    3.95610  122.51450  122.51450    -999.25   67.63810   67.63810    -999.25    4.92590    -999.25    3.71470    -999.25    -999.25    -999.25 -153.41840    -999.25 -164.41840  -23.97930    3.71470
 1400.00000    -999.25    9.70550    9.70550    -999.25  100.51480   91.56170   10.92160   93.29090   93.29090    -999.25   66.97800   66.97800    -999.25   10.92160    -999.25    7.60060    -999.25    -999.25    -999.25 -153.18420    -999.25 -164.18420  -20.71720    7.60060
 1450.00000    -999.25   10.72500   10.72500    -999.25  236.90690  180.07310    5.55330   95.82650   95.82650    -999.25   93.39060   93.39060    -999.25    5.55330    -999.25    4.14820    -999.25    -999.25    -999.25 -146.55330    -999.25 -157.55330  -11.05830    4.14820
 1500.00000    -999.25    9.91230    9.91230    -999.25  218.49270  170.54080    5.86370  109.97180  109.97180    -999.25   80.45660   80.45660    -999.25    5.86370    -999.25    4.45640    -999.25    -999.25    -999.25 -142.79090    -999.25 -153.79090   -7.57130    4.45640
 1550.00000    -999.25    9.70690    9.70690    -999.25  262.95270  262.95270    3.80300  112.79400  112.79400    -999.25   99.70140   99.70140    -999.25    4.96360    -999.25    3.60780    -999.25    -999.25    -999.25 -138.59100    -999.25 -149.59100   -7.82870    3.60780
 1600.00000    -999.25   10.24660   10.24660    -999.25  175.34040  146.12410    6.84350  105.19590  105.19590    -999.25   82.21840   82.21840    -999.25    6.84350    -999.25    4.93820    -999.25    -999.25    -999.25 -129.61390    -999.25 -140.61390   -3.35370    4.93820
 1650.00000    -999.25   11.10630   11.10630    -999.25  390.60070  390.60070    2.56020  114.60850  114.60850    -999.25   85.27720   85.27720    -999.25    3.65950    -999.25    2.80890    -999.25    -999.25    -999.25 -125.64350    -999.25 -136.64350   -3.86290    2.80890
 1700.00000    -999.25    9.66350    9.66350    -999.25  197.75540  156.78650    6.37810  135.02020  135.02020    -999.25   59.04250   59.04250    -999.25    6.37810    -999.25    7.19120    -999.25    -999.25    -999.25 -123.45360    -999.25 -134.45360   -5.91680    7.19120
 1750.00000    -999.25   10.53430   10.53430    -999.25  234.47620  186.85300    5.35180  109.39080  109.39080    -999.25   74.71360   74.71360    -999.25    5.35180    -999.25    3.94000    -999.25    -999.25    -999.25 -121.40080    -999.25 -132.40080   -4.41300    3.94000
 1800.00000    -999.25    8.62010    8.62010    -999.25   77.13060   68.77630   14.53990   94.78890   94.78890    -999.25   63.25010   63.25010    -999.25   14.53990    -999.25   10.62870    -999.25    -999.25    -999.25 -127.37620    -999.25 -138.37620  -10.93460   10.62870
 1850.00000    -999.25    9.38070    9.38070    -999.25  160.31630  135.21000    7.39590   91.99570   91.99570    -999.25   81.23440   81.23440    -999.25    7.39590    -999.25    5.32780    -999.25    -999.25    -999.25 -127.43650    -999.25 -138.43650  -11.54650    5.32780
 1900.00000    -999.25   10.49960   10.49960    -999.25  265.55030  265.55030    3.76580   98.51170   98.51170    -999.25   75.90500   75.90500    -999.25    4.85560    -999.25    3.77440    -999.25    -999.25    -999.25 -120.87620    -999.25 -131.87620   -5.53520    3.77440
 1950.00000    -999.25    9.64020    9.64020    -999.25  300.12120  300.12120    3.33200  125.11620  125.11620    -999.25   88.62260   88.62260    -999.25    4.48080    -999.25    3.26980    -999.25    -999.25    -999.25 -123.19440    -999.25 -134.19440   -8.40230    3.26980
 2000.00000    -999.25    9.79490    9.79490    -999.25  183.36070  147.91370    6.76070  128.00010  128.00010    -999.25   62.58760   62.58760    -999.25    6.76070    -999.25    4.64680    -999.25    -999.25    -999.25 -119.53130    -999.25 -130.53130   -5.28810    4.64680
 2050.00000    -999.25    9.94850    9.94850    -999.25   98.36170   84.95170   11.77140   84.15780   84.15780    -999.25   67.92810   67.92810    -999.25   11.77140    -999.25   10.25090    -999.25    -999.25    -999.25 -120.05850    -999.25 -131.05850   -6.36150   10.25090
 2100.00000    -999.25   10.17850   10.17850    -999.25  232.78420  183.62100    5.44600  107.34310  107.34310    -999.25   84.60070   84.60070    -999.25    5.44600    -999.25    3.97090    -999.25    -999.25    -999.25 -120.73960    -999.25 -131.73960   -7.59430    3.97090
 2150.00000    -999.25    9.90270    9.90270    -999.25  319.15710  319.15710    3.13330  110.01800  110.01800    -999.25   86.55300   86.55300    -999.25    4.23370    -999.25    3.38790    -999.25    -999.25    -999.25 -118.53340    -999.25 -129.53340   -5.93700    3.38790
 2200.00000    -999.25    9.68450    9.68450    -999.25  123.04760  109.44030    9.13740  100.79770  100.79770    -999.25  101.55070  101.55070    -999.25    9.13740    -999.25    7.22290    -999.25    -999.25    -999.25 -119.05970    -999.25 -130.05970   -7.01230    7.22290
 2250.00000    -999.25    9.52270    9.52270    -999.25  230.78570  186.74140    5.35500   95.92990   95.92990    -999.25   85.99460   85.99460    -999.25    5.35500    -999.25    4.07850    -999.25    -999.25    -999.25 -114.13210    -999.25 -125.13210   -2.63360    4.07850
 2300.00000    -999.25    9.09300    9.09300    -999.25  111.21590  102.99400    9.70930   85.37170   85.37170    -999.25   73.65440   73.65440    -999.25    9.70930    -999.25    7.97150    -999.25    -999.25    -999.25 -116.44390    -999.25 -127.44390   -4.42030    7.97150
 2350.00000    -999.25    9.44890    9.44890    -999.25  229.70740  184.86000    5.40950  119.50880  119.50880    -999.25   75.55830   75.55830    -999.25    5.40950    -999.25    4.02930    -999.25    -999.25    -999.25 -117.45030    -999.25 -128.45030   -4.76160    4.02930
 2400.00000    -999.25    9.50240    9.50240    -999.25  131.64090  117.66230    8.49890   85.66670   85.66670    -999.25   94.06180   94.06180    -999.25    8.49890    -999.25    6.64570    -999.25    -999.25    -999.25 -118.13500    -999.25 -129.13500   -4.78460    6.64570
 2450.00000    -999.25   10.09820   10.09820    -999.25  293.90980  293.90980    3.40240  101.34320  101.34320    -999.25   90.62220   90.62220    -999.25    4.38310    -999.25    3.36370    -999.25    -999.25    -999.25 -118.54710    -999.25 -129.54710   -4.53500    3.36370
 2500.00000    -999.25   10.75020   10.75020    -999.25  200.04620  167.67270    5.96400   97.19380   97.19380    -999.25   95.82260   95.82260    -999.25    5.96400    -999.25    4.39650    -999.25    -999.25    -999.25 -121.46470    -999.25 -132.46470   -6.79090    4.39650
 2550.00000    -999.25   11.85960   11.85960    -999.25  170.36120  141.77360    7.05350  112.06000  112.06000    -999.25   97.93460   97.93460    -999.25    7.05350    -999.25    5.33920    -999.25    -999.25    -999.25 -118.45250    -999.25 -129.45250   -3.46910    5.33920
