~Version ---------------------------------------------------
VERS.      2.0 : CWLS log ASCII Standard -VERSION 2.0
WRAP.       NO : One line per depth step
CREA. 10/07/14 : LAS Creation Date
~Well ------------------------------------------------------
STRT.M                   450.0 : START DEPTH
STOP.M                  2500.0 : STOP DEPTH
STEP.M                50.00000 : STEP LENGTH
NULL.                  -999.25 : NULL VALUE
COMP. CHEVRON STANDARD LIMITED : COMPANY
WELL. CHEVRON MAJEAU 1-28-57-3 : WELL
FLD .                          : FIELD
LOC .                          : Location
CTRY.                   CANADA : COUNTRY
SRVC.            Dresser Atlas : SERVICE COMPANY
DATE.              27-Nov-1979 : LOGDATE
LOC1.                          : Location 1
SECT.                          : Section
TOWN.                          : Township
RNGE.                          : Range
PDAT.                          : Perm Datum
EPD .                   699.25 : Elevation
LMF .            KELLY BUSHING : Log Measured From
DMF .            KELLY BUSHING : Drill Measured From
APD .                          : Above Perm Datum
EKB .                    703.7 : Elev-Kelly Bushing.
EDF .                          : Elev-Drill Floor
EGL .                   699.25 : Elev-Ground Level
PROV.                  Alberta : PROVINCE
UWI .         100012805703W500 : UNIQUE WELL ID
SLAT.WGS84            53.95118 : SURFACE LATITUDE
SLON.WGS84           -114.3782 : SURFACE LONGITUDE
~Curve Information -----------------------------------------
DEPT    .M      : Depth METERS
ACED    .US/M   : ACOUSTIC FROM SONIC LOG [ADJ. TO RESISTIVITY LOG]
CALDED  .MM     : CALIPER FROM DENSITY LOG [ADJ. TO RESISTIVITY LOG]
CALSED  .MM     : CALIPER FROM SONIC LOG [ADJ. TO RESISTIVITY LOG]
CALWS   .MM     : CALIPER [CALSED SPL. TO CALDED @ 2513M]
CONDWS  .MMHO   : CONDUCTIVITY [1000/DRESWS]
CORRED  .KG/M3  : DENSITY CORRECTION FROM DENSITY LOG [ADJ. TO RESISTIVITY LOG]
DCORWS  .KG/M3  : DENSITY CORRECTION [CORRED]
DENWS   .KG/M3  : FORMATION BULK DENSITY [RHOBED]
DPHILSED.V/V    : DENSITY POROSITY LIMESTONE [M=2710,F=1000] FROM DENSITY LOG [ADJ. TO RESISTIVITY LOG]
DPHISSED.V/V    : DENSITY POROSITY SANDSTONE [M=2650,F=1000] FROM DENSITY LOG [ADJ. TO RESISTIVITY LOG]
DPOLSWS .V/V    : DENSITY POROSITY LIMESTONE [CALC. FROM DENWS M=2710,F=1000]
DRESWS  .OHMM   : DEEP RESISTIVITY [ILDED]
DTWS    .US/M   : COMPRESSIONAL SONIC [ACED]
GRDED   .GAPI   : GAMMA RAY FROM DENSITY LOG [ADJ. TO RESISTIVITY LOG]
GRSED   .GAPI   : GAMMA RAY FROM SONIC LOG [ADJ. TO RESISTIVITY LOG]
GRWS    .GAPI   : GAMMA RAY [GRSED SPL. TO GRDED @ 2516M]
ILDED   .OHMM   : DEEP INDUCTION FROM RESISTIVITY LOG
ILMED   .OHMM   : MEDIUM INDUCTION FROM RESISTIVITY LOG
MRESWS  .OHMM   : MEDIUM RESISTIVITY [ILMED]
NPHILSED.V/V    : NEUTRON POROSITY LIMESTONE FROM DENSITY LOG [ADJ. TO RESISTIVITY LOG]
NPHISSED.V/V    : NEUTRON POROSITY SANDSTONE FROM DENSITY LOG [ADJ. TO RESISTIVITY LOG]
NPOLSWS .V/V    : NEUTRON POROSITY LIMESTONE [NPHISSED MATRIX CONVERSION FOR LIMESTONE, SPL. TO NPHILSED @1279M]]
RHOBED  .KG/M3  : BULK DENSITY FROM DENSITY LOG [ADJ. TO RESISTIVITY LOG]
SFLED   .OHMM   : SPHERICALLY FOCUSED FROM RESISTIVITY LOG
SPRED   .MV     : SPONTANEOUS POTENTIAL FROM RESISTIVITY LOG
SPWS    .MV     : SPONTANEOUS POTENTIAL [BASELINE 0 MV, SPRED]
SRESWS  .OHMM   : SHALLOW RESISTIVITY [SFLED]
TENDED  .N      : TENSION (LB*4.44822162) FROM DENSITY LOG [ADJ. TO RESISTIVITY LOG]
TENSED  .N      : TENSION (LB*4.44822162) FROM SONIC LOG [ADJ. TO RESISTIVITY LOG]
~Params ----------------------------------------------------
RUN .        1 : Run #
DATE.          : Date log was run
TDD .     2525 : Depth - Driller
TDL .   2523.4 : Depth - Logger
BLI .   2520.7 : Bottom Log Interval
TLI .    467.0 : Top Log Interval
CBD .      465 : Casing - Driller
CBL .      467 : Casing - Logger
BS  .    222.5 : Bit Size
DFT . GEL CHEM : Type of Fluid In Hole
DFD .     1150 : Drilling Fluid Density
DFV .      100 : Drilling Fluid Viscosity
DFPH.      9.5 : Drilling Fluid pH
DFL .      8.6 : Drilling Fluid Loss
MSS . FLOWLINE : Source of Sample
RMS .      1.3 : Mud Resitivity
RMFS.      1.1 : Mud Filtrate Resistivity
RMCS.      1.4 : Mud Cake Resitivity
MFSS.     MEAS : Source of Rmf
MCSS.     MEAS : Source of Rmc
RMBH.          : Rm at BHT
MRT .       75 : Max Recorded Temperature
CLNT.  A2DTECH : CLIENT CODE
~Other -----------------------------------------------------
~ASCII -----------------------------------------------------
# ...
 1700.00000  245.20990  253.59520  234.98460  234.98460  112.41640  134.14860  134.14860 2659.40500    0.02370    -999.25    0.02960    8.89550  245.20990   92.25350   94.16990   94.16990    8.89550   10.45620   10.45620    0.25900    -999.25    0.25900 2659.40500   13.58470  -45.44100  -16.04990   13.58470 4726.32220 4621.55770
 1750.00000  247.56760  303.40090  270.77590  270.77590  129.22230  207.01410  207.01410 2156.50540    0.31350    -999.25    0.32370    7.73860  247.56760   84.90500   78.79670   78.79670    7.73860    8.39590    8.39590    0.34180    -999.25    0.34180 2156.50540   10.80020  -51.30090  -23.46900   10.80020 4409.74270 4768.48330
 1800.00000  211.69480  249.20580  220.51600  220.51600   59.12650   21.59260   21.59260 2626.68680    0.03730    -999.25    0.04870   16.91290  211.69480   53.10690   50.17080   50.17080   16.91290   19.77790   19.77790    0.12870    -999.25    0.12870 2626.68680   25.12620  -27.38870   -1.12790   25.12620 4684.55960 4794.22560
 1850.00000  237.93640  242.39790  216.23820  216.23820   39.83600   16.10820   16.10820 2543.09640    0.08370    -999.25    0.09760   25.10290  237.93640   96.35730   83.49280   83.49280   25.10290   31.72030   31.72030    0.20050    -999.25    0.20050 2543.09640   51.28030  -32.47410   -7.78450   51.28030 4367.41520 4755.43400
 1900.00000  279.76610  333.04320  292.52010  292.52010  205.08190  114.00840  114.00840 2446.81270    0.14600    -999.25    0.15390    4.87610  279.76610  112.99150   98.00300   98.00300    4.87610    4.67020    4.67020    0.34810    -999.25    0.34810 2446.81270    7.36630  -48.70230  -25.58390    7.36630 4581.42500 4917.99160
 1950.00000  223.68500  253.32890  230.53110  230.53110  115.70320  131.07100  131.07100 2575.44700    0.06820    -999.25    0.07870    8.64280  223.68500   71.92310   65.03470   65.03470    8.64280   10.61440   10.61440    0.18590    -999.25    0.18590 2575.44700   17.19810  -34.33530  -12.78800   17.19810 4158.37460 4799.20230
 2000.00000  168.23970  247.57690  217.99260  217.99260   17.95270   38.20580   38.20580 2700.05050   -0.00370    -999.25    0.00580   55.70200  168.23970   14.93750   18.34310   18.34310   55.70200   91.53090   91.53090    0.05740    -999.25    0.05740 2700.05050  106.76370  -58.54760  -38.57150  106.76370 4864.10010 4699.73160
 2050.00000  212.76870  270.84470  237.59730  237.59730   79.00950  149.16250  149.16250 2483.60960    0.11480    -999.25    0.13240   12.65670  212.76870   65.07510   65.59810   65.59810   12.65670   13.82460   13.82460    0.21270    -999.25    0.21270 2483.60960   18.66140  -28.32370   -9.88820   18.66140 5123.84730 4873.52190
 2100.00000  182.82330  256.71870  225.32050  225.32050   23.31060   35.92700   35.92700 2682.03960    0.00490    -999.25    0.01640   42.89890  182.82330   43.51110   39.88740   39.88740   42.89890   66.31500   66.31500    0.10380    -999.25    0.10380 2682.03960   66.46000  -27.67310   -9.96120   66.46000 5074.38710 4590.13900
 2150.00000  282.83630  285.44050  255.22910  255.22910  135.93790   91.91390   91.91390 2298.88940    0.23850    -999.25    0.24040    7.35630  282.83630  121.15360  128.40560  128.40560    7.35630    8.84170    8.84170    0.22570    -999.25    0.22570 2298.88940    7.94550  -39.36930  -22.38100    7.94550 4986.79940 4888.24150
 2200.00000  209.81170  253.54820  227.62820  227.62820  114.70780   89.49430   89.49430 2651.48630    0.02120    -999.25    0.03420    8.71780  209.81170  101.00700   95.26170   95.26170    8.71780    9.77000    9.77000    0.22950    -999.25    0.22950 2651.48630   17.26770  -22.89310   -6.62840   17.26770 4632.34510 5330.07980
 2250.00000  198.31790  243.36530  228.49540  228.49540   73.67190   66.43140   66.43140 2645.18990    0.02660    -999.25    0.03790   13.57370  198.31790  128.65960  123.22770  123.22770   13.57370   17.17780   17.17780    0.17270    -999.25    0.17270 2645.18990   19.23640  -17.85430   -2.31310   19.23640 4781.07800 4778.88770
 2300.00000  183.28870  251.09580  230.94120  230.94120   86.20690   27.57110   27.57110 2714.22970   -0.01360    -999.25   -0.00250   11.60000  183.28870   82.81480   77.93070   77.93070   11.60000   13.47470   13.47470    0.18540    -999.25    0.18540 2714.22970   17.65790  -22.69630   -7.87870   17.65790 4634.83830 4748.06380
 2350.00000  162.18710  262.01210  230.29800  230.29800   61.66330   66.38130   66.38130 2581.86430    0.06450    -999.25    0.07490   16.21710  162.18710   90.34630   84.35810   84.35810   16.21710   22.36890   22.36890    0.10000    -999.25    0.10000 2581.86430  125.42160  -43.85710  -29.76310  125.42160 5118.32620 4691.16210
 2400.00000  259.95390  297.04390  262.40810  262.40810  172.47620  137.39780  137.39780 2140.40550    0.34570    -999.25    0.33310    5.79790  259.95390  152.37720  148.81960  148.81960    5.79790    6.07230    6.07230    0.27310    -999.25    0.27310 2140.40550    7.52600  -50.73990  -37.36940    7.52600 5073.40540 4661.50450
 2450.00000  274.59480  343.30820  323.41630  323.41630  221.71970  201.74440  201.74440 2391.45530    0.17750    -999.25    0.18630    4.51020  274.59480  157.54030  147.40790  147.40790    4.51020    4.80840    4.80840    0.36890    -999.25    0.36890 2391.45530    6.76060  -35.89800  -23.25110    6.76060 4486.79170 4652.60360
 2500.00000  241.70190  277.42410  239.01720  239.01720  103.18750  237.70120  237.70120 2428.53560    0.15530    -999.25    0.16460    9.69110  241.70190  117.17360  106.46690  106.46690    9.69110   12.54490   12.54490    0.27290    -999.25    0.27290 2428.53560   11.13120  -24.13140  -12.20810   11.13120 5440.88760 5470.77300
