~Version ---------------------------------------------------
VERS.      2.0 : CWLS log ASCII Standard -VERSION 2.0
WRAP.       NO : One line per depth step
CREA. 08/01/17 : LAS Creation Date
~Well ------------------------------------------------------
STRT.FT                         950.0 : START DEPTH
STOP.FT                        9900.0 : STOP DEPTH
STEP.FT                      50.00000 : STEP LENGTH
NULL.                         -999.25 : NULL VALUE
COMP. GENERAL CRUDE OIL, NORTHERN LTD : COMPANY
WELL.   GCON HB PUSKWASKAU 11-6-73-24 : WELL
FLD .                                 : FIELD
LOC .                                 : LOCATION
CTRY.                          CANADA : COUNTRY
SRVC.          Schlumberger of Canada : SERVICE COMPANY
DATE.                     29-Jan-1973 : LOGDATE
PROV.                         Alberta : PROVINCE
UWI .                100110607324W500 : UNIQUE WELL ID
SLAT.WGS84                   55.29715 : SURFACE LATITUDE
SLON.WGS84                  -117.6848 : SURFACE LONGITUDE
~Curve Information -----------------------------------------
DEPT  .FT    : Depth Curve
CALSED.IN    : CALIPER FROM SONIC LOG
CALWS .IN    : CALIPER [CALSED]
CILDED.MMHO  : CONDUCTIVITY FROM RESISTIVITY LOG
CONDWS.MMHO  : CONDUCTIVITY [1000/DRESWS]
DRESWS.OHMM  : DEEP RESISTIVITY [ILDED] [1000/CILDED, IF ILDED<5, ILDED]
DTED  .US/F  : DELTA TIME FROM SONIC LOG
DTWS  .US/F  : DELTA TIME [DTED]
GRSED .GAPI  : GAMMA RAY FROM SONIC LOG
GRWS  .GAPI  : GAMMA RAY [GRSED]
ILDED .OHMM  : INDUCTION LOG DEEP RESISTIVITY
ILMED .OHMM  : INDUCTION LOG MEDIUM RESISTIVITY
LL8ED .OHMM  : 8 INCH LATEROLOG RESISTIVITY
MRESWS.OHMM  : MEDIUM RESISTIVITY [ILMED]
SPRED .MV    : SPONTANEOUS POTENTIAL FROM RESISTIVITY LOG
SPWS  .MV    : SPONTANEOUS POTENTIAL [BASELINE 0 MV] [SPRED]
SRESWS.OHMM  : SHALLOW RESISTIVITY [LL8ED]
~Params ----------------------------------------------------
PD  .                     GL : PERMANENT DATUM
EPD .FT                 2352 : ELEVATION PERMANENT DATUM
LMF .                     KB : LOG MEASURED FROM
DAPD.FT                   14 : FEET ABOVE PERMANENT DATUM
EKB .FT                 2366 : KELLY BUSHING
EGL .FT                 2352 : GROUND LEVEL
DATE.               01/73/29 : RUN DATE
RUN .                      1 : RUN NUMBER
DD  .FT                 9931 : DEPTH DRILLER
DL  .FT                 9919 : DEPTH LOGGER
BLI .FT                 9913 : BOTTOM LOG INTERVAL
TLI .FT                 1011 : TOP LOG INTERVAL
CBD .FT                 1011 : CASING BOTTOM DRILLER
CBL .FT                 1011 : CASING BOTTOM LOGGER
BS  .IN                 8.75 : BIT SIZE
BSD .FT                 9931 : BIT SIZE AT DEPTH
DFT .                    GEL : DRILLING FLUID TYPE
DFD .                    9.5 : DRILLING FLUID DENSITY
DFV .                     95 : DRILLING FLUID VISCOSITY
DFPH.                    7.5 : DRILLING FLUID PH
DFL .                    8.2 : DRILLING FLUID LOSS
RMF .OHMM               1.35 : RESISTIVITY MUD FILTRATE SAMPLE
MFST.DEGF                 68 : MUD FILTRATE SAMPLE TEMPERATURE
RMB .OHMM               0.56 : RESISTIVITY MUD AT BHT
TCS .HRS                   4 : TIME CIRCULATED STOPPED
LUN .                   7635 : LOGGING UNIT NUMBER
LUL .                     DC : LOGGING UNIT LOCATION
ENGI.                  BAKER : RECORDING ENGINEER
WITN.                JOHNSON : WITNESSED BY
CLNT.                A2DTECH : CLIENT CODE
ORIG.            2" 5" PRINT : ORIGIN OF DATA
UWI .       100110607324W500 : UNIQUE WELL ID
DICO. A2D Technologies, Inc. : DIGITIZING COMPANY
~Other -----------------------------------------------------
~ASCII -----------------------------------------------------
# ...
 3100.00000    8.79380    8.79380    -999.25  167.55750    5.96810   95.96550   95.96550   69.76850   69.76850    5.96810    6.61250    7.55310    6.61250 -112.77960  -25.28440    7.55310
 3150.00000    9.68690    9.68690    -999.25  160.69040    6.22310   93.73170   93.73170   90.53940   90.53940    6.22310    6.36150    7.06210    6.36150  -91.41660   -4.23320    7.06210
 3200.00000    9.11160    9.11160    -999.25  192.40020    5.19750   92.18930   92.18930   71.77030   71.77030    5.19750    5.78260    5.73780    5.78260 -104.96230  -17.56770    5.73780
 3250.00000    9.32350    9.32350    -999.25  167.44810    5.97200   88.75580   88.75580   45.63560   45.63560    5.97200    5.87440    5.40880    5.87440  -96.89740   -9.19710    5.40880
 3300.00000    9.91050    9.91050    -999.25  171.05710    5.85570   89.52460   89.52460   73.36060   73.36060    5.85570    6.04680    6.83820    6.04680  -98.62120  -10.61690    6.83820
 3350.00000    9.51620    9.51620    -999.25   46.26180   21.61610   63.12240   63.12240   63.03390   63.03390   21.61610   24.76260   19.52230   24.76260 -106.32330  -18.01180   19.52230
 3400.00000    9.84140    9.84140    -999.25  158.99070    6.28980   89.81620   89.81620   69.76830   69.76830    6.28980    7.52160    7.63740    7.52160 -109.52330  -20.90770    7.63740
 3450.00000   10.09830   10.09830    -999.25  112.61130    8.88010   87.78850   87.78850   54.97570   54.97570    8.88010   10.46960   10.82130   10.46960 -123.90580  -34.98300   10.82130
 3500.00000    9.54580    9.54580    -999.25  123.10420    8.12320   87.04990   87.04990   60.16560   60.16560    8.12320   11.04000   13.62940   11.04000 -135.12030  -45.89190   13.62940
 3550.00000   11.01620   11.01620    -999.25  160.15090    6.24430   90.34470   90.34470   74.38590   74.38590    6.24430    6.93020    6.42530    6.93020 -120.28600  -30.75340    6.42530
 3600.00000   13.48400   13.48400    -999.25  158.72760    6.30010   89.71640   89.71640   49.02810   49.02810    6.30010    6.52440    5.56270    6.52440 -124.88250  -35.04280    5.56270
 3650.00000   10.04490   10.04490    -999.25  157.28890    6.35810   92.41550   92.41550   69.46720   69.46720    6.35810    6.50600    6.21460    6.50600 -114.74110  -24.59730    6.21460
 3700.00000   11.57610   11.57610    -999.25  142.72260    7.00660   87.81820   87.81820   71.39080   71.39080    7.00660    7.16450    6.71870    7.16450 -117.07470  -26.62380    6.71870
 3750.00000    9.35110    9.35110    -999.25  119.21220    8.38840   83.22150   83.22150   53.15130   53.15130    8.38840   10.79380   13.58110   10.79380 -153.83580  -63.07920   13.58110
 3800.00000   10.25150   10.25150    -999.25  141.88700    7.04900   87.04910   87.04910   70.79010   70.79010    7.04900    7.94450    8.39100    7.94450 -131.63100  -40.57030    8.39100
 3850.00000    9.53430    9.53430    -999.25  142.14440    7.03510   87.26470   87.26470   54.95200   54.95200    7.03510    8.92050   10.95690    8.92050 -154.28000  -62.91220   10.95690
 3900.00000    9.53490    9.53490    -999.25  129.60140    7.71610   80.85430   80.85430   72.32380   72.32380    7.71610    8.80690    9.89310    8.80690 -122.35090  -30.67890    9.89310
 3950.00000   10.64220   10.64220    -999.25  116.39820    8.59120   85.80600   85.80600   70.62330   70.62330    8.59120    9.10990    9.48560    9.10990 -119.94960  -27.97050    9.48560
 4000.00000    9.32110    9.32110    -999.25   89.70380   11.14780   79.31230   79.31230   57.12250   57.12250   11.14780   13.31020   15.69270   13.31020 -137.00340  -44.71870   15.69270
 4050.00000    9.69710    9.69710    -999.25  181.96430    5.50200   88.92590   88.92590   71.63090   71.63090    5.50200    6.36240    6.53500    6.36240 -112.79490  -20.20600    6.53500
 4100.00000    9.84910    9.84910    -999.25  119.60010    8.36120   82.81800   82.81800   76.02390   76.02390    8.36120    8.54670    7.79250    8.54670 -115.19030  -22.29430    7.79250
 4150.00000    9.41370    9.41370    -999.25   51.39500   19.49870   69.15180   69.15180   64.53870   64.53870   19.49870   20.98880   27.36840   20.98880 -113.69110  -20.49100   27.36840
 4200.00000    9.47290    9.47290    -999.25  129.20060    7.73990   83.06510   83.06510  101.07450  101.07450    7.73990    7.91140    9.55760    7.91140 -115.54970  -22.04250    9.55760
 4250.00000    9.96450    9.96450    -999.25  122.02120    8.19530   89.33400   89.33400   77.85100   77.85100    8.19530    8.63580    7.33050    8.63580 -115.10670  -21.29390    7.33050
 4300.00000    9.57170    9.57170    -999.25   52.09600   19.20390   79.56890   79.56890   73.01630   73.01630   19.20390   20.06290   21.88110   20.06290 -115.82610  -21.70910   21.88110
 4350.00000    9.12450    9.12450    -999.25   50.74980   19.70450   75.62380   75.62380   79.26100   79.26100   19.70450   20.23990   22.88020   20.23990 -113.95630  -19.53220   22.88020
 4400.00000    8.54650    8.54650    -999.25  180.92690    5.52980   73.31150   73.31150   49.53190   49.53190    5.52980    8.94450   19.17790    8.94450 -172.42180  -77.69350   19.17790
 4450.00000   10.14150   10.14150    -999.25   86.87120   11.51130   59.31830   59.31830   75.81430   75.81430   11.51130   10.07070    8.64400   10.07070 -106.81270  -11.77730    8.64400
 4500.00000   11.44930   11.44930    -999.25  256.22630    3.90280   92.71100   92.71100   87.08570   87.08570    3.90280    3.99030    4.23700    3.99030 -106.29590  -10.95490    4.23700
 4550.00000   11.60800   11.60800    -999.25  357.69920    2.79560  100.29670  100.29670   96.17320   96.17320    2.79560    2.92490    3.37930    2.92490 -105.96640  -10.32140    3.37930
 4600.00000   12.32470   12.32470    -999.25  315.39770    3.17060   96.53960   96.53960   86.49210   86.49210    3.17060    3.24050    3.54690    3.24050 -106.21580  -10.26350    3.54690
 4650.00000   13.10920   13.10920    -999.25  382.03890    2.61890  116.68880  116.68880   79.37950   79.37950    2.61890    2.70080    3.27210    2.70080 -102.99840   -6.74200    3.27210
 4700.00000    8.95310    8.95310    -999.25    3.08180  324.48770  100.52900  100.52900  197.87290  197.87290  324.48770  216.70300 1370.03260  216.70300 -113.58780  -17.02430 1370.03260
 4750.00000    8.98610    8.98610    -999.25    2.71860  367.83650   80.15230   80.15230  242.47990  242.47990  367.83650  255.59440 1372.26670  255.59440 -122.70790  -25.81050 1372.26670
 4800.00000    9.57970    9.57970    -999.25  350.65120    2.85210   73.12620   73.12620   82.66970   82.66970    2.85210    3.30530    4.34420    3.30530 -125.30820  -28.04800    4.34420
 4850.00000    9.53880    9.53880    -999.25  310.53010    3.22030   74.84350   74.84350   78.44060   78.44060    3.22030    4.06960    7.56190    4.06960 -147.00550  -49.37900    7.56190
 4900.00000   10.22660   10.22660    -999.25  200.56390    4.98820   68.66930   68.66930   69.96440   69.96440    4.98820    5.61070   10.38120    5.61070 -125.16150  -27.17230   10.38120
 4950.00000   11.67590   11.67590    -999.25  152.18380    6.57100   70.41770   70.41770   70.24630   70.24630    6.57100    8.66310    9.36330    8.66310 -119.70910  -21.35350    9.36330
 5000.00000   12.27860   12.27860    -999.25  237.23670    4.21520   83.58720   83.58720   87.43910   87.43910    4.21520    4.30880    4.50860    4.30880 -116.78170  -18.06160    4.50860
 5050.00000    9.88430    9.88430    -999.25  127.00670    7.87430   69.87150   69.87150   87.06230   87.06230    7.87430    8.35650    8.92080    8.35650 -116.99730  -17.91440    8.92080
 5100.00000    9.74180    9.74180    -999.25   78.97020   12.66300   67.77930   67.77930   84.83430   84.83430   12.66300   13.07160   13.34100   13.07160 -101.30760   -1.85840   13.34100
 5150.00000    9.65650    9.65650    -999.25  126.69810    7.89730   69.09280   69.09280   84.39690   84.39690    7.89730    8.99730    9.88540    8.99730 -124.21200  -22.92880    9.88540
 5200.00000    8.98610    8.98610    -999.25  145.46510    6.87450   69.76680   69.76680   61.38710   61.38710    6.87450   10.34920   21.08560   10.34920 -162.57430  -58.39700   21.08560
