~Version ---------------------------------------------------
VERS.      2.0 : CWLS log ASCII Standard -VERSION 2.0
WRAP.       NO : One line per depth step
CREA. 10/26/17 : LAS Creation Date
~Well ------------------------------------------------------
STRT.FT                     850.0 : START DEPTH
STOP.FT                    9900.0 : STOP DEPTH
STEP.FT                  50.00000 : STEP LENGTH
NULL.                     -999.25 : NULL VALUE
COMP. SHELL CANADA RESOURCES LTD. : COMPANY
WELL.   SHELL MAHASKA 11-33-56-13 : WELL
FLD .                             : FIELD
LOC .                             : LOCATION
CTRY.                      CANADA : COUNTRY
SRVC.                Schlumberger : SERVICE COMPANY
DATE.                 12-May-1977 : LOGDATE
PROV.                     Alberta : PROVINCE
UWI .            100113305613W500 : UNIQUE WELL ID
SLAT.WGS84               53.88568 : SURFACE LATITUDE
SLON.WGS84              -115.8759 : SURFACE LONGITUDE
~Curve Information -----------------------------------------
DEPT    .FT    : Depth Curve
CALSED  .IN    : CALIPER FROM SONIC LOG
CALWS   .IN    : CALIPER [CALSED]
CONDWS  .MMHO  : CONDUCTIVITY [1000/DRESWS]
DCORWS  .G/C3  : DENSITY CORRECTION [DRHOED]
DENWS   .G/C3  : BULK DENSITY [M=2.71, F=1.00] [RHOBED]
DPHILSED.V/V   : DENSITY POROSITY [M=2.71, F=1.00] FROM DENSITY LOG [DEP. ADJ. TO GRSED]
DPHISSED.V/V   : DENSITY POROSITY [M=2.65, F=1.00] FROM DENSITY LOG [DEP. ADJ. TO GRSED]
DPOLSWS .V/V   : DENSITY POROSITY [M=2.71, F=1.00] [CAL. FROM DENWS]
DRESWS  .OHMM  : DEEP RESISTIVITY [LLDED]
DRHOED  .G/C3  : DENSITY CORRECTION FROM DENSITY LOG [DEP. ADJ. TO GRSED]
DTED    .US/F  : DELTA TIME FROM SONIC LOG
DTWS    .US/F  : DELTA TIME [DTED]
GRDED   .GAPI  : GAMMA RAY FROM DENSITY LOG [DEP. ADJ. TO GRSED]
GRSED   .GAPI  : GAMMA RAY FROM SONIC LOG
GRWS    .GAPI  : GAMMA RAY [GRSED]
LLDED   .OHMM  : LATEROLOG DEEP RESISTIVITY  [READINGS >2000 ARE REDUCED TO 2000 OHMM]
LLSED   .OHMM  : LATEROLOG SHALLOW RESISTIVITY [READINGS >2000 ARE REDUCED TO 2000 OHMM]
NPHILSED.V/V   : NEUTRON POROSITY LIMESTONE FROM DENSITY LOG [DEP. ADJ. TO GRSED]
NPHISSED.V/V   : NEUTRON POROSITY SANDSTONE FROM DENSITY LOG [DEP. ADJ. TO GRSED]
NPOLSWS .V/V   : NEUTRON POROSITY LIMESTONE [1007' NPOLSCAL [CONV. FROM NPHISSED] 6161' NPHILSED]
RHOBED  .G/C3  : BULK DENSITY FROM DENSITY LOG [DEP. ADJ. TO GRSED]
SRESWS  .OHMM  : SHALLOW RESISTIVITY [LLSED]
~Params ----------------------------------------------------
PD  .                     GL : PERMANENT DATUM
EPD .FT                 2626 : ELEVATION PERMANENT DATUM
LMF .                     KB : LOG MEASURED FROM
DAPD.FT                 21.2 : FEET ABOVE PERMANENT DATUM
EKB .FT               2647.2 : KELLY BUSHING
EGL .FT                 2626 : GROUND LEVEL
DATE.               05/12/77 : RUN DATE
RUN .                      2 : RUN NUMBER
DD  .FT                 9950 : DEPTH DRILLER
DL  .FT                 9947 : DEPTH LOGGER
BLI .FT                 9931 : BOTTOM LOG INTERVAL
TLI .FT                 8800 : TOP LOG INTERVAL
CBD .FT                 1026 : CASING BOTTOM DRILLER
BS  .IN                 8.75 : BIT SIZE
BSD .FT                 9950 : BIT SIZE AT DEPTH
DFT .                    KCL : DRILLING FLUID TYPE
DFD .                    8.9 : DRILLING FLUID DENSITY
DFV .                     65 : DRILLING FLUID VISCOSITY
DFPH.                   10.5 : DRILLING FLUID PH
MSS .             CIRCULATED : MUD SAMPLE SOURCE
RMS .OHMM               0.28 : RESISTIVITY MUD SAMPLE
MST .DEGF                 76 : MUD SAMPLE TEMPERATURE
RMF .OHMM               0.12 : RESISTIVITY MUD FILTRATE SAMPLE
MFST.DEGF                186 : MUD FILTRATE SAMPLE TEMPERATURE
RMB .OHMM               0.19 : RESISTIVITY MUD AT BHT
TCS .HRS                   1 : TIME CIRCULATED STOPPED
LUN .              OSU C 308 : LOGGING UNIT NUMBER
LUL .                    EDM : LOGGING UNIT LOCATION
ENGI.                   BIGG : RECORDING ENGINEER
WITN.                   WEBB : WITNESSED BY
CLNT.                A2DTECH : CLIENT CODE
ORIG.            2" 5" PRINT : ORIGIN OF DATA
UWI .       100113305613W500 : UNIQUE WELL ID
DICO. A2D Technologies, Inc. : DIGITIZING COMPANY
~Other -----------------------------------------------------
~ASCII -----------------------------------------------------
# ...
 8850.00000    8.93790    8.93790   65.55610    0.01990    2.70430   -0.00340    -999.25    0.00330   15.25410    0.01990   64.12560   64.12560   67.95000   76.09590   76.09590   15.25410   18.94760    0.13310    -999.25    0.13310    2.70430   18.94760
 8900.00000    8.88200    8.88200   76.05370    0.01530    2.70030    0.00050    -999.25    0.00570   13.14860    0.01530   71.23240   71.23240  108.85500  112.60800  112.60800   13.14860   15.59770    0.20600    -999.25    0.20600    2.70030   15.59770
 8950.00000    8.90130    8.90130   80.29340    0.02140    2.68890    0.00720    -999.25    0.01240   12.45440    0.02140   68.93240   68.93240   96.67500   94.18250   94.18250   12.45440   14.29020    0.18420    -999.25    0.18420    2.68890   14.29020
 9000.00000    8.89490    8.89490   89.63550    0.01810    2.68560    0.00940    -999.25    0.01430   11.15630    0.01810   72.56440   72.56440   96.75000  108.60000  108.60000   11.15630   13.09100    0.19460    -999.25    0.19460    2.68560   13.09100
 9050.00000    8.88350    8.88350   82.00490   -0.00290    2.65770    0.02560    -999.25    0.03060   12.19440   -0.00290   69.66270   69.66270   91.93500   97.49780   97.49780   12.19440   12.92980    0.19440    -999.25    0.19440    2.65770   12.92980
 9100.00000    8.83530    8.83530    2.81240    0.04300    2.59840    0.06510    -999.25    0.06530  355.56330    0.04300   70.19830   70.19830   81.54000   82.81040   82.81040  355.56330  258.75260    0.14400    -999.25    0.14400    2.59840  258.75260
 9150.00000    8.85840    8.85840   28.23230    0.01040    2.65740    0.02890    -999.25    0.03080   35.42040    0.01040   64.50910   64.50910   78.76500   79.01320   79.01320   35.42040   37.33030    0.13740    -999.25    0.13740    2.65740   37.33030
 9200.00000    8.80850    8.80850   73.74630    0.00960    2.67720    0.01770    -999.25    0.01920   13.57100    0.00960   72.45010   72.45010  109.81500  111.69640  111.69640   13.57100   12.12610    0.19500    -999.25    0.19500    2.67720   12.12610
 9250.00000    8.87560    8.87560    9.83500    0.00640    2.53650    0.10060    -999.25    0.10150  101.67810    0.00640   73.73760   73.73760  120.82500  141.58040  141.58040  101.67810   82.71550    0.19330    -999.25    0.19330    2.53650   82.71550
 9300.00000    8.88480    8.88480    6.05920    0.03400    2.72240   -0.00930    -999.25   -0.00730  165.03720    0.03400   52.16320   52.16320   30.28500   36.50910   36.50910  165.03720  125.44840    0.03380    -999.25    0.03380    2.72240  125.44840
 9350.00000    8.83360    8.83360   63.62170    0.01570    2.68230    0.01210    -999.25    0.01620   15.71790    0.01570   65.31510   65.31510   81.69000   92.68530   92.68530   15.71790   15.18210    0.16000    -999.25    0.16000    2.68230   15.18210
 9400.00000    8.84330    8.84330    6.68200    0.00580    2.69100    0.00800    -999.25    0.01110  149.65590    0.00580   52.52790   52.52790   29.94000   38.85750   38.85750  149.65590  126.32510    0.03510    -999.25    0.03510    2.69100  126.32510
 9450.00000    9.24590    9.24590    0.50000    0.01020    2.68610    0.01110    -999.25    0.01400 2000.00000    0.01030   50.47280   50.47280   17.85750   20.76390   20.76390 2000.00000  688.29330    0.01150    -999.25    0.01150    2.68610  688.29330
 9500.00000    8.90660    8.90660    0.53710    0.01370    2.70620    0.00120    -999.25    0.00220 1861.69760    0.01370   48.43360   48.43360   13.42500   16.70090   16.70090 1861.69760  327.96300    0.00420    -999.25    0.00420    2.70620  327.96300
 9550.00000    8.84160    8.84160    4.74990    0.01140    2.68650    0.00820    -999.25    0.01370  210.53080    0.01140   50.57350   50.57350   11.67000   15.06610   15.06610  210.53080  141.71680    0.00720    -999.25    0.00720    2.68650  141.71680
 9600.00000    9.18310    9.18310    0.50000    0.02160    2.72750   -0.01620    -999.25   -0.01020 2000.00000    0.02160   50.16200   50.16200   16.84500   21.28540   21.28540 2000.00000  333.37730    0.00680    -999.25    0.00680    2.72750  333.37730
 9650.00000    9.05110    9.05110    0.50000    0.04050    2.68380    0.01180    -999.25    0.01530 2000.00000    0.04050   50.86240   50.86240   12.72000   13.54210   13.54210 2000.00000  295.86180    0.01740    -999.25    0.01740    2.68380  295.86180
 9700.00000    8.92560    8.92560   42.18770    0.01600    2.67060    0.01940    -999.25    0.02300   23.71040    0.01610   69.63590   69.63590  152.50500  180.27440  180.27440   23.71040   24.91240    0.19680    -999.25    0.19680    2.67060   24.91240
 9750.00000    8.81760    8.81760   30.45640    0.01420    2.69680    0.00450    -999.25    0.00770   32.83380    0.01420   61.71120   61.71120  150.21000  153.80340  153.80340   32.83380   32.87510    0.17020    -999.25    0.17020    2.69680   32.87510
 9800.00000    8.74620    8.74620   29.00940    0.02890    2.67450    0.01650    -999.25    0.02080   34.47160    0.02890   61.32650   61.32650    -999.25  132.66880  132.66880   34.47160   37.16990    0.04460    -999.25    0.04460    2.67450   37.16990
 9850.00000    8.67360    8.67360  651.63560    -999.25    -999.25    -999.25    -999.25    -999.25    1.53460    -999.25   68.63990   68.63990    -999.25   43.08330   43.08330    1.53460    2.02570    -999.25    -999.25    -999.25    -999.25    2.02570
 9900.00000    8.87900    8.87900   80.49070    -999.25    -999.25    -999.25    -999.25    -999.25   12.42380    -999.25   50.81450   50.81450    -999.25   28.58080   28.58080   12.42380   18.51010    -999.25    -999.25    -999.25    -999.25   18.51010
