~Version ---------------------------------------------------
VERS.      2.0 : CWLS log ASCII Standard -VERSION 2.0
WRAP.       NO : One line per depth step
CREA. 01/04/18 : LAS Creation Date
~Well ------------------------------------------------------
STRT.FT                     1950.0 : START DEPTH
STOP.FT                    11350.0 : STOP DEPTH
STEP.FT                   50.00000 : STEP LENGTH
NULL.                      -999.25 : NULL VALUE
COMP.     CHEVRON STANDARD LIMITED : COMPANY
WELL. CHEVRON CLARK NO 10-15-59-18 : WELL
FLD .                              : FIELD
LOC .                              : LOCATION
CTRY.                       CANADA : COUNTRY
SRVC.                Dresser Atlas : SERVICE COMPANY
DATE.                  26-Oct-1968 : LOGDATE
PROV.                      Alberta : PROVINCE
UWI .             100101505918W500 : UNIQUE WELL ID
SLAT.WGS84                54.10291 : SURFACE LATITUDE
SLON.WGS84               -116.6105 : SURFACE LONGITUDE
~Curve Information -----------------------------------------
DEPT    .FT        : Depth Curve
ACED    .US/F      : DELTA TIME (ACOUSTIC) FROM SONIC LOG [DEPTH ADJ. TO ILDED]
CALSED  .IN        : CALIPER FROM SONIC LOG [DEPTH ADJ. TO ILDED]
CALWS   .IN        : CALIPER [CALSED]
CILED   .MMHO      : CONDUCTIVITY FROM RESISTIVITY LOG
CONDWS  .MMHO      : CONDUCTIVITY [1000/DRESWS]
DRESWS  .OHMM      : DEEP RESISTIVITY [IF ILED<1;1000/CILED;ELSE ILED]
DTWS    .US/F      : DELTA TIME [ACED]
GRSED   .GAPI      : GAMMA RAY FROM SONIC LOG [DEPTH ADJ. TO ILDED]
GRTED   .GAPI      : GAMMA RAY FROM TDT LOG [DEPTH ADJ. TO ILDED]
GRWS    .GAPI      : GAMMA RAY [GRSED]
ILED    .OHMM      : INDUCTION LOG RESISTIVITY
NPHIED  .V/V       : NEUTRON POROSITY FROM DENSITY LOG [DEPTH ADJ. TO ILDED]
NPOWS   .V/V       : NEUTRON POROSITY [NPHIED]
RATIO1ED.UNITLESS  : ATIO FROM TDT LOG  [DEPTH ADJ. TO ILDED]
RATIOED .UNITLESS  : RATIO FROM TDT LOG  [DEPTH ADJ. TO ILDED]
SIGMED  .CU        : NEUTRON CAPTURE CROSS SECTION FROM TDT LOG [DEPTH ADJ. TO ILDED]
SNED    .OHMM      : 16 INCH SHORT NORMAL RESISTIVITY FROM IEL
SPRED   .MV        : SPONTANEOUS POTENTIAL FROM RESISTIVITY LOG
SPWS    .MV        : SPONTANEOUS POTENTIAL [BASELINE 0 MV] [SPRED]
SRESWS  .OHMM      : SHALLOW RESISTIVITY [SNED]
TAUED   .ms        : THERMAL DECAY TIME FROM TDT LOG [DEPTH ADJ. TO ILDED]
~Params ----------------------------------------------------
PD  .                     GL : PERMANENT DATUM
EPD .FT               3420.5 : ELEVATION PERMANENT DATUM
LMF .                     KB : LOG MEASURED FROM
DAPD.FT                 15.5 : FEET ABOVE PERMANENT DATUM
DMF .                     KB : DRILLING MEASURED FROM
EKB .FT                 3436 : KELLY BUSHING
EGL .FT               3420.5 : GROUND LEVEL
DATE.               10/26/68 : RUN DATE
RUN .                      1 : RUN NUMBER
DD  .FT                11393 : DEPTH DRILLER
DL  .FT                11390 : DEPTH LOGGER
BLI .FT                11386 : BOTTOM LOG INTERVAL
TLI .FT                 2028 : TOP LOG INTERVAL
CS  .IN                9.625 : CASING SIZE
CBD .FT                 2028 : CASING BOTTOM DRILLER
CBL .FT                 2028 : CASING BOTTOM LOGGER
BS  .IN                 8.75 : BIT SIZE
BSD .FT                11393 : BIT SIZE AT DEPTH
DFT .                MUD GEL : DRILLING FLUID TYPE
DFD .                    9.6 : DRILLING FLUID DENSITY
DFV .                    100 : DRILLING FLUID VISCOSITY
DFPH.                     11 : DRILLING FLUID PH
DFL .                    8.2 : DRILLING FLUID LOSS
MSS .                   CIRC : MUD SAMPLE SOURCE
RMS .OHMM                1.7 : RESISTIVITY MUD SAMPLE
MST .DEGF                 44 : MUD SAMPLE TEMPERATURE
RMF .OHMM                1.4 : RESISTIVITY MUD FILTRATE SAMPLE
MFST.DEGF                 44 : MUD FILTRATE SAMPLE TEMPERATURE
RMC .OHMM                1.8 : RESISTIVITY MUD CAKE
MCST.DEGF                 44 : MUD CAKE SAMPLE TEMPERATURE
MFSS.                   MEAS : MUD FILTRATE SAMPLE SOURCE
MCSS.                   MEAS : MUD CAKE SAMPLE SOURCE
RMB .OHMM               0.35 : RESISTIVITY MUD AT BHT
TCS .HRS                   4 : TIME CIRCULATED STOPPED
LUN .                   6002 : LOGGING UNIT NUMBER
LUL .                    EDM : LOGGING UNIT LOCATION
ENGI.                  BLAND : RECORDING ENGINEER
WITN.     HOUDEBO JOYCE LEOD : WITNESSED BY
CLNT.                A2DTECH : CLIENT CODE
ORIG.            2" 5" PRINT : ORIGIN OF DATA
UWI .       100101505918W500 : UNIQUE WELL ID
DICO. A2D Technologies, Inc. : DIGITIZING COMPANY
~Other -----------------------------------------------------
~ASCII -----------------------------------------------------
 1950.00000    -999.25    -999.25    -999.25    -999.25    -999.25    -999.25    -999.25   58.02920    -999.25   58.02920    -999.25    -999.25    -999.25    -999.25    -999.25    -999.25    -999.25    -999.25    -999.25    -999.25    -999.25
 2000.00000    -999.25    -999.25    -999.25    -999.25    -999.25    -999.25    -999.25   48.10480    -999.25   48.10480    -999.25    -999.25    -999.25    -999.25    -999.25    -999.25    -999.25    -999.25    -999.25    -999.25    -999.25
 2050.00000   98.27610    9.55310    9.55310  220.65740  213.89000    4.67530   98.27610   81.64450    -999.25   81.64450    4.67530    -999.25    -999.25    -999.25    -999.25    -999.25    7.27900  -27.99990   -3.84040    7.27900    -999.25
 2100.00000   89.72090    9.81370    9.81370  149.74390  141.51480    7.06640   89.72090   72.07730    -999.25   72.07730    7.06640    -999.25    -999.25    -999.25    -999.25    -999.25    7.74800  -29.80370   -5.64420    7.74800    -999.25
 2150.00000   89.94910   10.38900   10.38900  147.49520  139.96390    7.14470   89.94910   76.27320    -999.25   76.27320    7.14470    -999.25    -999.25    -999.25    -999.25    -999.25    7.84250  -27.82700   -3.66750    7.84250    -999.25
 2200.00000   95.62710   10.03140   10.03140  196.52920  193.51900    5.16750   95.62710   82.15500    -999.25   82.15500    5.16750    -999.25    -999.25    -999.25    -999.25    -999.25    5.60620  -26.49590   -2.33640    5.60620    -999.25
 2250.00000   93.15560   10.65430   10.65430  182.20330  172.45240    5.79870   93.15560   80.94500    -999.25   80.94500    5.79870    -999.25    -999.25    -999.25    -999.25    -999.25    6.46790  -27.43490   -3.27540    6.46790    -999.25
 2300.00000   86.34430    9.74660    9.74660   75.77670   68.53590   14.59090   86.34430   46.23300    -999.25   46.23300   14.59090    -999.25    -999.25    -999.25    -999.25    -999.25   17.95080  -38.00840  -13.84890   17.95080    -999.25
 2350.00000   86.97560   10.55630   10.55630  172.43300  159.88740    6.25440   86.97560   88.14420    -999.25   88.14420    6.25440    -999.25    -999.25    -999.25    -999.25    -999.25    8.45980  -26.46460   -2.29170    8.45980    -999.25
 2400.00000   91.40720   10.77860   10.77860  196.05590  179.24680    5.57890   91.40720   82.97790    -999.25   82.97790    5.57890    -999.25    -999.25    -999.25    -999.25    -999.25    6.42130  -26.75220   -2.55870    6.42130    -999.25
 2450.00000  118.56580   10.07070   10.07070  374.65770  357.28320    2.79890  118.56580  106.16290    -999.25  106.16300    2.79890    -999.25    -999.25    -999.25    -999.25    -999.25    3.85180  -25.91270   -1.69850    3.85180    -999.25
 2500.00000   89.29930   10.39430   10.39430  147.45420  142.54960    7.01510   89.29930   77.01580    -999.25   77.01580    7.01510    -999.25    -999.25    -999.25    -999.25    -999.25    7.98950  -27.15390   -2.91920    7.98950    -999.25
 2550.00000  135.18070   10.14200   10.14200  167.57310  160.28470    6.23890  135.18070   72.29400    -999.25   72.29400    6.23890    -999.25    -999.25    -999.25    -999.25    -999.25    9.44530  -25.85800   -1.60270    9.44530    -999.25
 2600.00000   86.61630    9.32960    9.32960  168.39640  158.42340    6.31220   86.61630   62.08340    -999.25   62.08340    6.31220    -999.25    -999.25    -999.25    -999.25    -999.25    7.36440  -27.70680   -3.43090    7.36440    -999.25
 2650.00000  105.99290    9.85150    9.85150  267.01890  264.80950    3.77630  105.99290   72.23220    -999.25   72.23220    3.77630    -999.25    -999.25    -999.25    -999.25    -999.25    4.37320  -26.84610   -2.54960    4.37320    -999.25
 2700.00000   99.54940    9.47480    9.47480  252.65340  243.30600    4.11010   99.54940   83.67330    -999.25   83.67330    4.11010    -999.25    -999.25    -999.25    -999.25    -999.25    4.88700  -27.00250   -2.68530    4.88700    -999.25
 2750.00000  100.68020   10.75950   10.75950  241.92460  245.60970    4.07150  100.68020   70.95480    -999.25   70.95480    4.07150    -999.25    -999.25    -999.25    -999.25    -999.25    5.17250  -27.90830   -3.57070    5.17250    -999.25
 2800.00000   99.24710   10.89300   10.89300  216.90490  212.61670    4.70330   99.24710   88.57480    -999.25   88.57480    4.70330    -999.25    -999.25    -999.25    -999.25    -999.25    6.27040  -28.03470   -3.67650    6.27040    -999.25
 2850.00000   99.95840   11.71200   11.71200  178.96070  175.66670    5.69260   99.95840   91.75940    -999.25   91.75940    5.69260    -999.25    -999.25    -999.25    -999.25    -999.25    6.14060  -28.02660   -3.64780    6.14060    -999.25
 2900.00000   91.69910   10.86320   10.86320  228.59630  229.01640    4.36650   91.69910   82.55360    -999.25   82.55360    4.36650    -999.25    -999.25    -999.25    -999.25    -999.25    5.22630  -29.10780   -4.70840    5.22630    -999.25
 2950.00000   90.93900   10.70880   10.70880  182.02510  189.71730    5.27100   90.93900   79.17520    -999.25   79.17510    5.27100    -999.25    -999.25    -999.25    -999.25    -999.25    6.00650  -27.67630   -3.25620    6.00640    -999.25
 3000.00000   94.59900   11.80210   11.80210  216.60630  206.93650    4.83240   94.59900   92.68530    -999.25   92.68530    4.83240    -999.25    -999.25    -999.25    -999.25    -999.25    6.20310  -27.17580   -2.73520    6.20310    -999.25
 3050.00000   86.23690   10.84890   10.84890  115.32190  111.82310    8.94270   86.23690   75.30500    -999.25   75.30500    8.94270    -999.25    -999.25    -999.25    -999.25    -999.25   10.07210  -29.39160   -4.93040   10.07210    -999.25
 3100.00000  103.47530   10.06600   10.06600  265.87940  266.69510    3.74960  103.47530   97.47540    -999.25   97.47540    3.74960    -999.25    -999.25    -999.25    -999.25    -999.25    4.48820  -27.74020   -3.25840    4.48820    -999.25
 3150.00000   91.36260    9.79540    9.79540  228.73220  224.33600    4.45760   91.36260   97.92200    -999.25   97.92200    4.45760    -999.25    -999.25    -999.25    -999.25    -999.25    4.92540  -27.33070   -2.82830    4.92540    -999.25
 3200.00000   88.86650    9.71030    9.71030  135.37200  122.41480    8.16890   88.86650   85.00870    -999.25   85.00870    8.16890    -999.25    -999.25    -999.25    -999.25    -999.25    9.74460  -28.57850   -4.05540    9.74460    -999.25
 3250.00000   97.93340    9.91920    9.91920  222.15980  209.45920    4.77420   97.93340   86.75690    -999.25   86.75690    4.77420    -999.25    -999.25    -999.25    -999.25    -999.25    5.16800  -26.27710   -1.73350    5.16800    -999.25
 3300.00000   87.29980   11.11790   11.11790  234.76630  216.51580    4.61860   87.29980   82.32690    -999.25   82.32690    4.61860    -999.25    -999.25    -999.25    -999.25    -999.25    5.01520  -26.25610   -1.69190    5.01520    -999.25
 3350.00000   86.87210   11.14760   11.14760  235.61080  230.77100    4.33330   86.87210   70.05640    -999.25   70.05640    4.33330    -999.25    -999.25    -999.25    -999.25    -999.25    4.97640  -26.22190   -1.63710    4.97640    -999.25
 3400.00000   87.61620   11.82210   11.82210  105.70170   95.54840   10.46590   87.61620   57.61910    -999.25   57.61910   10.46590    -999.25    -999.25    -999.25    -999.25    -999.25   11.22780  -35.25860  -10.65320   11.22780    -999.25
 3450.00000   92.60470   10.38400   10.38400  186.03780  191.42970    5.22380   92.60470   73.56530    -999.25   73.56520    5.22390    -999.25    -999.25    -999.25    -999.25    -999.25    5.88860  -26.17580   -1.54980    5.88860    -999.25
 3500.00000   82.25920   11.59980   11.59980  106.03550   96.43570   10.36960   82.25920   67.55990    -999.25   67.55990   10.36960    -999.25    -999.25    -999.25    -999.25    -999.25   11.85720  -30.37270   -5.72610   11.85720    -999.25
 3550.00000  140.07530   11.14240   11.14240  162.40810  151.11450    6.61750  140.07530   67.67670    -999.25   67.67670    6.61750    -999.25    -999.25    -999.25    -999.25    -999.25    7.75760  -29.74190   -5.07480    7.75760    -999.25
