~Version ---------------------------------------------------
VERS.      2.0 : CWLS log ASCII Standard -VERSION 2.0
WRAP.       NO : One line per depth step
CREA. 12/21/17 : LAS Creation Date
~Well ------------------------------------------------------
STRT.FT                         1250.0 : START DEPTH
STOP.FT                        12650.0 : STOP DEPTH
STEP.FT                       50.00000 : STEP LENGTH
NULL.                          -999.25 : NULL VALUE
COMP. AMOCO CANADA PETROLEUM CO., LTD. : COMPANY
WELL. AMOCO A-1 DEEP VALLEY 6-32-61-23 : WELL
FLD .                                  : FIELD
LOC .                                  : LOCATION
CTRY.                           CANADA : COUNTRY
SRVC.           Schlumberger of Canada : SERVICE COMPANY
DATE.                      06-Sep-1970 : LOGDATE
PROV.                          Alberta : PROVINCE
UWI .                 100063206123W500 : UNIQUE WELL ID
SLAT.WGS84                    54.31655 : SURFACE LATITUDE
SLON.WGS84                   -117.4164 : SURFACE LONGITUDE
~Curve Information -----------------------------------------
DEPT    .FT    : Depth Curve
CALDED  .IN    : CALIPER FROM DENSITY LOG [ADJ. TO RESISTIVITY LOG]
CALNED  .IN    : CALIPER FROM SNP LOG [ADJ. TO RESISTIVITY LOG]
CALSED  .IN    : CALIPER FROM SONIC LOG
CALWS   .IN    : CALIPER [CALSED]
CONDWS  .MMHO  : CONDUCTIVITY [1000/DRESWS]
CORRED  .G/C3  : DENSITY CORRECTION FROM DENSITY LOG [ADJ. TO RESISTIVITY LOG]
DCORWS  .G/C3  : DENSITY CORRECTION [CORRED]
DENWS   .G/C3  : FORMATION BULK DENSITY [RHOBED]
DPHILSED.V/V   : DENSITY POROSITY LIMESTONE [M=2.71, F=1.00] FROM DENSITY LOG [ADJ. TO RESISTIVITY LOG]
DPOLSWS .V/V   : DENSITY POROSITY LIMESTONE [CALC FROM DENWS,M=2.71, F=1.00]
DRESWS  .OHMM  : DEEP RESISTIVITY [ILDED]
DTED    .US/F  : DELTA-T FROM SONIC LOG [ADJ. TO RESISTIVITY LOG]
DTWS    .US/F  : COMPRESSIONAL SONIC [DTED]
GRDED   .GAPI  : GAMMA RAY FROM DENSITY LOG [ADJ. TO RESISTIVITY LOG]
GRNED   .GAPI  : GAMMA RAY FROM SNP LOG [ADJ. TO RESISTIVITY LOG]
GRSED   .GAPI  : GAMMA RAY FROM SONIC LOG
GRWS    .GAPI  : GAMMA RAY [GRSED SPL. TO GRDED @ 1502'& SPL. TO GRNED @ 12657']
ILDED   .OHMM  : DEEP INDUCTION RESISTIVITY FROM RESISTIVITY LOG
ILMED   .OHMM  : MEDIUM INDUCTION FROM RESISTIVITY LOG
LL8ED   .OHMM  : LATEROLOG 8 FROM RESISTIVITY LOG
MRESWS  .OHMM  : MEDIUM RESISTIVITY [ILMED]
NPHILSED.V/V   : NEUTRON POROSITY LIMESTONE FROM SNP LOG [ADJ. TO RESISTIVITY LOG]
NPOLSWS .V/V   : NEUTRON POROSITY LIMESTONE [NPHILSED]
RHOBED  .G/C3  : BULK DENSITY FROM DENSITY LOG [ADJ. TO RESISTIVITY LOG]
SPRED   .MV    : SPONTANEOUS POTENTIAL FROM RESISTIVITY LOG
SPWS    .MV    : SPONTANEOUS POTENTIAL [BASELINE 0 MV,SPRED]
SRESWS  .OHMM  : SHALLOW RESISTIVITY [LLBED]
~Params ----------------------------------------------------
PD  .                     GL : PERMANENT DATUM
EPD .FT                 3450 : ELEVATION PERMANENT DATUM
LMF .                     KB : LOG MEASURED FROM
DAPD.FT                   14 : FEET ABOVE PERMANENT DATUM
EKB .FT                 3464 : KELLY BUSHING
EGL .FT                 3450 : GROUND LEVEL
DATE.               11/06/70 : RUN DATE
RUN .                      1 : RUN NUMBER
DD  .FT                12700 : DEPTH DRILLER
DL  .FT                12697 : DEPTH LOGGER
BLI .FT                12691 : BOTTOM LOG INTERVAL
TLI .FT                 1513 : TOP LOG INTERVAL
CBD .FT                 1514 : CASING BOTTOM DRILLER
CBL .FT                 1513 : CASING BOTTOM LOGGER
BS  .IN                 8.75 : BIT SIZE
BSD .FT                12700 : BIT SIZE AT DEPTH
DFT .                    GEL : DRILLING FLUID TYPE
DFD .                    9.1 : DRILLING FLUID DENSITY
DFV .                     85 : DRILLING FLUID VISCOSITY
DFPH.                    8.5 : DRILLING FLUID PH
DFL .                   11.8 : DRILLING FLUID LOSS
MSS .               MEASURED : MUD SAMPLE SOURCE
RMS .OHMM               2.56 : RESISTIVITY MUD SAMPLE
MST .DEGF                 59 : MUD SAMPLE TEMPERATURE
RMF .OHMM               2.14 : RESISTIVITY MUD FILTRATE SAMPLE
MFST.DEGF                 58 : MUD FILTRATE SAMPLE TEMPERATURE
RMC .OHMM               2.35 : RESISTIVITY MUD CAKE
MCST.DEGF                 62 : MUD CAKE SAMPLE TEMPERATURE
TCS .HRS                 500 : TIME CIRCULATED STOPPED
TLAB.HRS                  30 : TIME LOGGER AT BOTTOM
LUN .                   7501 : LOGGING UNIT NUMBER
LUL .                    EDM : LOGGING UNIT LOCATION
ENGI.                HAYWOOD : RECORDING ENGINEER
WITN.                   DION : WITNESSED BY
CLNT.                A2DTECH : CLIENT CODE
ORIG.            2" 5" PRINT : ORIGIN OF DATA
UWI .       100063206123W500 : UNIQUE WELL ID
DICO. A2D Technologies, Inc. : DIGITIZING COMPANY
~Other -----------------------------------------------------
DIL-LAT,FDC-SNP-BCS LOG RAN
~ASCII -----------------------------------------------------
# ...
 9050.00000    -999.25    -999.25   11.98940   11.98940   11.76360    -999.25    -999.25    -999.25    -999.25    -999.25   85.00800   52.39570   52.39570    -999.25    -999.25   18.02130   18.02130   85.00800   90.21220  243.57110   90.21220    -999.25    -999.25    -999.25 -161.59130 -119.92680  243.57110
 9100.00000    -999.25    -999.25    9.74560    9.74560    4.96410    -999.25    -999.25    -999.25    -999.25    -999.25  201.44740   50.08800   50.08800    -999.25    -999.25   20.05320   20.05320  201.44740  157.67320  158.07600  157.67320    -999.25    -999.25    -999.25 -124.51730  -82.19760  158.07600
 9150.00000    -999.25    -999.25    9.51910    9.51910   15.77930    -999.25    -999.25    -999.25    -999.25    -999.25   63.37420   60.50460   60.50460    -999.25    -999.25   67.18310   67.18310   63.37420   63.57660   65.27060   63.57660    -999.25    -999.25    -999.25  -57.81490  -14.83720   65.27060
 9200.00000    -999.25    -999.25    9.69280    9.69280    8.24170    -999.25    -999.25    -999.25    -999.25    -999.25  121.33410   49.30110   49.30110    -999.25    -999.25   18.47320   18.47320  121.33410  201.97700  931.58360  201.97700    -999.25    -999.25    -999.25 -139.19720  -99.04860  931.58360
 9250.00000    -999.25    -999.25    9.04310    9.04310  112.38100    -999.25    -999.25    -999.25    -999.25    -999.25    8.89830   60.06550   60.06550    -999.25    -999.25   25.57170   25.57170    8.89830   12.32950   32.56650   12.32950    -999.25    -999.25    -999.25 -141.24130 -105.14350   32.56650
 9300.00000    -999.25    -999.25    9.50970    9.50970   95.83130    -999.25    -999.25    -999.25    -999.25    -999.25   10.43500   56.96940   56.96940    -999.25    -999.25   39.25900   39.25900   10.43500   11.25880   15.31300   11.25880    -999.25    -999.25    -999.25  -99.01400  -66.96690   15.31300
 9350.00000    -999.25    -999.25    9.45080    9.45080   26.70600    -999.25    -999.25    -999.25    -999.25    -999.25   37.44480   54.38370   54.38370    -999.25    -999.25   49.97820   49.97820   37.44480   34.33350   57.39830   34.33350    -999.25    -999.25    -999.25  -67.84940  -39.85560   57.39830
 9400.00000    -999.25    -999.25   10.05850   10.05850    2.81170    -999.25    -999.25    -999.25    -999.25    -999.25  355.65890   50.12730   50.12730    -999.25    -999.25   15.24890   15.24890  355.65890  527.26250 1083.90520  527.26250    -999.25    -999.25    -999.25 -134.78360 -110.84060 1083.90520
 9450.00000    -999.25    -999.25    9.12490    9.12490   73.18550    -999.25    -999.25    -999.25    -999.25    -999.25   13.66390   50.39680   50.39680    -999.25    -999.25   12.00880   12.00880   13.66390   24.15930  194.58240   24.15930    -999.25    -999.25    -999.25 -194.95990 -175.07020  194.58240
 9500.00000    -999.25    -999.25    9.61910    9.61910    3.59640    -999.25    -999.25    -999.25    -999.25    -999.25  278.05250   49.95290   49.95290    -999.25    -999.25   10.80090   10.80090  278.05250  194.84510  196.60300  194.84510    -999.25    -999.25    -999.25 -152.21460 -136.37570  196.60300
 9550.00000    -999.25    -999.25    9.27100    9.27100   68.41260    -999.25    -999.25    -999.25    -999.25    -999.25   14.61720   61.63130   61.63130    -999.25    -999.25   94.71980   94.71980   14.61720   16.48290   24.13680   16.48290    -999.25    -999.25    -999.25  -64.46560  -52.67740   24.13680
 9600.00000    -999.25    -999.25    9.34430    9.34430  190.06350    -999.25    -999.25    -999.25    -999.25    -999.25    5.26140   60.39480   60.39480    -999.25    -999.25   49.81310   49.81310    5.26140    5.34710   16.89350    5.34710    -999.25    -999.25    -999.25  -86.80730  -79.07240   16.89350
 9650.00000    -999.25    -999.25   10.13160   10.13160   28.25500    -999.25    -999.25    -999.25    -999.25    -999.25   35.39200   54.23330   54.23330    -999.25    -999.25   15.10070   15.10070   35.39200   58.66500  500.70790   58.66500    -999.25    -999.25    -999.25  -48.04790  -44.36380  500.70790
 9700.00000    -999.25    -999.25   10.12050   10.12050   34.62980    -999.25    -999.25    -999.25    -999.25    -999.25   28.87690   60.77450   60.77450    -999.25    -999.25   50.73340   50.73340   28.87690   24.76940   42.03410   24.76940    -999.25    -999.25    -999.25  -16.99530  -17.30250   42.03410
 9750.00000    -999.25    -999.25    9.88850    9.88850   44.71190    -999.25    -999.25    -999.25    -999.25    -999.25   22.36540   51.96250   51.96250    -999.25    -999.25   25.74910   25.74910   22.36540   30.26620   41.65960   30.26620    -999.25    -999.25    -999.25  -21.20630  -19.36380   41.65960
 9800.00000    -999.25    -999.25    9.37990    9.37990   50.80890    -999.25    -999.25    -999.25    -999.25    -999.25   19.68160   60.14830   60.14830    -999.25    -999.25   51.90060   51.90060   19.68160   22.18220   27.38830   22.18220    -999.25    -999.25    -999.25  -24.50740  -20.51530   27.38830
 9850.00000    -999.25    -999.25    9.17770    9.17770   21.52610    -999.25    -999.25    -999.25    -999.25    -999.25   46.45520   55.67690   55.67690    -999.25    -999.25   32.64060   32.64060   46.45520   48.69140   65.12330   48.69140    -999.25    -999.25    -999.25  -34.08310  -27.94400   65.12330
 9900.00000    -999.25    -999.25    9.19770    9.19770   24.67580    -999.25    -999.25    -999.25    -999.25    -999.25   40.52550   55.82200   55.82200    -999.25    -999.25   36.83570   36.83570   40.52550   42.65290   72.04660   42.65290    -999.25    -999.25    -999.25  -19.09180  -10.77330   72.04660
 9950.00000    -999.25    -999.25    9.34050    9.34050   71.22250    -999.25    -999.25    -999.25    -999.25    -999.25   14.04050   61.35310   61.35310    -999.25    -999.25   54.98090   54.98090   14.04050   15.12520   19.57900   15.12520    -999.25    -999.25    -999.25  -28.48780  -16.88600   19.57900
 10000.00000    -999.25    -999.25    9.17270    9.17270   16.78030    -999.25    -999.25    -999.25    -999.25    -999.25   59.59360   55.21590   55.21590    -999.25    -999.25   33.12910   33.12910   59.59360   68.57660   96.76470   68.57660    -999.25    -999.25    -999.25  -44.88810  -30.00760   96.76470
 10050.00000    -999.25    -999.25    9.16260    9.16260   17.80250    -999.25    -999.25    -999.25    -999.25    -999.25   56.17200   55.59370   55.59370    -999.25    -999.25   41.40980   41.40980   56.17200   60.23440   84.22150   60.23440    -999.25    -999.25    -999.25  -75.94150  -57.78240   84.22150
 10100.00000    -999.25    -999.25    9.17540    9.17540   37.36120    -999.25    -999.25    -999.25    -999.25    -999.25   26.76570   58.82910   58.82910    -999.25    -999.25   51.07540   51.07540   26.76570   27.74010   41.26970   27.74010    -999.25    -999.25    -999.25  -88.00120  -66.55860   41.26970
 10150.00000    -999.25    -999.25    9.16170    9.16170   18.32590    -999.25    -999.25    -999.25    -999.25    -999.25   54.56750   61.12300   61.12300    -999.25    -999.25   74.02550   74.02550   54.56750   62.21330   80.45940   62.21330    -999.25    -999.25    -999.25  -73.92380  -49.64810   80.45940
 10200.00000    -999.25    -999.25    9.53420    9.53420    0.67130    -999.25    -999.25    -999.25    -999.25    -999.25 1489.60750   49.70360   49.70360    -999.25    -999.25   13.73020   13.73020 1489.60750  619.68640 1600.99880  619.68640    -999.25    -999.25    -999.25 -115.00970  -89.16400 1600.99880
 10250.00000    -999.25    -999.25    9.52400    9.52400    0.90770    -999.25    -999.25    -999.25    -999.25    -999.25 1101.67610   49.46290   49.46290    -999.25    -999.25   12.50100   12.50100 1101.67610 1545.18790  962.50870 1545.18790    -999.25    -999.25    -999.25 -147.89390 -120.48300  962.50870
 10300.00000    -999.25    -999.25    9.41350    9.41350    0.91660    -999.25    -999.25    -999.25    -999.25    -999.25 1090.93920   49.53040   49.53040    -999.25    -999.25   13.95640   13.95640 1090.93920  810.15770  931.79330  810.15770    -999.25    -999.25    -999.25 -143.71370 -114.73750  931.79330
