~Version ---------------------------------------------------
VERS. 2.0 : CWLS log ASCII Standard -VERSION 2.0
WRAP.  NO : ONE LINE PER DEPTH STEP
~Well ------------------------------------------------------
STRT.F                             650.0 : START DEPTH
STOP.F                            5950.0 : STOP DEPTH
STEP.F                          50.00000 : STEP LENGTH
NULL.                            -999.25 : NULL VALUE
COMP. CANADIAN NATURAL RESOURCES LIMITED : COMPANY
WELL.            LASMO NIPISI 10-31-80-8 : WELL
FLD .                             NIPISI : FIELD
LOC .                                    : LOCATION
CTRY.                             CANADA : COUNTRY
SRVC.                         Lane Wells : SERVICE COMPANY
DATE.                        29-Jun-1966 : LOGDATE
PROV.                            Alberta : PROVINCE
UWI .                   100103108008W500 : UNIQUE WELL ID
SLAT.WGS84                 55.9797973633 : SURFACE LATITUDE
SLON.WGS84               -115.2371520996 : SURFACE LONGITUDE
~Curve Information -----------------------------------------
DEPT.F    0   1   0  0 : 1 MEASURED DEPTH
GRS .GAPI 60 310 01 00 : GAMMA RAY FROM SONIC LOG
AC  .US/F 60 500 31 00 : ACOUSTIC
CALS.IN   60 280 50 00 : CALIPER FROM SONIC LOG
CILD.MMHO 05 110 45 00 : INDUCTION CONDUCTIVITY
ILD .OHMM 05 120 45 00 : INDUCTION LOG RESISTIVITY
SN  .OHMM 05 040 16 00 : SHORT NORMAL RESISTIVITY
SPR .MV   05 010 01 00 : SPONTANEOUS POTENTIAL FROM RESISTIVITY LOG
~Params ----------------------------------------------------
PD  .                    CBF : PERMANENT DATUM
EPD .FT               2159.4 : ELEVATION PERMANENT DATUM
LMF .                     KB : LOG MEASURED FROM
DAPD.FT                 14.6 : FEET ABOVE PERMANENT DATUM
DMF .                     KB : DRILLING MEASURED FROM
EKB .FT                 2174 : KELLY BUSHING
EGL .FT               2159.4 : GROUND LEVEL
DATE.               06/29/66 : RUN DATE
RUN .                      1 : RUN NUMBER
DD  .FT                 5979 : DEPTH DRILLER
DL  .FT                 5976 : DEPTH LOGGER
BLI .FT                 5972 : BOTTOM LOG INTERVAL
TLI .FT                  627 : TOP LOG INTERVAL
CS  .IN                8.625 : CASING SIZE
CBD .FT                  627 : CASING BOTTOM DRILLER
CBL .FT                  627 : CASING BOTTOM LOGGER
BS  .IN                7.875 : BIT SIZE
BSD .FT                 5979 : BIT SIZE AT DEPTH
DFT .                MUD GEL : DRILLING FLUID TYPE
DFD .                   10.2 : DRILLING FLUID DENSITY
DFV .                     84 : DRILLING FLUID VISCOSITY
DFPH.                   10.5 : DRILLING FLUID PH
DFL .                    7.6 : DRILLING FLUID LOSS
MSS .                   CIRC : MUD SAMPLE SOURCE
RMS .OHMM               0.94 : RESISTIVITY MUD SAMPLE
MST .DEGF                 66 : MUD SAMPLE TEMPERATURE
RMF .OHMM               0.71 : RESISTIVITY MUD FILTRATE SAMPLE
MFST.DEGF                 67 : MUD FILTRATE SAMPLE TEMPERATURE
RMC .OHMM                1.9 : RESISTIVITY MUD CAKE
MCST.DEGF                 68 : MUD CAKE SAMPLE TEMPERATURE
MFSS.                      M : MUD FILTRATE SAMPLE SOURCE
MCSS.                      M : MUD CAKE SAMPLE SOURCE
RMB .OHMM               0.45 : RESISTIVITY MUD AT BHT
TCS .HRS                   2 : TIME CIRCULATED STOPPED
LUN .                   8038 : LOGGING UNIT NUMBER
LUL .                     SL : LOGGING UNIT LOCATION
ENGI.                 MOURRE : RECORDING ENGINEER
WITN.                 GASPER : WITNESSED BY
CLNT.                A2DTECH : CLIENT CODE
ORIG.            2" 5" PRINT : ORIGIN OF DATA
UWI .       100103108008W500 : UNIQUE WELL ID
DICO. A2D Technologies, Inc. : DIGITIZING COMPANY
~Other -----------------------------------------------------
~ASCII -----------------------------------------------------
  650.00000    -999.25    -999.25   11.93510  257.81410    4.46640    6.18550  -34.56890
  700.00000    -999.25    -999.25   11.20330  283.61810    4.28310    5.22210  -39.80460
  750.00000    -999.25    -999.25   13.47920  240.52060    4.93230    5.49740  -33.71510
  800.00000    -999.25    -999.25   13.55660  282.62820    4.29330    5.46110  -31.38930
  850.00000    -999.25    -999.25   11.70730  249.03000    3.88500    4.37070  -27.43230
  900.00000    -999.25    -999.25   10.16060  442.32750    3.10400    3.60060  -32.58180
  950.00000    -999.25    -999.25    9.55880  488.71710    2.88980    3.38380  -28.99310
 1000.00000    -999.25    -999.25   10.21060  418.30590    3.16610    3.99420  -27.94900
 1050.00000    -999.25    -999.25   10.32820  428.30250    3.09580    3.84770  -30.13900
 1100.00000    -999.25    -999.25   11.55720  318.15490    4.19220    4.96330  -35.35400
 1150.00000    -999.25    -999.25   12.36800  675.27030    2.28620    2.64580  -25.65470
 1200.00000    -999.25    -999.25    8.28580  335.44770    3.79300    6.62650  -48.22260
 1250.00000    -999.25    -999.25    8.58180  255.43120    4.56010    6.63030  -38.17920
 1300.00000    -999.25    -999.25   10.23090  494.94730    2.68290    3.23120  -33.77720
 1350.00000    -999.25    -999.25   11.10770  464.33750    2.81860    3.40690  -34.61380
 1400.00000    -999.25    -999.25    8.85910  274.39290    4.41320    8.81340  -49.21620
 1450.00000    -999.25    -999.25   10.51300  406.92190    3.39420    4.46560  -43.07890
 1500.00000    -999.25    -999.25   10.86450  376.82680    3.44600    4.79340  -36.68780
 1550.00000    -999.25    -999.25   11.75160  388.73220    3.45540    4.80990  -37.76120
 1600.00000    -999.25    -999.25   10.33480  137.10570    7.37130   11.02360  -40.41580
 1650.00000    -999.25    -999.25   11.05430  280.98480    4.71180    5.82000  -39.47560
 1700.00000    -999.25    -999.25   13.14590  276.29440    4.45530    5.41720  -38.04200
 1750.00000    -999.25    -999.25   10.76780  295.24160    4.04950    5.69540  -42.22360
 1800.00000    -999.25    -999.25   12.75300  358.18100    3.65250    2.76580  -41.87220
 1850.00000    -999.25    -999.25   11.09280  183.46450    7.74620    9.34470  -43.58140
 1900.00000    -999.25    -999.25   10.76090   65.45620   16.32960   18.38710  -43.85140
 1950.00000    -999.25    -999.25   10.17900  163.32550    7.05200   17.08800  -60.61360
 2000.00000    -999.25    -999.25   12.10680  166.38750    6.86330   10.02600  -35.70820
 2050.00000    -999.25    -999.25    9.86640  117.57340    9.73030   15.35540  -41.32100
 2100.00000    -999.25    -999.25   11.50950  193.16800    5.67920   10.85360  -33.45180
 2150.00000    -999.25    -999.25    9.42850   33.17860   30.38880   39.52300  -38.35760
 2200.00000    -999.25    -999.25    9.96110   56.54680   18.88670   25.30640  -32.16610
 2250.00000    -999.25    -999.25    9.78310  174.33630    6.75060   12.36370  -28.10410
 2300.00000    -999.25    -999.25    8.77870   73.38110   14.89410   22.17800  -38.72360
 2350.00000    -999.25    -999.25    9.61640   89.34520   11.51310   15.49600  -37.96500
 2400.00000    -999.25    -999.25    9.15900   83.91080   12.55560   18.83990  -40.32380
 2450.00000    -999.25    -999.25    9.64300  116.67390    8.24700   11.48150  -26.50160
 2500.00000    -999.25    -999.25    9.80690  170.52330    6.10970    9.64600  -24.29040
 2550.00000    -999.25    -999.25    8.72380   95.50640   10.78170   20.31500  -40.49230
 2600.00000    -999.25    -999.25    8.74030  119.46300    8.66360   16.98070  -32.33030
 2650.00000    -999.25    -999.25   11.55050  462.41090    2.71560    3.53720  -26.08220
 2700.00000    -999.25    -999.25    8.96040    3.26260   12.12700   63.04520  -45.97710
 2750.00000    -999.25    -999.25    9.08860   34.37740   31.83340   63.06660  -89.42580
 2800.00000    -999.25    -999.25    8.74390   32.35330   32.47450   69.11800  -70.03620
 2850.00000    -999.25    -999.25    8.99730   34.79400   29.57620   63.56430  -71.32420
 2900.00000    -999.25    -999.25    8.95560   39.26800   27.05950   51.12450  -87.60520
 2950.00000    -999.25    -999.25    8.98890   78.06730   13.26320   57.57110  -97.09190
 3000.00000    -999.25    -999.25    9.21680   77.89260   13.43610   57.92600  -96.05890
 3050.00000    -999.25    -999.25    8.65540   21.29610   45.82480   70.28110  -57.66970
 3100.00000    -999.25    -999.25    9.38020  133.44100    7.54920   41.30180  -97.51310
 3150.00000    -999.25    -999.25    8.70370   52.02230   19.73220   61.04460  -89.38570
 3200.00000    -999.25    -999.25    8.78290   45.36730   23.27920   65.66670  -74.24660
 3250.00000    -999.25    -999.25    8.73730   29.41730   33.90690   70.56260  -63.57190
 3300.00000    -999.25    -999.25    8.68900   19.79990   44.60890   82.27830  -66.02720
 3350.00000    -999.25    -999.25    8.65920   14.64660   49.27190  100.61100  -63.28600
 3400.00000    -999.25    -999.25    8.63000   21.39160   44.74400   91.59840  -61.03800
 3450.00000    -999.25    -999.25    8.67330   20.47090   47.19810   66.26050  -66.46480
 3500.00000    -999.25    -999.25    8.77030   64.16560   16.33670   34.38320  -62.73980
 3550.00000    -999.25    -999.25    8.66680   33.35720   31.10280   93.01350  -75.93130
 3600.00000    -999.25    -999.25    9.39180  170.32810    6.20770   11.05990  -43.13650
 3650.00000    -999.25    -999.25    8.54390   50.50820   20.94270   68.29090  -75.14230
 3700.00000    -999.25    -999.25    8.37690   54.74140   19.42260   47.93170  -74.43850
 3750.00000    -999.25    -999.25    8.33950   84.01040   12.83830   29.39540  -45.19240
 3800.00000    -999.25    -999.25    8.21200    7.89840  197.65170   68.17090  -68.63810
 3850.00000    -999.25    -999.25    8.05280   65.07700   16.44750   73.79610  -95.57610
 3900.00000    -999.25    -999.25    8.16360   76.86800   13.96680   43.88910  -79.22790
 3950.00000    -999.25    -999.25    8.19140   32.77150   33.02960   40.74130  -49.63130
 4000.00000    -999.25    -999.25    8.20210  110.95850   10.16620   15.87130  -34.04270
 4050.00000    -999.25    -999.25    8.85040  207.73810    6.42270    7.26690  -38.19270
 4100.00000    -999.25    -999.25    8.40860  131.58110    8.94560    9.93590  -29.87910
 4150.00000    -999.25    -999.25    8.57800  235.81520    4.61060    6.48190  -27.28860
 4200.00000    -999.25    -999.25   10.77500  362.85140    3.23790    3.87990  -38.07800
 4250.00000    -999.25    -999.25   11.91360  375.51500    3.10540    3.78050  -37.57800
 4300.00000    -999.25    -999.25   10.33210  397.67870    2.97050    3.78350  -35.75120
 4350.00000    -999.25    -999.25   10.34810  461.70320    2.55770    3.34520  -32.34990
 4400.00000    -999.25    -999.25   11.93600  560.09180    2.22190    2.54700  -37.80820
 4450.00000    -999.25    -999.25    8.33940   85.21230    8.77510   12.46410  -35.36230
 4500.00000    -999.25    -999.25    8.17380  110.41460    9.54670   15.24220  -20.48280
 4550.00000    -999.25    -999.25    8.05960   50.03100   21.36940   26.00480  -36.55800
 4600.00000    -999.25    -999.25    8.07180   41.46970   26.08040   23.00770  -27.59540
 4650.00000    -999.25    -999.25    8.12100  191.16350    5.51410    8.61920  -17.91990
 4700.00000    -999.25    -999.25    8.11040  153.24050    6.99530   10.16210  -18.84580
 4750.00000    -999.25    -999.25    8.90600  357.38210    3.45550    5.18760  -27.23630
 4800.00000    -999.25    -999.25    9.83470  311.37350    3.64440    4.98210  -28.75470
 4850.00000    -999.25    -999.25   10.50120  550.08200    2.28420    3.42550  -26.45100
 4900.00000   48.87200   94.10540    9.91130  580.49400    2.07370    2.78010  -24.02830
 4950.00000   47.08850   85.92680   10.48470  409.01110    2.79900    4.02280  -32.30510
 5000.00000   50.85940  100.17240    9.84560  392.68700    3.00100    4.55440  -60.97260
 5050.00000   40.03590   70.06630    8.78540  415.80630    2.87580    3.95310  -60.40550
 5100.00000   26.81890   74.27530    8.16840  192.03210    5.60010   10.67730  -44.69920
