~Version ---------------------------------------------------
VERS.      2.0 : CWLS log ASCII Standard -VERSION 2.0
WRAP.       NO : One line per depth step
CREA. 08/31/17 : LAS Creation Date
~Well ------------------------------------------------------
STRT.FT                            1150.0 : START DEPTH
STOP.FT                           11550.0 : STOP DEPTH
STEP.FT                          50.00000 : STEP LENGTH
NULL.                             -999.25 : NULL VALUE
COMP.    AMOCO CANADA PETROLEUM CO., LTD. : COMPANY
WELL. AMOCO HB FINA SOUTH FORK 10-8-59-19 : WELL
FLD .                                     : FIELD
LOC .                                     : LOCATION
CTRY.                              CANADA : COUNTRY
SRVC.                        Schlumberger : SERVICE COMPANY
DATE.                         10-Oct-1977 : LOGDATE
PROV.                             Alberta : PROVINCE
UWI .                    100100805919W500 : UNIQUE WELL ID
SLAT.WGS84                       54.08913 : SURFACE LATITUDE
SLON.WGS84                      -116.8085 : SURFACE LONGITUDE
~Curve Information -----------------------------------------
DEPT    .FT    : Depth Curve
CALDED  .IN    : CALIPER FROM CNT-CFD LOG [ADJ. TO ILDED]
CALSED  .IN    : CALIPER FROM BCS LOG [ADJ. TO ILDED]
CALWS   .IN    : CALIPER [CALDED]
CONDWS  .MMHO  : CONDUCTIVITY [1000/DRESWS]
DCORED  .G/C3  : DENSITY CORRECTION FROM CNT-CFD LOG [ADJ. TO ILDED]
DCORWS  .G/C3  : DENSITY CORRECTION [DCORED]
DENWS   .G/C3  : FORMATION BULK DENSITY [RHOBED]
DPHILSED.V/V   : DENSITY POROSITY LIMESTONE [M=2.71,F=1.0] FROM CNT-CFD LOG [ADJ. TO ILDED]
DPHISSED.V/V   : DENSITY POROSITY SANDSTONE [M=2.65,F=1.0] FROM CNT-CFD LOG [ADJ. TO ILDED]
DPOLSWS .V/V   : DENSITY POROSITY LIMESTONE [CALCULATED FROM DENWS, M=2.71, F=1.0]
DRESWS  .OHMM  : DEEP RESISTIVITY [ILDED]
DTED    .US/F  : DELTA-T (INTERVAL TRANSIT TIME) FROM BCS LOG [ADJ. TO ILDED]
DTWS    .US/F  : COMPRESSIONAL  SONIC [DTED]
GRDED   .GAPI  : GAMMA RAY FROM CNT-CFD LOG [ADJ. TO ILDED]
GRSED   .GAPI  : GAMMA RAY FROM BCS LOG [ADJ. TO ILDED]
GRWS    .GAPI  : GAMMA RAY [GRSED]
ILDED   .OHMM  : DEEP INDUCTION FROM DILL LOG
ILMED   .OHMM  : MEDIUM INDUCTION FROM DILL LOG
LL8ED   .OHMM  : LATEROLOG 8 FROM DILL LOG
MRESWS  .OHMM  : MEDIUM RESISTIVITY [ILMED]
NPHILSED.V/V   : NEUTRON POROSITY LIMESTONE FROM CNT-CFD LOG [ADJ. TO ILDED]
NPHISSED.V/V   : NEUTRON POROSITY SANDSTONE FROM CNT-CFD LOG [ADJ. TO ILDED]
NPOLSWS .V/V   : NEUTRON POROSITY LIMESTONE [NPHISSED CONVERTED TO LIMESTONE MATRIX, SPL. TO NPHILSED @7662.5']
RHOBED  .G/C3  : BULK DENSITY FROM CNT-CFD LOG [ADJ. TO ILDED]
SPRED   .MV    : SPONTANEOUS POTENTIAL FROM DILL LOG
SPWS    .MV    : SPONTANEOUS POTENTIAL [BASELINE 0 MV, SPRED]
SRESWS  .OHMM  : SHALLOW RESISTIVITY [LL8ED]
~Params ----------------------------------------------------
PD  .                     GL : PERMANENT DATUM
EPD .FT                 2976 : ELEVATION PERMANENT DATUM
LMF .                     KB : LOG MEASURED FROM
DAPD.FT                 20.7 : FEET ABOVE PERMANENT DATUM
EKB .FT               2996.7 : KELLY BUSHING
EGL .FT                 2976 : GROUND LEVEL
DATE.               10/10/77 : RUN DATE
RUN .                      1 : RUN NUMBER
DD  .FT                11577 : DEPTH DRILLER
DL  .FT                11569 : DEPTH LOGGER
BLI .FT                11563 : BOTTOM LOG INTERVAL
TLI .FT                 1534 : TOP LOG INTERVAL
CBD .FT                 1535 : CASING BOTTOM DRILLER
CBL .FT                 1534 : CASING BOTTOM LOGGER
BS  .IN                 8.75 : BIT SIZE
BSD .FT                11577 : BIT SIZE AT DEPTH
DFT .                    GEL : DRILLING FLUID TYPE
DFD .                      9 : DRILLING FLUID DENSITY
DFV .                     80 : DRILLING FLUID VISCOSITY
DFPH.                    8.5 : DRILLING FLUID PH
DFL .                    8.8 : DRILLING FLUID LOSS
MSS .               FLOWLINE : MUD SAMPLE SOURCE
RMS .OHMM               2.24 : RESISTIVITY MUD SAMPLE
MST .DEGF                 54 : MUD SAMPLE TEMPERATURE
RMF .OHMM               1.98 : RESISTIVITY MUD FILTRATE SAMPLE
MFST.DEGF                 64 : MUD FILTRATE SAMPLE TEMPERATURE
TCS .HRS                   3 : TIME CIRCULATED STOPPED
LUN .                   7772 : LOGGING UNIT NUMBER
LUL .                    EDM : LOGGING UNIT LOCATION
ENGI.         BERNISKY TRACY : RECORDING ENGINEER
WITN.                 NEWELL : WITNESSED BY
CLNT.                A2DTECH : CLIENT CODE
ORIG.            2" 5" PRINT : ORIGIN OF DATA
UWI .       100100805919W500 : UNIQUE WELL ID
DICO. A2D Technologies, Inc. : DIGITIZING COMPANY
~Other -----------------------------------------------------
~ASCII -----------------------------------------------------
# ...
 7650.00000   11.94370    9.96000   11.94370  249.23360    0.26230    0.26230    2.31610    -999.25    0.21080    0.23040    4.01230  105.13920  105.13920  108.05440   95.29450   95.29450    4.01230    4.31070    6.40270    4.31070    -999.25    0.44800    0.40630    2.31610 -466.36440  -14.53540    6.40270
 7700.00000    8.78060    8.27600    8.78060    5.17610    0.03980    0.03980    2.59740    0.06650    0.04330    0.06590  193.56750   61.62930   61.62930   37.60070   33.96660   33.96660  193.56750  102.92740  577.67980  102.92740    0.09940    0.13310    0.09940    2.59740 -481.68030  -23.32010  577.67980
 7750.00000    8.80560    8.57610    8.80560    3.55770    0.00560    0.00560    2.66770    0.02290    0.03320    0.02470  281.07780   53.49390   53.49390   67.64740   41.05210   41.05210  281.07780  168.99600 1225.68040  168.99600    0.04970    0.09770    0.04970    2.66770 -490.86880  -15.93870 1225.68040
 7800.00000    8.99820    8.54240    8.99820   19.19810    0.03350    0.03350    2.54660    0.09220    0.04850    0.09560   52.08860   63.24000   63.24000   85.52520   82.46920   82.46920   52.08860   59.20730   76.39780   59.20730    0.09410    0.13850    0.09410    2.54660 -499.58900  -27.78730   76.39780
 7850.00000    8.94480    8.70800    8.94480   13.41960    0.01920    0.01920    2.56320    0.08820    -999.25    0.08580   74.52300   97.84990   97.84990   66.24770   63.84850   63.84850   74.52300   65.79370   81.75090   65.79370    0.10720    -999.25    0.10720    2.56320 -483.26760  -14.61480   81.75090
 7900.00000    9.02130    8.75280    9.02130   23.93840    0.01960    0.01960    2.68700    0.01600    -999.25    0.01350   41.77390   57.58930   57.58930   94.88030   90.80800   90.80800   41.77390   35.77900   47.96740   35.77900    0.06650    -999.25    0.06650    2.68700 -482.70370  -17.17930   47.96740
 7950.00000    8.73910    8.44650    8.73910   14.26310    0.13910    0.13910    2.73880   -0.01660    -999.25   -0.01680   70.12130   49.75980   49.75980   14.36270   13.22350   13.22350   70.12130   29.64550  484.43440   29.64550    0.09860    -999.25    0.09860    2.73880 -541.54900  -85.18820  484.43440
 8000.00000    8.77580    8.46500    8.77580    7.62220    0.13090    0.13090    2.77580   -0.04340    -999.25   -0.03850  131.19560   49.09700   49.09700   19.05640   15.84200   15.84200  131.19560   83.65920  414.36110   83.65920    0.12490    -999.25    0.12490    2.77580 -515.19940  -77.46230  414.36110
 8050.00000   11.68870    9.09480   11.68870    4.54400    0.24940    0.24940    2.43990    0.15870    -999.25    0.15800  220.06970   51.88320   51.88320   46.19930   44.03340   44.03340  220.06970  275.34430 1207.23580  275.34430    0.02130    -999.25    0.02130    2.43990 -449.40260  -25.43280 1207.23580
 8100.00000   10.60110    9.10930   10.60110   97.17080    0.24970    0.24970    2.48130    0.13540    -999.25    0.13370   10.32280   59.09610   59.09610   50.18600   50.52930   50.52930   10.32280    9.27860   11.21280    9.27860    0.11510    -999.25    0.11510    2.48130 -470.68330  -50.59930   11.21280
 8150.00000   11.43890    9.16570   11.43890    9.67460    0.24920    0.24920    2.44770    0.15860    -999.25    0.15340  103.36310   50.32700   50.32700   24.44290   24.60960   24.60960  103.36310   37.11850  277.15550   37.11850    0.03280    -999.25    0.03280    2.44770 -501.38510  -85.16150  277.15550
 8200.00000    8.98730    8.72270    8.98730   53.77140    0.03940    0.03940    2.81740   -0.06800    -999.25   -0.06280   18.75830   56.41520   56.41520   65.62980   61.20120   61.20120   18.75830   16.98880   73.97110   16.98880    0.06420    -999.25    0.06420    2.81740 -435.27330  -22.93550   73.97110
 8250.00000    9.52400    9.24840    9.52400    1.57200    0.01900    0.01900    2.97030   -0.15880    -999.25   -0.15220  636.14720   51.27830   51.27830    8.76250    7.60570    7.60570  636.14720  684.16480 1395.17750  684.16480    0.00030    -999.25    0.00030    2.97030 -479.35560  -74.35540 1395.17750
 8300.00000    8.44010    8.42350    8.44010   51.98910    0.17010    0.17010    2.69770    0.00520    -999.25    0.00720   19.23480   51.47660   51.47660   14.64620   12.89210   12.89210   19.23480   11.98690  127.09800   11.98690    0.06880    -999.25    0.06880    2.69770 -516.56160 -124.86000  127.09800
 8350.00000    9.28070    8.85410    9.28070   13.29380    0.02940    0.02940    2.70380    0.00410    -999.25    0.00360   77.17730   50.09160   50.09160    9.54910    7.17890    7.17890   77.17730   50.77340  135.59370   50.77340    0.01270    -999.25    0.01270    2.70380 -497.34690 -119.03130  135.59370
 8400.00000    8.98610    8.73160    8.98610   82.07620    0.04150    0.04150    2.77050   -0.03790    -999.25   -0.03540   12.18380   59.39880   59.39880   94.15530   92.44970   92.44970   12.18380   11.43260   15.54680   11.43260    0.13720    -999.25    0.13720    2.77050 -375.54870  -10.53170   15.54680
 8450.00000    8.86900    8.75990    8.86900   41.61940    0.02670    0.02670    2.71880   -0.00600    -999.25   -0.00510   24.02800   57.53640   57.53640   73.70280   65.96370   65.96370   24.02800   20.04390   39.36390   20.04390    0.10120    -999.25    0.10120    2.71880 -426.58840  -73.17760   39.36390
 8500.00000    9.13830    8.81830    9.13830   53.25130    0.09740    0.09740    2.76240   -0.02160    -999.25   -0.03060   18.77890   59.27400   59.27400   77.56060   72.69520   72.69520   18.77890   17.04150   25.11540   17.04150    0.13960    -999.25    0.13960    2.76240 -381.25240  -39.20780   25.11540
 8550.00000    9.55050    9.08610    9.55050   13.78960    0.03140    0.03140    2.68900    0.01260    -999.25    0.01230   72.51830   56.97230   56.97230   58.41440   56.82640   56.82640   72.51830   55.55280   97.21660   55.55280    0.06630    -999.25    0.06630    2.68900 -387.04220  -56.36370   97.21660
 8600.00000    9.93500    9.17430    9.93500    9.75770    0.11550    0.11550    2.74390   -0.02190    -999.25   -0.01980  103.14510   53.56520   53.56520   39.00080   38.67980   38.67980  103.14510   75.69830  168.55460   75.69830    0.03440    -999.25    0.03440    2.74390 -370.91300  -51.67540  168.55460
 8650.00000    8.91580    8.58940    8.91580    9.98380    0.01080    0.01080    2.70700    0.00310    -999.25    0.00180  100.16240   53.71680   53.71680   36.48780   39.31350   39.31350  100.16240   84.68170  138.42300   84.68170    0.03010    -999.25    0.03010    2.70700 -345.58350  -34.23410  138.42300
 8700.00000    8.83310    8.57290    8.83310    7.05150    0.02020    0.02020    2.70220    0.00240    -999.25    0.00460  141.81540   53.64000   53.64000   35.06660   35.45610   35.45610  141.81540  108.10590  156.19330  108.10590    0.03450    -999.25    0.03450    2.70220 -330.16030  -13.08650  156.19330
 8750.00000    8.89600    8.65100    8.89600   10.46040    0.02930    0.02930    2.73350   -0.01870    -999.25   -0.01370   95.59870   53.94470   53.94470   42.50460   40.32160   40.32160   95.59870   76.66510  106.47040   76.66510    0.03920    -999.25    0.03920    2.73350 -373.57790  -50.81710  106.47040
 8800.00000    8.87470    8.51690    8.87470    8.27370    0.03590    0.03590    2.75910   -0.03890    -999.25   -0.02870  120.86540   54.24270   54.24270   32.95540   34.01290   34.01290  120.86540   95.07830  131.32510   95.07830    0.03760    -999.25    0.03760    2.75910 -370.94310  -42.49520  131.32510
 8850.00000    8.85870    8.67870    8.85870   20.10800    0.00120    0.00120    2.71530   -0.00470    -999.25   -0.00310   49.73140   55.69890   55.69890   53.05280   48.46780   48.46780   49.73140   44.01710   63.22510   44.01710    0.05200    -999.25    0.05200    2.71530 -389.27940  -55.10710   63.22510
 8900.00000    8.87940    8.65650    8.87940   10.30190    0.02280    0.02280    2.73780   -0.01650    -999.25   -0.01630   97.06980   53.79990   53.79990   47.67070   45.09790   45.09790   97.06980   80.16480  181.88620   80.16480    0.03080    -999.25    0.03080    2.73780 -376.43950  -36.58010  181.88620
