~Version ---------------------------------------------------
VERS.      2.0 : CWLS log ASCII Standard -VERSION 2.0
WRAP.       NO : One line per depth step
CREA. 11/21/17 : LAS Creation Date
~Well ------------------------------------------------------
STRT.FT                       1200.0 : START DEPTH
STOP.FT                      14950.0 : STOP DEPTH
STEP.FT                     50.00000 : STEP LENGTH
NULL.                        -999.25 : NULL VALUE
COMP.           PETROFINA CANADA LTD : COMPANY
WELL. PC FINA GULF ERITH 15-10-49-19 : WELL
FLD .                             WC : FIELD
LOC .                                : LOCATION
CTRY.                         CANADA : COUNTRY
SRVC.                   Schlumberger : SERVICE COMPANY
DATE.                    25-May-1972 : LOGDATE
PROV.                        Alberta : PROVINCE
UWI .               100151004919W500 : UNIQUE WELL ID
SLAT.WGS84                  53.21922 : SURFACE LATITUDE
SLON.WGS84                  -116.691 : SURFACE LONGITUDE
~Curve Information -----------------------------------------
DEPT    .FT    : Depth Curve
CALDED  .IN    : CALIPER FROM DENSITY LOG  [ADJ. TO RESISTIVITY LOG]
CALSED  .IN    : CALIPER FROM SONIC LOG
CALWS   .IN    : CALIPER [CALSED]
CILDED  .MMHO  : CONDUCTIVITY FROM RESISTIVITY LOG
CONDWS  .MMHO  : CONDUCTIVITY [1000/DRESWS]
DCORED  .G/C3  : DENSITY CORRECTION FROM DENSITY LOG  [ADJ. TO RESISTIVITY LOG]
DCORWS  .G/C3  : DENSITY CORRECTION [DCORED]
DENWS   .G/C3  : FORMATION BULK DENSITY [CALC. FROM DPOLSWS, M=2.71, F=1.00]
DPHILSED.V/V   : DENSITY POROSITY [M=2.71, F=1.00] FROM DENSITY LOG  [ADJ. TO RESISTIVITY LOG]
DPOLSWS .V/V   : DENSITY POROSITY LIMESTONE [DPHILSED]
DRESWS  .OHMM  : DEEP RESISTIVITY [1000/CILDED IF ILDED < 1, ILDED SPL. ILD @ 8190.5']
DTED    .US/F  : DELTA TIME FROM SONIC LOG
DTWS    .US/F  : COMPRESSIONAL SONIC [DTED]
GRDED   .GAPI  : GAMMA RAY FROM DENSITY LOG [ADJ. TO RESISTIVITY LOG]
GRNED   .GAPI  : GAMMA RAY FROM NEUTRON LOG [ADJ. TO RESISTIVITY LOG]
GRSED   .GAPI  : GAMMA RAY FROM SONIC LOG
GRWS    .GAPI  : GAMMA RAY [GRSED]
ILDED   .MMHO  : DEEP INDUCTION LOG  RESISTIVITY FROM RESISTIVITY LOG
ILMED   .OHMM  : MEDIUM INDUCTION LOG  RESISTIVITY FROM RESISTIVITY LLOG
LL8ED   .OHMM  : 8 INCH LATEROLOG RESISTIVITY FROM RESISTIVITY LOG
MRESWS  .OHMM  : MEDIUM RESISTIVITY [ILMED]
NEUTED  .NAPI  : NEUTRON FROM NEUTRON LOG [ADJ. TO SONIC LOG]
NEUTWS  .NAPI  : NEUTRON [NEUTED]
NPHILSED.V/V   : NEUTRON POROSITY LIMESTONE FROM DENSITY LOG [ADJ. TO RESISTIVITY LOG]
NPOLSWS .V/V   : NEUTRON POROSITY LIMESTONE [NPHILSED]
RHOBED  .G/C3  : BULK DENSITY FROM DENSITY LOG  [ADJ. TO RESISTIVITY LOG]
SPRED   .MV    : SPONTANEOUS POTENTIAL FROM RESISTIVITY LOG
SPWS    .MV    : SPONTANEOUS POTENTIAL [BASELINE 0 MV, SPRED]
SRESWS  .OHMM  : SHALLOW RESISTIVITY [LL8ED]
~Params ----------------------------------------------------
PD  .                     GL : PERMANENT DATUM
EPD .FT                 3706 : ELEVATION PERMANENT DATUM
LMF .                     KB : LOG MEASURED FROM
DAPD.FT                 17.5 : FEET ABOVE PERMANENT DATUM
EKB .FT               3723.5 : KELLY BUSHING
EGL .FT                 3706 : GROUND LEVEL
DATE.               06/07/72 : RUN DATE
RUN .                      3 : RUN NUMBER
DD  .FT                14975 : DEPTH DRILLER
DL  .FT                14971 : DEPTH LOGGER
BLI .FT                14966 : BOTTOM LOG INTERVAL
TLI .FT                14400 : TOP LOG INTERVAL
CBD .FT                11336 : CASING BOTTOM DRILLER
CBL .FT                11343 : CASING BOTTOM LOGGER
BS  .IN                  8.5 : BIT SIZE
BSD .FT                14975 : BIT SIZE AT DEPTH
DFT .       GEL CHEM POLYMER : DRILLING FLUID TYPE
DFD .                   13.5 : DRILLING FLUID DENSITY
DFV .                     55 : DRILLING FLUID VISCOSITY
DFPH.                   11.5 : DRILLING FLUID PH
DFL .                     15 : DRILLING FLUID LOSS
RMF .OHMM               0.28 : RESISTIVITY MUD FILTRATE SAMPLE
MFST.DEGF                 67 : MUD FILTRATE SAMPLE TEMPERATURE
RMB .OHMM               0.07 : RESISTIVITY MUD AT BHT
TCS .HRS                   6 : TIME CIRCULATED STOPPED
LUN .                  OSU-C : LOGGING UNIT NUMBER
LUL .               1123 EDM : LOGGING UNIT LOCATION
ENGI.                HACKNEY : RECORDING ENGINEER
WITN.               ROTA LEE : WITNESSED BY
CLNT.                A2DTECH : CLIENT CODE
ORIG.            2" 5" PRINT : ORIGIN OF DATA
UWI .       100151004919W500 : UNIQUE WELL ID
DICO. A2D Technologies, Inc. : DIGITIZING COMPANY
~Other -----------------------------------------------------
~ASCII -----------------------------------------------------
# ...
 12450.00000    -999.25    8.53170    8.53170    -999.25    7.73830    -999.25    -999.25    -999.25    -999.25    -999.25  129.22800   57.00330   57.00330    -999.25    -999.25   42.17090   42.17090  129.22800   82.62610   88.57780   82.62610    -999.25    -999.25    -999.25    -999.25    -999.25  -38.94110 -110.53830   88.57780
 12500.00000    -999.25    8.59190    8.59190    -999.25    3.86050    -999.25    -999.25    -999.25    -999.25    -999.25  259.03710   71.38130   71.38130    -999.25    -999.25  112.73710  112.73710  259.03710  109.17230  105.41140  109.17230    -999.25    -999.25    -999.25    -999.25    -999.25  -24.38400  -95.08850  105.41140
 12550.00000    -999.25    9.05980    9.05980    -999.25    0.64620    -999.25    -999.25    -999.25    -999.25    -999.25 1547.58530   48.50420   48.50420    -999.25    -999.25   13.45330   13.45330 1547.58530 1619.38590 1513.33630 1619.38590    -999.25    -999.25    -999.25    -999.25    -999.25  -19.03450  -88.84180 1513.33630
 12600.00000    -999.25    8.92960    8.92960    -999.25    0.72750    -999.25    -999.25    -999.25    -999.25    -999.25 1374.59350   48.23040   48.23040    -999.25    -999.25   10.57920   10.57920 1374.59350 1628.29690 1526.02810 1628.29690    -999.25    -999.25    -999.25    -999.25    -999.25  -37.02650 -105.93660 1526.02810
 12650.00000    -999.25    8.80140    8.80140    -999.25    4.76910    -999.25    -999.25    -999.25    -999.25    -999.25  209.68330   48.50360   48.50360    -999.25    -999.25    9.92690    9.92690  209.68330 1599.92520  793.10710 1599.92520    -999.25    -999.25    -999.25    -999.25    -999.25  -95.01200 -163.02500  793.10710
 12700.00000    -999.25    7.21910    7.21910    -999.25    0.64000    -999.25    -999.25    -999.25    -999.25    -999.25 1562.41670   49.98800   49.98800    -999.25    -999.25   13.14560   13.14560 1562.41670  506.96520  679.68900  506.96520    -999.25    -999.25    -999.25    -999.25    -999.25 -100.96920 -168.08050  679.68900
 12750.00000    -999.25    8.68630    8.68630    -999.25    0.75740    -999.25    -999.25    -999.25    -999.25    -999.25 1320.34380   48.83140   48.83140    -999.25    -999.25   13.60570   13.60570 1320.34380 1493.09530 1562.02650 1493.09530    -999.25    -999.25    -999.25    -999.25    -999.25  -96.80470 -163.02330 1562.02650
 12800.00000    -999.25    9.04140    9.04140    -999.25    0.69630    -999.25    -999.25    -999.25    -999.25    -999.25 1436.11070   50.36450   50.36450    -999.25    -999.25   10.79630   10.79630 1436.11070 1837.48300 1551.17810 1837.48300    -999.25    -999.25    -999.25    -999.25    -999.25  -76.22630 -141.54770 1551.17810
 12850.00000    -999.25    8.94780    8.94780    -999.25    8.93280    -999.25    -999.25    -999.25    -999.25    -999.25  111.94680   50.63220   50.63220    -999.25    -999.25    9.94460    9.94460  111.94680  286.89570   94.62580  286.89570    -999.25    -999.25    -999.25    -999.25    -999.25  -52.20010 -116.62440   94.62580
 12900.00000    -999.25    9.09710    9.09710    -999.25   10.36690    -999.25    -999.25    -999.25    -999.25    -999.25   96.46090   48.18330   48.18330    -999.25    -999.25    9.27400    9.27400   96.46090  677.40170  490.05650  677.40170    -999.25    -999.25    -999.25    -999.25    -999.25  -96.51450 -160.04160  490.05650
 12950.00000    -999.25    8.93390    8.93390    -999.25    5.91600    -999.25    -999.25    -999.25    -999.25    -999.25  169.03370   49.17560   49.17560    -999.25    -999.25   11.38790   11.38790  169.03370  998.66620  270.91240  998.66620    -999.25    -999.25    -999.25    -999.25    -999.25  -68.82630 -131.45180  270.91240
 13000.00000    -999.25    9.01270    9.01270    -999.25    7.27760    -999.25    -999.25    -999.25    -999.25    -999.25  137.40740   47.94420   47.94420    -999.25    -999.25   10.58150   10.58150  137.40740  312.76850  317.53610  312.76850    -999.25    -999.25    -999.25    -999.25    -999.25  -55.83080 -117.56360  317.53610
 13050.00000    -999.25    8.69920    8.69920    -999.25   15.88430    -999.25    -999.25    -999.25    -999.25    -999.25   62.95520   49.66310   49.66310    -999.25    -999.25   13.78640   13.78640   62.95520  280.88950  328.08110  280.88950    -999.25    -999.25    -999.25    -999.25    -999.25    3.51680  -57.31880  328.08110
 13100.00000    -999.25    7.62620    7.62620    -999.25    3.58200    -999.25    -999.25    -999.25    -999.25    -999.25  279.17140   50.65840   50.65840    -999.25    -999.25   11.94630   11.94630  279.17140  326.30340  733.52010  326.30340    -999.25    -999.25    -999.25    -999.25    -999.25   11.97100  -47.96740  733.52010
 13150.00000    -999.25    7.83480    7.83480    -999.25    1.92020    -999.25    -999.25    -999.25    -999.25    -999.25  520.78090   47.39990   47.39990    -999.25    -999.25    7.92380    7.92380  520.78090  236.23410  792.37070  236.23410    -999.25    -999.25    -999.25    -999.25    -999.25   16.31440  -42.72680  792.37070
 13200.00000    -999.25    7.66180    7.66180    -999.25   13.65710    -999.25    -999.25    -999.25    -999.25    -999.25   73.22200   50.07290   50.07290    -999.25    -999.25   12.09460   12.09460   73.22200   51.28040  120.71770   51.28040    -999.25    -999.25    -999.25    -999.25    -999.25 -100.70800 -158.84750  120.71770
 13250.00000    -999.25    8.52190    8.52190    -999.25    5.78730    -999.25    -999.25    -999.25    -999.25    -999.25  172.79340   56.77060   56.77060    -999.25    -999.25   76.29920   76.29920  172.79340  102.28960   81.86380  102.28960    -999.25    -999.25    -999.25    -999.25    -999.25  -53.31030 -110.55720   81.86380
 13300.00000    -999.25    7.91460    7.91460    -999.25    7.08030    -999.25    -999.25    -999.25    -999.25    -999.25  141.23780   48.27750   48.27750    -999.25    -999.25   12.78460   12.78460  141.23780   91.54460  322.46220   91.54460    -999.25    -999.25    -999.25    -999.25    -999.25 -102.58020 -158.92990  322.46220
 13350.00000    -999.25    8.83700    8.83700    -999.25    6.68230    -999.25    -999.25    -999.25    -999.25    -999.25  149.65010   50.59000   50.59000    -999.25    -999.25   19.12340   19.12340  149.65010   83.66620  135.41010   83.66620    -999.25    -999.25    -999.25    -999.25    -999.25 -110.68220 -166.13470  135.41010
 13400.00000    -999.25    9.15110    9.15110    -999.25    5.78820    -999.25    -999.25    -999.25    -999.25    -999.25  172.76590   52.76690   52.76690    -999.25    -999.25   17.39200   17.39200  172.76590   88.35140   58.83320   88.35140    -999.25    -999.25    -999.25    -999.25    -999.25  -52.00600 -106.56140   58.83320
 13450.00000    -999.25    8.99400    8.99400    -999.25    1.95610    -999.25    -999.25    -999.25    -999.25    -999.25  511.23080   51.60680   51.60680    -999.25    -999.25   26.62640   26.62640  511.23080  283.55170  304.93930  283.55170    -999.25    -999.25    -999.25    -999.25    -999.25  -28.97820  -82.63190  304.93930
 13500.00000    9.98230    8.96730    8.96730    -999.25   14.29660    0.00990    0.00990    2.67340    0.02140    0.02140   69.94690   51.47550   51.47550   32.22020    -999.25   22.46060   32.22020   69.94690  139.76080  190.19180  139.76080    -999.25    -999.25    0.01150    0.01150    2.67580   -3.05500  -55.81600  190.19180
 13550.00000    9.51070    9.21830    9.21830    -999.25   30.30710    0.00630    0.00630    2.72200   -0.00700   -0.00700   32.99560   58.37580   58.37580   61.89180    -999.25   53.13740   61.89180   32.99560   36.03710   45.09480   36.03710    -999.25    -999.25    0.05060    0.05060    2.70850  -28.16960  -80.03350   45.09480
 13600.00000   12.03950    9.38780    9.38780    -999.25   81.55480    0.00320    0.00320    2.64840    0.03600    0.03600   12.26170   68.73550   68.73550   77.09550    -999.25   67.66560   77.09550   12.26170   13.66890   13.93940   13.66890    -999.25    -999.25    0.12300    0.12300    2.59320  -19.94410  -70.91080   13.93940
 13650.00000    9.35590    9.00290    9.00290    -999.25   23.77470    0.00030    0.00030    2.74130   -0.01830   -0.01830   42.06160   55.20200   55.20200   47.04710    -999.25   39.24320   47.04710   42.06160   44.46730   45.98600   44.46730    -999.25    -999.25    0.05190    0.05190    2.71980  -55.48710 -105.55660   45.98600
