~Version ---------------------------------------------------
VERS.      2.0 : CWLS log ASCII Standard -VERSION 2.0
WRAP.       NO : One line per depth step
CREA. 12/14/17 : LAS Creation Date
~Well ------------------------------------------------------
STRT.FT                       1400.0 : START DEPTH
STOP.FT                       9950.0 : STOP DEPTH
STEP.FT                     50.00000 : STEP LENGTH
NULL.                        -999.25 : NULL VALUE
COMP.         PHILLIPS PETROLEUM CO. : COMPANY
WELL.            PHILLIPS KAYBOB B-1 : WELL
FLD .                                : FIELD
LOC .                                : LOCATION
CTRY.                         CANADA : COUNTRY
SRVC. HALLIBURTON OIL WELL CEMENT CO : SERVICE COMPANY
DATE.                    14-Sep-1957 : LOGDATE
PROV.                        Alberta : PROVINCE
UWI .               100050506418W500 : UNIQUE WELL ID
SLAT.WGS84                  54.50709 : SURFACE LATITUDE
SLON.WGS84                 -116.6935 : SURFACE LONGITUDE
~Curve Information -----------------------------------------
DEPT  .FT    : Depth Curve
CALMED.IN    : CALIPER FROM MICROLOG
CALWS .IN    : CALIPER [CALMED]
CONDWS.MMHO  : CONDUCTIVITY [1000/DRESWS]
DRESWS.OHMM  : DEEP RESISTIVITY [LAT9ED]
GRED  .GAPI  : GAMMA RAY FROM CEMENT LOG, DEPTH ADJUSTED WITH [LAT9ED]
GRNED .CPS   : GAMMA RAY FROM NEUTRON LOG, DEPTH ADJUSTED WITH [LAT9ED]
GRWS  .CPS   : GAMMA RAY [GRNED], SPLICED WITH [GRED] FROM TOP-1492'
LAT9ED.OHMM  : LATERAL 9'
LT16ED.OHMM  : LATERAL 16'
NEUTED.CPS   : NEUTRON FROM NEUTRON LOG, DEPTH ADJUSTED WITH [LAT9ED]
NEUTWS.CPS   : NEUTRON [NEUTED]
SNED  .OHMM  : 16 INCH SHORT NORMAL RESISTIVITY FROM IEL
SPRED .MV    : SPONTANEOUS POTENTIAL FROM RESISTIVITY LOG
SPWS  .MV    : SPONTANEOUS POTENTIAL [BASELINE 0 MV] [SPRED]
SRESWS.OHMM  : SHALLOW RESISTIVITY [SNED]
~Params ----------------------------------------------------
PD  .                              GL : PERMANENT DATUM
EPD .FT                          2600 : ELEVATION PERMANENT DATUM
LMF .                              KB : LOG MEASURED FROM
DMF .                              KB : DRILLING MEASURED FROM
EKB .FT                          2600 : KELLY BUSHING
DATE.                        09/14/57 : RUN DATE
RUN .                               1 : RUN NUMBER
DD  .FT                          9955 : DEPTH DRILLER
DL  .FT                          9949 : DEPTH LOGGER
CS  .IN                        13.375 : CASING SIZE
CBD .FT                          1512 : CASING BOTTOM DRILLER
CBL .FT                          1510 : CASING BOTTOM LOGGER
BS  .IN                             9 : BIT SIZE
BSD .FT                          9955 : BIT SIZE AT DEPTH
DFT . OIL EMULSION GEL CAUSTIC MILBAR : DRILLING FLUID TYPE
DFD .                            11.2 : DRILLING FLUID DENSITY
DFV .                              64 : DRILLING FLUID VISCOSITY
DFPH.                               9 : DRILLING FLUID PH
DFL .                             4.8 : DRILLING FLUID LOSS
RMS .OHMM                         1.7 : RESISTIVITY MUD SAMPLE
MST .DEGF                          70 : MUD SAMPLE TEMPERATURE
RMB .OHMM                        0.64 : RESISTIVITY MUD AT BHT
MRT .DEGF                         192 : MAXIMUM RECORDED TEMPERATURE
LUN .                             447 : LOGGING UNIT NUMBER
ENGI.                         EDWARDS : RECORDING ENGINEER
WITN.                    MOTE HANKINS : WITNESSED BY
CLNT.                         A2DTECH : CLIENT CODE
ORIG.                     2" 5" PRINT : ORIGIN OF DATA
UWI .                100050506418W500 : UNIQUE WELL ID
DICO.          A2D Technologies, Inc. : DIGITIZING COMPANY
~Other -----------------------------------------------------
~ASCII -----------------------------------------------------
# ...
 3700.00000   10.48290   10.48290   96.24220   10.39080    -999.25   97.56490   97.56490   10.39080    7.82490  230.67720  230.67720    7.89710  -42.62340  -10.09000    7.89710
 3750.00000   10.50010   10.50010   87.34080   11.44940    -999.25   88.80600   88.80600   11.44940    7.72740  237.17300  237.17300    9.12560  -45.60690  -15.99720    9.12560
 3800.00000   10.79030   10.79030  107.61480    9.29240    -999.25  101.58350  101.58350    9.29240    6.83000  237.69660  237.69660    7.52420  -47.77780  -21.10640    7.52420
 3850.00000   11.43750   11.43750  110.74700    9.02960    -999.25  100.97420  100.97420    9.02960    6.41330  219.75390  219.75390    7.27910  -48.33020  -24.61180    7.27910
 3900.00000   11.38230   11.38230   85.45110   11.70260    -999.25  108.28490  108.28490   11.70260    8.00160  226.17810  226.17810    9.66270  -52.38180  -31.58710    9.66270
 3950.00000   11.27740   11.27740   90.83780   11.00860    -999.25  100.60800  100.60800   11.00860    7.67430  235.60780  235.60780    9.07270  -51.70820  -33.86650    9.07270
 4000.00000   10.16490   10.16490   66.82350   14.96480    -999.25  120.60190  120.60190   14.96480    8.42690  231.82760  231.82760   14.23110  -50.58560  -35.66760   14.23110
 4050.00000    9.82320    9.82320   76.60550   13.05390    -999.25  114.81230  114.81230   13.05390   10.53150  243.01810  243.01810   10.23240  -49.19420  -37.21450   10.23240
 4100.00000   10.91310   10.91310   76.83810   13.01850    -999.25  104.35430  104.35430   13.01850    9.40380  231.41600  231.41600   11.10380  -53.67170  -44.64500   11.10380
 4150.00000   10.86630   10.86630   89.90950   11.12230    -999.25  107.64290  107.64290   11.12230    5.58550  246.43620  246.43620   10.23090  -52.39690  -46.29390   10.23090
 4200.00000   11.01240   11.01240  124.74050    8.01940    -999.25   95.64680   95.64680    8.01940    5.02570  297.68270  297.68270    7.30730  -52.75430  -49.60440    7.30730
 4250.00000   11.21690   11.21690   79.13710   12.63630    -999.25   93.49010   93.49010   12.63630    6.70390  269.46080  269.46080   10.39890  -49.89190  -49.66560   10.39890
 4300.00000   11.83520   11.83520  102.22650    9.78220    -999.25  100.25450  100.25450    9.78220    6.14600  277.68610  277.68610    7.93250  -54.15460  -56.86670    7.93250
 4350.00000   11.70310   11.70310   93.59200   10.68520    -999.25  102.28630  102.28630   10.68520    7.09030  315.68500  315.68500    8.74050  -62.01040  -67.67560    8.74050
 4400.00000   11.93990   11.93990  108.54350    9.21290    -999.25  107.80310  107.80310    9.21290    6.93230  267.78340  267.78340    7.22940  -53.90510  -62.49390    7.22940
 4450.00000   12.13870   12.13870  147.91370    6.76110    -999.25  104.28540  104.28540    6.76110    4.31240  243.55890  243.55890    5.69060  -54.91580  -66.45760    5.69060
 4500.00000   13.11190   13.11190  133.65770    7.48180    -999.25  109.20380  109.20380    7.48180    5.48520  261.76140  261.76140    6.26550  -59.84220  -74.30770    6.26550
 4550.00000   11.68200   11.68200  210.92600    4.74100    -999.25  140.57350  140.57350    4.74100    3.57700  247.90050  247.90050    4.12460  -55.43350  -72.83730    4.12460
 4600.00000   10.73510   10.73510  263.28670    3.79820   69.79560  101.70670  101.70670    3.79820    3.07500  239.96410  239.96410    3.37660  -57.71810  -78.07500    3.37660
 4650.00000   10.82760   10.82760  223.19930    4.48030   65.82500   88.13230   88.13230    4.48030    2.84500  258.78280  258.78280    4.75040  -57.60530  -80.88580    4.75040
 4700.00000   10.77850   10.77850  173.46640    5.76490   79.04400   94.92650   94.92650    5.76490    4.14620  248.54300  248.54300    5.05860  -56.30580  -82.53940    5.05860
 4750.00000   10.91290   10.91290  163.38270    6.12060   71.58110  103.40740  103.40740    6.12060    5.16110  234.71860  234.71860    5.77900  -57.33780  -86.49500    5.77900
 4800.00000   10.09410   10.09410   61.66180   16.21750   47.11790   69.85470   69.85470   16.21750   19.00480  282.10680  282.10680   11.11140  -60.86320  -92.95880   11.11140
 4850.00000   10.24290   10.24290   59.26950   16.89220   43.75470   69.26750   69.26750   16.89220    8.25580  291.24480  291.24480   17.16170  -65.84540 -100.89400   17.16170
 4900.00000   10.69930   10.69930   30.06370   33.26270   50.14070   79.95930   79.95930   33.26270   32.14250  274.77870  274.77870   15.35590  -49.55450  -87.52680   15.35590
 4950.00000   10.48650   10.48650   76.19990   13.14080   44.21930   79.49220   79.49220   13.14080    6.84890  324.20350  324.20350    8.90160  -39.96770  -80.89300    8.90160
 5000.00000   10.64070   10.64070   69.46620   14.39550   28.29350   60.62760   60.62760   14.39550   10.78590  346.78700  346.78700   12.73580  -27.48920  -71.33810   12.73580
 5050.00000    9.25680    9.25680   76.67650   13.04180   37.43670   68.49220   68.49220   13.04180    2.84300  323.32260  323.32260   15.58330  -22.33270  -69.12000   15.58330
 5100.00000    9.94240    9.94240   51.02650   19.60010   42.26330   71.32260   71.32260   19.60010    5.99930  301.53060  301.53060   16.02700    4.70180  -45.03850   16.02700
 5150.00000   10.05630   10.05630   51.19410   19.53350   26.55710   58.73690   58.73690   19.53350   10.64750  306.63710  306.63710   17.87850   -2.58590  -55.24990   17.87850
 5200.00000   12.70360   12.70360   35.29490   28.35840   52.44690   75.01830   75.01830   28.35840    9.56830  248.81780  248.81780   15.45060   43.15090  -12.46620   15.45060
 5250.00000    9.71280    9.71280   40.50630   24.68750   54.99760   84.22250   84.22250   24.68750    6.33530  279.25130  279.25130   17.03670   57.81490   -0.80370   17.03670
 5300.00000    9.23550    9.23550   73.92570   13.52710   39.74550   63.29100   63.29100   13.52710    2.52840  324.76720  324.76720   15.61950  -15.97610  -85.32020   15.61950
 5350.00000    9.76130    9.76130   77.20140   12.95740   43.62040   67.58590   67.58590   12.95740    8.97570  339.38270  339.38270   12.61750    3.81440  -76.30880   12.61750
 5400.00000   10.08920   10.08920   72.45800   13.80110   41.22200   70.61000   70.61000   13.80110    2.40880  341.49070  341.49070   14.28790    7.87030  -82.92480   14.28790
 5450.00000   10.03670   10.03670   64.50830   15.50190   48.48010   80.57180   80.57180   15.50190    8.28150  340.54840  340.54840   15.19250   45.90850  -55.66580   15.19250
 5500.00000    9.81620    9.81620   60.09540   16.64020   68.38500   95.32600   95.32600   16.64020   12.02140  330.97110  330.97110   14.09830  109.54010   -2.70610   14.09830
 5550.00000   10.12270   10.12270  149.05350    6.70900   54.16230   84.20040   84.20040    6.70900    5.63940  327.63760  327.63760    6.50340  111.35310   -6.50660    6.50340
 5600.00000   11.62650   11.62650   91.22850   10.96150   62.49770   83.61840   83.61840   10.96150    7.22050  263.73800  263.73800   10.53960   78.35820  -40.40080   10.53960
 5650.00000   10.39610   10.39610   20.23970   49.40780   22.45640   49.49370   49.49370   49.40780   26.68120  390.56410  390.56410   34.21380   84.58290  -35.06640   34.21380
 5700.00000   11.17600   11.17600   43.10250   23.21660   62.59740   86.73140   86.73140   23.21660    5.50620  334.56530  334.56530   17.65490  113.87330   -6.67530   17.65490
 5750.00000    9.94410    9.94410    7.61970  131.23950   24.64500   44.34460   44.34460  131.23950   36.73230  395.71360  395.71360   71.03680   40.02130  -81.41770   71.03680
 5800.00000   12.48610   12.48610  177.92330    5.62040   70.16530   89.13030   89.13030    5.62040    4.78970  223.19260  223.19260    4.93530  101.20140  -21.13240    4.93530
 5850.00000   11.82190   11.82190  135.91860    7.35760   59.64680   95.11650   95.11650    7.35760    3.88890  232.08740  232.08740    6.50780    -999.25    -999.25    6.50780
 5900.00000   10.43740   10.43740   16.64370   60.08280   94.43670  127.47940  127.47940   60.08280   26.11840  238.11700  238.11700   44.35490  -62.52320  -51.11240   44.35490
 5950.00000   13.02740   13.02740   26.12580   38.45310   71.49190   99.40750   99.40750   38.45310   23.01120  259.27740  259.27740   23.72460  -61.49460  -50.59820   23.72460
