~Version ---------------------------------------------------
VERS.      2.0 : CWLS log ASCII Standard -VERSION 2.0
WRAP.       NO : One line per depth step
CREA. 10/06/17 : LAS Creation Date
~Well ------------------------------------------------------
STRT.FT                               700.0 : START DEPTH
STOP.FT                              6300.0 : STOP DEPTH
STEP.FT                            50.00000 : STEP LENGTH
NULL.                               -999.25 : NULL VALUE
COMP. CANADA CITIES SERVICE PETROLEUM CORP. : COMPANY
WELL.       CITIES SERVICE LOOMA 7-30-50-22 : WELL
FLD .                                       : FIELD
LOC .                                       : LOCATION
CTRY.                                CANADA : COUNTRY
SRVC.                               Unknown : SERVICE COMPANY
DATE.                           14-Nov-1960 : LOGDATE
PROV.                               Alberta : PROVINCE
UWI .                      100073005022W400 : UNIQUE WELL ID
SLAT.WGS84                         53.34317 : SURFACE LATITUDE
SLON.WGS84                        -113.2044 : SURFACE LONGITUDE
~Curve Information -----------------------------------------
DEPT  .FT            : Depth Curve
CALWS .IN            : CALIPER [MCALED]
CILDED.MMHO          : CONDUCTIVITY FROM RESISTIVITY LOG
CONDWS.MMHO          : CONDUCTIVITY [1000/DRESWS]
DRESWS.OHMM          : DEEP RESISTIVITY [1000/CILDED, IF ILDED <1.2, ILDED]
DT1ED .US/F          : SONIC INTERVAL TRANSIT TIME FROM SONIC LOG
DTED  .US/F          : SONIC INTER TRANSIT TIME FROM SONIC LOG
DTWS  .US/F          : COMPRESSIONAL SONIC [DTED]
GRSED .UG_RA-EQ/TON  : GAMMA RAY FROM SONIC LOG
GRWS  .GAPI          : GAMMA RAY [GRSED*16.5]
ILDED .OHMM          : DEEP INDUCTION FROM RESISTIVITY LOG
MCALED.IN            : CALIPER FROM MICROLOG
SNED  .OHMM          : SHORT NORMAL FROM RESISTIVITY LOG
SPRED .MV            : SPONTANEOUS POTENTIAL FROM RESISTIVITY LOG
SPWS  .MV            : SPONTANEOUS POTENTIAL [BASELINE 0 MV, SPRED]
SRESWS.OHMM          : SHALLOW RESISTIVITY [SNED]
~Params ----------------------------------------------------
LMF .                     KB : LOG MEASURED FROM
DMF .                     KB : DRILLING MEASURED FROM
EKB .FT                 2512 : KELLY BUSHING
EGL .FT                 2498 : GROUND LEVEL
DATE.               11/14/60 : RUN DATE
RUN .                      2 : RUN NUMBER
DD  .FT                 6353 : DEPTH DRILLER
DL  .FT                 6355 : DEPTH LOGGER
BLI .FT                 6350 : BOTTOM LOG INTERVAL
TLI .FT                 4196 : TOP LOG INTERVAL
CBD .FT                652.5 : CASING BOTTOM DRILLER
CBL .FT                  652 : CASING BOTTOM LOGGER
BS  .IN                7.875 : BIT SIZE
BSD .FT                 6353 : BIT SIZE AT DEPTH
DFT .                    GEL : DRILLING FLUID TYPE
DFD .                   10.4 : DRILLING FLUID DENSITY
DFV .                     74 : DRILLING FLUID VISCOSITY
DFPH.                    9.5 : DRILLING FLUID PH
DFL .                    6.2 : DRILLING FLUID LOSS
RMS .OHMM                2.5 : RESISTIVITY MUD SAMPLE
MST .DEGF                 57 : MUD SAMPLE TEMPERATURE
RMF .OHMM               0.92 : RESISTIVITY MUD FILTRATE SAMPLE
MFST.DEGF                 80 : MUD FILTRATE SAMPLE TEMPERATURE
RMC .OHMM                2.1 : RESISTIVITY MUD CAKE
MCST.DEGF                 70 : MUD CAKE SAMPLE TEMPERATURE
RMB .OHMM                1.0 : RESISTIVITY MUD AT BHT
TCS .HRS                   2 : TIME CIRCULATED STOPPED
LUN .                   1574 : LOGGING UNIT NUMBER
LUL .                    EDM : LOGGING UNIT LOCATION
ENGI.              PATTERSON : RECORDING ENGINEER
WITN.                DUNNETT : WITNESSED BY
CLNT.                A2DTECH : CLIENT CODE
ORIG.            2" 5" PRINT : ORIGIN OF DATA
UWI .       100073005022W400 : UNIQUE WELL ID
DICO. A2D Technologies, Inc. : DIGITIZING COMPANY
~Other -----------------------------------------------------
IEL & ML & SONIC LOG RUN
~ASCII -----------------------------------------------------
  700.00000    -999.25  272.05130  278.90110    3.58550    -999.25    -999.25    -999.25    -999.25    -999.25    3.58550    -999.25    4.68980  -41.15070  -13.17530    4.68980
  750.00000    -999.25  171.03000  178.81410    5.59240    -999.25    -999.25    -999.25    -999.25    -999.25    5.59240    -999.25    5.96810  -41.29280  -11.92950    5.96810
  800.00000    -999.25  168.96220  187.11870    5.34420    -999.25    -999.25    -999.25    -999.25    -999.25    5.34420    -999.25    5.47940  -42.21300  -11.46180    5.47940
  850.00000    -999.25  303.92940  337.46160    2.96330    -999.25    -999.25    -999.25    -999.25    -999.25    2.96330    -999.25    3.41480  -38.45390   -6.30570    3.41480
  900.00000    -999.25  287.69490  309.41550    3.23190    -999.25    -999.25    -999.25    -999.25    -999.25    3.23190    -999.25    3.61390  -37.87200   -4.33590    3.61390
  950.00000    -999.25  199.77930  206.66280    4.83880    -999.25    -999.25    -999.25    -999.25    -999.25    4.83880    -999.25    5.48940  -36.36600   -1.75640    5.48940
 1000.00000    -999.25  204.63500  209.93410    4.76340    -999.25    -999.25    -999.25    -999.25    -999.25    4.76340    -999.25    5.26240  -44.44070   -9.29090    5.26240
 1050.00000    -999.25  186.68200  187.35010    5.33760    -999.25    -999.25    -999.25    -999.25    -999.25    5.33760    -999.25    5.95090  -38.26560   -2.57570    5.95090
 1100.00000    -999.25  160.34350  176.39480    5.66910    -999.25    -999.25    -999.25    -999.25    -999.25    5.66910    -999.25    6.22540  -48.98640  -12.75280    6.22540
 1150.00000    -999.25  200.69540  208.32900    4.80010    -999.25    -999.25    -999.25    -999.25    -999.25    4.80010    -999.25    5.42410  -46.04000   -9.26620    5.42410
 1200.00000    -999.25  172.08900  178.51400    5.60180    -999.25    -999.25    -999.25    -999.25    -999.25    5.60180    -999.25    6.78740  -46.79100   -9.47350    6.78740
 1250.00000    -999.25  213.53830  220.81880    4.52860    -999.25    -999.25    -999.25    -999.25    -999.25    4.52860    -999.25    5.28530  -45.45200   -7.59440    5.28530
 1300.00000    -999.25  213.43660  224.78980    4.44860    -999.25    -999.25    -999.25    -999.25    -999.25    4.44860    -999.25    4.90800  -45.67410   -7.27630    4.90800
 1350.00000    -999.25  164.21730  161.62920    6.18700    -999.25    -999.25    -999.25    -999.25    -999.25    6.18700    -999.25    6.83010  -48.01610   -9.07460    6.83010
 1400.00000    -999.25  113.07980  126.02390    7.93500    -999.25    -999.25    -999.25    -999.25    -999.25    7.93500    -999.25    8.43840  -46.60620   -7.12460    8.43840
 1450.00000    -999.25  225.61430  232.81260    4.29530    -999.25    -999.25    -999.25    -999.25    -999.25    4.29530    -999.25    4.54910  -45.72410   -5.69880    4.54910
 1500.00000    -999.25  175.18300  190.32390    5.25420    -999.25    -999.25    -999.25    -999.25    -999.25    5.25420    -999.25    6.01820  -44.68420   -4.11880    6.01820
 1550.00000    -999.25  217.20280  226.38780    4.41720    -999.25    -999.25    -999.25    -999.25    -999.25    4.41720    -999.25    5.21870  -44.66960   -3.56400    5.21870
 1600.00000    -999.25  221.31920  224.45180    4.45530    -999.25    -999.25    -999.25    -999.25    -999.25    4.45530    -999.25    6.53470  -45.52810   -3.87880    6.53470
 1650.00000    -999.25  155.71170  160.64770    6.22480    -999.25    -999.25    -999.25    -999.25    -999.25    6.22480    -999.25    7.02330  -48.15590   -5.96650    7.02330
 1700.00000    -999.25  216.21030  221.29280    4.51890    -999.25    -999.25    -999.25    -999.25    -999.25    4.51890    -999.25    5.12400  -50.14150   -7.40840    5.12400
 1750.00000    -999.25  257.98980  260.43020    3.83980    -999.25    -999.25    -999.25    -999.25    -999.25    3.83980    -999.25    4.39320  -47.47320   -4.19990    4.39320
 1800.00000    -999.25  188.75680  184.91810    5.40780    -999.25    -999.25    -999.25    -999.25    -999.25    5.40780    -999.25    6.57520  -47.38490   -3.57150    6.57520
 1850.00000    -999.25  272.23150  278.90890    3.58540    -999.25    -999.25    -999.25    -999.25    -999.25    3.58540    -999.25    4.50480  -46.11010   -2.34210    4.50480
 1900.00000    -999.25  160.35980  164.82070    6.06720    -999.25    -999.25    -999.25    -999.25    -999.25    6.06720    -999.25    6.75590  -47.29940   -3.86060    6.75590
 1950.00000    -999.25  171.29700  179.77850    5.56240    -999.25    -999.25    -999.25    -999.25    -999.25    5.56240    -999.25    6.42430  -51.81350   -8.70610    6.42430
 2000.00000    -999.25  147.88960  149.00910    6.71100    -999.25    -999.25    -999.25    -999.25    -999.25    6.71100    -999.25    7.25230  -54.88790  -12.10970    7.25230
 2050.00000    -999.25  186.72510  188.38420    5.30830    -999.25    -999.25    -999.25    -999.25    -999.25    5.30830    -999.25    5.93990  -49.71180   -7.26280    5.93990
 2100.00000    -999.25  156.13920  165.03560    6.05930    -999.25    -999.25    -999.25    -999.25    -999.25    6.05930    -999.25    7.21360  -55.40060  -13.28300    7.21360
 2150.00000    -999.25  173.57430  180.98890    5.52520    -999.25    -999.25    -999.25    -999.25    -999.25    5.52520    -999.25    6.76350  -54.77590  -12.98750    6.76350
 2200.00000    -999.25  189.73100  195.89020    5.10490    -999.25    -999.25    -999.25    -999.25    -999.25    5.10490    -999.25    6.25850  -54.70190  -13.24480    6.25850
 2250.00000    -999.25  147.55940  149.71850    6.67920    -999.25    -999.25    -999.25    -999.25    -999.25    6.67920    -999.25    9.16890  -50.12890   -9.00110    9.16890
 2300.00000    -999.25  132.41160  130.45460    7.66550    -999.25    -999.25    -999.25    -999.25    -999.25    7.66550    -999.25   10.01530  -49.80680   -9.00820   10.01530
 2350.00000    -999.25  151.86930  155.15420    6.44520    -999.25    -999.25    -999.25    -999.25    -999.25    6.44520    -999.25    8.38860  -50.96260  -10.49530    8.38860
 2400.00000    -999.25  171.32520  183.12670    5.46070    -999.25    -999.25    -999.25    -999.25    -999.25    5.46070    -999.25    7.30330  -49.46210   -9.32410    7.30330
 2450.00000    -999.25  144.87290  148.02320    6.75570    -999.25    -999.25    -999.25    -999.25    -999.25    6.75570    -999.25    8.12430  -48.79720   -8.99050    8.12430
 2500.00000    -999.25  153.54370  156.92430    6.37250    -999.25    -999.25    -999.25    -999.25    -999.25    6.37250    -999.25    7.45410  -51.85770  -12.38020    7.45410
 2550.00000    -999.25  145.42140  147.23420    6.79190    -999.25    -999.25    -999.25    -999.25    -999.25    6.79190    -999.25    7.88400  -51.91250  -12.76420    7.88400
 2600.00000    -999.25  157.71470  160.12810    6.24500    -999.25    -999.25    -999.25    -999.25    -999.25    6.24500    -999.25    7.46880  -50.93090  -12.11400    7.46880
 2650.00000    -999.25  136.45880  136.92250    7.30340    -999.25    -999.25    -999.25    -999.25    -999.25    7.30340    -999.25    7.94730  -54.83220  -16.34450    7.94730
 2700.00000    -999.25  141.88070  143.01040    6.99250    -999.25    -999.25    -999.25    -999.25    -999.25    6.99250    -999.25    7.58250  -53.12300  -14.96670    7.58250
 2750.00000    -999.25  169.01400  175.00260    5.71420    -999.25    -999.25    -999.25    -999.25    -999.25    5.71420    -999.25    6.90520  -49.91950  -12.09240    6.90520
 2800.00000    -999.25  197.57750  203.89850    4.90440    -999.25    -999.25    -999.25    -999.25    -999.25    4.90440    -999.25    6.11400  -45.27340   -7.77550    6.11400
 2850.00000    -999.25  189.22190  195.70620    5.10970    -999.25    -999.25    -999.25    -999.25    -999.25    5.10970    -999.25    6.67600  -42.30270   -5.13620    6.67600
 2900.00000    -999.25  101.75160  104.39070    9.57940    -999.25    -999.25    -999.25    -999.25    -999.25    9.57940    -999.25   11.67000  -45.83000   -8.99270   11.67000
 2950.00000    -999.25  154.63300  152.84910    6.54240    -999.25    -999.25    -999.25    -999.25    -999.25    6.54240    -999.25    9.32450  -44.05350   -7.54760    9.32450
