~Version ---------------------------------------------------
VERS.      2.0 : CWLS log ASCII Standard -VERSION 2.0
WRAP.       NO : One line per depth step
CREA. 06/29/13 : LAS Creation Date
~Well ------------------------------------------------------
STRT.M                         300.0 : START DEPTH
STOP.M                        2350.0 : STOP DEPTH
STEP.M                      50.00000 : STEP LENGTH
NULL.                        -999.25 : NULL VALUE
COMP.   HUSKY OIL OPERATIONS LIMITED : COMPANY
WELL. CANTERRA GHOST PINE 8-33-31-22 : WELL
FLD .                                : FIELD
LOC .                                : LOCATION
CTRY.                         CANADA : COUNTRY
SRVC.                   Schlumberger : SERVICE COMPANY
DATE.                    02-Sep-1989 : LOGDATE
PROV.                        Alberta : PROVINCE
UWI .               100083303122W400 : UNIQUE WELL ID
SLAT.WGS84                  51.69754 : SURFACE LATITUDE
SLON.WGS84                 -113.0561 : SURFACE LONGITUDE
~Curve Information -----------------------------------------
DEPT    .M      : DEPTH METER
C1ED    .MM     : CALIPER 1 FROM DENSITY LOG [ADJ. TO RESISTIVITY LOG]
C2ED    .MM     : CALIPER 2 FROM DENSITY LOG [ADJ. TO RESISTIVITY LOG]
CALWS   .MM     : CALIPER [C1ED]
CONDWS  .MMHO   : CONDUCTIVITY [1000/DRESWS]
DCORWS  .KG/M3  : DENSITY CORRECTION [DRHOED]
DENWS   .KG/M3  : FORMATION BULK DENSITY [RHOBED]
DPHILSED.V/V    : DENSITY POROSITY LIMESTONE FROM DENSITY LOG [M=2710, F=1000, [ADJ. TO RESISTIVITY LOG]
DPOLSWS .V/V    : DENSITY POROSITY LIMESTONE [DPHILSED]
DRESWS  .OHMM   : DEEP RESISTIVITY [IDPHED]
DRHOED  .KG/M3  : BULK DENSITY CORRECTION FROM DENSITY LOG [ADJ. TO RESISTIVITY LOG]
DTED    .US/M   : ACOUSTIC TRANSIT TIME  DELTA T FROM SONIC LOG
DTWS    .US/M   : COMPRESSIONAL SONIC [DTED]
GRDED   .GAPI   : GAMMA RAY FROM DENSITY LOG [ADJ. TO RESISTIVITY LOG]
GRRED   .GAPI   : GAMMA RAY FROM RESISTIVITY LOG
GRSED   .GAPI   : GAMMA RAY FROM SONIC LOG
GRWS    .GAPI   : GAMMA RAY [GRSED]
HDED    .MM     : HORIZONTAL HOLE DIAMETER FROM SONIC LOG
IDPHED  .OHMM   : INDUCTION DEEP PHASOR RESISTIVITY FROM RESISTIVITY LOG
IMPHED  .OHMM   : INDUCTION MEDIUM PHASOR RESISTIVITY FROM RESISTIVITY LOG
MRESWS  .OHMM   : MEDIUM RESISTIVITY [IMPHED]
NPHILSED.V/V    : NEUTRON POROSITY LIMESTONE FROM DENSITY LOG  [M=2710, F=1000, [ADJ. TO RESISTIVITY LOG]
NPOLSWS .V/V    : NEUTRON POROSITY LIMESTONE [NPHILSED]
PEFED   .B/E    : PHOTOELECTRIC FACTOR FROM DENSITY LOG [ADJ. TO RESISTIVITY LOG]
PEFWS   .B/E    : PHOTOELECTRIC FACTOR [PEFED]
RHOBED  .KG/M3  : BULK DENSITY FROM DENSITY LOG [ADJ. TO RESISTIVITY LOG]
SFLUED  .OHMM   : SHALLOW FOCUS RESISTIVITY FROM RESISTIVITY LOG
SPRED   .MV     : SPONTANEOUS POTENTIAL FROM RESISTIVITY LOG
SPWS    .MV     : SPONTANEOUS POTENTIAL [BASELINE 0 MV, SPRED]
SRESWS  .OHMM   : SHALLOW RESISTIVITY [SFLUED]
TENDED  .N      : TENSION FROM DENSITY LOG [ADJ. TO RESISTIVITY LOG]
TENRED  .N      : TOTAL TENSION FROM RESISTIVITY LOG
TENSED  .N      : TENSION FROM SONIC LOG
~Params ----------------------------------------------------
PD  .                         GL : PERMANENT DATUM
EPD .M                     834.8 : ELEVATION PERMANENT DATUM
LMF .                         KB : LOG MEASURED FROM
DAPD.M                       5.4 : FEET ABOVE PERMANENT DATUM
DMF .                         KB : DRILLING MEASURED FROM
EKB .M                      84.2 : KELLY BUSHING
EDF .M                     839.9 : DRILLING FLOOR
EGL .M                     834.8 : GROUND LEVEL
DATE.                   09/02/89 : RUN DATE
RUN .                          2 : RUN NUMBER
DD  .M                      2398 : DEPTH DRILLER
DL  .M                    2397.5 : DEPTH LOGGER
BLI .M                    2394.5 : BOTTOM LOG INTERVAL
TLI .M                      2270 : TOP LOG INTERVAL
CS  .MM                      244 : CASING SIZE
CBD .M                       387 : CASING BOTTOM DRILLER
CBL .M                       387 : CASING BOTTOM LOGGER
BSD .M                      2398 : BIT SIZE AT DEPTH
DFT .                   GEL CHEM : DRILLING FLUID TYPE
DFD .                       1070 : DRILLING FLUID DENSITY
DFV .                         58 : DRILLING FLUID VISCOSITY
DFPH.                         10 : DRILLING FLUID PH
DFL .                         15 : DRILLING FLUID LOSS
MSS .                   FLOWLINE : MUD SAMPLE SOURCE
RMS .OHMM                  0.838 : RESISTIVITY MUD SAMPLE
MST .DEGC                   21.1 : MUD SAMPLE TEMPERATURE
RMF .OHMM                  0.838 : RESISTIVITY MUD FILTRATE SAMPLE
MFST.DEGC                   21.1 : MUD FILTRATE SAMPLE TEMPERATURE
RMC .OHMM                  0.353 : RESISTIVITY MUD CAKE
MCST.DEGC                   61.7 : MUD CAKE SAMPLE TEMPERATURE
MFSS.                       MEAS : MUD FILTRATE SAMPLE SOURCE
MCSS.                       CALC : MUD CAKE SAMPLE SOURCE
RMB .OHMM                   0.43 : RESISTIVITY MUD AT BHT
TCS .HRS                    2400 : TIME CIRCULATED STOPPED
TLAB.HRS                     430 : TIME LOGGER AT BOTTOM
LUN .                       8398 : LOGGING UNIT NUMBER
LUL .                       BRKS : LOGGING UNIT LOCATION
ENGI.                   REA KUHN : RECORDING ENGINEER
WITN.                    MCGRATH : WITNESSED BY
CLNT.                    A2DTECH : CLIENT CODE
ORIG. 6.5"/100M 16.5"/100M PRINT : ORIGIN OF DATA
UWI .           100083303122W400 : UNIQUE WELL ID
DICO.     A2D Technologies, Inc. : DIGITIZING COMPANY
~Other -----------------------------------------------------
PIL-CNL-LDT-BHC--MICROLOG-SONIC LOG RAN
SPR NOT RELIABLE FOR BOTTOM PORTION
DENSITY DATA AFFECTED BY HOLE SIZE
~ASCII -----------------------------------------------------
  300.00000    -999.25    -999.25    -999.25    -999.25    -999.25    -999.25    -999.25    -999.25    -999.25    -999.25    -999.25    -999.25    -999.25    -999.25    -999.25    -999.25    -999.25    -999.25    -999.25    -999.25    -999.25    -999.25    -999.25    -999.25    -999.25    -999.25    -999.25    -999.25    -999.25    -999.25    -999.25    -999.25
  350.00000    -999.25    -999.25    -999.25    -999.25    -999.25    -999.25    -999.25    -999.25    -999.25    -999.25    -999.25    -999.25    -999.25    -999.25    -999.25    -999.25    -999.25    -999.25    -999.25    -999.25    -999.25    -999.25    -999.25    -999.25    -999.25    -999.25    -999.25    -999.25    -999.25    -999.25    -999.25    -999.25
  400.00000  268.61910  262.93280  268.61910  211.92280    -999.25    -999.25    -999.25    -999.25    4.71870    -999.25  350.75620  350.75620    -999.25    -999.25   95.86640   95.86640  268.58690    4.71870    4.12520    4.12520    -999.25    -999.25    -999.25    -999.25    -999.25    4.40020 -147.53840   17.58470    4.40020    -999.25 3617.48380 4632.35040
  450.00000  309.29420  239.85780  309.29420  209.76230    -999.25    -999.25    -999.25    -999.25    4.76730    -999.25  330.29870  330.29870    -999.25    -999.25   92.71650   92.71650  270.35540    4.76730    3.88260    3.88260    -999.25    -999.25    -999.25    -999.25    -999.25    3.90110 -139.13950   20.54590    3.90110    -999.25 3719.96680 4861.26610
  500.00000  233.43800  231.88920  233.43800  205.59210    -999.25    -999.25    -999.25    -999.25    4.86400    -999.25  331.95680  331.95680    -999.25    -999.25   84.08340   84.08340  247.09260    4.86400    4.45910    4.45910    -999.25    -999.25    -999.25    -999.25    -999.25    4.35220 -139.11150   16.25620    4.35220    -999.25 4172.65070 5144.44970
  550.00000  253.85760  271.20990  253.85760  152.34610    -999.25    -999.25    -999.25    -999.25    6.56400    -999.25  360.67290  360.67290    -999.25    -999.25   61.24630   61.24630  292.10440    6.56400    6.28310    6.28310    -999.25    -999.25    -999.25    -999.25    -999.25    5.90190 -138.64550   15.01770    5.90190    -999.25 4187.19860 5391.42880
  600.00000  262.37250  290.67450  262.37250  193.87360    -999.25    -999.25    -999.25    -999.25    5.15800    -999.25  329.80200  329.80200    -999.25    -999.25   74.75600   74.75600  275.87760    5.15800    4.01050    4.01050    -999.25    -999.25    -999.25    -999.25    -999.25    3.73420 -136.27440   15.68430    3.73420    -999.25 4405.18330 5492.26280
  650.00000  316.88120  263.37810  316.88120  222.89090    -999.25    -999.25    -999.25    -999.25    4.48650    -999.25  354.40000  354.40000    -999.25    -999.25   61.93580   61.93580  262.50720    4.48650    4.27760    4.27760    -999.25    -999.25    -999.25    -999.25    -999.25    3.85440 -135.76430   14.48990    3.85440    -999.25 4637.37420 5581.78680
  700.00000  244.93160  253.97690  244.93160  203.27680    -999.25    -999.25    -999.25    -999.25    4.91940    -999.25  323.63990  323.63990    -999.25    -999.25   64.73900   64.73900  245.05700    4.91940    4.63810    4.63810    -999.25    -999.25    -999.25    -999.25    -999.25    5.00430 -133.98930   14.56030    5.00430    -999.25 4705.44670 6009.15110
  750.00000  279.86020  230.87170  279.86020  195.15240    -999.25    -999.25    -999.25    -999.25    5.12420    -999.25  312.35770  312.35770    -999.25    -999.25   68.31150   68.31150  255.07840    5.12420    4.22000    4.22000    -999.25    -999.25    -999.25    -999.25    -999.25    3.91040 -132.59690   14.24820    3.91040    -999.25 4983.30800 6191.42230
  800.00000  302.74360  242.80270  302.74360  127.79720    -999.25    -999.25    -999.25    -999.25    7.82490    -999.25  298.55020  298.55020    -999.25    -999.25   96.09490   96.09490  304.95360    7.82490    6.88840    6.88840    -999.25    -999.25    -999.25    -999.25    -999.25    6.78490 -133.08390   12.82570    6.78490    -999.25 5378.49200 6408.24060
  850.00000  261.27150  241.81180  261.27150  103.23010    -999.25    -999.25    -999.25    -999.25    9.68710    -999.25  293.16910  293.16910    -999.25    -999.25   89.87050   89.87050  264.41670    9.68710    8.61620    8.61620    -999.25    -999.25    -999.25    -999.25    -999.25    8.02720 -135.01890   10.21420    8.02720    -999.25 5363.56200 6510.06040
  900.00000  238.93820  222.53770  238.93820   52.10830    -999.25    -999.25    -999.25    -999.25   19.19080    -999.25  261.77950  261.77950    -999.25    -999.25   84.29810   84.29810  235.24180   19.19080   22.55860   22.55860    -999.25    -999.25    -999.25    -999.25    -999.25   24.49710 -134.12610   10.43050   24.49710    -999.25 5549.08170 6775.00630
  950.00000  259.77450  288.60730  259.77450  138.17880    -999.25    -999.25    -999.25    -999.25    7.23700    -999.25  289.61470  289.61470    -999.25    -999.25   96.55800   96.55800  268.58180    7.23700    6.17260    6.17260    -999.25    -999.25    -999.25    -999.25    -999.25    6.22550 -132.38280   11.49720    6.22550    -999.25 5822.50240 6900.32110
 1000.00000  273.50970  242.78740  273.50970  134.28770    -999.25    -999.25    -999.25    -999.25    7.44670    -999.25  293.57710  293.57710    -999.25    -999.25  104.64580  104.64580  264.01810    7.44670    7.03910    7.03910    -999.25    -999.25    -999.25    -999.25    -999.25    7.01350 -128.60330   13.27520    7.01350    -999.25 5985.42690 7332.59350
 1050.00000  233.81820  257.32570  233.81820   96.35770    -999.25    -999.25    -999.25    -999.25   10.37800    -999.25  276.96960  276.96960    -999.25    -999.25  104.95790  104.95790  244.40230   10.37800    9.44900    9.44900    -999.25    -999.25    -999.25    -999.25    -999.25    9.95610 -126.28730   12.55710    9.95610    -999.25 6168.60910 7364.62470
 1100.00000  297.99860  254.60790  297.99860  128.05570    -999.25    -999.25    -999.25    -999.25    7.80910    -999.25  284.59540  284.59540    -999.25    -999.25  103.27350  103.27350  294.42200    7.80910    6.79050    6.79050    -999.25    -999.25    -999.25    -999.25    -999.25    7.16670 -124.09070   11.71950    7.16670    -999.25 6464.43460 7597.42370
 1150.00000  238.39460  266.00750  238.39460  150.94340    -999.25    -999.25    -999.25    -999.25    6.62500    -999.25  316.68160  316.68160    -999.25    -999.25  125.03130  125.03130  251.14390    6.62500    6.54270    6.54270    -999.25    -999.25    -999.25    -999.25    -999.25    7.19000 -115.65330   16.63240    7.19000    -999.25 6669.04740 7729.38470
 1200.00000  249.09760  245.48310  249.09760  122.01820    -999.25    -999.25    -999.25    -999.25    8.19550    -999.25  288.81520  288.81520    -999.25    -999.25  134.52370  134.52370  266.92790    8.19550    9.38110    9.38110    -999.25    -999.25    -999.25    -999.25    -999.25   11.47870 -113.30590   15.23510   11.47870    -999.25 6853.95510 7989.34590
 1250.00000  301.11300  270.06560  301.11300  396.38500    -999.25    -999.25    -999.25    -999.25    2.52280    -999.25  333.18560  333.18560    -999.25    -999.25  104.96860  104.96860  292.29040    2.52280    2.45530    2.45530    -999.25    -999.25    -999.25    -999.25    -999.25    2.81180 -113.22040   11.57590    2.81180    -999.25 7000.90480 8123.05760
 1300.00000  246.45720  242.48650  246.45720   74.19550    -999.25    -999.25    -999.25    -999.25   13.47790    -999.25  242.98900  242.98900    -999.25    -999.25   54.02640   54.02640  248.96140   13.47790   13.97540   13.97540    -999.25    -999.25    -999.25    -999.25    -999.25   14.36150 -114.76820    5.86160   14.36150    -999.25 7281.53640 8323.58170
 1350.00000  314.07660  251.95540  314.07660  691.56290    -999.25    -999.25    -999.25    -999.25    1.44600    -999.25  359.22000  359.22000    -999.25    -999.25   85.51850   85.51850  302.08530    1.44600    1.29700    1.29700    -999.25    -999.25    -999.25    -999.25    -999.25    1.59320 -108.25400   11.30540    1.59320    -999.25 7324.96440 8474.27230
