~Version ---------------------------------------------------
VERS.      2.0 : CWLS log ASCII Standard -VERSION 2.0
WRAP.       NO : One line per depth step
CREA. 09/26/17 : LAS Creation Date
~Well ------------------------------------------------------
STRT.FT                             300.0 : START DEPTH
STOP.FT                           13500.0 : STOP DEPTH
STEP.FT                          50.00000 : STEP LENGTH
NULL.                             -999.25 : NULL VALUE
COMP.          TEXACO EXPLORATION COMPANY : COMPANY
WELL. TEXACO H.B. DISMAL CREEK 6-28-47-14 : WELL
FLD .                                     : FIELD
LOC .                                     : LOCATION
CTRY.                              CANADA : COUNTRY
SRVC.              Schlumberger of Canada : SERVICE COMPANY
DATE.                         09-May-1961 : LOGDATE
PROV.                             Alberta : PROVINCE
UWI .                    100062804714W500 : UNIQUE WELL ID
SLAT.WGS84                       53.08145 : SURFACE LATITUDE
SLON.WGS84                      -115.9911 : SURFACE LONGITUDE
~Curve Information -----------------------------------------
DEPT  .FT         : Depth Curve
CALWS .IN         : CALIPER [MCALED]
CILDED.MMHO       : CONDUCTIVITY FROM IEL LOG
CLLDED.MMHO       : CONDUCTIVITY FROM DLL LOG
CONDWS.MMHO       : CONDUCTIVITY [1000/DRESWS]
DRESWS.OHMM       : DEEP RESISTIVITY [1000/CILDED IF ILDED<1, ILDED &  SPL. TO 1000/CLLED IF LLED<1, LLED @ 11615']
DTED  .US/F       : DELTA-T FROM SONIC LOG [ADJ. TO RESISTIVITY LOG]
DTWS  .US/F       : COMPRESSIONAL SONIC [DTED]
GRED  .GAPI       : GAMMA RAY (CASING & COLLARS) FROM SBL LOG [ADJ. TO RESISTIVITY LOG]
GRNED .UgRa-Eq/T  : GAMMA RAY (CASING & COLLARS) FROM GRN LOG [ADJ. TO RESISTIVITY LOG]
GRSED .UgRa-Eq/T  : GAMMA RAY FROM SONIC LOG [ADJ. TO RESISTIVITY LOG]
GRWS  .GAPI       : GAMMA RAY [GRED SPL. TO GRSED*16.5 @ 1002' & GRNED*16.5 @ 11622']
ILDED .OHMM       : DEEP INDUCTION RESISTIVITY FROM IEL LOG
LLED  .OHMM       : FOCUSED LATEROLOG RESISTIVITY FROM DLL LOG
MCALED.IN         : MICROCALIPER FROM MICROLOG [ADJ. TO RESISTIVITY LOG]
NEUTED.SCPS       : NEUTRON (CASING & COLLARS) FROM GRN LOG [ADJ. TO RESISTIVITY LOG]
NEUTWS.SCPS       : NEUTRON [NEUTED]
SNED  .OHMM       : SHORT NORMAL RESISTIVITY FROM IEL LOG
SPRED .MV         : SPONTANEOUS POTENTIAL FROM IEL LOG
SPWS  .MV         : SPONTANEOUS POTENTIAL [BASELINE 0 MV, SPRED]
SRESWS.OHMM       : SHALLOW RESISTIVITY [SNED]
~Params ----------------------------------------------------
LMF .                     KB : LOG MEASURED FROM
DMF .                     KB : DRILLING MEASURED FROM
EKB .FT                 3712 : KELLY BUSHING
EGL .FT                 3696 : GROUND LEVEL
DATE.               05/09/61 : RUN DATE
RUN .                      1 : RUN NUMBER
DD  .FT                13533 : DEPTH DRILLER
DL  .FT                11643 : DEPTH LOGGER
BLI .FT                11638 : BOTTOM LOG INTERVAL
TLI .FT                10032 : TOP LOG INTERVAL
CBD .FT                10039 : CASING BOTTOM DRILLER
CBL .FT                10032 : CASING BOTTOM LOGGER
BS  .IN                8.375 : BIT SIZE
BSD .FT                13533 : BIT SIZE AT DEPTH
DFT .              LIME BASE : DRILLING FLUID TYPE
DFD .                   10.1 : DRILLING FLUID DENSITY
DFV .                     85 : DRILLING FLUID VISCOSITY
DFPH.                   13.5 : DRILLING FLUID PH
DFL .                    4.2 : DRILLING FLUID LOSS
RMS .OHMM               0.35 : RESISTIVITY MUD SAMPLE
MST .DEGF                 75 : MUD SAMPLE TEMPERATURE
RMF .OHMM               0.24 : RESISTIVITY MUD FILTRATE SAMPLE
MFST.DEGF                 66 : MUD FILTRATE SAMPLE TEMPERATURE
RMC .OHMM               0.84 : RESISTIVITY MUD CAKE
MCST.DEGF                 56 : MUD CAKE SAMPLE TEMPERATURE
RMB .OHMM               0.13 : RESISTIVITY MUD AT BHT
TCS .HRS                   3 : TIME CIRCULATED STOPPED
LUN .                   2765 : LOGGING UNIT NUMBER
LUL .                    SKW : LOGGING UNIT LOCATION
ENGI.                PRATHER : RECORDING ENGINEER
WITN.                 RAKACH : WITNESSED BY
CLNT.                A2DTECH : CLIENT CODE
ORIG.        2" 5" 10" PRINT : ORIGIN OF DATA
UWI .       100062804714W500 : UNIQUE WELL ID
DICO. A2D Technologies, Inc. : DIGITIZING COMPANY
~Other -----------------------------------------------------
GRN-IEL-LL-ML-BCS LOG RAN
UNABLE TO RECORD SP DUE TO SEVERE DRIFTING CONDITION
LL GIVEN OVER A COMPRESSED SCALE COULD BE VERIFIED FROM 1000/CLLED
TOOL MOMENTARILY STUCK IN HOLE ON FIRST RUN @ 1800' & 2717'.
CNL-LDT IS TVD LOG, NO DATA AVAILABLE
~ASCII -----------------------------------------------------
# ...
 10800.00000    8.70430   35.26100   10.64610   34.65410   28.85660   58.92900   58.92900    -999.25    -999.25    3.33090   54.95900   28.85660   90.34790    8.70430    -999.25    -999.25   20.26870    -999.25    -999.25   20.26870
 10850.00000   10.38090   60.17340   19.44460   58.74130   17.02380   62.46750   62.46750    -999.25    -999.25    3.94610   65.11060   17.02380   50.85400   10.38090    -999.25    -999.25   16.40520    -999.25    -999.25   16.40520
 10900.00000    9.67640   72.46050    1.65890   69.49900   14.38870   50.56210   50.56210    -999.25    -999.25    2.75250   45.41620   14.38870  410.90770    9.67640    -999.25    -999.25   19.39680    -999.25    -999.25   19.39680
 10950.00000    8.70600    8.51390   -0.25630    4.52000  221.23990   51.10530   51.10530    -999.25    -999.25    1.44660   23.86890  221.23990  681.72340    8.70600    -999.25    -999.25   63.67020    -999.25    -999.25   63.67020
 11000.00000    9.94370   12.43310   -0.57100   11.08850   90.18390   51.63200   51.63200    -999.25    -999.25    1.13850   18.78610   90.18390  734.87520    9.94370    -999.25    -999.25   36.77780    -999.25    -999.25   36.77780
 11050.00000    9.55790   10.39710   -0.65810    7.24220  138.07870   51.08360   51.08360    -999.25    -999.25    1.23250   20.33630  138.07870  718.60600    9.55790    -999.25    -999.25   40.80970    -999.25    -999.25   40.80970
 11100.00000   11.03060   28.72320   -0.41860   27.97770   35.74280   49.82680   49.82680    -999.25    -999.25    1.27010   20.95670   35.74280  710.12630   11.03060    -999.25    -999.25   28.77240    -999.25    -999.25   28.77240
 11150.00000   14.00640   50.91290    0.44380   47.75940   20.93830   57.05400   57.05400    -999.25    -999.25    1.40420   23.16930   20.93830  720.95180   14.00640    -999.25    -999.25   39.31820    -999.25    -999.25   39.31820
 11200.00000   15.47940  149.02780    1.94880  142.01520    7.04150   55.03990   55.03990    -999.25    -999.25    1.23750   20.41960    7.04150  500.85400   15.47940    -999.25    -999.25   19.14770    -999.25    -999.25   19.14770
 11250.00000   15.10440   48.91930    2.01310   46.14550   21.67060   50.96410   50.96410    -999.25    -999.25    0.92560   15.27320   21.67060  596.92980   15.10440    -999.25    -999.25   22.67590    -999.25    -999.25   22.67590
 11300.00000   15.59050   32.32160    2.52240   32.41140   30.85330   53.83920   53.83920    -999.25    -999.25    0.83160   13.72060   30.85330  373.95500   15.59050    -999.25    -999.25   29.45210    -999.25    -999.25   29.45210
 11350.00000   15.54070   25.86900    2.14960   25.05010   39.92000   52.79500   52.79500    -999.25    -999.25    0.75570   12.46910   39.92000  534.18380   15.54070    -999.25    -999.25   26.67210    -999.25    -999.25   26.67210
 11400.00000   13.34410   22.30380    1.75010   17.91500   55.81900   52.77180   52.77180    -999.25    -999.25    1.00290   16.54780   55.81900  675.92840   13.34410    -999.25    -999.25   27.94170    -999.25    -999.25   27.94170
 11450.00000   14.54540   64.68750    2.49500   59.69790   16.75100   61.55790   61.55790    -999.25    -999.25    0.77340   12.76110   16.75100  474.76080   14.54540    -999.25    -999.25   24.25090    -999.25    -999.25   24.25090
 11500.00000    8.58960   22.38470    0.20050   19.73250   50.67790   49.29030   49.29030    -999.25    2.78870    0.64440   10.63180   50.67790  700.23940    8.58960  385.32780  385.32780   32.99130    -999.25    -999.25   32.99130
 11550.00000   13.63010   40.20530    1.03860   35.76860   27.95750   52.51410   52.51410    -999.25    3.14310    0.82100   13.54570   27.95750  711.10370   13.63010  275.86340  275.86340   54.82710    -999.25    -999.25   54.82710
 11600.00000    8.24960   14.78790    3.20090   12.85260   77.80510   56.37000   56.37000    -999.25    2.93780    0.83880   13.84020   77.80510  349.41840    8.24960  308.82590  308.82590   35.00780    -999.25    -999.25   35.00780
 11650.00000    -999.25    -999.25    2.05150    1.92180  520.35130    -999.25    -999.25    -999.25    2.51300    -999.25   41.46450    -999.25  520.35130    -999.25  338.84700  338.84700    -999.25    -999.25    -999.25    -999.25
 11700.00000    -999.25    -999.25    1.57180    1.72830  578.59430    -999.25    -999.25    -999.25    3.84920    -999.25   63.51100    -999.25  578.59430    -999.25  276.37570  276.37570    -999.25    -999.25    -999.25    -999.25
 11750.00000    -999.25    -999.25    4.30750    3.66870  272.57700    -999.25    -999.25    -999.25    4.28830    -999.25   70.75740    -999.25  272.57700    -999.25  385.17790  385.17790    -999.25    -999.25    -999.25    -999.25
 11800.00000    -999.25    -999.25    8.79450    8.38940  119.19760    -999.25    -999.25    -999.25    5.39710    -999.25   89.05130    -999.25  119.19760    -999.25  434.23750  434.23750    -999.25    -999.25    -999.25    -999.25
 11850.00000    -999.25    -999.25   50.35010   50.67470   19.73370    -999.25    -999.25    -999.25    7.83000    -999.25  129.19500    -999.25   19.73370    -999.25  267.47200  267.47200    -999.25    -999.25    -999.25    -999.25
 11900.00000    -999.25    -999.25   37.40970   38.16470   26.20220    -999.25    -999.25    -999.25    7.19390    -999.25  118.69940    -999.25   26.20220    -999.25  309.07890  309.07890    -999.25    -999.25    -999.25    -999.25
 11950.00000    -999.25    -999.25    2.67100    2.81010  355.85880    -999.25    -999.25    -999.25    4.15280    -999.25   68.52080    -999.25  355.85880    -999.25  546.63480  546.63480    -999.25    -999.25    -999.25    -999.25
 12000.00000    -999.25    -999.25    2.29820    2.13520  468.34060    -999.25    -999.25    -999.25    4.03190    -999.25   66.52590    -999.25  468.34060    -999.25  581.02110  581.02110    -999.25    -999.25    -999.25    -999.25
 12050.00000    -999.25    -999.25   20.07650   17.59290   56.84100    -999.25    -999.25    -999.25    5.19290    -999.25   85.68330    -999.25   56.84100    -999.25  519.00970  519.00970    -999.25    -999.25    -999.25    -999.25
 12100.00000    -999.25    -999.25   36.02980   40.77900   24.52240    -999.25    -999.25    -999.25    5.88300    -999.25   97.06950    -999.25   24.52240    -999.25  427.25470  427.25470    -999.25    -999.25    -999.25    -999.25
 12150.00000    -999.25    -999.25   85.66390   85.74420   11.66260    -999.25    -999.25    -999.25    8.18740    -999.25  135.09210    -999.25   11.66260    -999.25  332.07040  332.07040    -999.25    -999.25    -999.25    -999.25
 12200.00000    -999.25    -999.25  109.54440  117.43980    8.51500    -999.25    -999.25    -999.25    8.26830    -999.25  136.42740    -999.25    8.51500    -999.25  304.94760  304.94760    -999.25    -999.25    -999.25    -999.25
 12250.00000    -999.25    -999.25   96.50250   96.62770   10.34900    -999.25    -999.25    -999.25    8.05900    -999.25  132.97390    -999.25   10.34900    -999.25  295.74370  295.74370    -999.25    -999.25    -999.25    -999.25
 12300.00000    -999.25    -999.25   96.50690   92.77990   10.77820    -999.25    -999.25    -999.25    8.30410    -999.25  137.01720    -999.25   10.77820    -999.25  249.41210  249.41210    -999.25    -999.25    -999.25    -999.25
 12350.00000    -999.25    -999.25  169.97750  169.90910    5.88550    -999.25    -999.25    -999.25    8.81580    -999.25  145.46070    -999.25    5.88550    -999.25  206.87460  206.87460    -999.25    -999.25    -999.25    -999.25
 12400.00000    -999.25    -999.25  122.14340  132.11960    7.56890    -999.25    -999.25    -999.25    8.92830    -999.25  147.31690    -999.25    7.56890    -999.25  224.90500  224.90500    -999.25    -999.25    -999.25    -999.25
 12450.00000    -999.25    -999.25  189.71670  187.86400    5.32300    -999.25    -999.25    -999.25    8.58630    -999.25  141.67440    -999.25    5.32300    -999.25  188.07710  188.07710    -999.25    -999.25    -999.25    -999.25
 12500.00000    -999.25    -999.25  116.90320  132.95040    7.52160    -999.25    -999.25    -999.25    7.46280    -999.25  123.13620    -999.25    7.52160    -999.25  228.62380  228.62380    -999.25    -999.25    -999.25    -999.25
