~Version ---------------------------------------------------
VERS.      2.0 : CWLS log ASCII Standard -VERSION 2.0
WRAP.       NO : One line per depth step
CREA. 11/03/17 : LAS Creation Date
~Well ------------------------------------------------------
STRT.FT                            1500.0 : START DEPTH
STOP.FT                           10400.0 : STOP DEPTH
STEP.FT                          50.00000 : STEP LENGTH
NULL.                             -999.25 : NULL VALUE
COMP.                CHEVRON STANDARD LTD : COMPANY
WELL. CHEVRON ET AL HEAVYSOUND 3-25-61-17 : WELL
FLD .                                     : FIELD
LOC .                                     : LOCATION
CTRY.                              CANADA : COUNTRY
SRVC.                        Schlumberger : SERVICE COMPANY
DATE.                         27-Nov-1977 : LOGDATE
PROV.                             Alberta : PROVINCE
UWI .                    100032506117W500 : UNIQUE WELL ID
SLAT.WGS84                       54.30091 : SURFACE LATITUDE
SLON.WGS84                       -116.419 : SURFACE LONGITUDE
~Curve Information -----------------------------------------
DEPT    .FT    : Depth Curve
CALDED  .IN    : CALIPER FROM DENSITY LOG [ADJ. TO RESISTIVITY LOG]
CALSED  .IN    : CALIPER FROM SONIC LOG [ADJ. TO RESISTIVITY LOG]
CALWS   .IN    : CALIPER [CALSED SPL. TO CALDED @ 9702']
CONDWS  .MMHO  : CONDUCTIVITY [1000/DRESWS]
DCORWS  .G/C3  : DENSITY CORRECTION [DRHOED]
DENWS   .G/C3  : FORMATION BULK DENSITY [RHOBED]
DPHILSED.V/V   : DENSITY POROSITY LIMESTONE [M=2.71, F=1.00] FROM DENSITY LOG [ADJ. TO RESISTIVITY LOG]
DPHISSED.V/V   : DENSITY POROSITY SANDSTONE [M=2.65, F=1.00] FROM DENSITY LOG [ADJ. TO RESISTIVITY LOG]
DPOLSWS .V/V   : DENSITY POROSITY LIMESTONE [CALC FROM DENWS,M=2.71, F=1.00]
DRESWS  .OHMM  : DEEP RESISTIVITY [ILDED]
DRHOED  .G/C3  : BULK DENSITY CORRECTION FROM DENSITY LOG [ADJ. TO RESISTIVITY LOG]
DTED    .US/F  : DELTA-T FROM SONIC LOG [ADJ. TO RESISTIVITY LOG]
DTWS    .US/F  : COMPRESSIONAL SONIC [DTED]
GRDED   .GAPI  : GAMMA RAY FROM DENSITY LOG [ADJ. TO RESISTIVITY LOG]
GRNED   .GAPI  : GAMMA RAY FROM GRN LOG [ADJ. TO RESISTIVITY LOG]
GRSED   .GAPI  : GAMMA RAY FROM SONIC LOG [ADJ. TO RESISTIVITY LOG]
GRWS    .GAPI  : GAMMA RAY [GRSED]
ILDED   .OHMM  : DEEP  INDUCTION RESISTIVITY FROM RESISTIVITY LOG
ILMED   .OHMM  : MEDIUM INDUCTION RESISTIVITY FROM RESISTIVITY LOG
LL8ED   .OHMM  : LATEROLOG 8 RESISTIVITY FROM RESISTIVITY LOG
MRESWS  .OHMM  : MEDIUM RESISTIVITY [ILMED]
NEUTED  .NAPI  : NEUTRON FROM GRN LOG [ADJ. TO RESISTIVITY LOG]
NEUTWS  .NAPI  : NEUTRON [NEUTED]
NPHILSED.V/V   : NEUTRON POROSITY LIMESTONE FROM DENSITY LOG [ADJ. TO RESISTIVITY LOG]
NPHISSED.V/V   : NEUTRON POROSITY SANDSTONE FROM DENSITY LOG [ADJ. TO RESISTIVITY LOG]
NPOLSWS .V/V   : NEUTRON POROSITY LIMESTONE [NPHISSED MATRIX  CONVERSION FOR LIMESTONE & SPL. TO NPHILSED @ 9702']
RHOBED  .G/C3  : BULK DENSITY FROM DENSITY LOG [ADJ. TO RESISTIVITY LOG]
SPRED   .MV    : SPONTANEOUS POTENTIAL FROM RESISTIVITY LOG
SPWS    .MV    : SPONTANEOUS POTENTIAL [BASELINE 0 MV,SPRED]
SRESWS  .OHMM  : SHALLOW RESISTIVITY [LL8ED]
TENDED  .LBF   : TENSION FROM DENSITY LOG [ADJ. TO RESISTIVITY LOG]
TENSED  .LBF   : TENSION FROM SONIC LOG [ADJ. TO RESISTIVITY LOG]
~Params ----------------------------------------------------
PD  .                     GL : PERMANENT DATUM
EPD .FT                 3014 : ELEVATION PERMANENT DATUM
LMF .                     KB : LOG MEASURED FROM
DAPD.FT                   19 : FEET ABOVE PERMANENT DATUM
EKB .FT                 3033 : KELLY BUSHING
EGL .FT                 3014 : GROUND LEVEL
DATE.               11/27/77 : RUN DATE
RUN .                      1 : RUN NUMBER
DD  .FT                10428 : DEPTH DRILLER
DL  .FT                10435 : DEPTH LOGGER
BLI .FT                10429 : BOTTOM LOG INTERVAL
TLI .FT                 1501 : TOP LOG INTERVAL
CS  .IN                9.625 : CASING SIZE
CBD .FT                 1500 : CASING BOTTOM DRILLER
CBL .FT                 1501 : CASING BOTTOM LOGGER
DFT .                GEL OIL : DRILLING FLUID TYPE
DFD .                    9.1 : DRILLING FLUID DENSITY
DFV .                     83 : DRILLING FLUID VISCOSITY
MSS .               FLOWLINE : MUD SAMPLE SOURCE
RMS .OHMM               1.69 : RESISTIVITY MUD SAMPLE
MST .DEGF                 60 : MUD SAMPLE TEMPERATURE
RMF .OHMM               1.11 : RESISTIVITY MUD FILTRATE SAMPLE
MFST.DEGF                 54 : MUD FILTRATE SAMPLE TEMPERATURE
TCS .HRS                   4 : TIME CIRCULATED STOPPED
LUN .                   7670 : LOGGING UNIT NUMBER
LUL .                    EDM : LOGGING UNIT LOCATION
ENGI.                   DALY : RECORDING ENGINEER
WITN.     RICHARDSON SPRAGUE : WITNESSED BY
CLNT.                A2DTECH : CLIENT CODE
ORIG.            2" 5" PRINT : ORIGIN OF DATA
UWI .       100032506117W500 : UNIQUE WELL ID
DICO. A2D Technologies, Inc. : DIGITIZING COMPANY
~Other -----------------------------------------------------
DIL-CNFD-BHC-GRN LOG RUN
~ASCII -----------------------------------------------------
# ...
 9200.00000    -999.25    8.91570    8.91570  117.90650    -999.25    -999.25    -999.25    -999.25    -999.25    8.48130    -999.25   69.01530   69.01530    -999.25    -999.25   80.25920   80.25920    8.48130    9.39420   11.95430    9.39420    -999.25    -999.25    -999.25    -999.25    -999.25    -999.25  -69.64650  -17.36570   11.95430    -999.25 1629.80720
 9250.00000    -999.25    9.20000    9.20000  117.13170    -999.25    -999.25    -999.25    -999.25    -999.25    8.53740    -999.25   68.32850   68.32850    -999.25    -999.25   71.41110   71.41110    8.53740   10.71540   12.44810   10.71540    -999.25    -999.25    -999.25    -999.25    -999.25    -999.25  -71.50980  -20.00220   12.44810    -999.25 1518.46920
 9300.00000    -999.25    8.02920    8.02920   63.67670    -999.25    -999.25    -999.25    -999.25    -999.25   15.70680    -999.25   62.29460   62.29460    -999.25    -999.25   72.96070   72.96070   15.70680   16.70580   19.77620   16.70580    -999.25    -999.25    -999.25    -999.25    -999.25    -999.25  -67.97200  -17.23370   19.77620    -999.25 1567.88750
 9350.00000    -999.25    8.05910    8.05910  103.81200    -999.25    -999.25    -999.25    -999.25    -999.25    9.63280    -999.25   67.06870   67.06870    -999.25    -999.25   90.66430   90.66430    9.63280   10.67300   14.21710   10.67300    -999.25    -999.25    -999.25    -999.25    -999.25    -999.25  -67.60320  -17.64190   14.21710    -999.25 1622.49490
 9400.00000    -999.25    8.12000    8.12000  100.98970    -999.25    -999.25    -999.25    -999.25    -999.25    9.90200    -999.25   65.55880   65.55880    -999.25    -999.25   82.65790   82.65790    9.90200   11.44400   15.27030   11.44400    -999.25    -999.25    -999.25    -999.25    -999.25    -999.25  -66.42650  -17.23840   15.27030    -999.25 1649.88870
 9450.00000    -999.25    8.96500    8.96500  118.15300    -999.25    -999.25    -999.25    -999.25    -999.25    8.46360    -999.25   67.83880   67.83880    -999.25    -999.25   95.52090   95.52090    8.46360    9.44740   14.40750    9.44740    -999.25    -999.25    -999.25    -999.25    -999.25    -999.25  -64.62360  -16.20870   14.40750    -999.25 1678.22040
 9500.00000    -999.25    8.93190    8.93190  118.60990    -999.25    -999.25    -999.25    -999.25    -999.25    8.43100    -999.25   67.91990   67.91990    -999.25    -999.25   85.86030   85.86030    8.43100    9.41100   13.58910    9.41100    -999.25    -999.25    -999.25    -999.25    -999.25    -999.25  -55.86870   -8.22690   13.58910    -999.25 1466.61890
 9550.00000    -999.25    9.04280    9.04280  119.84660    -999.25    -999.25    -999.25    -999.25    -999.25    8.34400    -999.25   70.08000   70.08000    -999.25    -999.25   94.18670   94.18670    8.34400    9.87380   13.12380    9.87380    -999.25    -999.25    -999.25    -999.25    -999.25    -999.25  -52.60430   -5.73180   13.12380    -999.25 1503.28240
 9600.00000    -999.25    8.91910    8.91910  124.22050    -999.25    -999.25    -999.25    -999.25    -999.25    8.05020    -999.25   69.41690   69.41690    -999.25    -999.25   81.32290   81.32290    8.05020    9.49920   14.19620    9.49920    -999.25    -999.25    -999.25    -999.25    -999.25    -999.25  -51.18160   -5.08620   14.19620    -999.25 1499.35100
 9650.00000    -999.25    8.81990    8.81990    0.72690    -999.25    -999.25    -999.25    -999.25    -999.25 1375.68900    -999.25   66.51350   66.51350    -999.25    -999.25  183.82310  183.82310 1375.68900 1466.25000 1305.37930 1466.25000    -999.25    -999.25    -999.25    -999.25    -999.25    -999.25 -101.30450  -55.75370 1305.37930    -999.25 1580.08820
 9700.00000    -999.25    8.84100    8.84100    4.19520    -999.25    -999.25    -999.25    -999.25    -999.25  238.36620    -999.25   69.09440   69.09440    -999.25    -999.25  137.29750  137.29750  238.36620  419.34550  604.25820  419.34550    -999.25    -999.25    -999.25    -999.25    -999.25    -999.25  -70.56550  -25.44150  604.25820    -999.25 1617.00210
 9750.00000    9.46640    8.83780    9.46640   16.39740   -0.01690    2.70170    0.00770    -999.25    0.00490   60.98530   -0.01690   55.23430   55.23430   45.48880    -999.25   38.78210   38.78210   60.98530   80.52650  114.30340   80.52650    -999.25    -999.25    0.03100    -999.25    0.03100    2.70170  -52.45260   -7.75550  114.30340 1417.65950 1428.32320
 9800.00000    9.59700    8.93360    9.59700    8.10350   -0.00880    2.68810    0.00790    -999.25    0.01280  123.79240   -0.00880   54.05630   54.05630   43.49580    -999.25   39.65760   39.65760  123.79240  330.66390 1217.35820  330.66390    -999.25    -999.25    0.04700    -999.25    0.04700    2.68810  -57.06050  -12.19710 1217.35820 1474.68200 1453.32910
 9850.00000    9.77470    8.93230    9.77470    2.77710   -0.00080    2.74100   -0.02270    -999.25   -0.01810  360.08380   -0.00080   49.38320   49.38320   14.53900    -999.25   15.77790   15.77790  360.08380 1297.05580 1322.39730 1297.05580    -999.25    -999.25    0.00490    -999.25    0.00490    2.74100 -132.93230  -87.27760 1322.39730 1182.29550 1463.77650
 9900.00000   10.96030    8.98500   10.96030    1.18010    0.22420    2.55060    0.09450    -999.25    0.09320  847.35760    0.22420   47.70770   47.70770   10.72710    -999.25   11.13990   11.13990  847.35760 1341.21860 1284.80330 1341.21860    -999.25    -999.25   -0.00130    -999.25   -0.00130    2.55060 -145.20940  -98.76740 1284.80330 1243.81560 1516.17440
 9950.00000    9.31990    8.92270    9.31990    1.47910    0.00240    2.75510   -0.02190    -999.25   -0.02640  676.10630    0.00240   48.69100   48.69100   12.21960    -999.25    9.84540    9.84540  676.10630 1254.75150 1249.28780 1254.75150    -999.25    -999.25    0.00170    -999.25    0.00170    2.75510 -112.86570  -65.63640 1249.28780 1299.43610 1518.14370
 10000.00000    9.34490    8.91800    9.34490   13.34370   -0.00650    2.68620    0.01460    -999.25    0.01390   74.94160   -0.00650   50.44910   50.44910   17.19970    -999.25   15.65330   15.65330   74.94160   73.61340  134.43470   73.61340    -999.25    -999.25    0.00340    -999.25    0.00340    2.68620 -152.44820 -104.43160  134.43470 1263.37640 1545.36580
 10050.00000    9.43000    8.81390    9.43000   28.09630    0.06120    2.71610   -0.01030    -999.25   -0.00360   35.59600    0.06120   48.66940   48.66940   12.51970    -999.25   11.87510   11.87510   35.59600   67.17680  316.44940   67.17680    -999.25    -999.25    0.07550    -999.25    0.07550    2.71610 -186.59630 -137.79630  316.44940 1220.58880 1483.78170
 10100.00000    9.03480    8.77270    9.03480   42.49930    0.11150    2.70970    0.00360    -999.25    0.00020   23.52980    0.11150   51.46580   51.46580   12.87470    -999.25    9.84200    9.84200   23.52980   31.88200   49.65590   31.88200    -999.25    -999.25    0.09660    -999.25    0.09660    2.70970 -187.15770 -137.56650   49.65590 1265.93280 1533.42640
 10150.00000   11.34750    9.07920   11.34750    0.78960    0.16530    2.54530    0.10200    -999.25    0.09630 1266.43990    0.16530   48.15480   48.15480   16.31940    -999.25   14.61700   14.61700 1266.43990 1418.65390 1309.06080 1418.65390    -999.25    -999.25    0.00300    -999.25    0.00300    2.54530 -160.10950 -109.73090 1309.06080 1373.86530 1562.38820
 10200.00000   10.04090    8.98870   10.04090    0.73520    0.17800    2.64720    0.04560    -999.25    0.03670 1360.11820    0.17800   48.25460   48.25460   17.54930    -999.25   14.88160   14.88160 1360.11820 1459.01060 1303.77360 1459.01060    -999.25    -999.25    0.00220    -999.25    0.00220    2.64720 -163.85900 -112.69310 1303.77360 1459.50220 1593.02900
 10250.00000    9.52600    8.96680    9.52600   43.22770   -0.01760    2.73640   -0.02360   -0.02170   -0.01540   23.13330   -0.01760   66.28050   66.28050  194.47320    -999.25  174.93380  174.93380   23.13330   27.36770   51.79910   27.36770    -999.25    -999.25    0.06540    0.10190    0.06540    2.73640  -64.87220  -12.91900   51.79910 1441.70220 1568.56640
