~Version ---------------------------------------------------
VERS.      2.0 : CWLS log ASCII Standard -VERSION 2.0
WRAP.       NO : One line per depth step
CREA. 12/01/17 : LAS Creation Date
~Well ------------------------------------------------------
STRT.FT                              950.0 : START DEPTH
STOP.FT                             9000.0 : STOP DEPTH
STEP.FT                           50.00000 : STEP LENGTH
NULL.                              -999.25 : NULL VALUE
COMP.             CANADIAN KEWANEE LIMITED : COMPANY
WELL. KEWANEE MULE CREEK SMOKY 10-12-71-21 : WELL
FLD .                                      : FIELD
LOC .                                      : LOCATION
CTRY.                               CANADA : COUNTRY
SRVC.                         Schlumberger : SERVICE COMPANY
DATE.                          09-Sep-1964 : LOGDATE
PROV.                              Alberta : PROVINCE
UWI .                     100101207121W500 : UNIQUE WELL ID
SLAT.WGS84                        55.13667 : SURFACE LATITUDE
SLON.WGS84                       -117.0866 : SURFACE LONGITUDE
~Curve Information -----------------------------------------
DEPT  .FT    : Depth Curve
CALWS .IN    : CALIPER [MCALED]
CILDED.MMHO  : CONDUCTIVITY FROM RESISTIVITY LOG
CONDWS.MMHO  : CONDUCTIVITY [1000/DRESWS]
DRESWS.OHMM  : DEEP RESISTIVITY [1000/CILDED IF ILDED < 5, ILDED]
DTED  .US/F  : DELTA-T FROM SONIC LOG [ADJ. TO RESISTIVITY LOG]
DTWS  .US/F  : COMPRESSIONAL SONIC [DTED]
GRSED .GAPI  : GAMMA RAY FROM SONIC LOG
GRWS  .GAPI  : GAMMA RAY [GRSED]
ILDED .OHMM  : DEEP INDUCTION FROM RESISTIVITY LOG
MCALED.IN    : MLT CALIPER FROM ML LOG
SNED  .OHMM  : SHORT NORMAL FROM RESISTIVITY LOG
SPRED .MV    : SPONTANEOUS POTENTIAL FROM RESISTIVITY LOG
SPWS  .MV    : SPONTANEOUS POTENTIAL [BASELINE 0 MV, SPRED]
SRESWS.OHMM  : SHALLOW RESISTIVITY [SNED]
~Params ----------------------------------------------------
LMF .                     CM : LOG MEASURED FROM
DATE.               09/09/64 : RUN DATE
RUN .                      1 : RUN NUMBER
DD  .FT                 9050 : DEPTH DRILLER
DL  .FT                 9048 : DEPTH LOGGER
BLI .FT                 9047 : BOTTOM LOG INTERVAL
TLI .FT                  933 : TOP LOG INTERVAL
CBD .FT                  932 : CASING BOTTOM DRILLER
CBL .FT                  933 : CASING BOTTOM LOGGER
BS  .IN                7.875 : BIT SIZE
BSD .FT                 9050 : BIT SIZE AT DEPTH
DFT .                    GEL : DRILLING FLUID TYPE
DFD .                     10 : DRILLING FLUID DENSITY
DFV .                    110 : DRILLING FLUID VISCOSITY
DFPH.                    9.5 : DRILLING FLUID PH
DFL .                    4.1 : DRILLING FLUID LOSS
RMS .OHMM                  2 : RESISTIVITY MUD SAMPLE
MST .DEGF                 60 : MUD SAMPLE TEMPERATURE
RMF .OHMM                1.8 : RESISTIVITY MUD FILTRATE SAMPLE
MFST.DEGF                 64 : MUD FILTRATE SAMPLE TEMPERATURE
RMC .OHMM                2.1 : RESISTIVITY MUD CAKE
MCST.DEGF                 64 : MUD CAKE SAMPLE TEMPERATURE
TCS .HRS                 2.5 : TIME CIRCULATED STOPPED
LUN .                   3534 : LOGGING UNIT NUMBER
LUL .                     VV : LOGGING UNIT LOCATION
ENGI.               CHENOSKY : RECORDING ENGINEER
WITN.        DANIELS ZUEHLHE : WITNESSED BY
CLNT.                A2DTECH : CLIENT CODE
ORIG.            2" 5" PRINT : ORIGIN OF DATA
UWI .       100101207121W500 : UNIQUE WELL ID
DICO. A2D Technologies, Inc. : DIGITIZING COMPANY
~Other -----------------------------------------------------
IEL-BHC LOG RUN
~ASCII -----------------------------------------------------
  950.00000    -999.25  258.83200  258.83200    3.86370    -999.25    -999.25    -999.25    -999.25    3.84130    -999.25    4.63800  -37.49830   -4.99830    4.63800
 1000.00000    -999.25  191.37880  192.64110    5.19100    -999.25    -999.25    -999.25    -999.25    5.19100    -999.25    6.08230  -42.84440  -10.34440    6.08230
 1050.00000    -999.25  245.35580  245.35580    4.07570    -999.25    -999.25    -999.25    -999.25    3.73000    -999.25    4.23130  -38.32530   -5.82530    4.23130
 1100.00000    -999.25  230.58990  230.58990    4.33670    -999.25    -999.25    -999.25    -999.25    4.13820    -999.25    4.59250  -36.53230   -4.03230    4.59250
 1150.00000    -999.25  130.20530  129.74710    7.70730    -999.25    -999.25    -999.25    -999.25    7.70730    -999.25    8.13000  -38.09910   -5.59910    8.13000
 1200.00000    -999.25  151.93690  154.81880    6.45930    -999.25    -999.25    -999.25    -999.25    6.45930    -999.25    6.90550  -38.04270   -5.54270    6.90550
 1250.00000    -999.25  175.27700  177.91380    5.62070    -999.25    -999.25    -999.25    -999.25    5.62070    -999.25    6.36790  -37.84350   -5.34350    6.36790
 1300.00000    -999.25  216.86770  216.86770    4.61110    -999.25    -999.25    -999.25    -999.25    4.41430    -999.25    6.10400  -35.46200   -2.96200    6.10400
 1350.00000    -999.25  154.90130  155.99650    6.41040    -999.25    -999.25    -999.25    -999.25    6.41040    -999.25    7.82930  -35.12270   -2.35820    7.82930
 1400.00000    -999.25  145.18290  145.58800    6.86870    -999.25    -999.25    -999.25    -999.25    6.86870    -999.25    7.36140  -38.39190   -5.27470    7.36140
 1450.00000    -999.25  130.24300  130.79830    7.64550    -999.25    -999.25    -999.25    -999.25    7.64550    -999.25    7.97680  -40.76170   -7.29000    7.97680
 1500.00000    -999.25  128.08930  128.45380    7.78490    -999.25    -999.25    -999.25    -999.25    7.78490    -999.25    8.05140  -41.27780   -7.45520    8.05140
 1550.00000    -999.25  138.93710  133.73100    7.47770    -999.25    -999.25    -999.25    -999.25    7.47770    -999.25    7.06250  -39.79950   -5.62410    7.06250
 1600.00000    -999.25  136.08060  129.03890    7.74960    -999.25    -999.25    -999.25    -999.25    7.74960    -999.25    7.33210  -39.66650   -5.13840    7.33210
 1650.00000    -999.25  156.92280  160.97880    6.21200    -999.25    -999.25    -999.25    -999.25    6.21200    -999.25    6.66570  -40.33600   -5.45520    6.66570
 1700.00000    -999.25  122.22420  113.61280    8.80380    -999.25    -999.25    -999.25    -999.25    8.80380    -999.25    8.33220  -40.47760   -5.24230    8.33220
 1750.00000    -999.25  132.77630  128.87260    7.75960    -999.25    -999.25    -999.25    -999.25    7.75960    -999.25    7.30180  -39.96520   -4.37900    7.30180
 1800.00000    -999.25  147.90410  148.11520    6.75150    -999.25    -999.25    -999.25    -999.25    6.75150    -999.25    7.01170  -46.16290  -10.22400    7.01170
 1850.00000    -999.25  160.26110  165.93930    6.02630    -999.25    -999.25    -999.25    -999.25    6.02630    -999.25    6.50560  -46.00570   -9.71400    6.50560
 1900.00000    -999.25  181.71120  194.22000    5.14880    -999.25    -999.25    -999.25    -999.25    5.14880    -999.25    6.19410  -44.23850   -7.59410    6.19410
 1950.00000    -999.25  160.46460  163.36130    6.12150    -999.25    -999.25    -999.25    -999.25    6.12150    -999.25    6.90280  -43.36930   -6.37050    6.90280
 2000.00000   15.47220  172.79540  179.57840    5.56860    -999.25    -999.25    -999.25    -999.25    5.56860   15.47220    6.70100  -42.26050   -4.91070    6.70100
 2050.00000   15.07100  160.12560  164.40610    6.08250    -999.25    -999.25    -999.25    -999.25    6.08250   15.07100    7.83470  -43.05110   -5.34860    7.83470
 2100.00000   14.72740  166.22980  167.55470    5.96820    -999.25    -999.25    -999.25    -999.25    5.96820   14.72740    8.20500  -43.20690   -5.44030    8.20500
 2150.00000   13.43910  176.75940  178.03730    5.61680    -999.25    -999.25    -999.25    -999.25    5.61680   13.43910    6.13370  -47.76630  -10.18160    6.13370
 2200.00000   15.10130  193.54610  193.54610    5.16700    -999.25    -999.25    -999.25    -999.25    4.94260   15.10130    5.85290  -44.42500   -7.02310    5.85290
 2250.00000   15.86050  237.82770  237.82770    4.20470    -999.25    -999.25    -999.25    -999.25    3.93970   15.86050    5.44640  -42.23370   -5.01270    5.44640
 2300.00000   15.88460  216.74870  216.74870    4.61360    -999.25    -999.25    -999.25    -999.25    4.36180   15.88460    4.93860  -40.38920   -3.35010    4.93860
 2350.00000   14.29500  207.73810  207.73810    4.81380    -999.25    -999.25    -999.25    -999.25    4.58640   14.29500    5.21000  -40.33860   -3.48130    5.21000
 2400.00000   10.66980  203.16800  203.16800    4.92200    -999.25    -999.25    -999.25    -999.25    4.78080   10.66980    6.46800  -53.82220  -16.95750    6.46800
 2450.00000   12.04430  202.51210  202.51210    4.93800    -999.25    -999.25    -999.25    -999.25    4.70580   12.04430    5.54910  -41.39900   -4.41970    5.54910
 2500.00000   10.40240  248.16090  248.16090    4.02960    -999.25    -999.25    -999.25    -999.25    3.65810   10.40240    4.72170  -41.61380   -4.52110    4.72170
 2550.00000   11.77890  260.52970  260.52970    3.83830    -999.25    -999.25    -999.25    -999.25    3.50450   11.77890    4.59120  -42.77210   -5.56550    4.59120
 2600.00000   11.06180  210.99440  210.99440    4.73950    -999.25    -999.25    -999.25    -999.25    4.42870   11.06180    5.52340  -43.55970   -6.23910    5.52340
 2650.00000   10.85790  338.68280  338.68280    2.95260    -999.25    -999.25    -999.25    -999.25    2.44300   10.85790    3.53330  -39.01930   -1.58470    3.53330
 2700.00000   10.70020  461.60930  461.60930    2.16650    -999.25    -999.25    -999.25    -999.25    1.32840   10.70020    2.40100  -41.51150   -3.96240    2.40100
 2750.00000   11.96050  285.44610  285.44610    3.50330    -999.25    -999.25    -999.25    -999.25    2.96580   11.96050    3.81220  -43.51980   -5.85730    3.81220
 2800.00000   12.09570  305.59680  305.59680    3.27230    -999.25    -999.25    -999.25    -999.25    2.80220   12.09570    3.51410  -43.21650   -5.44000    3.51410
 2850.00000   11.00230  340.99510  340.99510    2.93260    -999.25    -999.25    -999.25    -999.25    2.35450   11.00230    3.63540  -48.63620  -10.74580    3.63540
 2900.00000    9.68840  178.17680  178.17680    5.61240    -999.25    -999.25    -999.25    -999.25    5.36230    9.68840    6.57090  -55.23200  -17.22760    6.57090
 2950.00000   10.27380  197.96280  197.96280    5.05290    -999.25    -999.25    -999.25    -999.25    4.66800   10.27380    5.94880  -45.84870   -7.72980    5.94880
 3000.00000    9.15860  482.10290  482.10290    2.07420    -999.25    -999.25    -999.25    -999.25    1.35550    9.15860    2.40640  -42.80760   -4.57530    2.40640
 3050.00000    8.11160  298.89300  298.89300    3.34570    -999.25    -999.25    -999.25    -999.25    2.95180    8.11160    8.62540  -86.62170  -48.27540    8.62540
 3100.00000    8.48570  234.11860  234.11860    4.27130    -999.25    -999.25    -999.25    -999.25    3.87950    8.48570    5.88670  -56.86470  -18.40440    5.88670
 3150.00000    7.57560  490.27040  490.27040    2.03970    -999.25    -999.25    -999.25    -999.25    1.20330    7.57560   16.40170 -126.25340  -87.67920   16.40170
 3200.00000    9.88730  431.29300  431.29300    2.32180    -999.25    -999.25    -999.25    -999.25    1.65820    9.88730    2.75370  -45.62770   -6.93900    2.75370
 3250.00000    7.97620  393.71840  393.71840    2.53990    -999.25    -999.25    -999.25    -999.25    1.83630    7.97620    3.70960  -51.38340  -12.58120    3.70960
 3300.00000    9.53810  315.22700  315.22700    3.17230    -999.25    -999.25    -999.25    -999.25    2.77930    9.53810    4.21050  -49.63330  -10.71720    4.21050
 3350.00000    9.77460  278.35570  278.35570    3.59250    -999.25    -999.25    -999.25    -999.25    3.14570    9.77460    4.27610  -45.94020   -7.00240    4.27610
