~Version ---------------------------------------------------
VERS. 2.0 : CWLS log ASCII Standard -VERSION 2.0
WRAP. YES : MULTIPLE LINES PER DEPTH STEP
~Well ------------------------------------------------------
STRT.FT                      2000.0 : START DEPTH
STOP.FT                     17600.0 : STOP DEPTH
STEP.FT                    50.00000 : STEP LENGTH
NULL.                      -99925.0 : NULL VALUE
COMP.        SEAFORT PETROLEUM LTD. : COMPANY
WELL. SEAFORT ET AL KAKWA 2-20-61-7 : WELL
FLD .                               : FIELD
LOC .                               : LOCATION
CTRY.                        CANADA : COUNTRY
SRVC.        Schlumberger of Canada : SERVICE COMPANY
DATE.                   12-Aug-1975 : LOGDATE
PROV.                       Alberta : PROVINCE
UWI .              100022006107W600 : UNIQUE WELL ID
SLAT.WGS84                 54.28609 : SURFACE LATITUDE
SLON.WGS84                -119.0081 : SURFACE LONGITUDE
~Curve Information -----------------------------------------
DEPT    .FT    : DEPTH FEET
CALDED  .IN    : CALIPER FROM DENSITY LOG [ADJ TO GRRED]
CALSED  .IN    : CALIPER FROM SONIC LOG
CALWS   .IN    : CALIPER [CALSED]
CONDWS  .MMHO  : CONDUCTIVITY [1000/DRESWS]
DCORED  .G/C3  : DENSITY CORRECTION FROM DENSITY LOG [ADJ TO GRRED]
DCORWS  .G/C3  : DENSITY CORRECTION [DCORED]
DENWS   .G/C3  : BULK DENSITY [M=2.65 F=1.0] <14590> [M=2.71 F=1.0] [RHOBED]
DPHILSED.V/V   : DENSITY POROSITY [M=2.71 F=1.0] FROM DENSITY LOG [ADJ TO GRRED]
DPHISSED.V/V   : DENSITY POROSITY [M=2.65 F=1.0] FROM DENSITY LOG [ADJ TO GRRED]
DPOWS   .V/V   : DENSITY POROSITY [M=2.71 F=1.0] [CALCULATED FROM DENWS]
DRESWS  .OHMM  : DEEP RESISTIVITY [SPL ILDED <14590> LLDED]
DTED    .US/F  : DELTA TIME FROM SONIC LOG
DTWS    .US/F  : DELTA TIME [DTED]
GRDED   .GAPI  : GAMMA RAY FROM DENSITY LOG [ADJ TO GRRED]
GRRED   .GAPI  : GAMMA RAY FROM RESISTIVITY LOG
GRSED   .GAPI  : GAMMA RAY FROM SONIC LOG
GRWS    .GAPI  : GAMMA RAY [GRSED, CSG ABOVE 2005F]
ILDED   .OHMM  : INDUCTION LOG DEEP RESISTIVITY
ILMED   .OHMM  : INDUCTION LOG MEDIUM RESISTIVITY
LL8ED   .OHMM  : 8 INCH LATEROLOG RESISTIVITY
LLDED   .OHMM  : LATEROLOG DEEP RESISTIVITY
LLSED   .OHMM  : LATEROLOG SHALLOW RESISTIVITY
MRESWS  .OHMM  : MEDIUM RESISTIVITY [ILMED]
NPHILSED.V/V   : NEUTRON POROSITY LIMESTONE FROM DENSITY LOG [ADJ TO GRRED]
NPHISSED.V/V   : NEUTRON POROSITY SANDSTONE FROM DENSITY LOG [ADJ TO GRRED]
NPOWS   .V/V   : NEUTRON POROSITY LIMESTONE [CONVERTED NPHISSED TO LIMESTONE SPL WITH NPHILSED @14516F]
RHOBED  .G/C3  : BULK DENSITY FROM DENSITY LOG [ADJ TO GRRED]
SPRED   .MV    : SPONTANEOUS POTENTIAL FROM RESISTIVITY LOG
SPWS    .MV    : SPONTANEOUS POTENTIAL [BASELINE 0 MV] [SPRED]
SRESWS  .OHMM  : SHALLOW RESISTIVITY [SPL LL8ED <14590> LLSED]
~Params ----------------------------------------------------
PD  .                     GL : PERMANENT DATUM
EPD .FT                 3465 : ELEVATION PERMANENT DATUM
LMF .                     KB : LOG MEASURED FROM
DAPD.FT                   21 : FEET ABOVE PERMANENT DATUM
EKB .FT                 3486 : KELLY BUSHING
EGL .FT                 3465 : GROUND LEVEL
DATE.               10/06/75 : RUN DATE
RUN .                      2 : RUN NUMBER
DD  .FT                17618 : DEPTH DRILLER
DL  .FT                17600 : DEPTH LOGGER
BLI .FT                17600 : BOTTOM LOG INTERVAL
TLI .FT                14577 : TOP LOG INTERVAL
CBD .FT                14590 : CASING BOTTOM DRILLER
CBL .FT                14577 : CASING BOTTOM LOGGER
BS  .IN                  9.5 : BIT SIZE
BSD .FT                17618 : BIT SIZE AT DEPTH
DFT .                    GEL : DRILLING FLUID TYPE
DFD .                   13.8 : DRILLING FLUID DENSITY
DFV .                    115 : DRILLING FLUID VISCOSITY
DFPH.                     11 : DRILLING FLUID PH
DFL .                      7 : DRILLING FLUID LOSS
RMS .OHMM              0.809 : RESISTIVITY MUD SAMPLE
MST .DEGF                 75 : MUD SAMPLE TEMPERATURE
WITN.                  BROWN : WITNESSED BY
CLNT.                A2DTECH : CLIENT CODE
ORIG.               5" PRINT : ORIGIN OF DATA
UWI .       100022006107W600 : UNIQUE WELL ID
DICO. A2D Technologies, Inc. : DIGITIZING COMPANY
~Other -----------------------------------------------------
~ASCII -----------------------------------------------------
 2000.00000   -99925.0   -99925.0   -99925.0   -99925.0   -99925.0   -99925.0   -99925.0   -99925.0   -99925.0   -99925.0   -99925.0   -99925.0   -99925.0   -99925.0   -99925.0   50.75670   50.75670   -99925.0   -99925.0   -99925.0   -99925.0   -99925.0   -99925.0   -99925.0   -99925.0   -99925.0   -99925.0   -99925.0   -99925.0   -99925.0
 2050.00000   -99925.0   10.44160   10.44160  126.03980   -99925.0   -99925.0   -99925.0   -99925.0   -99925.0   -99925.0    7.93400   74.64640   74.64640   -99925.0   56.92460   69.39750   69.39750    7.93400   12.93330    8.45280   13.89110   10.09970   12.93330   -99925.0   -99925.0   -99925.0   -99925.0  -58.22070  -13.53040    8.45280
 2100.00000   -99925.0   10.81160   10.81160  177.74300   -99925.0   -99925.0   -99925.0   -99925.0   -99925.0   -99925.0    5.62610   89.61300   89.61300   -99925.0   76.14510   94.90520   94.90520    5.62610    7.01680    6.01020   10.47650    7.11730    7.01680   -99925.0   -99925.0   -99925.0   -99925.0  -62.29480   -3.07780    6.01020
 2150.00000   -99925.0   10.28420   10.28420  123.04360   -99925.0   -99925.0   -99925.0   -99925.0   -99925.0   -99925.0    8.12720   68.27060   68.27060   -99925.0   59.78950   69.90770   69.90770    8.12720   12.39500    9.65430   17.20250   11.28790   12.39500   -99925.0   -99925.0   -99925.0   -99925.0  -60.52140   -0.78690    9.65430
 2200.00000   -99925.0   10.11340   10.11340  122.67380   -99925.0   -99925.0   -99925.0   -99925.0   -99925.0   -99925.0    8.15170   81.06090   81.06090   -99925.0   63.55420   81.11940   81.11940    8.15170   17.65960    6.61150   14.94840    9.84280   17.65960   -99925.0   -99925.0   -99925.0   -99925.0  -66.79070   -6.62780    6.61150
 2250.00000   -99925.0   10.78330   10.78330  208.80310   -99925.0   -99925.0   -99925.0   -99925.0   -99925.0   -99925.0    4.78920   90.60230   90.60230   -99925.0   70.20750   97.24870   97.24870    4.78920    5.46400    4.12160    6.75390    5.49030    5.46400   -99925.0   -99925.0   -99925.0   -99925.0  -64.60500   -4.01360    4.12160
 2300.00000   -99925.0   11.07720   11.07720  229.78470   -99925.0   -99925.0   -99925.0   -99925.0   -99925.0   -99925.0    4.35190   86.63040   86.63040   -99925.0   80.63800  108.78820  108.78820    4.35190    6.73130    4.51500    7.72760    6.07530    6.73130   -99925.0   -99925.0   -99925.0   -99925.0  -64.91540   -3.89560    4.51500
 2350.00000   -99925.0   10.99410   10.99410  204.93480   -99925.0   -99925.0   -99925.0   -99925.0   -99925.0   -99925.0    4.87960   84.19710   84.19710   -99925.0   70.96410   91.86500   91.86500    4.87960    6.04770    3.69980    7.95730    5.58080    6.04770   -99925.0   -99925.0   -99925.0   -99925.0  -65.01420   -3.56590    3.69980
 2400.00000   -99925.0   11.16760   11.16760  105.57660   -99925.0   -99925.0   -99925.0   -99925.0   -99925.0   -99925.0    9.47180   75.85030   75.85030   -99925.0   55.44770   71.39420   71.39420    9.47180   11.90520    7.15440   18.58920   14.01360   11.90520   -99925.0   -99925.0   -99925.0   -99925.0  -66.88390   -5.00720    7.15440
 2450.00000   -99925.0   11.98810   11.98810  166.40870   -99925.0   -99925.0   -99925.0   -99925.0   -99925.0   -99925.0    6.00930   92.79470   92.79470   -99925.0   66.67640   96.25530   96.25530    6.00930   11.09100    3.31610    9.45180    5.08700   11.09100   -99925.0   -99925.0   -99925.0   -99925.0  -66.25340   -3.94830    3.31610
 2500.00000   -99925.0   12.90270   12.90270  248.20060   -99925.0   -99925.0   -99925.0   -99925.0   -99925.0   -99925.0    4.02900   93.71590   93.71590   -99925.0   55.98110   81.43330   81.43330    4.02900   11.86930    6.22030   20.68980   10.32030   11.86930   -99925.0   -99925.0   -99925.0   -99925.0  -67.67120   -4.93760    6.22030
 2550.00000   -99925.0   11.05460   11.05460  220.54120   -99925.0   -99925.0   -99925.0   -99925.0   -99925.0   -99925.0    4.53430   83.65970   83.65970   -99925.0   71.16390   88.70930   88.70930    4.53430    5.02850    3.32340    7.63860    5.09990    5.02850   -99925.0   -99925.0   -99925.0   -99925.0  -68.16960   -5.00760    3.32340
 2600.00000   -99925.0   10.75730   10.75730  239.64720   -99925.0   -99925.0   -99925.0   -99925.0   -99925.0   -99925.0    4.17280   87.75050   87.75050   -99925.0   70.98150   80.73130   80.73130    4.17280    6.50910    3.84070    7.99700    5.71200    6.50910   -99925.0   -99925.0   -99925.0   -99925.0  -67.30730   -3.71690    3.84070
 2650.00000   -99925.0   12.00720   12.00720  504.36270   -99925.0   -99925.0   -99925.0   -99925.0   -99925.0   -99925.0    1.98270  133.74300  133.74300   -99925.0   65.59120   96.91650   96.91650    1.98270    3.74050    2.67530    6.76440    4.91770    3.74050   -99925.0   -99925.0   -99925.0   -99925.0  -67.93030   -3.91140    2.67530
 2700.00000   -99925.0   11.14110   11.14110  214.75360   -99925.0   -99925.0   -99925.0   -99925.0   -99925.0   -99925.0    4.65650   81.88600   81.88600   -99925.0   76.82220   95.07220   95.07220    4.65650    6.70010    3.84630    6.96440    4.44770    6.70010   -99925.0   -99925.0   -99925.0   -99925.0  -69.66170   -5.21440    3.84630
 2750.00000   -99925.0   11.57930   11.57930  225.27090   -99925.0   -99925.0   -99925.0   -99925.0   -99925.0   -99925.0    4.43910   90.36880   90.36880   -99925.0   63.36370   86.22880   86.22880    4.43910    7.75780    7.38720   14.77710   11.62160    7.75780   -99925.0   -99925.0   -99925.0   -99925.0  -70.83260   -5.95690    7.38720
 2800.00000   -99925.0   11.20610   11.20610  116.07260   -99925.0   -99925.0   -99925.0   -99925.0   -99925.0   -99925.0    8.61530   75.52270   75.52270   -99925.0   52.94020   63.81070   63.81070    8.61530   11.45890   10.82670   19.41570   14.73250   11.45890   -99925.0   -99925.0   -99925.0   -99925.0  -70.14220   -4.83800   10.82670
 2850.00000   -99925.0   11.51530   11.51530  147.39700   -99925.0   -99925.0   -99925.0   -99925.0   -99925.0   -99925.0    6.78440   81.94450   81.94450   -99925.0   78.64270  104.37070  104.37070    6.78440    9.56950    6.21900   11.81330    9.51280    9.56950   -99925.0   -99925.0   -99925.0   -99925.0  -70.63240   -4.89980    6.21900
 2900.00000   -99925.0   12.75330   12.75330  252.02880   -99925.0   -99925.0   -99925.0   -99925.0   -99925.0   -99925.0    3.96780  110.86790  110.86790   -99925.0   77.01480  106.49560  106.49560    3.96780    4.58800    3.37240    6.56880    4.97210    4.58800   -99925.0   -99925.0   -99925.0   -99925.0  -70.19940   -4.03840    3.37240
 2950.00000   -99925.0   12.84240   12.84240  204.62870   -99925.0   -99925.0   -99925.0   -99925.0   -99925.0   -99925.0    4.88690   89.51000   89.51000   -99925.0   75.79050  116.43370  116.43370    4.88690    5.86700    4.26820    7.57840    5.97270    5.86700   -99925.0   -99925.0   -99925.0   -99925.0  -71.55740   -4.96790    4.26820
 3000.00000   -99925.0   13.09270   13.09270  144.38350   -99925.0   -99925.0   -99925.0   -99925.0   -99925.0   -99925.0    6.92600   86.82710   86.82710   -99925.0   65.17760   88.39580   88.39580    6.92600    8.12380    6.56680   11.78010    9.33960    8.12380   -99925.0   -99925.0   -99925.0   -99925.0  -71.07090   -4.05300    6.56680
 3050.00000   -99925.0   12.78980   12.78980  219.49560   -99925.0   -99925.0   -99925.0   -99925.0   -99925.0   -99925.0    4.55590   85.91600   85.91600   -99925.0   70.40700   95.69510   95.69510    4.55590    5.26300    4.11380    7.84620    5.03980    5.26300   -99925.0   -99925.0   -99925.0   -99925.0  -71.37560   -3.92930    4.11380
 3100.00000   -99925.0   11.27760   11.27760  204.75440   -99925.0   -99925.0   -99925.0   -99925.0   -99925.0   -99925.0    4.88390   82.70820   82.70820   -99925.0   73.37820   98.29840   98.29840    4.88390    6.52380    5.44010    8.99170    6.66260    6.52380   -99925.0   -99925.0   -99925.0   -99925.0  -70.89200   -3.26440    5.44010
 3150.00000   -99925.0    9.82960    9.82960   84.39530   -99925.0   -99925.0   -99925.0   -99925.0   -99925.0   -99925.0   11.84900   72.44890   72.44890   -99925.0   49.17540   58.25810   58.25810   11.84900   16.55160   11.68500   19.67690   15.10280   16.55160   -99925.0   -99925.0   -99925.0   -99925.0  -71.66490   -4.21170   11.68500
