~Version ---------------------------------------------------
VERS.      2.0 : CWLS log ASCII Standard -VERSION 2.0
WRAP.       NO : One line per depth step
CREA. 11/14/17 : LAS Creation Date
~Well ------------------------------------------------------
STRT.FT                             950.0 : START DEPTH
STOP.FT                           10850.0 : STOP DEPTH
STEP.FT                          50.00000 : STEP LENGTH
NULL.                             -999.25 : NULL VALUE
COMP.        CANADIAN HOMESTEAD OILS LTD. : COMPANY
WELL. HOMESTEAD ET AL ROSEVEAR 11-5-55-15 : WELL
FLD .                                     : FIELD
LOC .                                     : LOCATION
CTRY.                              CANADA : COUNTRY
SRVC.              Schlumberger of Canada : SERVICE COMPANY
DATE.                         05-Oct-1975 : LOGDATE
PROV.                             Alberta : PROVINCE
UWI .                    100110505515W500 : UNIQUE WELL ID
SLAT.WGS84                       53.72589 : SURFACE LATITUDE
SLON.WGS84                      -116.1973 : SURFACE LONGITUDE
~Curve Information -----------------------------------------
DEPT    .FT    : Depth Curve
CALDED  .IN    : CALIPER FROM DENSITY LOG
CALSED  .IN    : CALIPER FROM SONIC LOG
CALWS   .IN    : CALIPER [CALDED]
CONDWS  .MMHO  : CONDUCTIVITY [1000/DRESWS]
DCORWS  .G/C3  : DENSITY CORRECTION [DRHOED]
DENWS   .G/C3  : FORMATION BULK DENSITY [RHOBED]
DPHILSED.V/V   : DENSITY POROSITY LIME [M=2.71, F=1.00] FROM DENSITY LOG [ADJ. TO RHOBED]
DPHISSED.V/V   : DENSITY POROSITY SAND [M=2.65, F=1.00] FROM DENSITY LOG [ADJ. TO RHOBED]
DPOLSWS .V/V   : DENSITY POROSITY LIME [CALC FROM DENWS, M=2.71, F=1.00]
DRESWS  .OHMM  : DEEP RESISTIVITY [ILDED]
DRHOED  .G/C3  : DENSITY CORRECTION FROM DENSITY LOG
DTED    .US/F  : DELTA-T FROM SONIC LOG [ADJ. TO DENSITY LOG]
DTWS    .US/F  : COMPRESSIONAL SONIC [DTED]
GRDED   .GAPI  : GAMMA RAY FROM DENSITY LOG
GRSED   .GAPI  : GAMMA RAY FROM SONIC LOG
GRWS    .GAPI  : GAMMA RAY [GRSED SPL. TO GRDED @ 1083']
ILDED   .OHMM  : DEEP INDUCTION RESISTIVITY FROM RESISTIVITY LOG
ILMED   .OHMM  : INDUCTION MEDIUM RESISTIVITY FROM RESISTIVITY LOG
LL8ED   .OHMM  : LATEROLOG-8 RESISTIVITY FROM RESISTIVITY LOG
MRESWS  .OHMM  : MEDIUM RESISTIVITY [ILMED]
NPHILSED.V/V   : NEUTRON POROSITY LIME FROM DENSITY LOG
NPHISSED.V/V   : NEUTRON POROSITY SAND FROM DENSITY LOG
NPOLSWS .V/V   : NEUTRON POROSITY LIME [SS MATRIX CONVERT TO LS & SPL. TO LS @ 7306']
RHOBED  .G/C3  : BULK DENSITY FROM DENSITY LOG
SPRED   .MV    : SPONTANEOUS POTENTIAL FROM RESISTIVITY LOG
SPWS    .MV    : SPONTANEOUS POTENTIAL [BASELINE 0 MV, SPRED]
SRESWS  .OHMM  : SHALLOW RESISTIVITY [LL8ED]
~Params ----------------------------------------------------
PD  .                     GL : PERMANENT DATUM
EPD .FT               2836.1 : ELEVATION PERMANENT DATUM
LMF .                     KB : LOG MEASURED FROM
DAPD.FT                15.85 : FEET ABOVE PERMANENT DATUM
EKB .FT              2851.95 : KELLY BUSHING
EGL .FT               2836.1 : GROUND LEVEL
DATE.               10/05/75 : RUN DATE
RUN .                      1 : RUN NUMBER
DD  .FT                10878 : DEPTH DRILLER
DL  .FT                10878 : DEPTH LOGGER
BLI .FT                10872 : BOTTOM LOG INTERVAL
TLI .FT                 1099 : TOP LOG INTERVAL
CBD .FT                 1096 : CASING BOTTOM DRILLER
CBL .FT                 1099 : CASING BOTTOM LOGGER
BS  .IN                 8.75 : BIT SIZE
BSD .FT                10878 : BIT SIZE AT DEPTH
DFT .               GEL CHEM : DRILLING FLUID TYPE
DFD .                    9.7 : DRILLING FLUID DENSITY
DFV .                    487 : DRILLING FLUID VISCOSITY
DFPH.                   10.5 : DRILLING FLUID PH
MSS .             CIRCULATED : MUD SAMPLE SOURCE
RMS .OHMM               1.34 : RESISTIVITY MUD SAMPLE
MST .DEGF                 64 : MUD SAMPLE TEMPERATURE
RMF .OHMM               0.91 : RESISTIVITY MUD FILTRATE SAMPLE
MFST.DEGF                 74 : MUD FILTRATE SAMPLE TEMPERATURE
RMB .OHMM               0.34 : RESISTIVITY MUD AT BHT
TCS .HRS                   4 : TIME CIRCULATED STOPPED
LUN .                   7690 : LOGGING UNIT NUMBER
LUL .                    EDM : LOGGING UNIT LOCATION
ENGI.     WILLIGER WILTSHIRE : RECORDING ENGINEER
WITN.                  SLOAN : WITNESSED BY
CLNT.                A2DTECH : CLIENT CODE
ORIG.            2" 5" PRINT : ORIGIN OF DATA
UWI .       100110505515W500 : UNIQUE WELL ID
DICO. A2D Technologies, Inc. : DIGITIZING COMPANY
~Other -----------------------------------------------------
~ASCII -----------------------------------------------------
# ...
 10050.00000    9.51410    9.04940    9.51410   59.64650    0.18330    2.80030   -0.05940    -999.25   -0.05280   16.76650    0.18330   65.63540   65.63540   97.34270   32.82780   97.34270   16.76650   17.72260   27.19200   17.72260    0.17310    -999.25    0.17310    2.80030  -87.73460   -4.99630   27.19200
 10100.00000   10.30800    8.89880   10.30800   74.59120    0.23410    2.76690   -0.03640    -999.25   -0.03330   13.40640    0.23410   66.98520   66.98520  102.81400   30.92120  102.81400   13.40640   14.35520   22.56090   14.35520    0.18200    -999.25    0.18200    2.76690  -89.58050   -6.94960   22.56090
 10150.00000   10.49290    9.21480   10.49290   85.32200    0.22710    2.68830    0.00390    -999.25    0.01270   11.72030    0.22710   68.63500   68.63500   92.15440   28.95750   92.15440   11.72030   12.06830   18.46720   12.06830    0.18650    -999.25    0.18650    2.68830  -86.74030   -4.21600   18.46720
 10200.00000    9.38890    9.11720    9.38890   59.00640    0.22050    2.81770   -0.06160    -999.25   -0.06300   16.94730    0.22050   66.48860   66.48860  102.11330   27.03730  102.11330   16.94730   17.02870   29.52890   17.02870    0.19460    -999.25    0.19460    2.81770  -85.44070   -3.02380   29.52890
 10250.00000    9.27790    8.82080    9.27790    2.19110    0.00960    2.65090    0.03680    -999.25    0.03460  456.38720    0.00960   64.10500   64.10500   97.77760   25.12250   97.77760  456.38720 1994.95000 1552.85230 1994.95000    0.10370    -999.25    0.10370    2.65090  -92.45550  -10.11440 1552.85230
 10300.00000    9.31010    8.75330    9.31010   12.76880    0.04480    2.67750    0.01770    -999.25    0.01900   78.37480    0.04480   63.01120   63.01120  155.31820   23.05980  155.31820   78.37480  105.27090  266.08290  105.27090    0.11020    -999.25    0.11020    2.67750  -85.88580   -3.54470  266.08290
 10350.00000    9.92460    8.97680    9.92460    0.63890    0.22420    2.81100   -0.06320    -999.25   -0.05910 1565.13640    0.22420   48.25680   48.25680   12.89480   21.14090   12.89480 1565.13640 2192.67410 1470.43360 2192.67410   -0.00120    -999.25   -0.00120    2.81100 -156.01370  -73.67260 1470.43360
 10400.00000   10.35080    8.88120   10.35080    0.61720    0.22820    2.79280   -0.04850    -999.25   -0.04840 1620.30710    0.22820   48.50410   48.50410   13.87000   19.18790   13.87000 1620.30710 2136.31100 1521.26780 2136.31100   -0.00350    -999.25   -0.00350    2.79280 -158.79510  -76.45400 1521.26780
 10450.00000   10.08890    9.01200   10.08890    0.62200    0.26360    2.73140   -0.02410    -999.25   -0.01250 1607.78960    0.26360   49.09350   49.09350   15.78430   17.20350   15.78430 1607.78960 2056.10820 1486.46570 2056.10820   -0.00070    -999.25   -0.00070    2.73140 -159.42290  -77.08180 1486.46570
 10500.00000    9.48640    8.88480    9.48640    0.62570    0.02040    2.74410   -0.02240    -999.25   -0.01990 1598.26600    0.02040   49.31450   49.31450   16.69910   15.35440   16.69910 1598.26600 2123.05400 1488.87500 2123.05400    0.00110    -999.25    0.00110    2.74410 -151.06130  -68.72020 1488.87500
 10550.00000    9.32250    8.83440    9.32250    0.63200    0.06420    2.82160   -0.07320    -999.25   -0.06520 1582.25060    0.06420   49.76060   49.76060   19.71780   13.58240   19.71780 1582.25060 2113.41740 1471.58000 2113.41740    0.00460    -999.25    0.00460    2.82160 -147.01960  -64.67850 1471.58000
 10600.00000   10.12730    9.03680   10.12730    0.62240    0.26430    2.71860   -0.02930    -999.25   -0.00500 1606.68230    0.26430   48.32910   48.32910   19.73850   11.47080   19.73850 1606.68230 2199.73800 1498.04370 2199.73800    0.00240    -999.25    0.00240    2.71860 -157.51380  -75.17270 1498.04370
 10650.00000   10.08470    8.84520   10.08470    0.62150    0.26590    2.74970   -0.02320    -999.25   -0.02320 1609.01870    0.26590   47.72850   47.72850   16.37540    9.65660   16.37540 1609.01870 2124.19870 1516.42000 2124.19870    0.00200    -999.25    0.00200    2.74970 -156.47920  -74.13810 1516.42000
 10700.00000   10.53580    8.82500   10.53580    0.62320    0.23600    2.69620   -0.01560    -999.25    0.00810 1604.67770    0.23600   48.06430   48.06430   16.93620    7.90640   16.93620 1604.67770 2161.81670 1473.20340 2161.81670    0.00400    -999.25    0.00400    2.69620 -142.30780  -59.96670 1473.20340
 10750.00000   10.33740    8.88500   10.33740    0.65400    0.23370    2.69330    0.00870    -999.25    0.00980 1529.02430    0.23370   50.66030   50.66030   21.44180    6.11110   21.44180 1529.02430 2131.98320 1471.08190 2131.98320    0.00630    -999.25    0.00630    2.69330 -138.26690  -55.92580 1471.08190
 10800.00000   11.38000    9.30570   11.38000    0.59970    0.26500    2.50610    0.12090    -999.25    0.11930 1667.52040    0.26500   50.66610   50.66610   27.00340    7.32490   27.00340 1667.52040 2177.68700 1551.73810 2177.68700    0.00530    -999.25    0.00530    2.50610 -127.83510  -45.49400 1551.73810
 10850.00000    9.24070    -999.25    9.24070   10.67130    0.08860    2.75470   -0.03280    -999.25   -0.02610   93.70940    0.08860    -999.25    -999.25    -999.25    -999.25    -999.25   93.70940  129.79560  873.22830  129.79560    0.08970    -999.25    0.08970    2.75470 -116.67200  -34.33090  873.22830
