~Version ---------------------------------------------------
VERS.      2.0 : CWLS log ASCII Standard -VERSION 2.0
WRAP.       NO : One line per depth step
CREA. 10/27/17 : LAS Creation Date
~Well ------------------------------------------------------
STRT.FT                              1150.0 : START DEPTH
STOP.FT                             12400.0 : STOP DEPTH
STEP.FT                            50.00000 : STEP LENGTH
NULL.                               -999.25 : NULL VALUE
COMP. HUDSONS BAY OIL & GAS COMPANY LIMITED : COMPANY
WELL.        HB SHELL SIMONETTE 13-23-63-25 : WELL
FLD .                                       : FIELD
LOC .                                       : LOCATION
CTRY.                                CANADA : COUNTRY
SRVC.                          Schlumberger : SERVICE COMPANY
DATE.                           12-Mar-1973 : LOGDATE
PROV.                               Alberta : PROVINCE
UWI .                      100132306325W500 : UNIQUE WELL ID
SLAT.WGS84                            54.47 : SURFACE LATITUDE
SLON.WGS84                        -117.6781 : SURFACE LONGITUDE
~Curve Information -----------------------------------------
DEPT   .FT    : Depth Curve
ASNED  .OHMM  : AMPLIFIED SHORT NORMAL RESISTIVITY FROM IEL LOG [ADJ. TO DIL LOG]
CALSED .IN    : CALIPER FROM SONIC LOG
CALWS  .IN    : CALIPER [CALSED]
CILD1ED.MMHO  : CONDUCTIVITY FROM IEL LOG [ADJ. TO DIL LOG]
CILDED .MMHO  : CONDUCTIVITY FROM DIL LOG
CONDWS .MMHO  : CONDUCTIVITY [1000/DRESWS]
DRESWS .OHMM  : DEEP RESISTIVITY [SPLICED ILDED/ILD1ED AT 1737/3618] [FROM TOP TO 1737 IF ILDED<5;1000/CILDED;ELSE ILDED/ILD1ED<1;1000/CILD1ED;ELSED ILD1ED]
DTED   .US/F  : DELTA TIME FROM SONIC LOG [DEPTH ADJ TO RESISTIVITY LOG]
DTWS   .US/F  : COMPRESSIONAL SONIC [DTED]
GRNED  .GAPI  : GAMMA RAY FROM GRN LOG
GRSED  .GAPI  : GAMMA RAY FROM SONIC LOG
GRWS   .GAPI  : GAMMA RAY [GRSED SPL.  TO GRNED @ 11962']
ILD1ED .OHMM  : DEEP INDUCTION RESISTIVITY  FROM IEL LOG [ADJ. TO DIL LOG]
ILDED  .OHMM  : DEEP  INDUCTION RESISTIVITY FROM DIL LOG
ILMED  .OHMM  : MEDIUM INDUCTION RESISTIVITY FROM DIL LOG
LL8ED  .OHMM  : LATEROLOG 8 FROM DIL LOG
MRESWS .OHMM  : MEDIUM RESISTIVITY [ILMED]
NEUTED .NAPI  : NEUTRON FROM GRN LOG [DEPTH ADJ TO RESISTIVITY LOG]
NEUTWS .NAPI  : NEUTRON [NEUTED]
SPED   .MV    : SPONTANEOUS POTENTIAL [SPRED SPL. TO SPR1ED @ 11990']
SPR1ED .MV    : SPONTANEOUS POTENTIAL FROM IEL LOG [ADJ. TO DIL LOG]
SPRED  .MV    : SPONTANEOUS POTENTIAL FROM DIL LOG
SPWS   .MV    : SPONTANEOUS POTENIAL [BASELINE 0 MV, SPRED]
SRESWS .OHMM  : SHALLOW RESISTIVITY [LL8ED SPL. TO ASNED @ 11946']
~Params ----------------------------------------------------
PD  .                     GL : PERMANENT DATUM
EPD .FT                 2976 : ELEVATION PERMANENT DATUM
LMF .                     KB : LOG MEASURED FROM
DAPD.FT                   21 : FEET ABOVE PERMANENT DATUM
EKB .FT                 2997 : KELLY BUSHING
EGL .FT                 2976 : GROUND LEVEL
DATE.             03/12/1973 : RUN DATE
RUN .                      1 : RUN NUMBER
DD  .FT                12400 : DEPTH DRILLER
DL  .FT                11435 : DEPTH LOGGER
BLI .FT                12434 : BOTTOM LOG INTERVAL
TLI .FT                11300 : TOP LOG INTERVAL
CS  .IN               13.375 : CASING SIZE
BS  .IN                 8.75 : BIT SIZE
BSD .FT                12434 : BIT SIZE AT DEPTH
DFT .              FRESH GEL : DRILLING FLUID TYPE
DFD .                    9.3 : DRILLING FLUID DENSITY
DFV .                    400 : DRILLING FLUID VISCOSITY
DFPH.                   10.5 : DRILLING FLUID PH
DFL .                    8.4 : DRILLING FLUID LOSS
RMB .OHMM                1.1 : RESISTIVITY MUD AT BHT
LUN .               7670 EDM : LOGGING UNIT NUMBER
ENGI.                 CALVIN : RECORDING ENGINEER
WITN.                FOGARTY : WITNESSED BY
CLNT.                A2DTECH : CLIENT CODE
ORIG.            2" 5' PRINT : ORIGIN OF DATA
UWI .       100132306325W500 : UNIQUE WELL ID
DICO. A2D Technologies, Inc. : DIGITIZING COMPANY
~Other -----------------------------------------------------
DIL-IEL-GRN-BCS LOG RUN
SUFFIX OF THE CURVES ARE NOT REMOVED DUE TO DIFFERENT TOOL. BUT THEY HAVE SAME MNEMONICS
~ASCII -----------------------------------------------------
# ...
 2600.00000    -999.25    9.05870    9.05870    -999.25  195.65970  141.01190    7.09160  116.64140  116.64140    -999.25   65.11480   65.11480    -999.25    7.09160    -999.25    5.54990    -999.25    -999.25    -999.25 -118.88690    -999.25 -129.88690   -4.31710    5.54990
 2650.00000    -999.25    9.47620    9.47620    -999.25  147.33910  125.63130    7.95980   87.61720   87.61720    -999.25   59.61420   59.61420    -999.25    7.95980    -999.25    6.28330    -999.25    -999.25    -999.25 -119.37030    -999.25 -130.37030   -5.21200    6.28330
 2700.00000    -999.25   10.39530   10.39530    -999.25  175.97790  152.28580    6.56660   86.63010   86.63010    -999.25   68.85370   68.85370    -999.25    6.56660    -999.25    5.37200    -999.25    -999.25    -999.25 -117.10700    -999.25 -128.10700   -3.36030    5.37200
 2750.00000    -999.25   11.06340   11.06340    -999.25  193.25310  159.17990    6.28220   94.34140   94.34140    -999.25   87.33650   87.33650    -999.25    6.28220    -999.25    4.98420    -999.25    -999.25    -999.25 -119.10860    -999.25 -130.10860   -5.77340    4.98420
 2800.00000    -999.25    9.32500    9.32500    -999.25   97.45840   89.44300   11.18030   82.77850   82.77850    -999.25   56.99560   56.99560    -999.25   11.18030    -999.25    9.06830    -999.25    -999.25    -999.25 -118.83970    -999.25 -129.83970   -5.91400    9.06830
 2850.00000    -999.25    8.98920    8.98920    -999.25   83.75710   79.00200   12.65790   86.58930   86.58930    -999.25   50.52580   50.52580    -999.25   12.65790    -999.25   10.32750    -999.25    -999.25    -999.25 -122.68460    -999.25 -133.68460  -10.17240   10.32750
 2900.00000    -999.25   10.12740   10.12740    -999.25  453.03470  453.03470    2.20730  121.97360  121.97360    -999.25   72.61430   72.61430    -999.25    3.37690    -999.25    2.48580    -999.25    -999.25    -999.25 -116.37220    -999.25 -127.37220   -4.27160    2.48580
 2950.00000    -999.25   10.51310   10.51310    -999.25  251.73710  251.73710    3.97240  125.10450  125.10450    -999.25   61.96630   61.96630    -999.25    4.97210    -999.25    3.98440    -999.25    -999.25    -999.25 -113.95660    -999.25 -124.95660   -2.26750    3.98440
 3000.00000    -999.25    8.77920    8.77920    -999.25  143.98070  122.54750    8.16010   87.06770   87.06770    -999.25   60.05010   60.05010    -999.25    8.16010    -999.25    7.25680    -999.25    -999.25    -999.25 -115.33810    -999.25 -126.33810   -4.25170    7.25680
 3050.00000    -999.25    8.40250    8.40250    -999.25   58.58990   56.28480   17.76680   86.49280   86.49280    -999.25   42.67620   42.67620    -999.25   17.76680    -999.25   13.52540    -999.25    -999.25    -999.25 -122.90300    -999.25 -133.90300  -12.71370   13.52540
 3100.00000    -999.25    8.40440    8.40440    -999.25   67.33070   60.40950   16.55370   87.69720   87.69720    -999.25   43.85320   43.85320    -999.25   16.55370    -999.25   15.29020    -999.25    -999.25    -999.25 -118.06810    -999.25 -129.06810   -8.78500   15.29020
 3150.00000    -999.25   11.24620   11.24620    -999.25  206.25330  177.31440    5.63970   98.41320   98.41320    -999.25   64.19440   64.19440    -999.25    5.63970    -999.25    4.11400    -999.25    -999.25    -999.25 -111.95670    -999.25 -122.95670   -3.57530    4.11400
 3200.00000    -999.25   10.38280   10.38280    -999.25  220.05270  175.86750    5.68610   99.45570   99.45570    -999.25   65.51810   65.51810    -999.25    5.68610    -999.25    4.50980    -999.25    -999.25    -999.25 -112.57320    -999.25 -123.57320   -5.09350    4.50980
 3250.00000    -999.25   10.54540   10.54540    -999.25   88.71880   90.00330   11.11070   82.08780   82.08780    -999.25   53.69880   53.69880    -999.25   11.11070    -999.25   12.13760    -999.25    -999.25    -999.25 -108.67850    -999.25 -119.67850   -2.10050   12.13760
 3300.00000    -999.25    9.87280    9.87280    -999.25  197.40470  167.42010    5.97300   92.09010   92.09010    -999.25   67.79270   67.79270    -999.25    5.97300    -999.25    4.83770    -999.25    -999.25    -999.25 -110.38490    -999.25 -121.38490   -4.70400    4.83770
 3350.00000    -999.25   11.77790   11.77790    -999.25  262.38870  262.38870    3.81110  146.19080  146.19080    -999.25   60.43440   60.43440    -999.25    4.83820    -999.25    3.99310    -999.25    -999.25    -999.25 -107.59250    -999.25 -118.59250   -2.81790    3.99310
 3400.00000    -999.25   11.20450   11.20450    -999.25  245.73540  194.10690    5.15180  126.33900  126.33900    -999.25   58.44510   58.44510    -999.25    5.15180    -999.25    4.56360    -999.25    -999.25    -999.25 -108.95350    -999.25 -119.95350   -4.90310    4.56360
 3450.00000    -999.25    8.87730    8.87730    -999.25   59.32650   58.23430   17.17200   84.85670   84.85670    -999.25   46.27670   46.27670    -999.25   17.17200    -999.25   17.68930    -999.25    -999.25    -999.25 -112.66740    -999.25 -123.66740   -8.74690   17.68930
 3500.00000    -999.25    8.94120    8.94120    -999.25  159.99970  121.07420    8.25940   91.26430   91.26430    -999.25   64.65790   64.65790    -999.25    8.25940    -999.25    6.79330    -999.25    -999.25    -999.25 -109.38270    -999.25 -120.38270   -5.59210    6.79330
 3550.00000    -999.25   10.09800   10.09800    -999.25  177.17840  147.03500    6.80110   90.25530   90.25530    -999.25   69.63240   69.63240    -999.25    6.80110    -999.25    5.66640    -999.25    -999.25    -999.25 -109.98250    -999.25 -120.98250   -6.32120    5.66640
 3600.00000    -999.25   10.34650   10.34650    -999.25  221.75850  175.72840    5.69060  100.23450  100.23450    -999.25   64.89030   64.89030    -999.25    5.69060    -999.25    5.01490    -999.25    -999.25    -999.25 -109.23890    -999.25 -120.23890   -5.70810    5.01490
 3650.00000    -999.25    9.60010    9.60010    -999.25  188.64540  157.77350    6.33820   89.34170   89.34170    -999.25   66.81330   66.81330    -999.25    6.33820    -999.25    5.80110    -999.25    -999.25    -999.25 -105.78650    -999.25 -116.78650   -2.38560    5.80110
 3700.00000    -999.25   12.44120   12.44120    -999.25  329.60750  329.60750    3.03390  145.00260  145.00260    -999.25   62.51110   62.51110    -999.25    4.30430    -999.25    3.61710    -999.25    -999.25    -999.25 -107.07410    -999.25 -118.07410   -3.80310    3.61710
 3750.00000    -999.25    9.47070    9.47070    -999.25  123.26800   73.61390   13.58440   86.89320   86.89320    -999.25   40.05180   40.05180    -999.25   13.58440    -999.25    9.67140    -999.25    -999.25    -999.25 -113.42070    -999.25 -124.42070  -10.27960    9.67140
 3800.00000    -999.25    8.86810    8.86810    -999.25   68.63670   64.99460   15.38590   82.00500   82.00500    -999.25   47.66930   47.66930    -999.25   15.38590    -999.25   14.65030    -999.25    -999.25    -999.25 -117.92050    -999.25 -128.92050  -14.90870   14.65030
 3850.00000    -999.25    9.36190    9.36190    -999.25  151.99420  125.90340    7.94260   95.92850   95.92850    -999.25   63.03720   63.03720    -999.25    7.94260    -999.25    7.06730    -999.25    -999.25    -999.25 -106.92160    -999.25 -117.92160   -4.04030    7.06730
 3900.00000    -999.25    9.79720    9.79720    -999.25  147.31250  127.08420    7.86880   88.57090   88.57090    -999.25   74.04530   74.04530    -999.25    7.86880    -999.25    6.99590    -999.25    -999.25    -999.25 -108.48850    -999.25 -119.48850   -5.93280    6.99590
 3950.00000    -999.25   10.99330   10.99330    -999.25  165.59480  128.02790    7.81080   93.07320   93.07320    -999.25   81.87870   81.87870    -999.25    7.81080    -999.25    7.34830    -999.25    -999.25    -999.25 -109.58820    -999.25 -120.58820   -7.41010    7.34830
 4000.00000    -999.25   11.09340   11.09340    -999.25  118.62550  112.00470    8.92820   84.68770   84.68770    -999.25   98.32280   98.32280    -999.25    8.92820    -999.25    9.27450    -999.25    -999.25    -999.25 -107.40050    -999.25 -118.40050   -5.60010    9.27450
