~Version ---------------------------------------------------
VERS.      2.0 : CWLS log ASCII Standard -VERSION 2.0
WRAP.       NO : One line per depth step
CREA. 10/25/17 : LAS Creation Date
~Well ------------------------------------------------------
STRT.FT                       1050.0 : START DEPTH
STOP.FT                      10200.0 : STOP DEPTH
STEP.FT                     50.00000 : STEP LENGTH
NULL.                        -999.25 : NULL VALUE
COMP.           MARATHON OIL COMPANY : COMPANY
WELL. MARATHON HEAVYSOUND 7-16-62-17 : WELL
FLD .                                : FIELD
LOC .                                : LOCATION
CTRY.                         CANADA : COUNTRY
SRVC.                        Unknown : SERVICE COMPANY
DATE.                    27-Feb-1976 : LOGDATE
PROV.                        Alberta : PROVINCE
UWI .               100071606217W500 : UNIQUE WELL ID
SLAT.WGS84                  54.36142 : SURFACE LATITUDE
SLON.WGS84                 -116.4847 : SURFACE LONGITUDE
~Curve Information -----------------------------------------
DEPT    .FT                                       : Depth Curve
CALDED  .IN                                       : CALIPER FROM DENSITY LOG [DEP. ADJ. TO GRSED]
CALSED  .IN                                       : CALIPER FROM SONIC LOG
CALWS   .IN                                       : CALIPER [1132' CALSED 5088' CALDED 8507' CALSED 10228' CALDED]
CILDED  .MMho : CONDUCTIVITY FROM RESISTIVITY LOG : 
CONDWS  .MMHO                                     : CONDUCTIVITY [1000/DRESWS]
DCORED  .G/C3                                     : DENSITY CORRECTION FROM DENSITY LOG [DEP. ADJ. TO GRSED]
DCORWS  .G/C3                                     : DENSITY CORRECTION [DCORED]
DENWS   .G/C3                                     : BULK DENSITY [M=2.71, F=1.00] [RHOBED]
DPHILSED.V/V                                      : DENSITY POROSITY [M=2.71, F=1.00] FROM DENSITY LOG [DEP. ADJ. TO GRSED]
DPHISSED.V/V                                      : DENSITY POROSITY [M=2.65, F=1.00] FROM DENSITY LOG [DEP. ADJ. TO GRSED]
DPOLSWS .V/V                                      : DENSITY POROSITY [M=2.71, F=1.00] [CAL. FROM DENWS]
DRESWS  .OHMM                                     : DEEP RESISTIVITY [1132' 1000/CILDED 5088' ILDED 8507' 1000/CILDED 10228' ILDED][REDUC. TO 2000 OHMM]
DTED    .US/F                                     : DELTA TIME FROM SONIC LOG
DTWS    .US/F                                     : DELTA TIME [DTED]
GRDED   .GAPI                                     : GAMMA RAY FROM DENSITY LOG [DEP. ADJ. TO GRSED]
GRSED   .GAPI                                     : GAMMA RAY FROM SONIC LOG
GRWS    .GAPI                                     : GAMMA RAY [1050' GRSED 10222' GRDED]
ILDED   .OHMM                                     : INDUCTION LOG DEEP RESISTIVITY
ILMED   .OHMM                                     : INDUCTION LOG MEDIUM RESISTIVITY
LL8ED   .OHMM                                     : 8 INCH LATEROLOG RESISTIVITY
MRESWS  .OHMM                                     : MEDIUM RESISTIVITY [ILMED]
NPHILSED.V/V                                      : NEUTRON POROSITY LIMESTONE FROM DENSITY LOG [DEP. ADJ. TO GRSED]
NPHISSED.V/V                                      : NEUTRON POROSITY SANDSTONE FROM DENSITY LOG [DEP. ADJ. TO GRSED]
NPOLSWS .V/V                                      : NEUTRON POROSITY SANDSTONE [5098' [NPHISSED IS CONVERTED TO LIMESTONE MATRIX] 6397' NPHILSED]
RHOBED  .G/C3                                     : BULK DENSITY FROM DENSITY LOG [DEP. ADJ. TO GRSED]
SPRED   .MV                                       : SPONTANEOUS POTENTIAL FROM RESISTIVITY LOG
SPWS    .MV                                       : SPONTANEOUS POTENTIAL [BASELINE 0 MV] [SPRED]
SRESWS  .OHMM                                     : SHALLOW RESISTIVITY [LL8ED] [FILLED GAPS]
~Params ----------------------------------------------------
PD  .                     GL : PERMANENT DATUM
EPD .FT                 2966 : ELEVATION PERMANENT DATUM
LMF .                     KB : LOG MEASURED FROM
DAPD.FT                   14 : FEET ABOVE PERMANENT DATUM
EKB .FT                 2980 : KELLY BUSHING
EGL .FT                 2966 : GROUND LEVEL
DATE.               02/27/76 : RUN DATE
RUN .                      1 : RUN NUMBER
DD  .FT                10240 : DEPTH DRILLER
DL  .FT                10242 : DEPTH LOGGER
BLI .FT                10239 : BOTTOM LOG INTERVAL
TLI .FT                 1133 : TOP LOG INTERVAL
CS  .IN                9.625 : CASING SIZE
CBD .FT                 1128 : CASING BOTTOM DRILLER
CBL .FT                 1133 : CASING BOTTOM LOGGER
BS  .IN                 8.75 : BIT SIZE
BSD .FT                10240 : BIT SIZE AT DEPTH
RMS .OHMM                2.3 : RESISTIVITY MUD SAMPLE
MST .DEGF                 68 : MUD SAMPLE TEMPERATURE
RMF .OHMM                2.1 : RESISTIVITY MUD FILTRATE SAMPLE
MFST.DEGF                 68 : MUD FILTRATE SAMPLE TEMPERATURE
TCS .HRS                   2 : TIME CIRCULATED STOPPED
LUN .                   7636 : LOGGING UNIT NUMBER
LUL .                    EDM : LOGGING UNIT LOCATION
ENGI.                  LAZOR : RECORDING ENGINEER
WITN.                 DEWULF : WITNESSED BY
CLNT.                A2DTECH : CLIENT CODE
ORIG.            2" 5" PRINT : ORIGIN OF DATA
UWI .       100071606217W500 : UNIQUE WELL ID
DICO. A2D Technologies, Inc. : DIGITIZING COMPANY
~Other -----------------------------------------------------
~ASCII -----------------------------------------------------
# ...
 4800.00000    -999.25    9.18210    9.18210  112.08420  112.08420    -999.25    -999.25    -999.25    -999.25    -999.25    -999.25    8.92190   77.94740   77.94740    -999.25  104.34690  104.34690    8.54200    -999.25   10.42990    -999.25    -999.25    -999.25    -999.25    -999.25  -49.84730  -12.82900   10.42990
 4850.00000    -999.25    9.48590    9.48590  158.20190  158.20190    -999.25    -999.25    -999.25    -999.25    -999.25    -999.25    6.32100   84.71240   84.71240    -999.25  122.85030  122.85030    6.13020    -999.25    7.11550    -999.25    -999.25    -999.25    -999.25    -999.25  -49.12600  -11.70310    7.11550
 4900.00000    -999.25    9.78590    9.78590  160.95850  160.95850    -999.25    -999.25    -999.25    -999.25    -999.25    -999.25    6.21280   83.89520   83.89520    -999.25  108.98210  108.98210    6.08120    -999.25    7.22530    -999.25    -999.25    -999.25    -999.25    -999.25  -49.76820  -11.94480    7.22530
 4950.00000    -999.25    9.77120    9.77120  133.85210  133.85210    -999.25    -999.25    -999.25    -999.25    -999.25    -999.25    7.47090   80.69200   80.69200    -999.25  115.43500  115.43500    7.17600    -999.25    8.59050    -999.25    -999.25    -999.25    -999.25    -999.25  -51.39090  -13.16300    8.59050
 5000.00000    -999.25   10.10460   10.10460  190.29170  190.29170    -999.25    -999.25    -999.25    -999.25    -999.25    -999.25    5.25510   87.43570   87.43570    -999.25  122.24450  122.24450    5.23250    -999.25    6.21510    -999.25    -999.25    -999.25    -999.25    -999.25  -51.19370  -12.56530    6.21510
 5050.00000    -999.25   10.52190   10.52190  213.35890  213.35890    -999.25    -999.25    -999.25    -999.25    -999.25    -999.25    4.68690   93.43150   93.43150    -999.25  128.07290  128.07290    4.46980    -999.25    5.67350    -999.25    -999.25    -999.25    -999.25    -999.25  -50.73260  -11.70170    5.67350
 5100.00000   13.03180   10.88460   13.03180    -999.25  329.33200    0.23430    0.23430    2.11890    -999.25    0.32040    0.34570    3.03650   98.84660   98.84660  131.95910  146.38750  146.38750    3.03650    2.75960    3.93730    2.75960    -999.25    0.41870    0.37620    2.11890  -48.93890   -9.50350    3.93730
 5150.00000   12.70570   11.16260   12.70570    -999.25  394.21300    0.15950    0.15950    2.02320    -999.25    0.38850    0.40160    2.53670   98.11170   98.11170  125.00900  123.01720  123.01720    2.53670    2.17750    3.15800    2.17750    -999.25    0.49540    0.45540    2.02320  -50.14590  -10.75860    3.15800
 5200.00000   12.15610   10.26160   12.15610    -999.25  228.02420    0.23690    0.23690    2.15310    -999.25    0.30020    0.32570    4.38550   90.64780   90.64780  109.43870  113.14950  113.14950    4.38550    3.99730    5.49740    3.99730    -999.25    0.39780    0.35490    2.15310  -50.01460  -11.07360    5.49740
 5250.00000    9.88150    9.69150    9.88150    -999.25  173.46050    0.05100    0.05100    2.57150    -999.25    0.05140    0.08100    5.76500   75.62700   75.62700  107.65590  113.02580  113.02580    5.76500    5.57300    7.44650    5.57300    -999.25    0.24360    0.19970    2.57150  -50.15930  -11.66000    7.44650
 5300.00000    9.91820    9.77580    9.91820    -999.25   99.03930    0.04880    0.04880    2.58580    -999.25    0.04130    0.07260   10.09700   72.47640   72.47640   66.92500   69.77310   69.77310   10.09700    9.76010   11.40950    9.76010    -999.25    0.19740    0.15400    2.58580  -53.57970  -15.52440   11.40950
 5350.00000    9.70550   10.52270    9.70550    -999.25  177.83470    0.19170    0.19170    2.47670    -999.25    0.11030    0.13640    5.62320   87.05300   87.05300   75.00460   77.22070   77.22070    5.62320    5.29960    9.23040    5.29960    -999.25    0.36910    0.32570    2.47670  -56.38810  -18.77900    9.23040
 5400.00000    8.88060    9.35520    8.88060    -999.25   75.73290    0.03740    0.03740    2.53050    -999.25    0.07780    0.10500   13.20430   72.11700   72.11700   43.98020   41.90080   41.90080   13.20430   11.54840   22.75560   11.54840    -999.25    0.23700    0.19320    2.53050 -104.49240  -67.32510   22.75560
 5450.00000    9.47030   10.12040    9.47030    -999.25  144.27830    0.20720    0.20720    2.59310    -999.25    0.03520    0.06840    6.93100   82.51910   82.51910  100.71110   89.64380   89.64380    6.93100    5.96660    7.80650    5.96660    -999.25    0.35030    0.30660    2.59310  -54.26320  -17.54210    7.80650
 5500.00000   10.22240    9.96310   10.22240    -999.25   83.97790    0.03000    0.03000    2.51090    -999.25    0.08700    0.11640   11.90790   79.79210   79.79210   75.96720   74.23070   74.23070   11.90790   10.27580   15.26420   10.27580    -999.25    0.29980    0.25580    2.51090  -60.36180  -24.08250   15.26420
 5550.00000   13.27500   11.45070   13.27500    -999.25   46.27850    0.08750    0.08750    1.81170    -999.25    0.49900    0.52530   21.60830  117.00740  117.00740   69.88990   59.80320   59.80320   21.60830   20.62000   60.00070   20.62000    -999.25    0.57090    0.53500    1.81170  -56.92670  -21.09140   60.00070
 5600.00000   11.63680   10.39480   11.63680    -999.25   95.48820    0.02300    0.02300    2.59470    -999.25    0.03340    0.06750   10.47250   74.91630   74.91630  102.67000   93.39870   93.39870   10.47250    9.01750   12.40750    9.01750    -999.25    0.28890    0.24490    2.59470  -57.65920  -22.27010   12.40750
 5650.00000   11.15100   11.31180   11.15100    -999.25  147.97500    0.03560    0.03560    2.51620    -999.25    0.08180    0.11330    6.75790   77.53830   77.53830   58.21940   58.00130   58.00130    6.75790    5.44420    7.29530    5.44420    -999.25    0.25420    0.21030    2.51620  -65.88480  -30.93750    7.29530
 5700.00000    9.80790   10.12340    9.80790    -999.25   82.95860    0.03670    0.03670    2.60320    -999.25    0.03140    0.06250   12.05420   72.62420   72.62420   88.82120   87.18290   87.18290   12.05420   11.40460   14.47970   11.40460    -999.25    0.26780    0.22390    2.60320  -62.68290  -28.18180   14.47970
 5750.00000    9.38780    9.92860    9.38780    -999.25   91.45370    0.18080    0.18080    2.56210    -999.25    0.05190    0.08650   10.93450   70.71410   70.71410   62.51330   57.96610   57.96610   10.93450   12.72150   21.18030   12.72150    -999.25    0.22970    0.18590    2.56210  -97.00970  -62.95030   21.18030
 5800.00000   10.01520   10.23800   10.01520    -999.25  119.73470    0.02330    0.02330    2.48400    -999.25    0.10250    0.13220    8.35180   72.71710   72.71710   66.99550   71.62130   71.62130    8.35180    8.13000   13.17190    8.13000    -999.25    0.21700    0.17340    2.48400  -77.50330  -43.88790   13.17190
 5850.00000   10.10420   10.37160   10.10420    -999.25  101.06010    0.02220    0.02220    2.52570    -999.25    0.07620    0.10770    9.89510   71.49320   71.49320   71.68700   73.05610   73.05610    9.89510    8.87230   12.16200    8.87230    -999.25    0.21560    0.17200    2.52570  -74.88060  -41.71150   12.16200
 5900.00000   10.17210   10.54910   10.17210    -999.25  100.64410    0.01510    0.01510    2.52470    -999.25    0.07920    0.10840    9.93600   73.37570   73.37570   67.95460   71.28390   71.28390    9.93600    9.70950   15.56500    9.70950    -999.25    0.24350    0.19960    2.52470  -81.79800  -49.07060   15.56500
 5950.00000   10.16360   10.34190   10.16360    -999.25  111.67200    0.22580    0.22580    2.63340    -999.25    0.00770    0.04480    8.95480   77.27800   77.27800   95.96160   93.99350   93.99350    8.95480    8.32150    9.52810    8.32150    -999.25    0.27460    0.23060    2.63340  -71.42640  -39.14520    9.52810
 6000.00000   10.05110   10.32620   10.05110    -999.25  115.42810    0.01570    0.01570    2.63110    -999.25    0.01970    0.04610    8.66340   73.38710   73.38710   98.08850   93.36430   93.36430    8.66340    5.32150   10.78990    5.32150    -999.25    0.26330    0.21930    2.63110  -69.22090  -37.38150   10.78990
