~Version ---------------------------------------------------
VERS.      2.0 : CWLS log ASCII Standard -VERSION 2.0
WRAP.       NO : One line per depth step
CREA. 08/02/13 : LAS Creation Date
~Well ------------------------------------------------------
STRT.m                       300.0 : START DEPTH
STOP.m                      1850.0 : STOP DEPTH
STEP.m                    50.00000 : STEP LENGTH
NULL.                      -999.25 : NULL VALUE
COMP. SCURRY - RAINBOW OIL LIMITED : COMPANY
WELL.   SCURRY HERCULES 2-20-51-23 : WELL
FLD .                              : FIELD
LOC .                              : LOCATION
CTRY.                       CANADA : COUNTRY
SRVC.                      Unknown : SERVICE COMPANY
DATE.                  06-Mar-1980 : LOGDATE
PROV.                      Alberta : PROVINCE
UWI .             100022005123W400 : UNIQUE WELL ID
SLAT.WGS84                53.41248 : SURFACE LATITUDE
SLON.WGS84               -113.3518 : SURFACE LONGITUDE
~Curve Information -----------------------------------------
DEPT    .m      : Depth METER
ACED    .US/M   : DELTA TIME (ACOUSTIC) FROM SONIC LOG
CALDED  .MM     : CALIPER FROM FDC LOG [DEPTH ADJ. TO GRS]
CALSED  .MM     : CALIPER FROM SONIC LOG
CALWS   .MM     : CALIPER [CALSED]
CONDWS  .MMHO   : CONDUCTIVITY [1000/DRESWS]
CORRED  .KG/M3  : DENSITY CORRECTION FROM FDC LOG [DEPTH ADJ. TO GRS]
DCORWS  .KG/M3  : DENSITY CORRECTION [DRHOED]
DENWS   .KG/M3  : BUCK DENSITY  M=2.65 F=1.0] [RHOZED]
DPHILSED.V/V    : DENSITY POROSITY LIMESTONE FROM FDC LOG [DEPTH ADJ. TO GRS]
DPHISSED.V/V    : DENSITY POROSITY SANDSTONE FROM FDC LOG [DEPTH ADJ. TO GRS]
DPOLSWS .V/V    : DENSITY POROSITY [M=2.71 F=1.0] [DENWS]
DRESWS  .OHMM   : DEEP RESISTIVITY [ILMED]
DTWS    .US/M   : DELTA TIME [DTED]
GRDED   .GAPI   : GAMMA RAY FROM FDC LOG [DEPTH ADJ. TO GRS]
GRSED   .GAPI   : GAMMA RAY FROM SONIC LOG
GRWS    .GAPI   : GAMMA RAY [GRSED]
ILDED   .OHMM   : INDUCTION LOG DEEP RESISTIVITY
ILMED   .OHMM   : INDUCTION MEDIUM RESISTIVITY
MRESWS  .OHMM   : SHALLOW LATERAL RESISTIVITY [AT60ED]
NPHILSED.V/V    : NEUTRON POROSITY LIMESTONE FROM CNL LOG [DEPTH ADJ. TO GRS]
NPHISSED.V/V    : NEUTRON POROSITY SANDSTONE FROM CNL [DEPTH ADJ. TO GRS]
NPOLSWS .V/V    : NEUTRON POROSITY[CONVERTED FROM [NPHILSED, SPLICED NPHISSED @1200M]
RHOBED  .GAPI   : BUCK DENSITY FROM FDC LOG [DEPTH ADJ. TO GRR]
SPRED   .MV     : SPONTANEOUS POTENTIAL FROM RESISTIVITY LOG
SPWS    .MV     : SPONTANEOUS POTENTIAL [BASELINE 0 MV] [SPRED]
SRESWS  .OHMM   : SHALLOW RESISTIVITY [SFLUED]
TENDED  .N      : TENSION FROM FDC LOG [DEPTH ADJ. TO GRS]
TENSED  .N      : TENSTION FROM SONIC LOG
~Params ----------------------------------------------------
PD  .                         GL : PERMANENT DATUM
EPD .M                    737.96 : ELEVATION PERMANENT DATUM
LMF .                         KB : LOG MEASURED FROM
DAPD.M                      5.44 : FEET ABOVE PERMANENT DATUM
DMF .                         KB : DRILLING MEASURED FROM
EKB .M                     743.4 : KELLY BUSHING
EGL .M                    737.96 : GROUND LEVEL
DATE.                   03/06/80 : RUN DATE
RUN .                          1 : RUN NUMBER
DD  .M                      1857 : DEPTH DRILLER
DL  .M                    1856.7 : DEPTH LOGGER
BLI .M                      1866 : BOTTOM LOG INTERVAL
TLI .M                       200 : TOP LOG INTERVAL
CS  .MM                     2.44 : CASING SIZE
CBD .M                       200 : CASING BOTTOM DRILLER
CBL .M                       200 : CASING BOTTOM LOGGER
BS  .MM                      222 : BIT SIZE
BSD .M                      1857 : BIT SIZE AT DEPTH
DFT .                   GEL CHEM : DRILLING FLUID TYPE
DFV .                        180 : DRILLING FLUID VISCOSITY
DFL .                        6.5 : DRILLING FLUID LOSS
MSS .                       CIRC : MUD SAMPLE SOURCE
MST .DEGC                     24 : MUD SAMPLE TEMPERATURE
RMF .OHMM                   3.03 : RESISTIVITY MUD FILTRATE SAMPLE
MFST.DEGC                   18.3 : MUD FILTRATE SAMPLE TEMPERATURE
RMB .OHMM                   1.37 : RESISTIVITY MUD AT BHT
TCS .HRS                    13.5 : TIME CIRCULATED STOPPED
CLNT.                    A2DTECH : CLIENT CODE
ORIG. 6.5"/100M 16.5"/100M PRINT : ORIGIN OF DATA
UWI .           100022005123W400 : UNIQUE WELL ID
DICO.     A2D Technologies, Inc. : DIGITIZING COMPANY
~Other -----------------------------------------------------
~ASCII -----------------------------------------------------
  300.00000  376.10380  259.83100  269.85130  269.85130  219.93010   80.98140   80.98140 2119.79130    -999.25    0.28810    0.34520    4.54690  376.10380   98.17070  111.05470  111.05470    4.54690    4.84290    4.84290    -999.25    0.32240    0.32240 2119.79130  -54.61520   -2.23830    8.13560 38936.12230 40194.59090
  350.00000  400.14730  288.00100  274.77180  274.77180  309.89490   27.92280   27.92280 1946.26200    -999.25    0.36760    0.44660    3.22690  400.14730   85.44460   87.06090   87.06090    3.22690    3.61540    3.61540    -999.25    0.39790    0.39790 1946.26200  -54.24510   -1.58230    6.02250 39017.97980 39989.79930
  400.00000  344.76150  262.21560  258.82570  258.82570  201.92230   44.60420   44.60420 2345.84200    -999.25    0.13170    0.21300    4.95240  344.76150   67.87780   82.46630   82.46630    4.95240    5.29550    5.29550    -999.25    0.30650    0.30650 2345.84200  -58.75260   -5.80390    7.65240 39012.62370 40025.79340
  450.00000  370.39320  273.17220  255.46180  255.46180  231.57800   83.13310   83.13310 2111.67240    -999.25    0.35160    0.34990    4.31820  370.39320   79.13390   79.32730   79.32730    4.31820    4.70940    4.70940    -999.25    0.37050    0.37050 2111.67240  -55.92770   -2.69310    6.89400 39141.14440 40282.12620
  500.00000  336.97230  241.10920  241.55170  241.55170  151.74510   58.93350   58.93350 2346.73490    -999.25    0.18920    0.21240    6.59000  336.97230   62.94970   70.29030   70.29030    6.59000    7.86890    7.86890    -999.25    0.29430    0.29430 2346.73490  -67.59840  -14.07800    8.37430 39040.60750 40151.59890
  550.00000  356.12300  289.83830  278.62190  278.62190  252.30230   80.64610   80.64610 2049.34550    -999.25    0.30120    0.38630    3.96350  356.12300   94.25700   99.59850   99.59850    3.96350    4.54790    4.54790    -999.25    0.36230    0.36230 2049.34550  -55.42750   -1.62750    6.19820 39244.30490 40114.11910
  600.00000  360.40170  394.28090  409.74320  409.74320  162.92480   28.66040   28.66040 1883.53420    -999.25    0.42050    0.48330    6.13780  360.40170   89.49820   97.57820   97.57820    6.13780    5.78770    5.78770    -999.25    0.43000    0.43000 1883.53420  -65.23360  -11.17320    8.23800 39327.37010 39957.56700
  650.00000  362.80070  385.19130  405.67660  405.67660  212.51730   33.43390   33.43390 1883.20730    -999.25    0.43150    0.48350    4.70550  362.80070   95.12750  116.19410  116.19410    4.70550    4.93770    4.93770    -999.25    0.48410    0.48410 1883.20730  -64.53940  -10.21850    7.91490 39285.69430 40157.82370
  700.00000  369.70840  277.01190  262.04220  262.04220  180.30360  115.98170  115.98170 2213.07910    -999.25    0.38570    0.29060    5.54620  369.70840  151.19220  173.75320  173.75320    5.54620    6.05810    6.05810    -999.25    0.38810    0.38810 2213.07910  -64.14610   -9.58820    9.67540 39276.92370 40271.55760
  750.00000  332.53490  285.72600  279.23120  279.23120  167.35000   91.86780   91.86780 2456.91460    -999.25    0.10530    0.14800    5.97550  332.53490  123.84390  139.82760  139.82760    5.97550    6.46510    6.46510    -999.25    0.32420    0.32420 2456.91460  -65.11960  -10.56170    8.52340 39226.00360 40461.56700
  800.00000  312.00010  265.06850  257.20400  257.20400  154.82510   89.74450   89.74450 2430.80030    -999.25    0.12120    0.16330    6.45890  312.00010  136.43000  149.66790  149.66790    6.45890    6.92690    6.92690    -999.25    0.33640    0.33640 2430.80030  -64.08210   -9.52420    8.67250 38738.15470 40108.25050
  850.00000  337.17180  274.34810  270.35060  270.35060  211.34950   91.26220   91.26220 2408.91260    -999.25    0.14500    0.17610    4.73150  337.17180  152.38380  173.53600  173.53600    4.73150    5.37380    5.37380    -999.25    0.36930    0.36930 2408.91260  -55.54290   -1.83740    8.21720 39136.38350 40195.54690
  900.00000  318.00370  248.33830  249.07980  249.07980  152.36010  115.51880  115.51880 2511.23730    -999.25    0.11160    0.11620    6.56340  318.00370  151.39800  173.30830  173.30830    6.56340    7.56390    7.56390    -999.25    0.34010    0.34010 2511.23730  -55.46690   -3.79180   10.61360 39353.25610 40285.30620
  950.00000  326.72630  264.72990  262.03200  262.03200  369.64480  104.36550  104.36550 2465.13770    -999.25    0.13610    0.14320    2.70530  326.72630  123.57370  133.08430  133.08430    2.70530    3.28610    3.28610    -999.25    0.34300    0.34300 2465.13770  -53.51060   -1.35020    5.53400 39318.83440 40306.69590
 1000.00000  273.32860  245.02400  251.08600  251.08600  174.25850   83.25270   83.25270 2468.90480    -999.25    0.10090    0.14100    5.73860  273.32860  106.07690  114.78230  114.78230    5.73860    7.01380    7.01380    -999.25    0.25250    0.25250 2468.90480  -61.31950   -7.89510    9.22140 39081.18910 40506.66170
 1050.00000  282.21260  240.73910  247.71390  247.71390  186.49410   52.55030   52.55030 2497.62400    -999.25    0.09430    0.12420    5.36210  282.21260   93.64420   96.13350   96.13350    5.36210    5.85830    5.85830    -999.25    0.25610    0.25610 2497.62400  -71.16720  -22.36660    7.92780 39268.63530 40266.27540
 1100.00000  266.03770  254.53350  257.60980  257.60980  247.09660   46.72530   46.72530 2448.73440    -999.25    0.10720    0.15280    4.04700  266.03770   78.70060   94.35960   94.35960    4.04700    5.36650    5.36650    -999.25    0.24360    0.24360 2448.73440  -94.27780  -45.47720   12.99480 39382.53430 40341.54280
 1150.00000  266.69310  231.09360  226.34170  226.34170  222.71220   64.54520   64.54520 2422.55860    -999.25    0.11080    0.16810    4.49010  266.69310   65.07050   68.73140   68.73140    4.49010    7.81530    7.81530    -999.25    0.23720    0.23720 2422.55860 -107.27220  -46.93360   21.22120 39387.06920 39993.53490
 1200.00000  271.86540  213.21160  228.38470  228.38470 1587.80570  109.18710  109.18710 2287.79490    -999.25    0.21480    0.24690    0.62980  271.86540   25.76720   27.94330   27.94330    0.62980    1.10680    1.10680    -999.25    0.25790    0.25790 2287.79490 -166.20460  -90.18930    9.73040 39282.26250 39933.65340
 1250.00000  201.76040  223.00530  226.50560  226.50560   34.86540  118.91820  118.91820 2551.46630    0.06230    -999.25    0.09270   28.68170  201.76040   19.32050   23.64380   23.64380   28.68170   43.12920   43.12920    0.16260    -999.25    0.16260 2551.46630 -131.40300  -52.03080   81.67650 39089.79860 40135.16980
 1300.00000  182.18040  215.73090  220.32850  220.32850  225.07310  104.89910  104.89910 2624.89310    0.04610    -999.25    0.04980    4.44300  182.18040   16.20010   15.11180   15.11180    4.44300    7.88660    7.88660    0.20120    -999.25    0.20120 2624.89310 -162.15680  -92.77430   43.19360 39233.56650 40012.66580
 1350.00000  179.76250  232.41330  240.21120  240.21120   73.09350   77.06620   77.06620 2669.21140    0.02000    -999.25    0.02390   13.68110  179.76250   38.83890   45.23090   45.23090   13.68110   16.25780   16.25780    0.12690    -999.25    0.12690 2669.21140 -106.31700  -46.92410   33.16010 39285.27700 40125.10040
 1400.00000  187.98080  217.54760  223.13130  223.13130  115.81710  135.04780  135.04780 2602.79100    0.05820    -999.25    0.06270    8.63430  187.98080   16.99590   21.34270   21.34270    8.63430   14.32660   14.32660    0.16990    -999.25    0.16990 2602.79100 -160.14610 -110.74290   54.55830 39509.69070 40253.13040
 1450.00000  229.23680  242.99980  246.53520  246.53520  122.49050   43.92120   43.92120 2680.46630    0.01770    -999.25    0.01730    8.16390  229.23680   97.12200  111.50270  111.50270    8.16390    8.78740    8.78740    0.14740    -999.25    0.14740 2680.46630  -54.62380  -11.40770   14.63360 39207.04660 40014.95930
 1500.00000  249.97230  240.29890  246.60100  246.60100  166.28140   33.14060   33.14060 2644.05570    0.01920    -999.25    0.03860    6.01390  249.97230  114.62620  127.62710  127.62710    6.01390    7.07080    7.07080    0.20910    -999.25    0.20910 2644.05570  -43.37500   -1.17220   10.11910 39190.98720 40097.14730
