~Version ---------------------------------------------------
VERS.      2.0 : CWLS log ASCII Standard -VERSION 2.0
WRAP.       NO : One line per depth step
CREA. 01/03/18 : LAS Creation Date
~Well ------------------------------------------------------
STRT.FT                        800.0 : START DEPTH
STOP.FT                       8500.0 : STOP DEPTH
STEP.FT                     50.00000 : STEP LENGTH
NULL.                        -999.25 : NULL VALUE
COMP.        PETROMARK MINERALS LTD. : COMPANY
WELL. PETROMK IOE KINAKIN 4-12-64-10 : WELL
FLD .                                : FIELD
LOC .                                : LOCATION
CTRY.                         CANADA : COUNTRY
SRVC.                   Schlumberger : SERVICE COMPANY
DATE.                    02-Jan-1976 : LOGDATE
PROV.                        Alberta : PROVINCE
UWI .               100041206410W500 : UNIQUE WELL ID
SLAT.WGS84                  54.51845 : SURFACE LATITUDE
SLON.WGS84                 -115.3807 : SURFACE LONGITUDE
~Curve Information -----------------------------------------
DEPT  .FT    : Depth Curve
CALSED.IN    : CALIPER FROM SONIC LOG
CALWS .IN    : CALIPER [CALSED]
CILDED.MMHO  : CONDUCTIVITY FROM RESISTIVITY LOG
CONDWS.MMHO  : CONDUCTIVITY [866' CILDED 7400' 1000/ILDED]
DRESWS.OHMM  : DEEP RESISTIVITY [1000/CONDWS]
DTED  .US/F  : DELTA TIME FROM SONIC LOG
DTWS  .US/F  : DELTA TIME [DTED]
GRSED .GAPI  : GAMMA RAY FROM SONIC LOG
GRWS  .GAPI  : GAMMA RAY [GRSED]
ILDED .OHMM  : INDUCTION LOG DEEP RESISTIVITY
ILMED .OHMM  : INDUCTION LOG MEDIUM RESISTIVITY
LL8ED .OHMM  : 8 INCH LATEROLOG RESISTIVITY [FILLED GAPS]
MRESWS.OHMM  : MEDIUM RESISTIVITY [ILMED]
SPRED .MV    : SPONTANEOUS POTENTIAL FROM RESISTIVITY LOG
SPWS  .MV    : SPONTANEOUS POTENTIAL [BASELINE 0 MV] [SPRED]
SRESWS.OHMM  : SHALLOW RESISTIVITY [LL8ED]
~Params ----------------------------------------------------
PD  .                     GL : PERMANENT DATUM
EPD .FT               3170.9 : ELEVATION PERMANENT DATUM
LMF .                     KB : LOG MEASURED FROM
DAPD.FT                 14.4 : FEET ABOVE PERMANENT DATUM
EKB .FT               3185.3 : KELLY BUSHING
EGL .FT               3170.9 : GROUND LEVEL
DATE.               02/01/76 : RUN DATE
RUN .                      1 : RUN NUMBER
DD  .FT                 8507 : DEPTH DRILLER
DL  .FT                 8510 : DEPTH LOGGER
BLI .FT                 8504 : BOTTOM LOG INTERVAL
TLI .FT                  861 : TOP LOG INTERVAL
CBD .FT                  861 : CASING BOTTOM DRILLER
CBL .FT                  861 : CASING BOTTOM LOGGER
BS  .IN                7.875 : BIT SIZE
BSD .FT                 8507 : BIT SIZE AT DEPTH
DFT .               GEL CHEM : DRILLING FLUID TYPE
DFD .                    9.4 : DRILLING FLUID DENSITY
DFV .                    106 : DRILLING FLUID VISCOSITY
DFPH.                    9.5 : DRILLING FLUID PH
DFL .                      6 : DRILLING FLUID LOSS
MSS .            CIRCULATION : MUD SAMPLE SOURCE
RMS .OHMM               1.97 : RESISTIVITY MUD SAMPLE
MST .DEGF                 58 : MUD SAMPLE TEMPERATURE
RMF .OHMM                1.5 : RESISTIVITY MUD FILTRATE SAMPLE
MFST.DEGF                 58 : MUD FILTRATE SAMPLE TEMPERATURE
RMC .OHMM                2.3 : RESISTIVITY MUD CAKE
MCST.DEGF                 58 : MUD CAKE SAMPLE TEMPERATURE
TCS .HRS                   4 : TIME CIRCULATED STOPPED
LUN .                   7691 : LOGGING UNIT NUMBER
LUL .                    EDM : LOGGING UNIT LOCATION
ENGI.                  BORLE : RECORDING ENGINEER
WITN.                 SAVAGE : WITNESSED BY
CLNT.                A2DTECH : CLIENT CODE
ORIG.        2" 5" 10" PRINT : ORIGIN OF DATA
UWI .       100041206410W500 : UNIQUE WELL ID
DICO. A2D Technologies, Inc. : DIGITIZING COMPANY
~Other -----------------------------------------------------
~ASCII -----------------------------------------------------
# ...
 7250.00000   12.73620   12.73620  249.01220  249.01220    4.01590   79.08800   79.08800   67.70720   67.70720    4.33530    -999.25    5.01700    -999.25  -98.56400  -16.54010    5.01700
 7300.00000   12.40690   12.40690  319.89510  319.89510    3.12600   86.94520   86.94520   81.12450   81.12450    3.62180    -999.25    3.99100    -999.25 -108.94660  -27.90670    3.99100
 7350.00000    8.45270    8.45270  102.42460  102.42460    9.76340   62.55970   62.55970   52.34090   52.34090   11.43560    -999.25   15.34250    -999.25  -84.12230   -4.07130   15.34250
 7400.00000    8.84320    8.84320  138.77780  143.19260    6.98360   67.44120   67.44120   60.73110   60.73110    6.98360    7.78530    9.51760    7.78530  -86.05950   -6.98770    9.51760
 7450.00000    8.59510    8.59510    -999.25  138.47230    7.22170   69.62490   69.62490   67.26440   67.26440    7.22170    8.01580   10.34930    8.01580  -80.58690   -2.50400   10.34930
 7500.00000    9.18490    9.18490    -999.25  203.12820    4.92300   72.50240   72.50240   76.74060   76.74060    4.92300    5.24190    7.38480    5.24190  -92.59120  -15.18020    7.38480
 7550.00000   12.20110   12.20110    -999.25  283.43060    3.52820   85.98000   85.98000   84.42170   84.42170    3.52820    3.67600    4.81550    3.67600  -92.01250  -15.25520    4.81550
 7600.00000    9.04130    9.04130    -999.25  230.61990    4.33660   78.07530   78.07530   77.65320   77.65320    4.33660    4.95600    6.76980    4.95600  -88.39850  -12.29810    6.76980
 7650.00000    8.75480    8.75480    -999.25  230.14430    4.34510   74.23350   74.23350   68.76690   68.76690    4.34510    4.77460    6.39740    4.77460  -85.04310   -9.59310    6.39740
 7700.00000    8.23530    8.23530    -999.25   51.36050   19.47090   58.66910   58.66910   37.85690   37.85690   19.47090   21.22700   28.27360   21.22700  -80.79490   -5.57370   28.27360
 7750.00000    8.31850    8.31850    -999.25   82.68490   12.09410   62.09850   62.09850   39.38120   39.38120   12.09410   13.13900   16.61200   13.13900  -77.52040   -2.24920   16.61200
 7800.00000    9.73890    9.73890    -999.25  251.02920    3.98360   95.02550   95.02550  106.94560  106.94560    3.98360    4.31550    6.21770    4.31550  -89.92710  -12.99060    6.21770
 7850.00000   10.46040   10.46040    -999.25  238.67480    4.19020   79.52440   79.52440   80.39970   80.39970    4.19020    4.58080    6.28480    4.58080  -89.44830  -13.45090    6.28480
 7900.00000    8.80930    8.80930    -999.25  183.27770    5.45620   75.42080   75.42080   87.72260   87.72260    5.45620    5.92680    7.40980    5.92680  -84.89790  -10.59780    7.40980
 7950.00000    8.29950    8.29950    -999.25  135.66100    7.37140   69.70220   69.70220   75.67730   75.67730    7.37140    7.88290    9.20030    7.88290  -80.37580   -6.36770    9.20030
 8000.00000    9.61550    9.61550    -999.25  216.90090    4.61040   75.11940   75.11940   77.63080   77.63080    4.61040    4.94230    5.80690    4.94230  -80.49180   -6.22880    5.80690
 8050.00000    8.38300    8.38300    -999.25   84.26160   11.86780   63.43560   63.43560   49.85880   49.85880   11.86780   12.80100   13.75890   12.80100  -77.02390   -2.50470   13.75890
 8100.00000    8.26860    8.26860    -999.25   11.49020   87.21120   53.01820   53.01820   23.15360   23.15360   87.21120  123.29050  309.33720  123.29050  -85.57960  -11.24480  309.33720
 8150.00000    8.23380    8.23380    -999.25   41.61100   24.03210   58.15640   58.15640   32.48690   32.48690   24.03210   25.45480   32.46530   25.45480  -82.86550   -8.71780   32.46530
 8200.00000    8.30040    8.30040    -999.25  150.69710    6.63800   71.06820   71.06820   67.47750   67.47750    6.63800    6.96800    9.44420    6.96800  -77.32520   -3.36640    9.44420
 8250.00000    7.96010    7.96010    -999.25    3.70850  269.64790   52.93250   52.93250   24.59630   24.59630  269.64790  298.46280  376.80910  298.46280  -99.10230  -25.33070  376.80910
 8300.00000    7.94760    7.94760    -999.25    8.51000  117.50830   50.32370   50.32370   10.76730   10.76730  117.50830  122.29150  241.46010  122.29150 -167.26180  -93.67820  241.46010
 8350.00000    7.93560    7.93560    -999.25    0.77090 1297.24970   49.28160   49.28160   15.01490   15.01490 1297.24970 1364.45080 1499.09260 1364.45080 -198.94370 -125.54900 1499.09260
 8400.00000    7.94500    7.94500    -999.25    3.68150  271.62660   49.89640   49.89640   18.34230   18.34230  271.62660  326.71800  526.63120  326.71800 -142.87720  -69.66960  526.63120
 8450.00000    7.94950    7.94950    -999.25  124.60650    8.04070   58.76790   58.76790   95.19910   95.19910    8.04070   10.75240   32.41210   10.75240  -88.65880  -15.53580   32.41210
 8500.00000    7.85480    7.85480    -999.25  196.58340    5.08690   66.21140   66.21140    -999.25    -999.25    5.08690    5.65030    9.72460    5.65030 -104.58170  -31.45870    9.72460
