~Version ---------------------------------------------------
VERS.      2.0 : CWLS log ASCII Standard -VERSION 2.0
WRAP.       NO : One line per depth step
CREA. 08/02/13 : LAS Creation Date
~Well ------------------------------------------------------
STRT.FT                      2600.0 : START DEPTH
STOP.FT                     12600.0 : STOP DEPTH
STEP.FT                    50.00000 : STEP LENGTH
NULL.                       -999.25 : NULL VALUE
COMP. AMOCO CANADA COMPANY LIMITED. : COMPANY
WELL.        AMOCO NIPAC 6-20-50-15 : WELL
FLD .                               : FIELD
LOC .                               : LOCATION
CTRY.                        CANADA : COUNTRY
SRVC.                  Schlumberger : SERVICE COMPANY
DATE.                   07-Aug-1978 : LOGDATE
PROV.                       Alberta : PROVINCE
UWI .              100062005015W500 : UNIQUE WELL ID
SLAT.WGS84                 53.32816 : SURFACE LATITUDE
SLON.WGS84                -116.1619 : SURFACE LONGITUDE
~Curve Information -----------------------------------------
DEPT   .FT     : DEPTH FEET
CALD   .MM     : CALIPER [CAL SPL. TO CALD_1 @ 10900'] FROM DENSITY LOG
CALS   .MM     : CALIPER FROM SONIC LOG
DCORED .KG/M3  : DENSITY CORRECTION FROM DENSITY LOG [ADJ. TO RESISTIVITY LOG]
DPHI_LS.dec    : DENSITY POROSITY LIMESTONE [M=2.71,F=1.0] FROM DENSITY LOG
DPHI_SS.dec    : DENSITY POROSITY SANDSTONE [M=2.65,F=1.0] FROM DENSITY LOG
DT     .US/F   : DELTA-T FROM SONIC LOG
GRD    .GAPI   : GAMMA RAY FROM DENSITY LOG
GRS    .GAPI   : GAMMA RAY  [GRS_1 SPL. TO GRS @ 10900']FRPM SONIC LOG
ILD    .OHMM   : DEEP INDUCTION RESISTIVITY FROM RESISTIVITY LOG
ILM    .OHMM   : MEDIUM INDUCTION RESISTIVITY FROM RESISTIVITY LOG
LL8    .OHMM   : LATEROLOG 8 RESISTIVITY FROM RESISTIVITY LOG
NPHI_LS.dec    : NEUTRON POROSITY LIMESTONE FROM DENSITY LOG
NPHI_SS.dec    : NEUTRON POROSITY SANDSTONE FROM DENSITY LOG
RHOB   .KG/M3  : BULK DENSITY  [RHOB SPL. TO RHOB_1 @ 10900']FROM DENSITY LOG
SFL    .OHMM   : SPHERICALLY FOCUSED RESISTIVITY FROM RESISTIVITY LOG
SPR    .MV     : SPONTANEOUS POTENTIAL FROM RESISTIVITY LOG
~Params ----------------------------------------------------
PD  .                     GL : PERMANENT DATUM
EPD .FT               101.84 : ELEVATION PERMANENT DATUM
LMF .                     KB : LOG MEASURED FROM
DAPD.FT                 6.22 : FEET ABOVE PERMANENT DATUM
DMF .                     KB : DRILLING MEASURED FROM
EKB .FT              1017.06 : KELLY BUSHING
EGL .FT              1010.84 : GROUND LEVEL
DATE.               08/07/78 : RUN DATE
RUN .                      3 : RUN NUMBER
DD  .FT               3846.6 : DEPTH DRILLER
DL  .FT                 3846 : DEPTH LOGGER
BLI .FT                 3845 : BOTTOM LOG INTERVAL
TLI .FT                 3290 : TOP LOG INTERVAL
CBD .FT                 2742 : CASING BOTTOM DRILLER
CBL .FT                 2741 : CASING BOTTOM LOGGER
BS  .MM                  216 : BIT SIZE
BSD .FT               3846.6 : BIT SIZE AT DEPTH
RMF .OHMM               1.36 : RESISTIVITY MUD FILTRATE SAMPLE
MFST.DEGF               22.2 : MUD FILTRATE SAMPLE TEMPERATURE
RMC .OHMM               0.94 : RESISTIVITY MUD CAKE
MCST.DEGF               24.4 : MUD CAKE SAMPLE TEMPERATURE
LUN .                   7809 : LOGGING UNIT NUMBER
LUL .                    EDM : LOGGING UNIT LOCATION
ENGI.            GUNN DRONEN : RECORDING ENGINEER
WITN.                CULSHAW : WITNESSED BY
CLNT.                A2DTECH : CLIENT CODE
ORIG.            2" 5" PRINT : ORIGIN OF DATA
UWI .       100062005015W500 : UNIQUE WELL ID
DICO. A2D Technologies, Inc. : DIGITIZING COMPANY
~Other -----------------------------------------------------
~ASCII -----------------------------------------------------
# ...
 4750.00000  392.17600  330.22030   10.35000    -999.25    0.55120   79.98770   55.37490   62.92770   10.55510   12.55130   11.70100    -999.25    0.45270 1661.20000    -999.25  -53.64390
 4800.00000  385.76500  321.64270  -24.70000    -999.25    0.45670   75.89850   56.69200   58.28760   15.50160   13.46170   15.84050    -999.25    0.25980 1707.50000    -999.25  -53.25810
 4850.00000  384.11660  324.17510   -6.80000    -999.25    0.51530   75.72810   49.74740   54.72540   15.13700   15.98360   17.77970    -999.25    0.29170 1775.80000    -999.25  -52.12280
 4900.00000  369.66400  319.61330  -14.45000    -999.25    0.29820   78.78590   45.65590   44.87820   25.63790   28.63890   35.48150    -999.25    0.27580 2076.50000    -999.25  -54.59490
 4950.00000  327.01740  319.37710   89.75000    -999.25    0.02570   69.47030   34.11100   37.79420   35.83400   31.92350   38.88520    -999.25    0.17890 2595.30000    -999.25  -71.05520
 5000.00000  432.72460  326.55260    6.57500    -999.25    0.30810   73.71080   55.34510   58.80930   13.37550   13.72860   15.00260    -999.25    0.31100 2086.20000    -999.25  -56.07310
 5050.00000    -999.25  345.66610  -24.35000    -999.25    0.54300   92.16830   46.41740   51.31020    9.99170    9.50020   12.22780    -999.25    0.44860 1722.00000    -999.25  -55.02080
 5100.00000    -999.25  351.30230  -63.35000    -999.25    0.52840   84.73410   54.67840   59.01800   13.51690   12.10820   13.00240    -999.25    0.45760 1941.30000    -999.25  -53.54880
 5150.00000    -999.25  355.80070  -79.15000    -999.25    0.56680   75.51800   50.80980   54.19490   14.77200   11.21360   12.37290    -999.25    0.43840 1752.30000    -999.25  -55.39730
 5200.00000    -999.25  355.25460  -91.10000    -999.25    0.59140   76.51120   40.45890   44.51070   23.55460   16.59700   14.41930    -999.25    0.46700 1709.00000    -999.25  -54.33490
 5250.00000  375.56690  325.84390   68.40000    -999.25    0.26180   69.25280   30.60570   34.20700   47.13800   41.24330   50.05830    -999.25    0.20720 2161.80000    -999.25  -78.56100
 5300.00000    -999.25  355.54410  -89.55000    -999.25    0.52810   82.02740   42.70420   46.03670   15.08270   10.79470   13.38860    -999.25    0.54490 1764.40000    -999.25  -55.82770
 5350.00000  322.87720  318.15020   46.40000    -999.25    0.00560   67.21710   39.77380   40.59600   58.74140   49.55490   75.15830    -999.25    0.17150 2583.80000    -999.25  -64.34870
 5400.00000  421.24120  326.92090   15.80000    -999.25    0.32900   75.22110   52.04300   66.59520   18.76180   19.84580   21.97540    -999.25    0.28850 2161.00000    -999.25  -56.09420
 5450.00000    -999.25  329.43800  -36.40000    -999.25    0.35880   79.02650   60.86650   62.71370   12.13240   12.55810   13.78140    -999.25    0.37300 2026.30000    -999.25  -57.27990
 5500.00000    -999.25  341.98050  -17.90000    -999.25    0.32900   80.41690   76.12240   77.86420   14.77140   15.35240   18.11600    -999.25    0.29110 2079.80000    -999.25  -59.09890
 5550.00000  426.54220  331.88400   32.50000    -999.25    0.08360   76.80810   76.20200   86.88780   13.05260   13.51250   14.71080    -999.25    0.28650 2520.60000    -999.25  -59.98860
 5600.00000  381.64520  321.23630   38.70000    -999.25    0.00040   74.58500   67.73000   84.17450   16.27320   17.05920   18.09990    -999.25    0.26590 2700.40000    -999.25  -60.98560
 5650.00000  425.18840  324.53070  -25.70000    -999.25    0.38910   77.89200   84.97430   97.81200   13.19450   13.68960   14.86730    -999.25    0.28020 2017.70000    -999.25  -60.95800
 5700.00000  402.98370  329.64630   26.90000    -999.25    0.20680   74.83220   75.54930   86.52000   14.47270   14.97870   17.21530    -999.25    0.28200 2314.70000    -999.25  -59.94560
 5750.00000  390.53770  334.01760   23.20000    -999.25    0.06930   79.94610   91.27020  100.93800   11.95490   12.48330   14.85160    -999.25    0.30790 2551.50000    -999.25  -59.10950
 5800.00000  381.44450  331.00010   19.75000    -999.25    0.09090   81.49010   92.12620   96.85700   13.81850   14.29320   17.52710    -999.25    0.31560 2518.90000    -999.25  -57.57480
 5850.00000  385.38150  329.53200   68.70000    -999.25    0.05620   82.61150   93.89630  105.82220   14.25680   14.90840   18.98930    -999.25    0.29690 2576.10000    -999.25  -56.59050
 5900.00000  347.11640  331.70370   76.70000    -999.25    0.00330   82.76430   90.80800  105.30770   17.55360   18.18720   23.18480    -999.25    0.27940 2619.90000    -999.25  -57.09130
 5950.00000  365.41710  335.98360   72.00000    -999.25    0.00920   77.93740   92.34790   97.29200   11.93550   12.41130   14.85140    -999.25    0.28900 2645.40000    -999.25  -58.87240
 6000.00000  430.47410  353.04480   34.40000    -999.25    0.01700   82.65200   87.39150   88.27340    9.78770   10.12360   12.15060    -999.25    0.31740 2597.90000    -999.25  -57.68320
 6050.00000  422.29530  353.77120   71.35000    -999.25    0.05890   81.73470   76.83260   82.96070   10.80440   11.57270   12.98320    -999.25    0.33820 2600.00000    -999.25  -56.91390
 6100.00000  415.32560  351.43950   62.10000    -999.25    0.04700   81.12490   78.68490   94.34830    8.36510    8.74670   10.17690    -999.25    0.32620 2562.70000    -999.25  -60.30910
 6150.00000  360.47430  351.23370    4.30000    -999.25    0.28730   77.70630   68.03800   85.92390    7.88610    8.45640    9.80870    -999.25    0.42520 2286.40000    -999.25  -59.53580
 6200.00000  372.76790  340.13140  -11.20000    -999.25    0.36980   79.61150   68.34600   96.91070    8.29780    8.59470   10.41910    -999.25    0.39770 2065.20000    -999.25  -60.21320
 6250.00000  374.36300  340.48700  -40.40000    -999.25    0.37370   80.99210   81.64590   87.77900    8.07510    8.69580   10.52750    -999.25    0.38440 2004.50000    -999.25  -59.14250
 6300.00000  371.76460  339.35160  -16.95000    -999.25    0.25150   76.60670   73.46970   80.74910   11.49530   12.93940   13.81920    -999.25    0.33000 2252.10000    -999.25  -60.41190
 6350.00000  392.53410  342.54190   25.20000    -999.25    0.33370   78.68470   79.49600   96.33420    9.03880   10.31410   12.00170    -999.25    0.31360 2121.50000    -999.25  -58.72610
 6400.00000  323.79410  339.76820   20.90000    -999.25    0.15600   76.41260   78.46700   90.08980    7.60350    8.53760   10.80540    -999.25    0.34810 2342.30000    -999.25  -57.77520
 6450.00000  372.77290  347.72600  -49.80000    -999.25    0.50650   87.24930   79.98740  100.32510    8.65370    9.17040   10.93560    -999.25    0.38040 1800.70000    -999.25  -57.34040
 6500.00000  408.92480  353.58830  -38.80000    -999.25    0.43940   80.47320   88.18650   98.66990    7.74310    8.33140    9.73390    -999.25    0.38340 1930.30000    -999.25  -56.73190
 6550.00000  432.18860  352.11000  -32.62500    -999.25    0.45480   83.63450   73.75240   83.11720    7.75480    8.02330    9.96510    -999.25    0.40480 1897.90000    -999.25  -58.76210
 6600.00000  350.40060  332.91020    1.30000    -999.25    0.31170   81.85680   72.73390   68.62110    8.00630    8.28380   10.17650    -999.25    0.43260 2237.30000    -999.25  -58.38980
 6650.00000  346.97920  317.92930  -10.45000    -999.25    0.23820   70.89540   58.27060   73.48710   20.08830   20.77780   22.37450    -999.25    0.26720 2241.50000    -999.25  -61.69020
 6700.00000  389.19910  322.37930  -45.80000    -999.25    0.35480   75.79700   69.95600   78.86770   12.10480   12.52670   13.93920    -999.25    0.39230 2043.70000    -999.25  -60.42570
 6750.00000  384.54080  329.56500  -34.80000    -999.25    0.32770   76.30230   57.87400   69.15880   14.16510   14.72630   17.02380    -999.25    0.40600 2078.40000    -999.25  -59.26040
 6800.00000  388.84860  333.28360  -37.35000    -999.25    0.35360   73.96960   61.85580   66.56480   12.21280   12.64830   14.70410    -999.25    0.41860 2083.50000    -999.25  -59.68040
 6850.00000  325.61280  316.82180   32.80000    -999.25    0.15380   73.89570   62.09150   74.64160   11.93190   12.92480   15.10230    -999.25    0.35740 2316.00000    -999.25  -59.73860
