~Version ---------------------------------------------------
VERS.      2.0 : CWLS log ASCII Standard -VERSION 2.0
WRAP.       NO : One line per depth step
CREA. 12/14/17 : LAS Creation Date
~Well ------------------------------------------------------
STRT.FT                   850.0 : START DEPTH
STOP.FT                 12200.0 : STOP DEPTH
STEP.FT                50.00000 : STEP LENGTH
NULL.                   -999.25 : NULL VALUE
COMP. ATLANTIC REFINING COMPANY : COMPANY
WELL.  HB ET AL MARL 6-16-55-18 : WELL
FLD .                           : FIELD
LOC .                           : LOCATION
CTRY.                    CANADA : COUNTRY
SRVC.              Schlumberger : SERVICE COMPANY
DATE.               23-Apr-1959 : LOGDATE
PROV.                   Alberta : PROVINCE
UWI .          100061605518W500 : UNIQUE WELL ID
SLAT.WGS84             53.75017 : SURFACE LATITUDE
SLON.WGS84            -116.6167 : SURFACE LONGITUDE
~Curve Information -----------------------------------------
DEPT   .FT      : Depth Curve
CALWS  .IN      : CALIPER [MCALED]
CILDED .MMHO    : CONDUCTIVITY FROM IE LOG
CNCLSED.V/V     : NEUTRON POROSITY LIMESTONE FROM DENSITY LOG
CONDWS .MMHO    : CONDUCTIVITY [1000/DRESWS]
DRESWS .OHMM    : DEEP RESISTIVITY [ILDED] IF ILDED<1;1000/CILDED;ELSE ILDED
DTED   .US/F    : DELTA TIME FROM SONIC LOG [ADJ TO GRNED]
DTWS   .US/F    : DELTA TIME [DTED]
GRDED  .GAPI    : GAMMA RAY FROM DENSITY LOG
GRED   .GAPI    : GAMMA RAY FROM CBL LOG [ADJ TO GRDED]
GRNED  .CU      : GAMMA RAY FROM GRN LOG LOG [ADJ TO GRDED]
GRSED  .MG/TON  : GAMMA RAY FROM SONIC LOG LOG [ADJ TO GRNED]
GRWS   .GAPI    : GAMMA RAY [SPL GRED 5480' GRDED 8374' GRNED 10882' GRDED, CONVERTED TO GAPI UNIT (8374'-10880')*2.16, (10882'-FR)*16.5]
ILDED  .OHMM    : INDUCTION LOG DEEP RESISTIVITY FROM IE LOG
LL7ED  .OHMM    : LATEROLOG 7 FROM LATEROLOG [ADJ TO ILDED]
LNED   .OHMM    : 64 INCH LONG NORMAL RESISTIVITY FROM EL
LT18ED .OHMM    : LATERAL 18' 8" FROM EL LOG
MCALED .IN      : CALIPER MICROLOG
NEUTED .CU      : NEUTRON FROM GRN LOG [ADJ TO CNCLSED]
NEUTWS .CU      : NEUTRON [NEUTED]
NPOLSWS.V/V     : NEUTRON POROSITY LIMESTONE [CNCLSED]
SN1ED  .OHMM    : 16 INCH SHORT NORMAL RESISTIVITY FROM EL
SNED   .OHMM    : 16 INCH SHORT NORMAL RESISTIVITY FROM IE
SPR1ED .MV      : SPONTANEOUS POTENTIAL FROM EL LOG
SPRED  .MV      : SPONTANEOUS POTENTIAL FROM IE LOG
SPSED  .MV      : SPONTANEOUS POTENTIAL FROM SONIC LOG [ADJ TO GRNED]
SPWS   .MV      : SPONTANEOUS POTENTIAL [BASELINE 0 MV] [SPRED]
SRESWS .OHMM    : SHALLOW RESISTIVITY [SNED]
~Params ----------------------------------------------------
LMF .                     KB : LOG MEASURED FROM
DMF .                     KB : DRILLING MEASURED FROM
EKB .FT                 3203 : KELLY BUSHING
EGL .FT                 3190 : GROUND LEVEL
DATE.               04/23/59 : RUN DATE
RUN .                      3 : RUN NUMBER
DD  .FT                12230 : DEPTH DRILLER
DL  .FT                12233 : DEPTH LOGGER
BLI .FT                12228 : BOTTOM LOG INTERVAL
TLI .FT                10500 : TOP LOG INTERVAL
BS  .IN                8.625 : BIT SIZE
BSD .FT                12230 : BIT SIZE AT DEPTH
DFT .                    GYP : DRILLING FLUID TYPE
DFD .                    9.3 : DRILLING FLUID DENSITY
DFV .                     68 : DRILLING FLUID VISCOSITY
DFPH.                   12.5 : DRILLING FLUID PH
DFL .                    6.8 : DRILLING FLUID LOSS
RMS .OHMM               0.75 : RESISTIVITY MUD SAMPLE
MST .DEGF                 54 : MUD SAMPLE TEMPERATURE
RMF .OHMM               0.35 : RESISTIVITY MUD FILTRATE SAMPLE
MFST.DEGF                 80 : MUD FILTRATE SAMPLE TEMPERATURE
RMC .OHMM               0.72 : RESISTIVITY MUD CAKE
MCST.DEGF                 80 : MUD CAKE SAMPLE TEMPERATURE
RMB .OHMM               0.75 : RESISTIVITY MUD AT BHT
TCS .HRS                 3.5 : TIME CIRCULATED STOPPED
LUN .                   1571 : LOGGING UNIT NUMBER
LUL .                    EDM : LOGGING UNIT LOCATION
ENGI.                REBYRNA : RECORDING ENGINEER
WITN.                  EVANS : WITNESSED BY
CLNT.                A2DTECH : CLIENT CODE
ORIG.            2" 5" PRINT : ORIGIN OF DATA
UWI .       100061605518W500 : UNIQUE WELL ID
DICO. A2D Technologies, Inc. : DIGITIZING COMPANY
~Other -----------------------------------------------------
IE-EL-LL/ML/CNL/GRN/CBL/SONIC LOGS RUN
~ASCII -----------------------------------------------------
# ...
 9950.00000   11.82190   27.34750    -999.25   19.64600   50.90090   54.31050   54.31050    -999.25    -999.25    7.02660    -999.25   15.17750   50.90090  207.76840    -999.25    -999.25   11.82190 2492.66140 2492.66140    -999.25    -999.25   33.01760    -999.25 -134.66640 -125.66460 -148.74070   33.01760
 10000.00000   12.18340   23.42520    -999.25   14.32260   69.81980   54.26500   54.26500    -999.25    -999.25    7.96490    -999.25   17.20420   69.81980  257.92470    -999.25    -999.25   12.18340 2684.62480 2684.62480    -999.25    -999.25   33.45750    -999.25 -156.73530  -88.53960 -170.74280   33.45750
 10050.00000   14.05040   28.37660    -999.25   20.99140   47.63850   54.69110   54.69110    -999.25    -999.25    8.00950    -999.25   17.30040   47.63850  849.99440    -999.25    -999.25   14.05040 2141.80440 2141.80440    -999.25    -999.25   32.43910    -999.25  -57.92010 -138.35700  -71.86110   32.43910
 10100.00000   10.41830   16.79900    -999.25    7.70960  129.70830   54.26500   54.26500    -999.25    -999.25    5.79140    -999.25   12.50940  129.70830  207.34440    -999.25    -999.25   10.41830 3125.98820 3125.98820    -999.25    -999.25   39.66100    -999.25  -92.21240  -89.67840 -106.08620   39.66100
 10150.00000    8.98900   25.55330    -999.25   18.18740   54.98310   51.17800   51.17800    -999.25    -999.25    6.81280    -999.25   14.71560   54.98310  113.12010    -999.25    -999.25    8.98900 2962.31420 2962.31420    -999.25    -999.25   30.97790    -999.25 -119.14530    -999.25 -132.95230   30.97790
 10200.00000    9.39620   44.22870    -999.25   35.07110   28.51350   53.58590   53.58590    -999.25    -999.25    6.80520    -999.25   14.69920   28.51350  102.96800    -999.25    -999.25    9.39620 2778.73690 2778.73690    -999.25    -999.25   30.20990    -999.25  -15.53690 -131.38010  -29.27710   30.20990
 10250.00000   10.94160   19.35010    -999.25   12.13370   82.41490   51.48870   51.48870    -999.25    -999.25    8.30010    -999.25   17.92820   82.41490  175.60540    -999.25    -999.25   10.94160 2851.68410 2851.68410    -999.25    -999.25   32.53720    -999.25  -77.15610  -73.13390  -90.82940   32.53720
 10300.00000    9.47710  275.27270    -999.25  286.37700    3.49190   59.53370   59.53370    -999.25    -999.25   13.03900    -999.25   28.16410    3.49190    7.97710    -999.25    -999.25    9.47710 2073.86670 2073.86670    -999.25    -999.25   10.63990    -999.25  -62.95210  -34.28020  -76.55890   10.63990
 10350.00000    8.66290   12.99910    -999.25    5.64890  177.02700   52.22490   52.22490    -999.25    -999.25   16.58610    -999.25   35.82600  177.02700 1629.44150    -999.25    -999.25    8.66290 2942.11950 2942.11950    -999.25    -999.25   65.58130    -999.25  -83.54700 -121.85960  -97.08660   65.58130
 10400.00000    8.94720   12.02040    -999.25    5.67710  176.14590   50.57590   50.57590    -999.25    -999.25    6.54510    -999.25   14.13740  176.14590 2422.98800    -999.25    -999.25    8.94720 3021.71750 3021.71750    -999.25    -999.25   41.03710    -999.25 -102.68400  -43.68960 -116.15680   41.03710
 10450.00000    8.57220   32.50740    -999.25   23.73380   42.13400   49.96810   49.96810    -999.25    -999.25   11.55190    -999.25   24.95210   42.13400  157.17560    -999.25    -999.25    8.57220 1966.69250 1966.69250    -999.25    -999.25   32.15680    -999.25  -69.19130  -41.19920  -82.59730   32.15680
 10500.00000   11.19390   34.87560    -999.25   26.53240   37.68980   52.35860   52.35860    -999.25    -999.25   11.57570    -999.25   25.00350   37.68980  100.85060    -999.25    -999.25   11.19390 1636.49120 1636.49120    -999.25    -999.25   25.51190    -999.25   -2.61660  -73.20300  -15.95570   25.51190
 10550.00000    8.64570   62.80270    -999.25   53.95080   18.53540   54.30260   54.30260    -999.25    -999.25    6.53360    -999.25   14.11260   18.53540   42.94400    -999.25    -999.25    8.64570 2456.21020 2456.21020    -999.25    -999.25   23.19820    -999.25  -94.06790  -57.89970 -107.34060   23.19820
 10600.00000    8.98460   26.07140    -999.25   14.14010   70.72070   51.14650   51.14650    -999.25    -999.25    8.33670    -999.25   18.00730   70.72070  144.09770    -999.25    -999.25    8.98460 3167.78660 3167.78660    -999.25    -999.25   35.50050    -999.25  -80.47670  -68.82350  -93.68220   35.50050
 10650.00000    8.64830   53.83280    -999.25   40.28120   24.82550   48.75120   48.75120    -999.25    -999.25    8.39000    -999.25   18.12240   24.82550   44.87410    -999.25    -999.25    8.64830 1949.25780 1949.25780    -999.25    -999.25   29.75890    -999.25 -121.38980    5.29410 -134.52840   29.75890
 10700.00000    9.73940   16.04630    -999.25    8.98790  111.26130   47.48570   47.48570    -999.25    -999.25   13.14190    -999.25   28.38650  111.26130  456.88750    -999.25    -999.25    9.73940 1809.70530 1809.70530    -999.25    -999.25   34.56700    -999.25  -59.06400   -5.16740  -72.13580   34.56700
 10750.00000    8.40030   94.91260    -999.25   84.74940   11.79950   53.04230   53.04230    -999.25    -999.25   13.67940    -999.25   29.54750   11.79950   34.05560    -999.25    -999.25    8.40030 1819.63550 1819.63550    -999.25    -999.25   21.65440    -999.25  -24.21990  -81.87160  -37.22490   21.65440
 10800.00000   10.01070    7.74810    -999.25    2.00730  498.18130   54.60070   54.60070    -999.25    -999.25   17.56170    2.08550   37.93330  498.18130 10065.55860    -999.25    -999.25   10.01070 1880.21910 1880.21910    -999.25    -999.25   86.79550    -999.25 -137.33190 -198.08630 -150.27030   86.79550
 10850.00000    8.16600   12.23600    -999.25    4.87950  204.94010   50.96570   50.96570    -999.25    -999.25    8.33280    0.68890   17.99880  204.94010  390.36940    -999.25    -999.25    8.16600 2263.92510 2263.92510    -999.25    -999.25   38.13790    -999.25  -65.51990    -999.25  -78.39120   38.13790
 10900.00000    8.26360   22.16240    -999.25   13.21550   75.66860   48.50220   48.50220    -999.25    -999.25    -999.25    0.90970   17.40970   75.66860  278.47560    -999.25    -999.25    8.26360    -999.25    -999.25    -999.25    -999.25   44.27930    -999.25  -89.23570 -118.95550 -102.04010   44.27930
 10950.00000    8.31790   31.27310    -999.25   23.25170   43.00760   50.32150   50.32150    -999.25    -999.25    -999.25    0.83010   17.33010   43.00760  130.35670    -999.25    -999.25    8.31790    -999.25    -999.25    -999.25    -999.25   38.26800    -999.25 -104.20890 -118.64780 -113.73940   38.26800
 11000.00000    8.48990   38.73620    -999.25   27.35670   36.55410   52.12600   52.12600    -999.25    -999.25    -999.25    3.10640   19.60640   36.55410  189.72830    -999.25    -999.25    8.48990    -999.25    -999.25    -999.25    -999.25   32.56160    -999.25 -153.60900  -59.90790 -156.78430   32.56160
 11050.00000    9.12620   18.00880    -999.25   10.67310   93.69370   54.47310   54.47310    -999.25    -999.25    -999.25    2.60920   19.10920   93.69370 1260.61180    -999.25    -999.25    9.12620    -999.25    -999.25    -999.25    -999.25   70.49440    -999.25  -56.62880    1.33360  -53.48070   70.49440
 11100.00000    8.57000   11.46130    -999.25    4.26100  234.68470   62.50450   62.50450    -999.25    -999.25    -999.25    6.15070   22.65070  234.68470 5608.08200    -999.25    -999.25    8.57000    -999.25    -999.25    -999.25    -999.25   86.15890    -999.25  -90.79150    -999.25  -81.25640   86.15890
 11150.00000    8.60310    9.70820    -999.25    6.36100  157.20720   62.85670   62.85670    -999.25    -999.25    -999.25    6.91780   23.41780  157.20720 5615.69680    -999.25    -999.25    8.60310    -999.25    -999.25    -999.25    -999.25   80.32430    -999.25  -34.44730  -50.98500  -18.55700   80.32430
 11200.00000    8.60290   26.57350    -999.25   16.56720   60.36040   66.82920   66.82920    -999.25    -999.25    -999.25    4.70190   21.20190   60.36040  345.83620    -999.25    -999.25    8.60290    -999.25    -999.25    -999.25    -999.25   59.39060    -999.25  -42.59150  -55.78900  -19.37610   59.39060
