~Version ---------------------------------------------------
VERS.      2.0 : CWLS log ASCII Standard -VERSION 2.0
WRAP.       NO : One line per depth step
CREA. 12/13/17 : LAS Creation Date
~Well ------------------------------------------------------
STRT.FT                         1100.0 : START DEPTH
STOP.FT                        16100.0 : STOP DEPTH
STEP.FT                       50.00000 : STEP LENGTH
NULL.                          -999.25 : NULL VALUE
COMP. AQUITAINE COMPANY OF CANADA LTD. : COMPANY
WELL. AQUIT ET AL OWL RIVER 1-24-45-16 : WELL
FLD .                                  : FIELD
LOC .                                  : LOCATION
CTRY.                           CANADA : COUNTRY
SRVC.                     Schlumberger : SERVICE COMPANY
DATE.                      22-May-1976 : LOGDATE
PROV.                          Alberta : PROVINCE
UWI .                 100012404516W502 : UNIQUE WELL ID
SLAT.WGS84                    52.88968 : SURFACE LATITUDE
SLON.WGS84                    -116.182 : SURFACE LONGITUDE
~Curve Information -----------------------------------------
DEPT    .FT    : Depth Curve
CALDED  .IN    : CALIPER FROM DENSITY LOG [ADJ. TO DLL LOG]
CALSED  .IN    : CALIPER FROM SONIC LOG
CALWS   .IN    : CALIPER [CALSED]
CONDWS  .MMHO  : CONDUCTIVITY [1000/DRESWS]
DCORWS  .G/C3  : DENSITY CORRECTION [DRHOED]
DENWS   .G/C3  : FORMATION BULK DENSITY [CALC. FROM DPOLSWS, M=2.71, F=1.00 ASSUMED]
DPHILSED.V/V   : DENSITY POROSITY LIMESTONE [M=2.71, F=1.00 ASSUMED] FROM DENSITY LOG
DPOLSWS .V/V   : DENSITY POROSITY LIMESTONE [DPHILSED]
DRESWS  .OHMM  : DEEP RESISTIVITY [ILDED SPL. TO LLDED @ 13065']
DRHOED  .G/C3  : DENSITY CORRECTION FROM DENSITY LOG [ADJ. TO DPHILSED/ DLL LOG]
DTED    .US/F  : DELTA TIME FROM SONIC LOG
DTWS    .US/F  : COMPRESSIONAL SONIC [DTED]
GRDED   .GAPI  : GAMMA RAY FROM DENSITY LOG [ADJ. TO DLL LOG]
GRSED   .GAPI  : GAMMA RAY FROM SONIC LOG
GRWS    .GAPI  : GAMMA RAY [GRSED]
ILDED   .OHMM  : DEEP INDUCTION RESISTIVITY FROM DIL LOG
ILMED   .OHMM  : DEEP RESISTIVITY [ILDED SPL. TO LLDED @ 13065']
LL8ED   .OHMM  : LATEROLOG 8  RESISTIVITY FROM DIL LOG
LLDED   .OHMM  : DEEP LATEROLOG RESISTIVITY  FROM DLL LOG
LLSED   .OHMM  : SHALLOW  LATEROLOG RESISTIVITY FROM DLL LOG
MRESWS  .OHMM  : MEDIUM RESISTIVITY [ILMED]
NPHILSED.V/V   : NEUTRON POROSITY LIMESTONE FROM DENSITY LOG [ADJ. TO DLL LOG]
NPOLSWS .V/V   : NEUTRON POROSITY LIMESTONE [NPHILSED]
RHOBED  .G/C3  : BULK DENSITY FROM DENSITY LOG [ADJ. TO DPHILSED/DLL LOG]
SPED    .MV    : SPONTANEOUS POTENTIAL [SPR1ED SPL. TO SPRED @ 12893']
SPR1ED  .MV    : SPONTANEOUS POTENTIAL FROM DIL LOG
SPRED   .MV    : SPONTANEOUS POTENTIAL FROM DLL LOG
SPWS    .MV    : SPONTANEOUS POTENTIAL [BASELINE 0 MV, SPED]
SRESWS  .OHMM  : SHALLOW RESISTIVITY [LL8ED SPL. TO LLSED @ 12900']
~Params ----------------------------------------------------
PD  .                     GL : PERMANENT DATUM
EPD .FT                 4186 : ELEVATION PERMANENT DATUM
LMF .                     KB : LOG MEASURED FROM
DAPD.FT                   20 : FEET ABOVE PERMANENT DATUM
EKB .FT                 4206 : KELLY BUSHING
EGL .FT                 4186 : GROUND LEVEL
DATE.               22/05/76 : RUN DATE
RUN .                      4 : RUN NUMBER
DD  .FT                16151 : DEPTH DRILLER
DL  .FT                16146 : DEPTH LOGGER
BLI .FT                16144 : BOTTOM LOG INTERVAL
TLI .FT                15300 : TOP LOG INTERVAL
CBD .FT                12900 : CASING BOTTOM DRILLER
CBL .FT                12900 : CASING BOTTOM LOGGER
BS  .IN                    6 : BIT SIZE
BSD .FT                16151 : BIT SIZE AT DEPTH
DFT .                    KCL : DRILLING FLUID TYPE
DFD .                      9 : DRILLING FLUID DENSITY
DFV .                    114 : DRILLING FLUID VISCOSITY
DFPH.                     11 : DRILLING FLUID PH
DFL .                     15 : DRILLING FLUID LOSS
TCS .HRS                11.5 : TIME CIRCULATED STOPPED
LUN .              OSU C 264 : LOGGING UNIT NUMBER
LUL .                     RD : LOGGING UNIT LOCATION
ENGI.               FIGGURES : RECORDING ENGINEER
WITN.        LABADI CZERNIAK : WITNESSED BY
CLNT.                A2DTECH : CLIENT CODE
ORIG.            2" 5" PRINT : ORIGIN OF DATA
UWI .       100012404516W502 : UNIQUE WELL ID
DICO. A2D Technologies, Inc. : DIGITIZING COMPANY
~Other -----------------------------------------------------
DIL-DLL-FDC-CNL-LCS LOG RUN
RHOB & DRHO CURVES VERIFIED FROM 2" SCALE SECTION.
LCS- RUN4: PULLED TIGHT @ 12910' & 15140'
~ASCII -----------------------------------------------------
# ...
 13600.00000    9.04080    6.89280    6.89280    0.52980    0.13490    2.61820    0.05370    0.05370 1887.34480    0.08780   48.23870   48.23870   20.27090   20.29080   20.29080    -999.25    -999.25    -999.25 1887.34480  772.91520    -999.25    0.03810    0.03810    2.62020  -84.60680    -999.25  -84.60680  -78.90460  772.91520
 13650.00000   10.74560    6.74920    6.74920    0.99820    0.25000    2.29730    0.24140    0.24140 1042.31320    0.25000   50.90990   50.90990   21.53530   18.58720   18.58720    -999.25    -999.25    -999.25 1042.31320  161.24190    -999.25    0.03250    0.03250    2.30150  -66.29240    -999.25  -66.29240  -59.84260  161.24190
 13700.00000    6.54220    6.61610    6.61610    0.89740    0.17770    2.75500   -0.02630   -0.02630 1114.38850    0.18620   48.91670   48.91670   23.63330   29.12920   29.12920    -999.25    -999.25    -999.25 1114.38850 1269.48820    -999.25    0.02230    0.02230    2.74530  -58.30920    -999.25  -58.30920  -51.10430 1269.48820
 13750.00000    6.15390    6.39570    6.39570    0.82070    0.20570    2.82440   -0.06690   -0.06690 1218.45500    0.19300   49.15600   49.15600   26.02720   30.17290   30.17290    -999.25    -999.25    -999.25 1218.45500 1043.16660    -999.25    0.03420    0.03420    2.81900  -56.41950    -999.25  -56.41950  -48.46320 1043.16660
 13800.00000    9.13530    7.14760    7.14760   69.35350    0.25000    2.55290    0.09180    0.09180   14.43150    0.25000   70.64870   70.64870  105.36830  104.31710  104.31710    -999.25    -999.25    -999.25   14.43150   10.71860    -999.25    0.16820    0.16820    2.54940  -58.23760    -999.25  -58.23760  -49.53370   10.71860
 13850.00000    6.96450    6.58320    6.58320    1.70860    0.25000    2.96650   -0.15000   -0.15000  585.25800    0.25000   46.88970   46.88970   33.31370   29.12980   29.12980    -999.25    -999.25    -999.25  585.25800  652.13710    -999.25    0.05870    0.05870    3.00000  -44.15660    -999.25  -44.15660  -34.69760  652.13710
 13900.00000    7.24850    6.80790    6.80790    2.93230    0.22660    2.68590    0.01410    0.01410  350.22300    0.21730   50.40020   50.40020   33.65900   33.97280   33.97280    -999.25    -999.25    -999.25  350.22300  330.87890    -999.25    0.02220    0.02220    2.68970  -53.67030    -999.25  -53.67030  -43.46370  330.87890
 13950.00000    7.54660    6.93230    6.93230    0.79460    0.20730    2.68200    0.01640    0.01640 1258.44560    0.20720   49.68850   49.68850   19.73880   20.73090   20.73090    -999.25    -999.25    -999.25 1258.44560  473.35330    -999.25    0.00740    0.00740    2.67130  -62.44730    -999.25  -62.44730  -51.48560  473.35330
 14000.00000    8.56500    7.36620    7.36620   89.09800    0.19810    2.72610   -0.00940   -0.00940   11.22360    0.19670   57.90020   57.90020   70.53390   52.02710   52.02710    -999.25    -999.25    -999.25   11.22360   10.90760    -999.25    0.12000    0.12000    2.71190  -25.90300    -999.25  -25.90300  -14.18990   10.90760
 14050.00000    7.76620    7.47530    7.47530  126.41230   -0.09480    2.98170   -0.15890   -0.15890    7.91070   -0.14370   72.15300   72.15300   88.74830   97.72890   97.72890    -999.25    -999.25    -999.25    7.91070    6.98400    -999.25    0.15450    0.15450    3.00020  -62.77310    -999.25  -62.77310  -50.31240    6.98400
 14100.00000    7.48420    7.28430    7.28430  111.88190   -0.00210    2.73510   -0.01470   -0.01470    8.93800    0.00430   66.75230   66.75230   73.49770   76.32400   76.32400    -999.25    -999.25    -999.25    8.93800    8.00620    -999.25    0.12310    0.12310    2.72690  -44.42770    -999.25  -44.42770  -31.21190    8.00620
 14150.00000    8.79810    7.83800    7.83800  142.20670    0.25070    2.97390   -0.15440   -0.15440    7.03300    0.25070   75.21210   75.21210  103.91760  105.51730  105.51730    -999.25    -999.25    -999.25    7.03300    6.08220    -999.25    0.20550    0.20550    3.00020  -40.61760    -999.25  -40.61760  -26.65420    6.08220
 14200.00000   10.30630    7.98060    7.98060  197.22700    0.24680    2.57490    0.07900    0.07900    5.07030    0.24380   78.36400   78.36400  100.72970   96.68750   96.68750    -999.25    -999.25    -999.25    5.07030    4.88510    -999.25    0.20590    0.20590    2.57460  -53.90000    -999.25  -53.90000  -39.18150    4.88510
 14250.00000    7.29360    7.16720    7.16720  156.04030   -0.17990    2.95780   -0.14490   -0.14490    6.40860   -0.20780   70.31250   70.31250   87.80130   86.98690   86.98690    -999.25    -999.25    -999.25    6.40860    7.03560    -999.25    0.17170    0.17170    2.94570  -30.90230    -999.25  -30.90230  -15.43240    7.03560
 14300.00000    7.18190    7.33470    7.33470  108.51700   -0.02540    2.72810   -0.01060   -0.01060    9.21620   -0.01300   66.10110   66.10110   81.10180   81.59960   81.59960    -999.25    -999.25    -999.25    9.21620    9.70370    -999.25    0.15560    0.15560    2.73250  -46.22830    -999.25  -46.22830  -30.01080    9.70370
 14350.00000    7.03840    7.20490    7.20490   91.22920   -0.17790    2.74200   -0.01870   -0.01870   10.96140   -0.06960   63.82650   63.82650   71.89930   72.81950   72.81950    -999.25    -999.25    -999.25   10.96140   11.90300    -999.25    0.13430    0.13430    2.73210  -22.79190    -999.25  -22.79190   -5.81930   11.90300
 14400.00000    7.57400    7.45000    7.45000  156.47750   -0.26470    2.96650   -0.15000   -0.15000    6.39090   -0.27930   70.37690   70.37690   82.02450   84.99820   84.99820    -999.25    -999.25    -999.25    6.39090    6.05540    -999.25    0.16910    0.16910    3.00000  -34.66910    -999.25  -34.66910  -14.42310    6.05540
 14450.00000    9.79670    7.96990    7.96990  197.07540    0.14280    2.82710   -0.06850   -0.06850    5.07420    0.13810   75.24370   75.24370   98.98040   96.72900   96.72900    -999.25    -999.25    -999.25    5.07420    5.90610    -999.25    0.21410    0.21410    2.69800  -35.43850    -999.25  -35.43850  -11.50280    5.90610
 14500.00000    7.33000    7.38830    7.38830  106.84100   -0.00360    2.70860    0.00080    0.00080    9.35970   -0.00150   69.46590   69.46590   79.20920   85.67210   85.67210    -999.25    -999.25    -999.25    9.35970   10.74650    -999.25    0.15270    0.15270    2.70680  -35.80450    -999.25  -35.80450   -8.19750   10.74650
 14550.00000    6.93520    7.12020    7.12020  136.42470    0.00820    2.73150   -0.01260   -0.01260    7.33000    0.00390   69.66970   69.66970   86.75030   93.08050   93.08050    -999.25    -999.25    -999.25    7.33000    7.89740    -999.25    0.15680    0.15680    2.72550  -64.57050    -999.25  -64.57050  -33.31050    7.89740
 14600.00000    7.48050    7.23760    7.23760  131.04440    0.00780    2.71800   -0.00470   -0.00470    7.63100   -0.00010   71.91510   71.91510   78.99340   88.14120   88.14120    -999.25    -999.25    -999.25    7.63100    7.93120    -999.25    0.16460    0.16460    2.70430  -80.95510    -999.25  -80.95510  -46.00540    7.93120
 14650.00000    6.73440    6.82620    6.82620   60.19040    0.04340    2.81560   -0.06170   -0.06170   16.61400    0.03820   62.23620   62.23620   56.56530   64.66320   64.66320    -999.25    -999.25    -999.25   16.61400   19.19770    -999.25    0.09390    0.09390    2.80560  -50.81140    -999.25  -50.81140  -12.20860   19.19770
 14700.00000   11.80390   11.75650   11.75650   37.53230    0.16690    2.74920   -0.02290   -0.02290   26.64370    0.14690   88.25780   88.25780  133.52760  140.41100  140.41100    -999.25    -999.25    -999.25   26.64370   24.87520    -999.25    0.21090    0.21090    2.75160  -54.94140    -999.25  -54.94140  -16.75400   24.87520
 14750.00000   10.71370    8.80050    8.80050   78.14210    0.12590    2.75600   -0.02690   -0.02690   12.79720    0.06890   99.69430   99.69430  140.03650  112.82320  112.82320    -999.25    -999.25    -999.25   12.79720   11.74490    -999.25    0.16820    0.16820    2.74840  -86.71420    -999.25  -86.71420  -50.80480   11.74490
 14800.00000   10.57750    8.80780    8.80780  227.50200    0.09960    2.25610    0.26540    0.26540    4.39630    0.09530   80.80490   80.80490   85.25440   92.38320   92.38320    -999.25    -999.25    -999.25    4.39630    3.77690    -999.25    0.20690    0.20690    2.27440  -97.27960    -999.25  -97.27960  -63.63690    3.77690
