~Version ---------------------------------------------------
VERS.      2.0 : CWLS log ASCII Standard -VERSION 2.0
WRAP.       NO : One line per depth step
CREA. 01/03/18 : LAS Creation Date
~Well ------------------------------------------------------
STRT.FT                   650.0 : START DEPTH
STOP.FT                  8800.0 : STOP DEPTH
STEP.FT                50.00000 : STEP LENGTH
NULL.                   -999.25 : NULL VALUE
COMP.        IPEX OIL & GAS LTD : COMPANY
WELL. IPEX IMP JUDY 11-36-64-12 : WELL
FLD .                           : FIELD
LOC .                           : LOCATION
CTRY.                    CANADA : COUNTRY
SRVC.              Schlumberger : SERVICE COMPANY
DATE.               13-Aug-1974 : LOGDATE
PROV.                   Alberta : PROVINCE
UWI .          100113606412W500 : UNIQUE WELL ID
SLAT.WGS84             54.58384 : SURFACE LATITUDE
SLON.WGS84            -115.6802 : SURFACE LONGITUDE
~Curve Information -----------------------------------------
DEPT  .FT    : Depth Curve
CALSED.IN    : CALIPER FROM SONIC LOG
CALWS .IN    : CALIPER [CALSED]
CILDED.MMHO  : CONDUCTIVITY FROM RESISTIVITY LOG
CONDWS.MMHO  : CONDUCTIVITY [1000/DRESWS]
DRESWS.OHMM  : DEEP RESISTIVITY [ILDED] IF ILDED<2;1000/CILDED;ELSE ILDED
DTED  .US/F  : DELTA TIME FROM SONIC LOG
DTWS  .US/F  : DELTA TIME [DTED]
GRSED .GAPI  : GAMMA RAY FROM SONIC LOG
GRWS  .GAPI  : GAMMA RAY [GRSED]
ILDED .OHMM  : INDUCTION LOG DEEP RESISTIVITY
LL8ED .OHMM  : 8 INCH LATEROLOG RESISTIVITY
SPRED .MV    : SPONTANEOUS POTENTIAL FROM RESISTIVITY LOG
SPWS  .MV    : SPONTANEOUS POTENTIAL [BASELINE 0 MV] [SPRED]
SRESWS.OHMM  : SHALLOW RESISTIVITY [LL8ED]
~Params ----------------------------------------------------
PD  .                     GL : PERMANENT DATUM
EPD .FT               3172.7 : ELEVATION PERMANENT DATUM
LMF .                     KB : LOG MEASURED FROM
DAPD.FT                 14.3 : FEET ABOVE PERMANENT DATUM
DMF .                        : DRILLING MEASURED FROM
EKB .FT                 3187 : KELLY BUSHING
EDF .FT                    0 : DRILLING FLOOR
EGL .FT               3172.7 : GROUND LEVEL
DATE.               08/13/74 : RUN DATE
RUN .                      1 : RUN NUMBER
DD  .FT                 8835 : DEPTH DRILLER
DL  .FT                 8843 : DEPTH LOGGER
BLI .FT                 8837 : BOTTOM LOG INTERVAL
TLI .FT                  610 : TOP LOG INTERVAL
CS  .IN                    0 : CASING SIZE
CBD .FT                  612 : CASING BOTTOM DRILLER
CBL .FT                  610 : CASING BOTTOM LOGGER
BS  .IN                7.875 : BIT SIZE
BSD .FT                 8835 : BIT SIZE AT DEPTH
DFT .                    GEL : DRILLING FLUID TYPE
DFD .                    9.5 : DRILLING FLUID DENSITY
DFV .                    8.2 : DRILLING FLUID VISCOSITY
DFPH.                        : DRILLING FLUID PH
DFL .                        : DRILLING FLUID LOSS
MSS .                        : MUD SAMPLE SOURCE
RMS .OHMM               2.63 : RESISTIVITY MUD SAMPLE
MST .DEGF                 61 : MUD SAMPLE TEMPERATURE
RMF .OHMM               2.31 : RESISTIVITY MUD FILTRATE SAMPLE
MFST.DEGF                 60 : MUD FILTRATE SAMPLE TEMPERATURE
RMC .OHMM                  0 : RESISTIVITY MUD CAKE
MCST.DEGF                  0 : MUD CAKE SAMPLE TEMPERATURE
MFSS.                        : MUD FILTRATE SAMPLE SOURCE
MCSS.                        : MUD CAKE SAMPLE SOURCE
RMB .OHMM                0.8 : RESISTIVITY MUD AT BHT
TCS .HRS                   4 : TIME CIRCULATED STOPPED
TLAB.HRS                   0 : TIME LOGGER AT BOTTOM
LUN .                   7690 : LOGGING UNIT NUMBER
LUL .                    EDM : LOGGING UNIT LOCATION
ENGI.                SIMPSON : RECORDING ENGINEER
WITN.                COULSON : WITNESSED BY
CLNT.                A2DTECH : CLIENT CODE
ORIG.            2" 5" PRINT : ORIGIN OF DATA
UWI .       100113606412W500 : UNIQUE WELL ID
DICO. A2D Technologies, Inc. : DIGITIZING COMPANY
OS  .                        : OTHER SERVICES
PWI .                        : PRIMARY WELL IDENTIFIER
R1  .                        : REMARKS 1
R2  .                        : REMARKS 2
LSRV.                        : LOG MNEMONIC
~Other -----------------------------------------------------
DIL-SONIC LOGS RUN
SPRED, ILDED, CILDED, LL8ED CURVES TOP-1354' DATA FROM 2" SCALE
DIL LOG DATA ALL CURVES 5885'-5915' NULL DUR TO TOLL STUCK
SONIC LOG DATA ALL CURVES 5030'-8330' NULL DUR TO TOLL STUCK
~ASCII -----------------------------------------------------
  650.00000    -999.25    -999.25  151.05660  154.70780    6.46380    -999.25    -999.25    -999.25    -999.25    6.46380    5.33860 -115.70930   -7.46920    5.33860
  700.00000    -999.25    -999.25  192.69550  185.41700    5.39540    -999.25    -999.25    -999.25    -999.25    5.39540    4.66890 -111.34620   -3.59010    4.66890
  750.00000    -999.25    -999.25  121.04710  124.50510    8.03180    -999.25    -999.25    -999.25    -999.25    8.03180    6.32910 -114.06990   -6.79310    6.32910
  800.00000    -999.25    -999.25  214.78460  205.36830    4.86930    -999.25    -999.25    -999.25    -999.25    4.86930    3.74000 -109.62580   -2.83060    3.74000
  850.00000    -999.25    -999.25  248.60900  243.30310    4.11010    -999.25    -999.25    -999.25    -999.25    4.11010    3.70640 -109.37450   -3.06090    3.70640
  900.00000    -999.25    -999.25  399.68700  393.08180    2.54400    -999.25    -999.25    -999.25    -999.25    2.54400    2.22050 -107.50020   -1.83350    2.22050
  950.00000    -999.25    -999.25  211.82510  211.91530    4.72390    -999.25    -999.25    -999.25    -999.25    4.72390    4.30870 -109.91810   -5.27130    4.30870
 1000.00000    -999.25    -999.25  202.79960  207.12080    4.82810    -999.25    -999.25    -999.25    -999.25    4.82810    3.56450 -107.94350   -4.30650    3.56450
 1050.00000    -999.25    -999.25   98.30610   96.12520   10.40310    -999.25    -999.25    -999.25    -999.25   10.40310    8.64150 -112.20660   -9.58440    8.64150
 1100.00000    -999.25    -999.25  239.17700  263.68530    3.79240    -999.25    -999.25    -999.25    -999.25    3.79240    3.28500 -108.11870   -6.51130    3.28500
 1150.00000    -999.25    -999.25  145.63150  138.77320    7.20600    -999.25    -999.25    -999.25    -999.25    7.20600    6.10220 -106.60680   -6.01420    6.10220
 1200.00000    -999.25    -999.25  315.03600  324.01760    3.08630    -999.25    -999.25    -999.25    -999.25    3.08630    2.60020 -105.47360   -5.90090    2.60020
 1250.00000    -999.25    -999.25  236.14640  225.37240    4.43710    -999.25    -999.25    -999.25    -999.25    4.43710    3.71990 -102.66390   -4.10100    3.71990
 1300.00000    -999.25    -999.25  280.60290  283.50300    3.52730    -999.25    -999.25    -999.25    -999.25    3.52730    3.40000 -100.61800   -3.06990    3.40000
 1350.00000    -999.25    -999.25  266.56980  274.28070    3.64590    -999.25    -999.25    -999.25    -999.25    3.64590    2.95630 -100.92580   -4.39260    2.95630
 1400.00000    -999.25    -999.25  188.23560  179.79470    5.56190    -999.25    -999.25    -999.25    -999.25    5.56190    4.37050  -98.56590   -3.04750    4.37050
 1450.00000    -999.25    -999.25  195.84040  194.27950    5.14890    -999.25    -999.25    -999.25    -999.25    5.14890    4.04500  -97.30320   -2.80440    4.04500
 1500.00000    -999.25    -999.25  274.44120  268.65110    3.72230    -999.25    -999.25    -999.25    -999.25    3.72230    3.04220  -96.28500   -2.79540    3.04220
 1550.00000    -999.25    -999.25   93.40990   90.41020   11.06070    -999.25    -999.25    -999.25    -999.25   11.06070    6.82740 -107.92390  -15.44860    6.82740
 1600.00000    -999.25    -999.25  316.90510  316.78650    3.15670    -999.25    -999.25    -999.25    -999.25    3.15670    2.70890  -95.16940   -3.70840    2.70890
 1650.00000    -999.25    -999.25  273.43560  270.54080    3.69630    -999.25    -999.25    -999.25    -999.25    3.69630    3.07220  -93.74810   -3.30130    3.07220
 1700.00000    -999.25    -999.25  286.55910  289.63790    3.45280    -999.25    -999.25    -999.25    -999.25    3.45280    2.78230  -93.70910   -4.28160    2.78230
 1750.00000    -999.25    -999.25   99.76480  107.56500    9.29670    -999.25    -999.25    -999.25    -999.25    9.29670    6.85400 -104.50410  -16.08590    6.85400
 1800.00000    -999.25    -999.25   68.62640   65.44500   15.28000    -999.25    -999.25    -999.25    -999.25   15.28000   10.05240  -98.16320  -10.75930   10.05240
 1850.00000    -999.25    -999.25   80.41840   78.85750   12.68110    -999.25    -999.25    -999.25    -999.25   12.68110    9.09460 -102.42940  -16.03970    9.09460
 1900.00000    -999.25    -999.25  275.69730  275.69480    3.62720    -999.25    -999.25    -999.25    -999.25    3.62720    3.10020  -89.26770   -3.89230    3.10020
 1950.00000    -999.25    -999.25  232.77090  232.75060    4.29700    -999.25    -999.25    -999.25    -999.25    4.29700    3.89630  -88.03060   -3.67450    3.89630
 2000.00000    -999.25    -999.25  269.29350  268.41310    3.72560    -999.25    -999.25    -999.25    -999.25    3.72560    3.34700  -86.48510   -3.13820    3.34700
 2050.00000    -999.25    -999.25   35.45870   32.54490   30.72680    -999.25    -999.25    -999.25    -999.25   30.72680   22.24470  -91.58860   -8.37360   22.24470
 2100.00000    -999.25    -999.25  240.07770  244.83400    4.08440    -999.25    -999.25    -999.25    -999.25    4.08440    3.62220  -87.12760   -3.91260    3.62220
 2150.00000    -999.25    -999.25  130.08360  121.22240    8.24930    -999.25    -999.25    -999.25    -999.25    8.24930    7.42480 -101.46390  -18.24890    7.42480
 2200.00000    -999.25    -999.25  109.29880  107.70540    9.28460    -999.25    -999.25    -999.25    -999.25    9.28460    7.61060 -105.03700  -21.82200    7.61060
 2250.00000    -999.25    -999.25  289.62740  281.21480    3.55600    -999.25    -999.25    -999.25    -999.25    3.55600    3.00150  -88.40470   -4.91090    3.00150
 2300.00000    -999.25    -999.25  275.36940  261.37640    3.82590    -999.25    -999.25    -999.25    -999.25    3.82590    3.32230  -92.99910   -6.97110    3.32230
 2350.00000    -999.25    -999.25   91.80990   91.87120   10.88480    -999.25    -999.25    -999.25    -999.25   10.88480    8.73950 -107.32230  -18.76000    8.73950
 2400.00000    -999.25    -999.25  168.68940  173.97960    5.74780    -999.25    -999.25    -999.25    -999.25    5.74780    5.02690 -104.46830  -13.37170    5.02690
 2450.00000    -999.25    -999.25  264.05030  258.54970    3.86820    -999.25    -999.25    -999.25    -999.25    3.86820    4.19340 -100.16660   -6.52310    4.19340
 2500.00000    -999.25    -999.25  131.00070  135.64660    7.37210    -999.25    -999.25    -999.25    -999.25    7.37210    7.57170 -122.68860  -26.52350    7.57170
 2550.00000    -999.25    -999.25  214.11730  199.78420    5.00540    -999.25    -999.25    -999.25    -999.25    5.00540    4.60780 -108.08860   -9.38930    4.60780
 2600.00000    -999.25    -999.25  246.79750  235.96040    4.23800    -999.25    -999.25    -999.25    -999.25    4.23800    3.84560 -110.83970   -9.60610    3.84560
 2650.00000    -999.25    -999.25  264.57590  263.72000    3.79190    -999.25    -999.25    -999.25    -999.25    3.79190    3.43260 -115.27550  -11.50760    3.43260
 2700.00000    -999.25    -999.25  187.23710  183.80780    5.44050    -999.25    -999.25    -999.25    -999.25    5.44050    5.07730 -126.19210  -19.87730    5.07730
 2750.00000    -999.25    -999.25  188.41960  188.10430    5.31620    -999.25    -999.25    -999.25    -999.25    5.31620    4.45660 -126.96010  -18.12370    4.45660
 2800.00000    -999.25    -999.25  172.73070  172.74740    5.78880    -999.25    -999.25    -999.25    -999.25    5.78880    4.94190 -128.09920  -16.72850    4.94190
 2850.00000    -999.25    -999.25  219.58810  214.29800    4.66640    -999.25    -999.25    -999.25    -999.25    4.66640    3.93300 -126.27180  -12.36690    3.93300
 2900.00000    -999.25    -999.25  140.16450  139.19820    7.18400    -999.25    -999.25    -999.25    -999.25    7.18400    7.69080 -125.73230   -9.29310    7.69080
 2950.00000    -999.25    -999.25  179.69740  176.44930    5.66730    -999.25    -999.25    -999.25    -999.25    5.66730    5.35000 -126.54580   -8.96270    5.35000
 3000.00000    -999.25    -999.25  168.17580  167.02300    5.98720    -999.25    -999.25    -999.25    -999.25    5.98720    5.54960 -127.22410   -9.99790    5.54960
 3050.00000    -999.25    -999.25  174.34360  179.00300    5.58650    -999.25    -999.25    -999.25    -999.25    5.58650    4.86470 -125.69810   -8.83050    4.86470
