~Version ---------------------------------------------------
VERS.      2.0 : CWLS log ASCII Standard -VERSION 2.0
WRAP.       NO : One line per depth step
CREA. 12/14/17 : LAS Creation Date
~Well ------------------------------------------------------
STRT.FT                            1000.0 : START DEPTH
STOP.FT                            6150.0 : STOP DEPTH
STEP.FT                          50.00000 : STEP LENGTH
NULL.                             -999.25 : NULL VALUE
COMP. SHELL OIL COMPANY OF CANADA LIMITED : COMPANY
WELL.       SHELL ET AL NIPISI 10-10-78-9 : WELL
FLD .                                     : FIELD
LOC .                                     : LOCATION
CTRY.                              CANADA : COUNTRY
SRVC.                        Schlumberger : SERVICE COMPANY
DATE.                         20-Feb-1962 : LOGDATE
PROV.                             Alberta : PROVINCE
UWI .                    100101007809W500 : UNIQUE WELL ID
SLAT.WGS84                       55.74661 : SURFACE LATITUDE
SLON.WGS84                      -115.3035 : SURFACE LONGITUDE
~Curve Information -----------------------------------------
DEPT  .FT    : Depth Curve
CALWS .IN    : CALIPER [MCALED]
CILDED.MMHO  : CONDUCTIVITY INDUCTION LOG DEEP FROM IEL LOG
CONDWS.MMHO  : CONDUCTIVITY [1000/DRESWS]
DRESWS.OHMM  : DEEP RESISTIVITY [1000/CILDED IF ILDED<2, ILDED]
DT1ED .US/F  : DELTA TIME 1 FT SPAN FROM BHC LOG
DTED  .US/F  : DELTA TIME 3 FT SPAN FROM BHC LOG
DTWS  .US/F  : COMPRESSIONAL SONIC [DTED]
GRNED .GAPI  : GAMMA RAY FROM GRN LOG
GRWS  .GAPI  : GAMMA RAY [GRNED]]
ILDED .OHMM  : DEEP INDUCTION FROM IEL LOG
MCALED.IN    : MLT CALIPER FROM MICRO LOG
NEUTED.CPS   : NEUTRON FROM GRN LOG
NEUTWS.CPS   : NEUTRON POROSITY [NEUTED]
SNED  .OHMM  : SHORT NORMAL 16" FROM IEL LOG
SPRED .MV    : SPONTANEOUS POTENTIAL FROM IEL LOG
SPWS  .MV    : SPONTANEOUS POTENTIAL [BASELINE 0 MV, SPRED]
SRESWS.OHMM  : SHALLOW RESISTIVITY [SNED]
~Params ----------------------------------------------------
PD  .                     GL : PERMANENT DATUM
EPD .FT                 2162 : ELEVATION PERMANENT DATUM
LMF .                     KB : LOG MEASURED FROM
DAPD.FT                   14 : FEET ABOVE PERMANENT DATUM
EKB .FT                 2176 : KELLY BUSHING
EGL .FT                 2162 : GROUND LEVEL
DATE.               02/20/62 : RUN DATE
RUN .                      1 : RUN NUMBER
DD  .FT                 6173 : DEPTH DRILLER
DL  .FT                 6175 : DEPTH LOGGER
BLI .FT                 6174 : BOTTOM LOG INTERVAL
TLI .FT                  712 : TOP LOG INTERVAL
CBD .FT                  710 : CASING BOTTOM DRILLER
CBL .FT                  712 : CASING BOTTOM LOGGER
BS  .IN                 8.75 : BIT SIZE
BSD .FT                 6173 : BIT SIZE AT DEPTH
DFT .                    GEL : DRILLING FLUID TYPE
DFD .                     10 : DRILLING FLUID DENSITY
DFV .                    108 : DRILLING FLUID VISCOSITY
DFPH.                    9.5 : DRILLING FLUID PH
DFL .                    8.4 : DRILLING FLUID LOSS
RMS .OHMM               1.19 : RESISTIVITY MUD SAMPLE
MST .DEGF                 60 : MUD SAMPLE TEMPERATURE
RMF .OHMM                0.6 : RESISTIVITY MUD FILTRATE SAMPLE
MFST.DEGF                 80 : MUD FILTRATE SAMPLE TEMPERATURE
RMC .OHMM               1.33 : RESISTIVITY MUD CAKE
MCST.DEGF                 80 : MUD CAKE SAMPLE TEMPERATURE
RMB .OHMM               0.59 : RESISTIVITY MUD AT BHT
TCS .HRS                   2 : TIME CIRCULATED STOPPED
LUN .                   3534 : LOGGING UNIT NUMBER
LUL .                    WCT : LOGGING UNIT LOCATION
ENGI.                   GRAY : RECORDING ENGINEER
WITN.                GORRILL : WITNESSED BY
CLNT.                A2DTECH : CLIENT CODE
ORIG.            2" 5" PRINT : ORIGIN OF DATA
UWI .       100101007809W500 : UNIQUE WELL ID
DICO. A2D Technologies, Inc. : DIGITIZING COMPANY
~Other -----------------------------------------------------
~ASCII -----------------------------------------------------
# ...
 5100.00000    9.49780  151.21530  155.57290    6.42790    -999.25   75.96300   75.96300   55.94870   55.94870    6.42790    9.49780  224.95130  224.95130    8.94020  -45.00460   -9.47120    8.94020
 5150.00000   13.36760  414.19670  368.31060    2.71510    -999.25   97.13570   97.13570   85.72520   85.72520    2.71510   13.36760  183.63850  183.63850    3.70860  -56.06480  -20.53140    3.70860
 5200.00000   13.80400  340.31440  324.05030    3.08600    -999.25   89.17900   89.17900   71.11960   71.11960    3.08600   13.80400  191.14470  191.14470    4.01540  -61.03070  -25.49730    4.01540
 5250.00000   13.50030  250.20470  260.41670    3.84000    -999.25   88.51940   88.51940   66.45160   66.45160    3.84000   13.50030  199.70630  199.70630    5.09190  -59.46490  -23.93150    5.09190
 5300.00000    9.24450  161.42240  160.33610    6.23690    -999.25   78.06860   78.06860   52.23360   52.23360    6.23690    9.24450  242.64840  242.64840    8.86000  -52.71970  -17.18630    8.86000
 5350.00000   11.97390  165.47190  171.08110    5.84590    -999.25   66.46840   66.46840   60.31540   60.31540    5.84590   11.97390  208.98230  208.98230    7.70020  -53.82880  -18.29540    7.70020
 5400.00000    9.13520  135.61820  149.10460    6.70670    -999.25   73.31410   73.31410   41.03920   41.03920    6.70670    9.13520  265.20350  265.20350   10.00210  -49.66810  -14.13470   10.00210
 5450.00000    9.09790   94.87400   96.89310   10.33680    -999.25   59.56930   59.56930   35.24710   35.24710   10.33680    9.09790  268.02830  268.02830   14.20990  -47.67060  -12.13720   14.20990
 5500.00000    9.02410   96.88910  102.09080    9.79520    -999.25   66.30450   66.30450   49.33980   49.33980    9.79520    9.02410  249.50780  249.50780   15.00490  -48.63450  -13.10110   15.00490
 5550.00000    9.04720  134.93400  141.06960    7.08870    -999.25   73.83210   73.83210   64.12070   64.12070    7.08870    9.04720  225.92120  225.92120   10.80070  -48.34360  -12.81020   10.80070
 5600.00000    8.98040   93.49950   97.46180   10.26100    -999.25   64.38400   64.38400   48.58170   48.58170   10.26100    8.98040  257.54400  257.54400   14.62710  -45.37420   -8.22550   14.62710
 5650.00000    9.06440  120.05080  124.31780    8.04390   66.75050   67.70360   67.70360   60.27040   60.27040    8.04390    9.06440  231.03940  231.03940   11.71320  -48.39280   -8.23990   11.71320
 5700.00000    8.80260   26.66290   26.85820   37.24880   53.56770   55.70330   55.70330   19.30060   19.30060   37.24880    8.80260  301.36840  301.36840   51.88660 -106.45260  -63.26520   51.88660
 5750.00000    8.26810   22.54470   25.74330   38.84500   55.81970   60.03930   60.03930   18.62970   18.62970   38.84500    8.26810  274.52920  274.52920   53.43960 -117.56640  -71.37480   53.43960
 5800.00000    8.85000   26.80020   27.47090   36.40220   48.73050   57.68300   57.68300   37.44600   37.44600   36.40220    8.85000  231.74720  231.74720   54.65670  -63.97740  -14.76650   54.65670
 5850.00000    8.87490  846.01540  846.01540    1.18720   58.73420   71.19710   71.19710   69.20600   69.20600    1.49730    8.87490  223.89750  223.89750    4.70340  -96.20280  -48.22520    4.70340
 5900.00000    8.98220   37.95580   38.13490   26.22270   59.44350   58.67070   58.67070   40.85270   40.85270   26.22270    8.98220  266.75850  266.75850   36.31530  -69.63120  -24.42670   36.31530
 5950.00000    8.98900   48.86290   46.84610   21.61840   92.45600   67.80950   67.80950   30.56550   30.56550   21.61840    8.98900  247.50490  247.50490   41.82690  -72.62790  -30.22450   41.82690
 6000.00000    8.76450   27.18530   30.22820   33.08170   61.55470   56.47470   56.47470   47.42930   47.42930   33.08170    8.76450  255.92200  255.92200   45.00290  -75.90830  -36.27800   45.00290
 6050.00000    8.85920  353.26230  336.36060    2.97300   58.60600   83.68860   83.68860  107.64780  107.64780    2.97300    8.85920  184.70880  184.70880    6.44910  -68.90900  -32.06570    6.44910
 6100.00000    8.98350  181.21230  185.09510    5.40320   67.48980   67.47850   67.47850  107.85910  107.85910    5.40320    8.98350  186.63110  186.63110    7.82190  -49.90390  -15.86160    7.82190
 6150.00000    8.76380  148.32690  147.64290    6.77310   73.37130   66.07460   66.07460  121.12710  121.12710    6.77310    8.76380  234.08250  234.08250   11.52030  -53.41790  -20.78310   11.52030
