~Version ---------------------------------------------------
VERS.      2.0 : CWLS log ASCII Standard -VERSION 2.0
WRAP.       NO : One line per depth step
CREA. 11/17/17 : LAS Creation Date
~Well ------------------------------------------------------
STRT.FT                                1400.0 : START DEPTH
STOP.FT                               13450.0 : STOP DEPTH
STEP.FT                              50.00000 : STEP LENGTH
NULL.                                 -999.25 : NULL VALUE
COMP. SUPERTEST PETROLEUM CORPORATION LIMITED : COMPANY
WELL.    SUPTST ALMINEX MED FERRIERW 8-9-39-9 : WELL
FLD .                                         : FIELD
LOC .                                         : LOCATION
CTRY.                                  CANADA : COUNTRY
SRVC.                  Schlumberger of Canada : SERVICE COMPANY
DATE.                             01-Oct-1960 : LOGDATE
PROV.                                 Alberta : PROVINCE
UWI .                        100080903909W500 : UNIQUE WELL ID
SLAT.WGS84                           52.33911 : SURFACE LATITUDE
SLON.WGS84                          -115.2267 : SURFACE LONGITUDE
~Curve Information -----------------------------------------
DEPT  .FT         : Depth Curve
CALWS .IN         : CALIPER [MCALED]
CILDED.MMHO       : CONDUCTIVITY FROM RESISTIVITY LOG
CONDWS.MMHO       : CONDUCTIVITY [1000/DRESWS]
DRESWS.OHMM       : DEEP RESISTIVITY [ILDED]
DTED  .US/F       : DELTA-TIME FROM SONIC LOG
DTWS  .US/F       : CPOMPRESSIONAL SONIC [DTED]
GRSED .UgRa-Eq/T  : GAMMA RAY FROM SONIC LOG
GRWS  .GAPI       : GAMMA RAY [GRSED*16.5]
ILDED .OHMM       : DEEP INDUCTION 40"  RESISTIVITY FROM RESISTIVITY LOG
MCALED.IN         : MICRO CALIPER FROM ML LOG
SNED  .OHMM       : SHORT NORMAL 16"  RESISTIVITY FROM RESISTIVITY LOG
SPRED .MV         : SPONTANEOUS POTENTIAL FROM RESISTIVITY LOG
SPWS  .MV         : SPONTANEOUS POTENTIAL [BASELINE 0 MV, SPRED]
SRESWS.OHMM       : SHALLOW RESISTIVITY [SNED]
~Params ----------------------------------------------------
LMF .                     KB : LOG MEASURED FROM
DMF .                     KB : DRILLING MEASURED FROM
EKB .FT                 3787 : KELLY BUSHING
EGL .FT                 3770 : GROUND LEVEL
DATE.               10/01/60 : RUN DATE
RUN .                      2 : RUN NUMBER
DD  .FT                13500 : DEPTH DRILLER
DL  .FT                13492 : DEPTH LOGGER
BLI .FT                13486 : BOTTOM LOG INTERVAL
TLI .FT                10594 : TOP LOG INTERVAL
BS  .IN                 8.75 : BIT SIZE
BSD .FT                13500 : BIT SIZE AT DEPTH
DFT .              LIME BASE : DRILLING FLUID TYPE
DFD .                    9.6 : DRILLING FLUID DENSITY
DFV .                    194 : DRILLING FLUID VISCOSITY
DFPH.                   13.5 : DRILLING FLUID PH
DFL .                      7 : DRILLING FLUID LOSS
MSS .            CIRCULATION : MUD SAMPLE SOURCE
RMS .OHMM               0.59 : RESISTIVITY MUD SAMPLE
MST .DEGF                 70 : MUD SAMPLE TEMPERATURE
RMF .OHMM               0.43 : RESISTIVITY MUD FILTRATE SAMPLE
MFST.DEGF                 70 : MUD FILTRATE SAMPLE TEMPERATURE
RMC .OHMM               0.91 : RESISTIVITY MUD CAKE
MCST.DEGF                 70 : MUD CAKE SAMPLE TEMPERATURE
RMB .OHMM               0.18 : RESISTIVITY MUD AT BHT
TCS .HRS                   6 : TIME CIRCULATED STOPPED
LUN .                   1575 : LOGGING UNIT NUMBER
LUL .                      C : LOGGING UNIT LOCATION
ENGI.                 YUNKER : RECORDING ENGINEER
CLNT.                A2DTECH : CLIENT CODE
ORIG.            2" 5" PRINT : ORIGIN OF DATA
UWI .       100080903909W500 : UNIQUE WELL ID
DICO. A2D Technologies, Inc. : DIGITIZING COMPANY
~Other -----------------------------------------------------
IE-BCS-ML LOGS RUN
ALL RESISTIVITY DATA FROM SMALL SECTION @ TOP-7980'
~ASCII -----------------------------------------------------
# ...
 6300.00000    -999.25  110.16690  119.38860    8.37820    -999.25    -999.25    -999.25    -999.25    8.37820    -999.25   13.55340  -92.27490   -2.57570   13.55340
 6350.00000    -999.25   99.85470  106.47360    9.39200    -999.25    -999.25    -999.25    -999.25    9.39200    -999.25   14.58430  -91.92310   -2.39990   14.58430
 6400.00000    -999.25   32.09680   33.34890   29.98600    -999.25    -999.25    -999.25    -999.25   29.98600    -999.25   45.25180 -108.37700  -19.02900   45.25180
 6450.00000    -999.25   34.96560   37.57760   26.61160    -999.25    -999.25    -999.25    -999.25   26.61160    -999.25   39.70220 -103.73220  -14.55940   39.70220
 6500.00000    -999.25   95.88980   89.00760   11.23500    -999.25    -999.25    -999.25    -999.25   11.23500    -999.25   19.29470  -93.24810   -4.25040   19.29470
 6550.00000    -999.25  130.34950  127.41670    7.95260    -999.25    -999.25    -999.25    -999.25    7.95260    -999.25   16.87410  -94.67790   -5.85450   16.87410
 6600.00000    -999.25   79.92240   70.39770   14.20500    -999.25    -999.25    -999.25    -999.25   14.20500    -999.25   22.11590  -92.92430   -4.27700   22.11590
 6650.00000    -999.25   78.33170   87.72160   11.39970    -999.25    -999.25    -999.25    -999.25   11.39970    -999.25   16.51010  -92.99170   -4.51960   16.51010
 6700.00000    -999.25  120.28120  125.07350    7.99530    -999.25    -999.25    -999.25    -999.25    7.99530    -999.25   11.93850  -91.83210   -3.53510   11.93850
 6750.00000    -999.25   31.93980   32.85170   30.43980    -999.25    -999.25    -999.25    -999.25   30.43980    -999.25   43.96470 -101.98970  -13.86790   43.96470
 6800.00000    -999.25  104.78660  102.41520    9.76930    -999.25    -999.25    -999.25    -999.25    9.76930    -999.25   18.37170  -91.34570   -3.39810   18.37170
 6850.00000    -999.25   56.53350   61.99630   16.13000    -999.25    -999.25    -999.25    -999.25   16.13000    -999.25   24.00100 -110.30800  -22.53650   24.00100
 6900.00000    -999.25   87.52950   92.53690   10.80650    -999.25    -999.25    -999.25    -999.25   10.80650    -999.25   16.58010  -92.41950   -4.82320   16.58010
 6950.00000    -999.25  116.55310  115.09330    8.68860    -999.25    -999.25    -999.25    -999.25    8.68860    -999.25   13.01140  -90.31200   -2.89090   13.01140
 7000.00000    -999.25  118.91540  119.94000    8.33750    -999.25    -999.25    -999.25    -999.25    8.33750    -999.25   12.86140  -92.37330   -5.12740   12.86140
 7050.00000    -999.25   86.71780   93.47050   10.69930    -999.25    -999.25    -999.25    -999.25   10.69930    -999.25   15.79680  -92.58600   -5.51440   15.79680
 7100.00000    -999.25   92.42130   94.72840   10.55650    -999.25    -999.25    -999.25    -999.25   10.55650    -999.25   15.30850  -92.55110   -5.65550   15.30850
 7150.00000    -999.25   84.06100   87.48830   11.43010    -999.25    -999.25    -999.25    -999.25   11.43010    -999.25   16.94650  -92.02000   -5.29960   16.94650
 7200.00000    -999.25   86.66480   93.18360   10.73150    -999.25    -999.25    -999.25    -999.25   10.73150    -999.25   15.66160  -92.24020   -5.69500   15.66160
 7250.00000    -999.25   75.59270   82.08500   12.18250    -999.25    -999.25    -999.25    -999.25   12.18250    -999.25   18.17330  -90.81030   -4.44030   18.17330
 7300.00000    -999.25   85.90170   88.23820   11.33390    -999.25    -999.25    -999.25    -999.25   11.33390    -999.25   17.93650  -89.49560   -3.29990   17.93650
 7350.00000    -999.25   58.61180   60.45000   16.54260    -999.25    -999.25    -999.25    -999.25   16.54260    -999.25   27.20140  -88.58620   -2.56650   27.20140
 7400.00000    -999.25   52.37890   54.92970   18.20510    -999.25    -999.25    -999.25    -999.25   18.20510    -999.25   30.68980  -89.27530   -3.43080   30.68980
 7450.00000    -999.25   63.98080   69.34280   14.42110    -999.25    -999.25    -999.25    -999.25   14.42110    -999.25   24.89690  -88.28830   -2.61900   24.89690
 7500.00000    -999.25   75.75780   81.11290   12.32850    -999.25    -999.25    -999.25    -999.25   12.32850    -999.25   19.59400  -89.09750   -3.55070   19.59400
 7550.00000    -999.25   87.37350   96.08750   10.41820    -999.25    -999.25    -999.25    -999.25   10.41820    -999.25   15.75030  -92.36870   -6.72080   15.75030
 7600.00000    -999.25  102.74890  107.79230    9.27710    -999.25    -999.25    -999.25    -999.25    9.27710    -999.25   13.45170  -93.38580   -7.63570   13.45170
 7650.00000    -999.25  113.50890  116.57190    8.57840    -999.25    -999.25    -999.25    -999.25    8.57840    -999.25   12.64990  -93.27910   -7.42730   12.64990
 7700.00000    -999.25   98.72280   99.50250   10.05000    -999.25    -999.25    -999.25    -999.25   10.05000    -999.25   14.76140  -93.85720   -7.90370   14.76140
 7750.00000    -999.25  123.17420  126.80060    7.88640    -999.25    -999.25    -999.25    -999.25    7.88640    -999.25   11.54290  -93.26240   -7.20720   11.54290
 7800.00000    -999.25   95.21240  100.01470    9.99870    -999.25    -999.25    -999.25    -999.25    9.99870    -999.25   14.71410  -91.81490   -5.59620   14.71410
 7850.00000    -999.25  101.38490  102.03670    9.80040    -999.25    -999.25    -999.25    -999.25    9.80040    -999.25   14.53340  -90.69470   -4.13530   14.53340
 7900.00000    -999.25  103.99660  102.92300    9.71600    -999.25    -999.25    -999.25    -999.25    9.71600    -999.25   14.22670  -90.71230   -3.81390   14.22670
 7950.00000    -999.25   79.62480   80.74220   12.38510    -999.25    -999.25    -999.25    -999.25   12.38510    -999.25   18.53660  -90.07550   -2.83810   18.53660
 8000.00000   10.20890  130.76440  136.15260    7.34470    -999.25    -999.25    -999.25    -999.25    7.34470   10.20890   11.39830  -90.44680   -2.87040   11.39830
 8050.00000   12.12620  123.22070  127.43240    7.84730    -999.25    -999.25    -999.25    -999.25    7.84730   12.12620   11.78090  -90.56850   -2.65480   11.78090
 8100.00000   10.97510   67.52960   71.07930   14.06880    -999.25    -999.25    -999.25    -999.25   14.06880   10.97510   19.66880  -92.08890   -3.83450   19.66880
 8150.00000   10.28960   98.41750  102.17530    9.78710   74.40710   74.40710    5.62460   92.80590    9.78710   10.28960   14.04120  -91.02740   -2.43400   14.04120
 8200.00000    9.59900   56.30950   57.47420   17.39910   67.18240   67.18240    4.34050   71.61820   17.39910    9.59900   27.67540  -95.29860   -6.72740   27.67540
 8250.00000    9.92040   86.02130   87.97780   11.36650   68.97320   68.97320    5.53010   91.24670   11.36650    9.92040   16.53580  -91.13280   -2.66610   16.53580
 8300.00000   10.21010   76.21360   77.01960   12.98490   70.69200   70.69200    5.64580   93.15570   12.98490   10.21010   19.56190  -91.14270   -2.78000   19.56190
 8350.00000   10.63820   88.56600   92.70760   10.78660    -999.25    -999.25    -999.25    -999.25   10.78660   10.63820   15.89210  -91.80320   -3.54550   15.89210
 8400.00000    9.97270   93.65050   97.78040   10.22700    -999.25    -999.25    -999.25    -999.25   10.22700    9.97270   14.68370  -91.36650   -3.21330   14.68370
 8450.00000   10.08280  100.66680  101.81950    9.82130    -999.25    -999.25    -999.25    -999.25    9.82130   10.08280   14.81090  -90.27220   -2.22350   14.81090
 8500.00000   10.79220  100.37860  101.04680    9.89640    -999.25    -999.25    -999.25    -999.25    9.89640   10.79220   14.72110  -90.77440   -2.83030   14.72110
 8550.00000   12.45290  105.88580  108.33420    9.23090    -999.25    -999.25    -999.25    -999.25    9.23090   12.45290   13.74380  -89.75140   -1.91130   13.74380
 8600.00000   13.25160   98.31860  100.97850    9.90310    -999.25    -999.25    -999.25    -999.25    9.90310   13.25160   15.45960  -89.97920   -2.24410   15.45960
 8650.00000    9.21480   71.39630   75.24000   13.29080    -999.25    -999.25    -999.25    -999.25   13.29080    9.21480   21.10520  -90.22360   -2.59300   21.10520
 8700.00000   10.88820   88.00970   90.02680   11.10780    -999.25    -999.25    -999.25    -999.25   11.10780   10.88820   18.25450  -90.98280   -3.45670   18.25450
