~Version ---------------------------------------------------
VERS.      2.0 : CWLS log ASCII Standard -VERSION 2.0
WRAP.       NO : One line per depth step
CREA. 08/26/14 : LAS Creation Date
~Well ------------------------------------------------------
STRT.FT                    1300.0 : START DEPTH
STOP.FT                   12250.0 : STOP DEPTH
STEP.FT                  50.00000 : STEP LENGTH
NULL.                     -999.25 : NULL VALUE
COMP.  TEXACO EXPLORATION COMPANY : COMPANY
WELL. TEXACO MARLBORO 10-12-54-18 : WELL
FLD .                             : FIELD
LOC .                             : LOCATION
CTRY.                      CANADA : COUNTRY
SRVC.      Schlumberger of Canada : SERVICE COMPANY
DATE.                 04-Oct-1969 : LOGDATE
PROV.                     Alberta : PROVINCE
UWI .            100101205418W500 : UNIQUE WELL ID
SLAT.WGS84                53.6526 : SURFACE LATITUDE
SLON.WGS84               -116.514 : SURFACE LONGITUDE
~Curve Information -----------------------------------------
DEPT.FT    : Depth Curve
CALD.IN    : CALIPER FROM DENSITY LOG
CALS.IN    : CALIPER FROM SONIC LOG
CILD.MMHO  : INDUCTION DEEP CONDUCTIVITY
DRHO.G/C3  : BULK DENSITY CORRECTION
DT  .US/F  : DELTA-T (INTERVAL TRANSIT TIME)
GRD .GAPI  : GAMMA RAY FROM DENSITY LOG
GRS .GAPI  : GAMMA RAY FROM SONIC LOG
ILD .OHMM  : INDUCTION DEEP RESISTIVITY
RHOB.G/C3  : BULK DENSITY
SN  .OHMM  : SHORT NORMAL RESISTIVITY
SPR .MV    : SPONTANEOUS POTENTIAL FROM RESISTIVITY LOG
~Params ----------------------------------------------------
PD  .                     GL : PERMANENT DATUM
EPD .FT               3162.6 : ELEVATION PERMANENT DATUM
LMF .                     KB : LOG MEASURED FROM
DAPD.FT                 13.7 : FEET ABOVE PERMANENT DATUM
EKB .FT               3179.3 : KELLY BUSHING
EGL .FT               3165.6 : GROUND LEVEL
DATE.               11/18/69 : RUN DATE
RUN .                      1 : RUN NUMBER
DD  .FT                12259 : DEPTH DRILLER
DL  .FT                12263 : DEPTH LOGGER
BLI .FT                12262 : BOTTOM LOG INTERVAL
TLI .FT                 8816 : TOP LOG INTERVAL
CBD .FT                 1266 : CASING BOTTOM DRILLER
CBL .FT                 1264 : CASING BOTTOM LOGGER
BSD .FT                12259 : BIT SIZE AT DEPTH
DFT .               GEL CHEM : DRILLING FLUID TYPE
DFD .                   10.5 : DRILLING FLUID DENSITY
DFV .                     60 : DRILLING FLUID VISCOSITY
DFPH.                      9 : DRILLING FLUID PH
DFL .                    6.8 : DRILLING FLUID LOSS
RMS .OHMM               1.58 : RESISTIVITY MUD SAMPLE
MST .DEGF                 68 : MUD SAMPLE TEMPERATURE
RMF .OHMM               1.05 : RESISTIVITY MUD FILTRATE SAMPLE
MFST.DEGF                 66 : MUD FILTRATE SAMPLE TEMPERATURE
RMC .OHMM               1.92 : RESISTIVITY MUD CAKE
MCST.DEGF                 68 : MUD CAKE SAMPLE TEMPERATURE
RMB .OHMM               0.47 : RESISTIVITY MUD AT BHT
TCS .HRS                 2.5 : TIME CIRCULATED STOPPED
LUN .                   7502 : LOGGING UNIT NUMBER
LUL .                    EDM : LOGGING UNIT LOCATION
ENGI.                 SLADEN : RECORDING ENGINEER
WITN.               BRYNLUND : WITNESSED BY
CLNT.                A2DTECH : CLIENT CODE
ORIG.            2" 5" PRINT : ORIGIN OF DATA
UWI .       100101205418W500 : UNIQUE WELL ID
DICO. A2D Technologies, Inc. : DIGITIZING COMPANY
~Other -----------------------------------------------------
~ASCII -----------------------------------------------------
# ...
 4350.00000    -999.25   10.29660   98.52190    -999.25   83.63360    -999.25   57.49230    9.68730    -999.25   12.37790  -55.38320
 4400.00000    -999.25   10.77090  122.48820    -999.25   79.87770    -999.25   62.16230    7.90060    -999.25   10.50020  -55.33000
 4450.00000    -999.25   10.31560  135.07860    -999.25   82.28660    -999.25   58.66770    7.36740    -999.25   10.17700  -55.81990
 4500.00000    -999.25   10.56430   87.76550    -999.25   76.22380    -999.25   43.34580   10.85780    -999.25   14.73170  -58.68460
 4550.00000    -999.25   10.51550  111.36690    -999.25   84.95600    -999.25   53.24560    8.85500    -999.25   10.95320  -54.99960
 4600.00000    -999.25   10.68770  134.84650    -999.25   87.05280    -999.25   64.95900    7.14700    -999.25    9.08370  -55.02020
 4650.00000    -999.25   10.42560  117.14010    -999.25   82.55070    -999.25   60.61710    8.45970    -999.25   11.73190  -55.14450
 4700.00000    -999.25   10.60240  115.45930    -999.25   83.31890    -999.25   62.68020    8.22210    -999.25   10.83940  -55.32300
 4750.00000    -999.25   11.13410  104.50560    -999.25   82.98960    -999.25   64.07870    8.98390    -999.25   10.51330  -54.61910
 4800.00000    -999.25   10.73780  115.19950    -999.25   85.45890    -999.25   58.87530    8.40710    -999.25   10.56590  -54.95200
 4850.00000    -999.25   10.44330   39.31810    -999.25   69.11310    -999.25   37.28790   21.57680    -999.25   28.34800  -61.79930
 4900.00000    -999.25   10.39990   64.20470    -999.25   75.37680    -999.25   61.24110   13.97690    -999.25   15.55170  -54.91660
 4950.00000    -999.25   11.01550   81.36930    -999.25   85.97320    -999.25   62.12210   11.25240    -999.25   14.28230  -55.26630
 5000.00000    -999.25   10.14100  100.71610    -999.25   88.48860    -999.25   60.73340    9.27180    -999.25   12.12200  -55.12840
 5050.00000    -999.25   10.88480   94.08960    -999.25   83.15480    -999.25   64.44340    9.75450    -999.25   13.09600  -55.18180
 5100.00000    -999.25   10.67080   88.83580    -999.25   80.44050    -999.25   64.27200   10.40810    -999.25   13.31320  -55.05750
 5150.00000    -999.25   11.38100   79.23150    -999.25   79.56660    -999.25   71.58620   11.67610    -999.25   14.83590  -55.37490
 5200.00000    -999.25   11.92650  103.11460    -999.25   85.05290    -999.25   91.88100    9.19750    -999.25   12.11280  -56.88160
 5250.00000    -999.25   11.69750   83.34980    -999.25   79.42910    -999.25   89.87170   11.11620    -999.25   14.32270  -56.82150
 5300.00000    -999.25   11.09200   65.33170    -999.25   76.11830    -999.25   93.71670   13.79410    -999.25   17.00430  -57.15580
 5350.00000    -999.25   11.21090   64.18270    -999.25   78.00110    -999.25   89.62270   14.31380    -999.25   17.52010  -56.97880
 5400.00000    -999.25   11.42020   73.33730    -999.25   78.70310    -999.25   88.98570   12.53790    -999.25   16.31220  -56.72570
 5450.00000    -999.25   12.37780   78.63470    -999.25   81.91650    -999.25   98.04640   11.76060    -999.25   16.63400  -55.07810
 5500.00000    -999.25   11.24900   62.16400    -999.25   86.35780    -999.25  125.39290   14.81660    -999.25   21.45810  -54.49560
 5550.00000    -999.25   11.78060   71.37180    -999.25   81.61880    -999.25   85.49320   12.72160    -999.25   16.97310  -56.87820
 5600.00000    -999.25   11.75160   98.89830    -999.25   83.75770    -999.25   96.21350    9.52400    -999.25   12.92040  -57.01420
 5650.00000    -999.25   10.76380   80.63020    -999.25   79.01040    -999.25   90.83800   11.40820    -999.25   14.64560  -57.23950
 5700.00000    -999.25   12.68010  121.31280    -999.25   82.10490    -999.25   90.70020    7.98510    -999.25    9.93520  -58.87680
 5750.00000    -999.25   10.91210  122.91100    -999.25   87.21220    -999.25   83.19820    7.85440    -999.25   10.24420  -57.36100
 5800.00000    -999.25   10.67230  117.11390    -999.25   80.50210    -999.25   94.64300    8.08290    -999.25   10.56940  -58.28950
 5850.00000    -999.25   10.90820   69.52310    -999.25   74.45090    -999.25   76.30710   13.05830    -999.25   16.37210  -56.90610
 5900.00000    -999.25   10.75440   81.00940    -999.25   73.11570    -999.25   80.92840   11.38240    -999.25   14.46690  -57.30900
 5950.00000    -999.25   10.46620  121.81590    -999.25   82.29360    -999.25   90.21220    7.92880    -999.25   10.64500  -56.76570
 6000.00000    -999.25   11.16720  103.76000    -999.25   92.02500    -999.25   90.79830    9.25440    -999.25   11.97880  -56.14780
 6050.00000    -999.25   14.25310  136.84520    -999.25   95.85690    -999.25   77.82440    7.03160    -999.25    8.66760  -55.51220
 6100.00000    -999.25   12.47100  104.60640    -999.25   80.70410    -999.25   81.84710    9.11510    -999.25   10.11330  -56.81260
 6150.00000    -999.25   13.82350  107.33540    -999.25   89.51260    -999.25   77.53020    8.81300    -999.25   10.30230  -55.63450
 6200.00000    -999.25   10.51000   61.98170    -999.25   72.63810    -999.25   82.52870   15.11300    -999.25   18.22320  -55.28840
 6250.00000    -999.25   15.23010   95.27840    -999.25   83.74550    -999.25   66.21780   10.05940    -999.25   13.75620  -55.05670
 6300.00000    -999.25   10.51530   78.03760    -999.25   77.69610    -999.25   86.97750   12.02230    -999.25   14.92610  -54.20550
 6350.00000    -999.25   10.90020   93.15440    -999.25   80.99090    -999.25   82.05040   10.61780    -999.25   12.75620  -53.72560
 6400.00000    -999.25   10.06380   77.70520    -999.25   74.80410    -999.25   87.05180   11.93280    -999.25   15.46850  -53.08980
 6450.00000    -999.25   10.49560   93.84750    -999.25   79.47860    -999.25   83.92170   10.16820    -999.25   13.31040  -52.05050
 6500.00000    -999.25   10.67400   87.00160    -999.25   85.13030    -999.25   88.00340   10.99220    -999.25   14.28180  -50.59730
 6550.00000    -999.25    9.78340   79.65780    -999.25   86.54050    -999.25  100.84760   12.06540    -999.25   17.41510  -48.05100
 6600.00000    -999.25    9.56010   73.57850    -999.25   83.58150    -999.25  102.29560   12.96490    -999.25   19.11330  -46.81900
 6650.00000    -999.25   10.15270   68.90920    -999.25   83.89280    -999.25  104.02600   13.57880    -999.25   19.91880  -46.30510
 6700.00000    -999.25    9.59160   73.05340    -999.25   84.64150    -999.25  104.06090   12.80920    -999.25   19.62870  -44.75200
 6750.00000    -999.25    9.57550   53.46650    -999.25   86.22650    -999.25  114.47590   17.30250    -999.25   26.54600  -43.41790
 6800.00000    -999.25    9.89400   58.18790    -999.25   88.71830    -999.25  102.04120   16.49830    -999.25   24.86830  -43.46200
 6850.00000    -999.25   10.59020   87.91920    -999.25   83.77080    -999.25   88.45600   11.09480    -999.25   15.78180  -44.19980
 6900.00000    -999.25    9.83270   67.75060    -999.25   82.41810    -999.25   89.51730   13.94660    -999.25   20.13520  -44.05250
 6950.00000    -999.25    9.89030   49.99150    -999.25   89.66930    -999.25  136.50860   18.44600    -999.25   27.14220  -43.27210
 7000.00000    -999.25   10.28130  103.33660    -999.25   77.11000    -999.25   72.79740    9.18450    -999.25   12.72200  -44.95560
 7050.00000    -999.25   10.41420  127.95610    -999.25   79.54290    -999.25   84.78180    7.61660    -999.25   11.26450  -44.39610
 7100.00000    -999.25   12.40010  130.87830    -999.25   85.50340    -999.25   81.27000    7.64090    -999.25    9.98670  -44.36520
 7150.00000    -999.25   10.02180   87.55130    -999.25   73.45400    -999.25   85.06850   10.68510    -999.25   15.22340  -44.20230
 7200.00000    -999.25   10.16690  112.05490    -999.25   76.29640    -999.25   86.01810    8.81680    -999.25   12.34390  -43.16550
 7250.00000    -999.25   12.74800  104.53280    -999.25   78.82430    -999.25   83.86900    9.14610    -999.25   12.73000  -43.61760
 7300.00000    -999.25    9.69320  107.41640    -999.25   84.35260    -999.25  103.28100    8.87770    -999.25   13.35100  -42.02020
 7350.00000    -999.25   11.80300  183.66990    -999.25   83.82350    -999.25   82.94220    5.43350    -999.25    7.77160  -42.72060
