~Version ---------------------------------------------------
VERS. 2.0 : CWLS log ASCII Standard -VERSION 2.0
WRAP.  NO : ONE LINE PER DEPTH STEP
~Well ------------------------------------------------------
STRT.M                               380.5 : START DEPTH
STOP.M                              2549.3 : STOP DEPTH
STEP.M                             0.20000 : STEP LENGTH
NULL.                              -999.25 : NULL VALUE
COMP.                DEVON ARL CORPORATION : COMPANY
WELL. DEVON ARL ETAL 7D GVILLEE 7-25-76-23 : WELL
FLD .                                      : FIELD
LOC .                                      : LOCATION
CTRY.                               CANADA : COUNTRY
SRVC.                         Schlumberger : SERVICE COMPANY
DATE.                          06-Mar-2003 : LOGDATE
PROV.                              Alberta : PROVINCE
UWI .                     100072507623W500 : UNIQUE WELL ID
SLAT.WGS84                        55.61368 : SURFACE LATITUDE
SLON.WGS84                       -117.4224 : SURFACE LONGITUDE
~Curve Information -----------------------------------------
DEPT    .M    0   1   0  0 : 1 MEASURED DEPTH
GRS     .GAPI 60 310 01 00 : GAMMA RAY FROM SONIC LOG
HDS     .MM   60 280 00 00 : HOLE DIAMETER FROM SONIC
DT      .US/M 60 500 00 00 : DELTA-T (INTERVAL TRANSIT TIME)
HCALS   .MM   60 280 50 00 : HRCC CALIPER CALIBRATED FROM SONIC LOG
TENS    .N    60 635 00 00 : TENSION FROM SONIC LOG
GRR     .GAPI 06 310 01 00 : GAMMA RAY FROM RESISTIVITY LOG
RXOZ    .OHMM 06 270 04 00 : INVADED FORMATION RESISTIVITY FILTERED AT 18 INCHES
TENR    .N    06 635 00 00 : TENSION FROM RESISTIVITY LOG
SPR     .MV   06 010 01 00 : SPONTANEOUS POTENTIAL FROM RESISTIVITY LOG
AHF30   .OHMM 06 120 30 00 : ARRAY INDUCTION FOUR FOOT RESISTIVITY A30
AHF20   .OHMM 06 120 20 00 : ARRAY INDUCTION FOUR FOOT RESISTIVITY A20
AHF60   .OHMM 06 120 60 00 : ARRAY INDUCTION FOUR FOOT RESISTIVITY A60
GRD     .GAPI 45 310 01 00 : GAMMA RAY FROM DENSITY LOG
NPOR_SAN.DEC  42 890 03 00 : ENHANCED THERMAL NEUTRON POROSITY (SANDSTONE)
HDD     .MM   45 280 60 00 : HOLE DIAMETER
HCALD   .MM   45 280 60 00 : HRCC CALIPER CALIBRATED FROM DENSITY LOG
DPHI_SAN.DEC  45 890 12 00 : DENSITY POROSITY (MATRIX SANDSTONE)
HDRA    .K/M3 45 356 01 00 : HRDD SPINE AND RIBS DENSITY CORRECTION
PEFZ    .B/E  45 358 01 00 : HRDD STANDARD RESOLUTION FORMATION PHOTOELECTRIC FACTOR
TEND    .N    45 635 00 00 : TENSION FROM DENSITY LOG
NPOR_LS .DEC  42 890 01 00 : NEUTRON POROSITY LIMESTONE
DPHI_LS .DEC  45 890 10 00 : DENSITY POROSITY LIMESTONE
RHOZ    .K/M3 45 350 01 00 : HRDD STANDARD RESOLUTION FORMATION DENSITY
~Params ----------------------------------------------------
PD  .                                  GL : PERMANENT DATUM
EPD .M                              551.9 : ELEVATION PERMANENT DATUM
LMF .                                  KB : LOG MEASURED FROM
DAPD.M                                4.7 : FEET ABOVE PERMANENT DATUM
DMF .                                  KB : DRILLING MEASURED FROM
EKB .M                              556.6 : KELLY BUSHING
EDF .M                              556.3 : DRILLING FLOOR
EGL .M                              551.9 : GROUND LEVEL
DATE.                            03/06/03 : RUN DATE
RUN .                                   1 : RUN NUMBER
DD  .M                               2545 : DEPTH DRILLER
DL  .M                               2544 : DEPTH LOGGER
BLI .M                             2538.3 : BOTTOM LOG INTERVAL
TLI .M                                421 : TOP LOG INTERVAL
CS  .MM                             219.1 : CASING SIZE
CBD .M                                421 : CASING BOTTOM DRILLER
CBL .M                              420.5 : CASING BOTTOM LOGGER
BS  .MM                               200 : BIT SIZE
BSD .M                               2545 : BIT SIZE AT DEPTH
DFT .                            GEL CHEM : DRILLING FLUID TYPE
DFD .                                1050 : DRILLING FLUID DENSITY
DFV .                                  83 : DRILLING FLUID VISCOSITY
DFPH.                                10.5 : DRILLING FLUID PH
DFL .                                   7 : DRILLING FLUID LOSS
MSS .                            FLOWLINE : MUD SAMPLE SOURCE
RMS .OHMM                            1.27 : RESISTIVITY MUD SAMPLE
MST .DEGC                              17 : MUD SAMPLE TEMPERATURE
RMF .OHMM                            0.98 : RESISTIVITY MUD FILTRATE SAMPLE
MFST.DEGC                              18 : MUD FILTRATE SAMPLE TEMPERATURE
RMC .OHMM                            1.55 : RESISTIVITY MUD CAKE
MCST.DEGC                              18 : MUD CAKE SAMPLE TEMPERATURE
MFSS.                            MEASURED : MUD FILTRATE SAMPLE SOURCE
MCSS.                             MEAURED : MUD CAKE SAMPLE SOURCE
RMB .OHMM                           0.566 : RESISTIVITY MUD AT BHT
TCS .HRS                              640 : TIME CIRCULATED STOPPED
TLAB.HRS                             1645 : TIME LOGGER AT BOTTOM
LUN .                                2133 : LOGGING UNIT NUMBER
LUL .                      GRANDE PRAIRIE : LOGGING UNIT LOCATION
ENGI.                            STIRLING : RECORDING ENGINEER
WITN.                              MCLEAY : WITNESSED BY
CLNT.                             A2DTECH : CLIENT CODE
ORIG. 6.5"/100M 16.5"/100M 33"/100M PRINT : ORIGIN OF DATA
UWI .                    100072507623W500 : UNIQUE WELL ID
DICO.              A2D Technologies, Inc. : DIGITIZING COMPANY
~Other -----------------------------------------------------
~ASCII -----------------------------------------------------
# ...
  704.50000   55.28860  208.42000  213.78160  210.06430 10639.98540   51.77750   47.35990 10622.01370  -34.05430    9.17330    9.96900    8.63880   53.12810    0.14580  209.90200  210.53660    0.01760   -3.88470    4.06590 10704.63090    -999.25    -999.25 2606.90330
  704.70000   50.39420  208.08020  198.49970  209.85730 10755.00390   51.61590   84.32390 10732.28220  -32.49990   12.75540   14.72810   11.98070   50.95280    0.13330  209.89470  210.09040    0.00350   -4.68040    4.17730 10787.36430    -999.25    -999.25 2654.25340
  704.90000   52.47790  209.69380  213.61730  209.31730 10800.38770   54.18460   49.82970 10886.64840  -31.69550   14.37120   15.07500   13.71640   53.78050    0.16060  209.88730  209.86790    0.01920   -4.22720    4.07350 10762.03910    -999.25    -999.25 2651.62890
  705.10000   55.45650  214.80020  242.74920  209.45620 10698.52250   57.87810   20.75300 10871.92680  -30.70900   11.88110   12.50180   10.66000   55.67610    0.19050  214.31110  209.85750    0.05390   -2.87320    3.90160 10729.82130    -999.25    -999.25 2589.06960
  705.30000   60.65380  219.90650  278.87300  211.91240 10634.70410   63.06010    8.80670 10768.64260  -30.12270    7.87610    8.54330    7.49020   60.61740    0.26130  220.02370  213.98700    0.09980   -1.47120    3.62050 10646.22270    -999.25    -999.25 2505.07740
  705.50000   66.87760  223.97370  304.32050  218.72200 10698.46780   69.34030    6.04040 10686.45310  -30.04150    6.26610    6.50590    6.06310   67.53100    0.34540  222.85650  219.36300    0.13940   -0.06920    3.31020 10584.30180    -999.25    -999.25 2437.46510
  705.70000   71.28670  224.87390  317.75130  222.75640 10734.05370   72.12360    6.14090 10841.41600  -31.53680    5.35340    5.56580    5.19070   71.64550    0.36360  223.74510  222.29850    0.16690    2.25530    3.19830 10746.34470    -999.25    -999.25 2385.58500
  705.90000   73.29440  225.40980  323.95860  223.81270 10767.89750   74.57190    6.59460 10788.20510  -33.57530    5.00260    5.15700    4.85510   73.65080    0.35910  223.98500  223.45010    0.19010    5.54450    3.06620 10784.81740    -999.25    -999.25 2349.94240
  706.10000   73.91900  227.44060  330.06720  225.00660 10804.42480   71.98490    7.66920 10855.61230  -37.32540    4.77450    4.95880    4.62310   72.88800    0.36050  227.66050  224.10510    0.21210    5.05090    2.96700 10856.36130    -999.25    -999.25 2284.50370
  706.30000   69.50300  231.50760  334.85070  227.48390 10835.18750   68.70230    8.39180 10898.21480  -39.54320    4.69770    4.79470    4.42650   69.25950    0.36530  232.75310  227.61090    0.21060    6.57940    3.00510 10928.74410    -999.25    -999.25 2294.69140
  706.50000   68.39370  235.76010  336.88950  233.10550 10914.98340   69.41740    6.44430 10937.53610  -38.16490    4.46570    4.57190    4.29050   68.69280    0.37530  235.33350  234.07330    0.19460   28.12200    3.17490 10952.88480    -999.25    -999.25 2325.24880
  706.70000   71.68210  234.81560  339.98490  238.25070 10809.40140   73.99400    5.26200 10925.89450  -36.96900    4.23560    4.35940    4.15880   72.27230    0.37780  234.02610  240.13870    0.18740   62.76050    3.36170 10790.14260    -999.25    -999.25 2348.56230
  706.90000   75.86850  231.35580  342.50380  240.56900 10737.47560   78.23590    4.75110 10825.96480  -37.88970    4.20360    4.27290    4.12230   76.47780    0.37310  230.21150  240.31100    0.19080   64.85770    3.31960 10683.79200    -999.25    -999.25 2332.85890
  707.10000   79.40820  228.19350  345.38960  235.07710 10729.75290   80.47030    5.63220 10745.37210  -39.40090    4.30060    4.35550    4.19130   80.20670    0.36610  227.35620  231.10530    0.19370   51.73460    3.26620 10750.16800    -999.25    -999.25 2330.45920
  707.30000   79.69950  227.12100  344.16550  229.40330 10787.00980   77.33190    6.47830 10746.80960  -41.88150    4.61190    4.74350    4.51690   78.87810    0.37210  225.94110  226.52340    0.20020   38.23940    3.14150 10783.26460    -999.25    -999.25 2323.22850
  707.50000   73.92780  228.29090  338.34850  230.87480 10756.63960   70.37480    6.78190 10826.70310  -45.61400    5.13600    5.31330    5.00080   72.22840    0.39550  226.00840  226.46430    0.22350   33.84790    3.05310 10784.35740    -999.25    -999.25 2294.19120
  707.70000   66.08800  228.62910  332.75120  226.76880 10734.54000   63.72490    8.39760 10769.45510  -50.40670    5.79890    5.95570    5.53650   65.39710    0.41130  227.35810  225.14440    0.24460   34.67980    3.03030 10758.66310    -999.25    -999.25 2252.66460
  707.90000   62.67930  228.95430  328.71800  227.14650 10733.97270   61.85330    8.23830 10767.28710  -53.44870    6.47010    6.67570    5.95200   61.90700    0.40640  230.24150  227.37550    0.25010   46.87820    3.08460 10795.25980    -999.25    -999.25 2229.64310
  708.10000   63.49170  230.28560  327.15110  227.91200 10655.08400   64.19620    8.13840 10765.49510  -54.33070    6.92160    7.13230    6.26050   63.17310    0.42100  232.81400  227.35900    0.24380   58.92180    3.16760 10791.28520    -999.25    -999.25 2242.87260
  708.30000   65.31740  231.98740  323.86020  229.22000 10702.99410   65.85860    8.35560 10710.89450  -55.16060    6.86970    7.21910    5.98810   65.29120    0.42340  234.45610  228.85240    0.23420   64.61130    3.17590 10754.76760    -999.25    -999.25 2260.76610
  708.50000   65.63220  233.68910  322.38910  230.52800 10758.40430   65.50290    8.99570 10743.21970  -54.83960    6.63380    6.93460    5.78740   66.21830    0.39950  234.78930  229.93800    0.23300   56.27890    3.12470 10634.36820    -999.25    -999.25 2268.47070
  708.70000   66.13670  235.39090  321.90880  231.44210 10519.25880   67.32770    9.51740 10687.36230  -53.78620    6.40600    6.63200    5.69690   66.16670    0.39960  235.12240  230.28190    0.23670   49.89590    3.08260 10585.30370    -999.25    -999.25 2262.60990
  708.90000   69.10220  236.21320  321.41780  231.24210 10536.31150   69.44880    9.56680 10556.34080  -52.55770    6.11390    6.31900    5.59970   69.26600    0.40900  235.95240  231.32140    0.23720   43.27060    3.07050 10567.32130    -999.25    -999.25 2257.43750
  709.10000   68.49260  236.36410  318.30690  231.04210 10536.55960   68.46340    9.56390 10571.74120  -51.20900    5.82650    5.99720    5.46630   68.82760    0.39000  236.41040  230.76850    0.23160   34.20300    3.15630 10608.86040    -999.25    -999.25 2260.48140
  709.30000   67.47910  235.55440  317.52070  231.36110 10469.36620   68.41920    8.97460 10558.29200  -48.10800    5.49920    5.66940    5.27210   67.85020    0.38430  235.47320  231.30690    0.21490   26.91040    3.27380 10640.75290    -999.25    -999.25 2278.96440
  709.50000   70.98730  234.81380  319.55020  230.86160 10434.61040   74.86400    7.35230 10482.73240  -44.16030    5.20110    5.35640    5.02650   71.67510    0.38140  233.93650  229.71450    0.19420   11.72270    3.34150 10487.34860    -999.25    -999.25 2317.42700
  709.70000   78.12690  234.14880  322.07130  225.90530 10433.94920   81.75090    5.89950 10512.93750  -40.59320    4.92990    5.06070    4.79640   79.68740    0.37540  233.62890  224.37760    0.17580   -6.24390    3.30740 10469.04390    -999.25    -999.25 2356.88570
  709.90000   84.10700  233.51950  325.14560  224.15300 10472.61130   84.61790    5.52010 10505.01660  -38.05580    4.71950    4.78140    4.66500   84.41990    0.39420  233.19080  222.38020    0.16460  -10.44950    3.27290 10611.40330    -999.25    -999.25 2375.69510
  710.10000   84.03850  233.77810  326.43620  223.55700 10524.93260   83.09490    5.51740 10524.62790  -36.60150    4.60990    4.51230    4.68390   83.92710    0.39710  233.94790  222.96990    0.15930   -9.68650    3.28260 10582.89450    -999.25    -999.25 2391.20870
  710.30000   82.68040  234.09630  325.51650  224.43610 10541.46780   82.45060    5.59130 10538.14450  -35.59010    4.65950    4.50870    4.73040   82.89070    0.39680  234.29090  224.07400    0.16550   -8.38650    3.29470 10578.63280    -999.25    -999.25 2383.54640
