~Version ---------------------------------------------------
VERS.      2.0 : CWLS log ASCII Standard -VERSION 2.0
WRAP.       NO : One line per depth step
CREA. 12/18/17 : LAS Creation Date
~Well ------------------------------------------------------
STRT.FT                             1350.0 : START DEPTH
STOP.FT                            11950.0 : STOP DEPTH
STEP.FT                           50.00000 : STEP LENGTH
NULL.                              -999.25 : NULL VALUE
COMP.                 CHEVRON STANDARD LTD : COMPANY
WELL. CHEVRON AMOCO WASKAHIGAN 10-17-64-24 : WELL
FLD .                                      : FIELD
LOC .                                      : LOCATION
CTRY.                               CANADA : COUNTRY
SRVC.                         Schlumberger : SERVICE COMPANY
DATE.                          17-Sep-1977 : LOGDATE
PROV.                              Alberta : PROVINCE
UWI .                     100101706424W500 : UNIQUE WELL ID
SLAT.WGS84                        54.54045 : SURFACE LATITUDE
SLON.WGS84                       -117.5875 : SURFACE LONGITUDE
~Curve Information -----------------------------------------
DEPT    .FT    : Depth Curve
CALDED  .IN    : CALIPER FROM DENSITY LOG [ADJ. TO RESISTIVITY LOG]
CALSED  .IN    : CALIPER FROM SONIC LOG  [ADJ. TO RESISTIVITY LOG]
CALWS   .IN    : CALIPER [CALSED]
CONDWS  .MMHO  : CONDUCTIVITY [1000/DRESWS]
DCORWS  .G/C3  : DENSITY CORRECTION [DRHOED]
DENWS   .G/C3  : FORMATION BULK DENSITY [RHOBED SPL. TO CALC, FROM DPHILSED M=2.71, F=1.00 FROM 11478'-11488']
DPHILSED.V/V   : DENSITY POROSITY LIMESTONE [M=2.71, F=1.00] FROM DENSITY LOG  [ADJ. TO RESISTIVITY LOG]
DPHISSED.V/V   : DENSITY POROSITY SANDSTONE [M=2.65, F=1.00] FROM DENSITY LOG  [ADJ. TO RESISTIVITY LOG]
DPOLSWS .V/V   : DENSITY POROSITY SANDSTONE [CALC. FROM DENWS  [M=2.71, F=1.00]
DRESWS  .OHMM  : DEEP RESISTIVITY [ILDED]
DRHOED  .G/C3  : DENSITY CORRECTION FROM DENSITY LOG [ [ADJ. TO RESISTIVITY / DPHISSED & DPHILSED]
DTED    .US/F  : DELTA TIME FROM SONIC LOG  [ADJ. TO RESISTIVITY LOG]
DTWS    .US/F  : COMPRSSIONAL SONIC[ DTED]
GRDED   .GAPI  : GAMMA RAY FROM DENSITY LOG  [ADJ. TO RESISTIVITY LOG]
GRSED   .GAPI  : GAMMA RAY FROM SONIC LOG  [ADJ. TO RESISTIVITY LOG]
GRWS    .GAPI  : GAMMA RAY [GRSED SPL. TO GRDED @ 11900']
ILDED   .OHMM  : DEEP INDUCTION LOG RESISTIVITY FROM RESISTIVITY LOG
ILMED   .OHMM  : MEDIUM INDUCTION LOG RESISTIVITY FROM RESISTIVITY LOG
LL8ED   .OHMM  : LATEROLOG FROM RESISTIVITY LOG
MRESWS  .OHMM  : MEDIUM RESISTIVITY [ILMED]
NPHILSED.V/V   : NEUTRON POROSITY LIMESTONE FROM DENSITY LOG  [ADJ. TO RESISTIVITY LOG]
NPHISSED.V/V   : NEUTRON POROSITY SANDSTONE FROM DENSITY LOG  [ADJ. TO RESISTIVITY LOG]
NPOLSWS .V/V   : NEUTRON POROSITY LIMESTONE[NPHISSED MATRIX CONVERSION FOR LIMESTONE SPL. TO NPHILSED @ 9050'
RHOBED  .G/C3  : BULK DENSITY FROM DENSITY LOG [ [ADJ. TO RESISTIVITY/ DPHISSED & DPHILSED]
SPRED   .MV    : SPONTANEOUS POTENTIAL FROM RESISTIVITY LOG
SPWS    .MV    : SPONTANEOUS POTENTIAL [BASELINE 0 MV,SPRED]
SRESWS  .OHMM  : SHALLOW RESISTIVITY [LL8ED]
TENDED  .LBF   : TENSION FROM DENSITY LOG  [ADJ. TO RESISTIVITY LOG]
TENSED  .LBF   : TENSION FROM SONIC LOG  [ADJ. TO RESISTIVITY LOG]
~Params ----------------------------------------------------
PD  .                     GL : PERMANENT DATUM
EPD .FT               2874.1 : ELEVATION PERMANENT DATUM
LMF .                     KB : LOG MEASURED FROM
DAPD.FT                 18.5 : FEET ABOVE PERMANENT DATUM
EKB .FT               2892.6 : KELLY BUSHING
EGL .FT               2874.1 : GROUND LEVEL
DATE.               09/17/77 : RUN DATE
RUN .                      1 : RUN NUMBER
DD  .FT                11989 : DEPTH DRILLER
DL  .FT                11985 : DEPTH LOGGER
BLI .FT                11979 : BOTTOM LOG INTERVAL
TLI .FT                 1516 : TOP LOG INTERVAL
CBD .FT              1516.87 : CASING BOTTOM DRILLER
CBL .FT                 1516 : CASING BOTTOM LOGGER
BS  .IN                 8.75 : BIT SIZE
BSD .FT                11989 : BIT SIZE AT DEPTH
DFT .                    GEL : DRILLING FLUID TYPE
DFD .                      9 : DRILLING FLUID DENSITY
DFV .                     90 : DRILLING FLUID VISCOSITY
DFPH.                    9.5 : DRILLING FLUID PH
DFL .                    8.4 : DRILLING FLUID LOSS
MSS .               FLOWLINE : MUD SAMPLE SOURCE
RMS .OHMM               1.53 : RESISTIVITY MUD SAMPLE
MST .DEGF                 68 : MUD SAMPLE TEMPERATURE
RMF .OHMM               1.36 : RESISTIVITY MUD FILTRATE SAMPLE
MFST.DEGF                 62 : MUD FILTRATE SAMPLE TEMPERATURE
RMC .OHMM               1.37 : RESISTIVITY MUD CAKE
MCST.DEGF                 62 : MUD CAKE SAMPLE TEMPERATURE
TCS .HRS                   5 : TIME CIRCULATED STOPPED
LUN .                   7772 : LOGGING UNIT NUMBER
LUL .                    EDM : LOGGING UNIT LOCATION
ENGI.         BERNISKY TRACY : RECORDING ENGINEER
WITN.             RICHARDSON : WITNESSED BY
CLNT.                A2DTECH : CLIENT CODE
ORIG.            2" 5" PRINT : ORIGIN OF DATA
UWI .       100101706424W500 : UNIQUE WELL ID
DICO. A2D Technologies, Inc. : DIGITIZING COMPANY
~Other -----------------------------------------------------
DIL-CNFD-SONIC LOG RUN
SONIC 2' DEEP TO DIL. GAP IN GRDED FROM 6074'-6090'& 6110' -6132' & GAP IN NPHISSED FROM 6087'-6102' & 6124'-6138' DUE TO REMOVE INVALID VALUE
~ASCII -----------------------------------------------------
 1350.00000    -999.25    -999.25    -999.25    -999.25    -999.25    -999.25    -999.25    -999.25    -999.25    -999.25    -999.25    -999.25    -999.25    -999.25   41.57860   41.57860    -999.25    -999.25    -999.25    -999.25    -999.25    -999.25    -999.25    -999.25    -999.25    -999.25    -999.25    -999.25    -999.25
 1400.00000    -999.25    -999.25    -999.25    -999.25    -999.25    -999.25    -999.25    -999.25    -999.25    -999.25    -999.25    -999.25    -999.25    -999.25   47.40330   47.40330    -999.25    -999.25    -999.25    -999.25    -999.25    -999.25    -999.25    -999.25    -999.25    -999.25    -999.25    -999.25    -999.25
 1450.00000    -999.25    -999.25    -999.25    -999.25    -999.25    -999.25    -999.25    -999.25    -999.25    -999.25    -999.25    -999.25    -999.25    -999.25   48.86400   48.86400    -999.25    -999.25    -999.25    -999.25    -999.25    -999.25    -999.25    -999.25    -999.25    -999.25    -999.25    -999.25    -999.25
 1500.00000    -999.25    -999.25    -999.25    -999.25    -999.25    -999.25    -999.25    -999.25    -999.25    -999.25    -999.25    -999.25    -999.25    -999.25   45.08420   45.08420    -999.25    -999.25    -999.25    -999.25    -999.25    -999.25    -999.25    -999.25    -999.25    -999.25    -999.25    -999.25    -999.25
 1550.00000    -999.25    9.02230    9.02230  490.47080    -999.25    -999.25    -999.25    -999.25    -999.25    2.04040    -999.25  134.85520  134.85520    -999.25  113.91330  113.91330    2.04040    1.72160    2.50050    1.72160    -999.25    -999.25    -999.25    -999.25  -37.97910   -1.11860    2.50050    -999.25 4326.75230
 1600.00000    -999.25    9.38940    9.38940  139.56930    -999.25    -999.25    -999.25    -999.25    -999.25    7.16490    -999.25   91.86270   91.86270    -999.25   64.84310   64.84310    7.16490    8.33210    6.84590    8.33210    -999.25    -999.25    -999.25    -999.25  -41.34640   -3.68710    6.84590    -999.25 4274.53480
 1650.00000    -999.25    9.40050    9.40050  204.91380    -999.25    -999.25    -999.25    -999.25    -999.25    4.88010    -999.25  100.42410  100.42410    -999.25   78.99850   78.99850    4.88010    4.41090    4.20960    4.41090    -999.25    -999.25    -999.25    -999.25  -41.19990   -2.78290    4.20960    -999.25 4259.36100
 1700.00000    -999.25    9.38520    9.38520   96.15380    -999.25    -999.25    -999.25    -999.25    -999.25   10.40000    -999.25   88.33240   88.33240    -999.25   58.23240   58.23240   10.40000   10.20210    8.91560   10.20210    -999.25    -999.25    -999.25    -999.25  -40.49730   -1.32260    8.91560    -999.25 4069.90550
 1750.00000    -999.25    8.87580    8.87580  373.60830    -999.25    -999.25    -999.25    -999.25    -999.25    2.67660    -999.25  133.02700  133.02700    -999.25  109.15350  109.15350    2.67660    2.19610    1.99380    2.19610    -999.25    -999.25    -999.25    -999.25  -40.23220   -1.12670    1.99380    -999.25 4207.31360
 1800.00000    -999.25    9.76710    9.76710  240.65930    -999.25    -999.25    -999.25    -999.25    -999.25    4.15600    -999.25  104.33080  104.33080    -999.25   72.92780   72.92780    4.15600    3.66310    3.44130    3.66310    -999.25    -999.25    -999.25    -999.25  -40.54980   -1.98310    3.44130    -999.25 4012.76410
 1850.00000    -999.25    9.38610    9.38610  217.58050    -999.25    -999.25    -999.25    -999.25    -999.25    4.59600    -999.25  125.20220  125.20220    -999.25   94.27150   94.27150    4.59600    3.86370    3.70620    3.86370    -999.25    -999.25    -999.25    -999.25  -40.70200   -1.87930    3.70620    -999.25 3946.66260
 1900.00000    -999.25    9.37920    9.37920  203.84450    -999.25    -999.25    -999.25    -999.25    -999.25    4.90570    -999.25  105.88890  105.88890    -999.25   86.59310   86.59310    4.90570    4.51750    4.23930    4.51750    -999.25    -999.25    -999.25    -999.25  -41.57500   -2.42610    4.23930    -999.25 3864.45410
 1950.00000    -999.25    9.49020    9.49020  289.55290    -999.25    -999.25    -999.25    -999.25    -999.25    3.45360    -999.25  104.87560  104.87560    -999.25   91.47530   91.47530    3.45360    3.23510    3.24770    3.23510    -999.25    -999.25    -999.25    -999.25  -41.22880   -1.75380    3.24770    -999.25 3899.70730
 2000.00000    -999.25   10.11260   10.11260  164.30610    -999.25    -999.25    -999.25    -999.25    -999.25    6.08620    -999.25   99.41250   99.41250    -999.25   87.30590   87.30590    6.08620    5.51160    5.48520    5.51160    -999.25    -999.25    -999.25    -999.25  -42.42300   -2.62180    5.48520    -999.25 3725.28420
 2050.00000    -999.25    9.76350    9.76350  171.97360    -999.25    -999.25    -999.25    -999.25    -999.25    5.84160    -999.25   93.76460   93.76460    -999.25   72.16380   72.16380    5.84160    6.36710    5.70870    6.36710    -999.25    -999.25    -999.25    -999.25  -43.27340   -3.26630    5.70870    -999.25 3724.36810
 2100.00000    -999.25   10.01590   10.01590  220.01230    -999.25    -999.25    -999.25    -999.25    -999.25    4.54520    -999.25  102.98030  102.98030    -999.25   99.32650   99.32650    4.54520    4.06170    3.85490    4.06170    -999.25    -999.25    -999.25    -999.25  -42.11070   -2.38760    3.85490    -999.25 3887.53440
 2150.00000    -999.25   10.00670   10.00670  131.55470    -999.25    -999.25    -999.25    -999.25    -999.25    7.60140    -999.25   86.71710   86.71710    -999.25   60.45060   60.45060    7.60140    6.93220    6.57940    6.93220    -999.25    -999.25    -999.25    -999.25  -41.83720   -2.39670    6.57940    -999.25 3540.22280
 2200.00000    -999.25    9.75830    9.75830  300.99630    -999.25    -999.25    -999.25    -999.25    -999.25    3.32230    -999.25  109.31350  109.31350    -999.25   97.26880   97.26880    3.32230    3.88390    3.63310    3.88390    -999.25    -999.25    -999.25    -999.25  -42.75120   -3.16690    3.63310    -999.25 3425.18860
 2250.00000    -999.25    9.17860    9.17860  231.50290    -999.25    -999.25    -999.25    -999.25    -999.25    4.31960    -999.25  106.98560  106.98560    -999.25   83.12870   83.12870    4.31960    3.98640    3.74100    3.98640    -999.25    -999.25    -999.25    -999.25  -43.06580   -3.26840    3.74100    -999.25 3414.73210
 2300.00000    8.81240    8.92900    8.92900  287.68620    0.20390    2.00220    -999.25    0.38350    0.41390    3.47680    0.20390  114.57730  114.57730   99.01980   92.07140   92.07140    3.47680    3.15020    3.55220    3.15020    -999.25    0.49990    0.46010    2.00220  -42.55440   -2.54490    3.55220 3626.05270 3290.02890
 2350.00000   10.94930    8.97480    8.97480  420.50380    0.18130    1.94860    -999.25    0.41630    0.44530    2.37810    0.18130  104.87320  104.87320  170.19440  158.14320  158.14320    2.37810    2.10930    2.19160    2.10930    -999.25    0.45740    0.41590    1.94860  -43.42330   -3.19950    2.19160 3542.51260 3085.51330
 2400.00000   10.51850    9.26500    9.26500  109.16200    0.09530    2.32770    -999.25    0.19890    0.22360    9.16070    0.09530   97.45400   97.45400   76.55620   74.37270   74.37270    9.16070    7.66030    7.45910    7.66030    -999.25    0.35690    0.31330    2.32770  -48.93560   -8.49870    7.45910 3606.41550 3376.53480
 2450.00000   13.31340   10.50410   10.50410  337.18850    0.06330    2.22820    -999.25    0.25910    0.28180    2.96570    0.06330  116.81150  116.81150   99.44430   85.83130   85.83130    2.96570    2.84560    2.63190    2.84560    -999.25    0.46650    0.42530    2.22820  -43.97510   -3.32500    2.63190 3478.60980 4612.85720
 2500.00000   12.33560   11.85020   11.85020  242.38310    0.06590    2.34470    -999.25    0.18620    0.21360    4.12570    0.06590  108.72040  108.72040   93.05910   88.92540   88.92540    4.12570    3.44790    3.06890    3.44790    -999.25    0.39880    0.35590    2.34470  -43.29230   -2.42900    3.06890 3491.36080 4476.82730
 2550.00000    9.61870    8.78460    8.78460  101.88280    0.07890    2.28140    -999.25    0.22920    0.25060    9.81520    0.07890   96.34510   96.34510   60.51320   56.05380   56.05380    9.81520    8.79760    8.73600    8.79760    -999.25    0.35230    0.30870    2.28140  -52.87480  -11.77260    8.73600 3453.94840 4356.87120
