~Version ---------------------------------------------------
VERS. 2.0 : CWLS log ASCII Standard -VERSION 2.0
WRAP.  NO : ONE LINE PER DEPTH STEP
~Well ------------------------------------------------------
STRT.F                           850.0 : START DEPTH
STOP.F                          9050.0 : STOP DEPTH
STEP.F                        50.00000 : STEP LENGTH
NULL.                          -999.25 : NULL VALUE
COMP.      BLUEMOUNT RESOURCES LIMITED : COMPANY
WELL. BLUEMOUNT WHITECOURT 10-36-59-13 : WELL
FLD .                                  : FIELD
LOC .                                  : LOCATION
CTRY.                           CANADA : COUNTRY
SRVC.                          Unknown : SERVICE COMPANY
DATE.                      30-Jan-1973 : LOGDATE
PROV.                          Alberta : PROVINCE
UWI .                 100103605913W500 : UNIQUE WELL ID
SLAT.WGS84                    54.14792 : SURFACE LATITUDE
SLON.WGS84                   -115.8081 : SURFACE LONGITUDE
~Curve Information -----------------------------------------
DEPT   .F    0   1   0  0 : 1 MEASURED DEPTH
DCOR   .G/C3 45 356 01 00 : DENSITY CORRECTION
RHOB   .G/C3 45 350 01 00 : BULK DENSITY
CALD   .IN   45 280 60 00 : CALIPER FROM DENSITY LOG
NPHI_LS.DEC  42 890 01 00 : NEUTRON POROSITY LIMESTONE
DPHI_LS.DEC  45 890 10 00 : DENSITY POROSITY LIMESTONE
GRD    .GAPI 45 310 01 00 : GAMMA RAY FROM DENSITY LOG
GRS    .GAPI 60 310 01 00 : GAMMA RAY FROM SONIC LOG
DT     .US/F 60 500 00 00 : DELTA-T (INTERVAL TRANSIT TIME)
CALS   .IN   60 280 50 00 : CALIPER FROM SONIC LOG
ILD    .OHMM 07 120 46 00 : INDUCTION DEEP RESISTIVITY
ILM    .OHMM 07 120 44 00 : INDUCTION MEDIUM RESISTIVITY
LL8    .OHMM 07 220 08 00 : LATEROLOG 8
SPR    .MV   07 010 01 00 : SPONTANEOUS POTENTIAL FROM RESISTIVITY LOG
~Params ----------------------------------------------------
PD  .                     GL : PERMANENT DATUM
EPD .FT                 2542 : ELEVATION PERMANENT DATUM
LMF .                     KB : LOG MEASURED FROM
DAPD.FT                 17.3 : FEET ABOVE PERMANENT DATUM
EKB .FT               2559.3 : KELLY BUSHING
EGL .FT                 2542 : GROUND LEVEL
DATE.               01/30/73 : RUN DATE
RUN .                      1 : RUN NUMBER
DD  .FT                 9060 : DEPTH DRILLER
DL  .FT                 9056 : DEPTH LOGGER
BLI .FT                 9053 : BOTTOM LOG INTERVAL
TLI .FT                  911 : TOP LOG INTERVAL
CBD .FT                  912 : CASING BOTTOM DRILLER
CBL .FT                  911 : CASING BOTTOM LOGGER
BS  .IN                 8.75 : BIT SIZE
BSD .FT                 9060 : BIT SIZE AT DEPTH
DFT .               GEL CHEM : DRILLING FLUID TYPE
DFD .                    9.2 : DRILLING FLUID DENSITY
DFV .                     80 : DRILLING FLUID VISCOSITY
DFPH.                   10.5 : DRILLING FLUID PH
DFL .                    8.8 : DRILLING FLUID LOSS
MSS .             CIRCULATED : MUD SAMPLE SOURCE
RMS .OHMM               1.83 : RESISTIVITY MUD SAMPLE
MST .DEGF                 76 : MUD SAMPLE TEMPERATURE
RMF .OHMM               1.59 : RESISTIVITY MUD FILTRATE SAMPLE
MFST.DEGF                 57 : MUD FILTRATE SAMPLE TEMPERATURE
RMC .OHMM                3.6 : RESISTIVITY MUD CAKE
MCST.DEGF                 76 : MUD CAKE SAMPLE TEMPERATURE
RMB .OHMM                0.9 : RESISTIVITY MUD AT BHT
TCS .HRS                   4 : TIME CIRCULATED STOPPED
LUN .                   5671 : LOGGING UNIT NUMBER
LUL .                    EDM : LOGGING UNIT LOCATION
ENGI.                 CALVIN : RECORDING ENGINEER
WITN.         SCHWAB DRYDALE : WITNESSED BY
CLNT.                A2DTECH : CLIENT CODE
ORIG.            2" 5" PRINT : ORIGIN OF DATA
UWI .       100103605913W500 : UNIQUE WELL ID
DICO. A2D Technologies, Inc. : DIGITIZING COMPANY
~Other -----------------------------------------------------
~ASCII -----------------------------------------------------
  850.00000    -999.25    -999.25    -999.25    -999.25    -999.25    -999.25   60.91020    -999.25    -999.25    -999.25    -999.25    -999.25    -999.25
  900.00000    -999.25    -999.25    -999.25    -999.25    -999.25    -999.25   57.57530    -999.25    -999.25    -999.25    -999.25    -999.25    -999.25
  950.00000    -999.25    -999.25    -999.25    -999.25    -999.25    -999.25   99.62770  113.98040   10.73170    4.24290    3.54670    5.38290  -55.39520
 1000.00000    -999.25    -999.25    -999.25    -999.25    -999.25    -999.25   91.08040   85.95520   10.11560    9.82100   10.63710   11.85850  -58.32650
 1050.00000    -999.25    -999.25    -999.25    -999.25    -999.25    -999.25   55.18880   78.11130   10.06090   13.69950   11.06630   13.95790  -54.63350
 1100.00000    -999.25    -999.25    -999.25    -999.25    -999.25    -999.25   92.18220  133.70220   11.73970    2.14430    2.63040    3.71440  -49.20110
 1150.00000    -999.25    -999.25    -999.25    -999.25    -999.25    -999.25    -999.25    -999.25    -999.25    4.46900    3.90590    5.20440  -48.86600
 1200.00000    -999.25    -999.25    -999.25    -999.25    -999.25    -999.25    -999.25    -999.25    -999.25    3.43710    2.89740    4.49380  -47.22450
 1250.00000    -999.25    -999.25    -999.25    -999.25    -999.25    -999.25    -999.25    -999.25    -999.25    4.27400    3.70870    5.08340  -47.59730
 1300.00000    -999.25    -999.25    -999.25    -999.25    -999.25    -999.25    -999.25    -999.25    -999.25    5.94230    4.92470    5.79120  -46.86190
 1350.00000    -999.25    -999.25    -999.25    -999.25    -999.25    -999.25    -999.25    -999.25    -999.25    3.32480    2.93590    4.49260  -47.12290
 1400.00000    -999.25    -999.25    -999.25    -999.25    -999.25    -999.25    -999.25    -999.25    -999.25    4.63580    4.28510    6.05600  -47.02310
 1450.00000    -999.25    -999.25    -999.25    -999.25    -999.25    -999.25    -999.25    -999.25    -999.25    4.59640    3.99180    6.60830  -49.64010
 1500.00000    -999.25    -999.25    -999.25    -999.25    -999.25    -999.25    -999.25    -999.25    -999.25    6.93290    6.69020    8.12880  -49.76660
 1550.00000    -999.25    -999.25    -999.25    -999.25    -999.25    -999.25    -999.25    -999.25    -999.25    4.26910    3.84490    4.99270  -49.59670
 1600.00000    -999.25    -999.25    -999.25    -999.25    -999.25    -999.25    -999.25    -999.25    -999.25    4.38390    3.78310    5.25490  -49.30490
 1650.00000    -999.25    -999.25    -999.25    -999.25    -999.25    -999.25    -999.25    -999.25    -999.25    3.19060    2.93260    4.15330  -49.85680
 1700.00000    -999.25    -999.25    -999.25    -999.25    -999.25    -999.25    -999.25    -999.25    -999.25    2.87030    2.58470    3.72670  -50.22610
 1750.00000    -999.25    -999.25    -999.25    -999.25    -999.25    -999.25    -999.25    -999.25    -999.25    9.41880    9.07420   10.07280  -52.83360
 1800.00000    -999.25    -999.25    -999.25    -999.25    -999.25    -999.25    -999.25    -999.25    -999.25   12.73600   11.36720   11.54520  -53.54470
 1850.00000    -999.25    -999.25    -999.25    -999.25    -999.25    -999.25    -999.25    -999.25    -999.25    5.75650    5.30140    6.50510  -49.23450
 1900.00000    -999.25    -999.25    -999.25    -999.25    -999.25    -999.25    -999.25    -999.25    -999.25   13.29070   12.18450   14.91770  -50.73670
 1950.00000    -999.25    -999.25    -999.25    -999.25    -999.25    -999.25    -999.25    -999.25    -999.25    4.45590    4.31170    5.64560  -49.34400
 2000.00000    -999.25    -999.25    -999.25    -999.25    -999.25    -999.25    -999.25    -999.25    -999.25    4.21430    5.47870    4.65530  -49.21030
 2050.00000    -999.25    -999.25    -999.25    -999.25    -999.25    -999.25    -999.25    -999.25    -999.25    4.84270    4.43300    5.50990  -49.48350
 2100.00000    -999.25    -999.25    -999.25    -999.25    -999.25    -999.25    -999.25    -999.25    -999.25    5.43010    5.11350    6.45460  -49.52560
 2150.00000    -999.25    -999.25    -999.25    -999.25    -999.25    -999.25    -999.25    -999.25    -999.25    7.20500    6.96910    8.30390  -49.94440
 2200.00000    -999.25    -999.25    -999.25    -999.25    -999.25    -999.25    -999.25    -999.25    -999.25    4.19000    3.92430    4.96220  -48.55880
 2250.00000    -999.25    -999.25    -999.25    -999.25    -999.25    -999.25    -999.25    -999.25    -999.25   16.90650   16.07240   14.11820  -52.54150
 2300.00000    0.06520    2.41870   10.05290    0.29150    0.15870   50.13810    -999.25    -999.25    -999.25   14.19250   13.64340   16.46320  -53.10570
 2350.00000    0.19760    2.11400   11.65300    0.40880    0.31970   65.18970    -999.25    -999.25    -999.25    4.40530    4.13800    5.36680  -48.83970
 2400.00000    0.13830    2.39340    8.13090    0.29500    0.18150   44.71150    -999.25    -999.25    -999.25   18.28020   17.59480   18.52930  -61.03410
 2450.00000    0.17390    1.83930   14.47460    0.58920    0.57620   53.13500   72.82660   98.82370   11.14860    4.23080    3.78420    5.39790  -48.28790
 2500.00000    0.19730    1.87990   12.42370    0.44500    0.45200   61.91520   79.01300  101.22390   10.40100    5.31050    4.89940    6.62430  -48.46630
 2550.00000    0.24550    2.26600   10.95650    0.38050    0.25870   61.05210   81.80420  105.14490   10.35920    4.72220    4.51600    5.60320  -48.04810
 2600.00000    0.24610    2.34630    8.29430    0.32620    0.20860   52.18880   74.11750   93.02300    9.81880    5.59470    6.22990    7.33860  -50.95770
 2650.00000    0.04890    2.52100    8.95200    0.38670    0.11530   72.42340   83.87620   81.91800   10.24520    7.48980    8.29230    9.17000  -48.81810
 2700.00000    0.10430    1.95350   10.80570    0.37850    0.45770   58.96110   74.40230   95.90160    9.34860    4.94930    5.19020    8.12670  -48.58090
 2750.00000    0.16120    2.47790    8.04760    0.31040    0.14510   61.23590   77.89440   84.80380    9.00270    7.64510    8.30560    9.73290  -51.52330
 2800.00000    0.22550    2.14110   11.97140    0.36320    0.31850   65.62770   82.33720   96.27140    9.74210    4.60390    4.75780    5.76880  -47.95810
 2850.00000    0.25140    2.15460    9.90750    0.34810    0.34070   58.74950   76.04710   87.59350    9.80970    6.89530    7.15830    7.41770  -48.36720
 2900.00000    0.17680    1.61800    9.80360    0.32900    0.50570   53.01760   70.96530   90.32500   10.77090    5.78120    5.91390    7.46140  -48.35000
 2950.00000    0.22020    1.93940    9.61170    0.39440    0.47710   84.02390  113.02600   93.14640   10.38360    6.56930    7.14410    8.45670  -51.17450
 3000.00000    0.19710    2.06350   11.29780    0.44140    0.35300   83.98210  107.44360   92.48970   11.28630    5.49640    6.07050    6.95680  -51.03100
 3050.00000    0.18530    1.76760   11.21300    0.37140    0.54190   90.65000  114.72940   91.71950   10.43020    6.59720    6.97630    8.44060  -50.89270
 3100.00000    0.15200    1.99750   11.82480    0.43860    0.48020   98.21530  126.22980   98.43880   10.03300    6.43620    6.81630    9.23290  -50.05640
 3150.00000    0.30820    2.39220    9.53910    0.31450    0.16540  106.13270  139.58260   91.15340   10.34300    9.04790    9.53260   12.51020  -50.94340
 3200.00000    0.25110    2.06160   11.75410    0.36110    0.37740   97.10740  120.60450   99.80360   10.94090    7.24520    7.63660   10.18690  -50.34110
 3250.00000    0.24110    2.11500   11.50610    0.31650    0.35420   92.13730  117.61730   88.61240   10.47180    8.20750    8.56180   10.79090  -51.15740
 3300.00000    0.21680    1.97900   11.10690    0.45440    0.34200   88.79880  116.46890   89.22950   11.21500    6.09250    6.43940    7.55850  -51.39240
 3350.00000    0.14230    1.73380    9.08020    0.44380    0.52650   84.07170  105.07440   93.21730   10.87860    6.16660    6.66810    7.92030  -51.51780
 3400.00000    0.20080    1.96050   11.25890    0.36820    0.41670   95.15950  124.71320   91.94360   10.47870    7.66660    7.93390    9.18430  -50.54950
