~Version ---------------------------------------------------
VERS.      2.0 : CWLS log ASCII Standard -VERSION 2.0
WRAP.       NO : One line per depth step
CREA. 12/12/17 : LAS Creation Date
~Well ------------------------------------------------------
STRT.FT                      1200.0 : START DEPTH
STOP.FT                     11750.0 : STOP DEPTH
STEP.FT                    50.00000 : STEP LENGTH
NULL.                       -999.25 : NULL VALUE
COMP.  DEKALB PETROLEUM CORPORATION : COMPANY
WELL. DEKALB ET AL PEERS 6-32-52-14 : WELL
FLD .                               : FIELD
LOC .                               : LOCATION
CTRY.                        CANADA : COUNTRY
SRVC.                  Schlumberger : SERVICE COMPANY
DATE.                   21-Aug-1968 : LOGDATE
PROV.                       Alberta : PROVINCE
UWI .              100063205214W500 : UNIQUE WELL ID
SLAT.WGS84                 53.53109 : SURFACE LATITUDE
SLON.WGS84                -116.0318 : SURFACE LONGITUDE
~Curve Information -----------------------------------------
DEPT  .FT    : Depth Curve
CALSED.IN    : CALIPER FROM SONIC LOG
CALWS .IN    : CALIPER [CALSED]
CONDWS.MMHO  : CONDUCTIVITY [1000/DRESWS]
DRESWS.OHMM  : DEEP RESISTIVITY [ILDED]
DTED  .US/F  : DELTA-TIME FROM SONIC LOG
DTWS  .US/F  : COMPRESSIONAL SONIC [DTED]
GRSED .GAPI  : GAMMA RAY FROM SONIC LOG
GRWS  .GAPI  : GAMMA RAY [GRSED]
ILDED .OHMM  : DEEP INDUCTION RESISTIVITY FROM RESISTIVITY LOG
ILMED .OHMM  : MEDIUM INDUCTION RESISTIVITY FROM RESISTIVITY LOG
LL8ED .OHMM  : LATEROLOG 8 RESISTIVITY FROM RESISTIVITY LOG
MRESWS.OHMM  : MEDIUM RESISTIVITY [ILMED]
SPRED .MV    : SPONTANEOUS POTENTIAL FROM RESISTIVITY LOG
SPWS  .MV    : SPONTANEOUS POTENTIAL [BASELINE 0 MV, SPRED]
SRESWS.OHMM  : SHALLOW RESISTIVITY [LL8ED]
~Params ----------------------------------------------------
PD  .                     GL : PERMANENT DATUM
EPD .FT               3044.5 : ELEVATION PERMANENT DATUM
LMF .                     KB : LOG MEASURED FROM
DAPD.FT                 13.5 : FEET ABOVE PERMANENT DATUM
EKB .FT                 3058 : KELLY BUSHING
EGL .FT               3044.5 : GROUND LEVEL
DATE.               08/21/68 : RUN DATE
RUN .                      1 : RUN NUMBER
DD  .FT                11760 : DEPTH DRILLER
DL  .FT                11767 : DEPTH LOGGER
BLI .FT                11762 : BOTTOM LOG INTERVAL
TLI .FT                 1227 : TOP LOG INTERVAL
CBD .FT                 1227 : CASING BOTTOM DRILLER
CBL .FT                 1227 : CASING BOTTOM LOGGER
BS  .IN                 8.75 : BIT SIZE
BSD .FT                11760 : BIT SIZE AT DEPTH
DFT .                    GEL : DRILLING FLUID TYPE
DFD .                    9.5 : DRILLING FLUID DENSITY
DFV .                     55 : DRILLING FLUID VISCOSITY
DFPH.                    8.5 : DRILLING FLUID PH
DFL .                    8.4 : DRILLING FLUID LOSS
MSS .             CIRCULATED : MUD SAMPLE SOURCE
RMS .OHMM               2.95 : RESISTIVITY MUD SAMPLE
MST .DEGF                 59 : MUD SAMPLE TEMPERATURE
RMF .OHMM               1.86 : RESISTIVITY MUD FILTRATE SAMPLE
MFST.DEGF                 67 : MUD FILTRATE SAMPLE TEMPERATURE
RMB .OHMM               2.73 : RESISTIVITY MUD AT BHT
TCS .HRS                   4 : TIME CIRCULATED STOPPED
LUN .                   7501 : LOGGING UNIT NUMBER
LUL .                    EDM : LOGGING UNIT LOCATION
ENGI.               STUEHMER : RECORDING ENGINEER
WITN.                 MCLEOD : WITNESSED BY
CLNT.                A2DTECH : CLIENT CODE
ORIG.            2" 5" PRINT : ORIGIN OF DATA
UWI .       100063205214W500 : UNIQUE WELL ID
DICO. A2D Technologies, Inc. : DIGITIZING COMPANY
~Other -----------------------------------------------------
DILL-BCS LOG RUN
ALL DATA FROM SMALL SECTION @ TOP-6588'
~ASCII -----------------------------------------------------
# ...
 5800.00000   12.07890   12.07890   87.00910   11.49310   74.29470   74.29470   82.12720   82.12720   11.49310   12.27340   12.85900   12.27340 -128.83210   -3.37200   12.85900
 5850.00000   12.09370   12.09370  100.95300    9.90560   76.16220   76.16220   92.16560   92.16560    9.90560   10.44990   11.08750   10.44990 -127.93990   -2.86150   11.08750
 5900.00000   11.60130   11.60130   70.98640   14.08720   74.32330   74.32330   82.35920   82.35920   14.08720   14.94220   15.68550   14.94220 -128.91790   -4.21940   15.68550
 5950.00000   11.60580   11.60580  103.22690    9.68740   80.16060   80.16060   88.59320   88.59320    9.68740   10.17220   11.16700   10.17220 -127.82930   -3.51060   11.16700
 6000.00000   11.15530   11.15530  114.17350    8.75860   91.82010   91.82010   88.60820   88.60820    8.75860    9.34840   10.23760    9.34840 -126.88980   -2.95090   10.23760
 6050.00000   10.75870   10.75870   64.10750   15.59880   85.26480   85.26480   95.96040   95.96040   15.59880   16.77920   19.72890   16.77920 -126.42260   -2.86170   19.72890
 6100.00000   11.30330   11.30330   77.62410   12.88260   84.79080   84.79080   98.43260   98.43260   12.88260   13.80080   16.19030   13.80080 -125.63800   -2.45880   16.19030
 6150.00000   11.92100   11.92100   61.56160   16.24390   89.30910   89.30910   97.62010   97.62010   16.24390   18.34430   21.11990   18.34430 -124.80230   -2.00300   21.11990
 6200.00000   10.97880   10.97880   46.55230   21.48120   87.88590   87.88590  100.71290  100.71290   21.48120   21.97880   28.89130   21.97880 -124.99550   -2.57600   28.89130
 6250.00000   10.69830   10.69830   42.46990   23.54610   91.23190   91.23190  115.12580  115.12580   23.54610   26.63350   34.96400   26.63350 -124.38280   -2.34320   34.96400
 6300.00000   11.96700   11.96700   67.64580   14.78500   94.21300   94.21300   98.15240   98.15240   14.78500   13.79240   18.47930   13.79240 -123.99210   -2.33040   18.47930
 6350.00000   15.00530   15.00530   83.74300   11.94130  108.09870  108.09870   66.45110   66.45110   11.94130   10.03830   17.62140   10.03830 -125.05890   -3.77900   17.62140
 6400.00000   11.99000   11.99000  111.42680    8.97450   77.46500   77.46500   75.84110   75.84110    8.97450    9.45840   10.25680    9.45840 -124.50000   -3.59990   10.25680
 6450.00000   13.07800   13.07800  118.11950    8.46600   86.11210   86.11210   83.86000   83.86000    8.46600    8.09100   10.65220    8.09100 -124.13060   -3.61030   10.65220
 6500.00000   10.78040   10.78040   86.78140   11.52320   73.29120   73.29120   88.19330   88.19330   11.52320   12.35340   15.11600   12.35340 -123.37250   -3.23210   15.11600
 6550.00000   13.90500   13.90500  117.56330    8.50670   85.32800   85.32800   75.77780   75.77780    8.50670    7.78100   10.49020    7.78100 -123.18270   -3.42020   10.49020
 6600.00000   13.56980   13.56980  106.76800    9.36610   87.27220   87.27220   90.75860   90.75860    9.36610    8.69680   11.17120    8.69680 -122.32410   -2.94340   11.17120
 6650.00000   14.70410   14.70410  111.75930    8.94780   87.13910   87.13910  103.90350  103.90350    8.94780    8.40360   11.00470    8.40360 -121.45800   -2.45710   11.00470
 6700.00000   14.96510   14.96510  180.72070    5.53340   84.79580   84.79580   72.80480   72.80480    5.53340    5.26510    6.84320    5.26510 -120.97090   -2.34990    6.84320
 6750.00000   13.91030   13.91030  110.56320    9.04460   84.66830   84.66830   69.92640   69.92640    9.04460    8.17640    9.75540    8.17640 -121.22090   -2.89810    9.75540
 6800.00000    9.43560    9.43560   39.71860   25.17710   65.89450   65.89450   50.58210   50.58210   25.17710   26.27300   27.75460   26.27300 -131.54760  -13.29500   27.75460
 6850.00000   11.60210   11.60210   90.32280   11.07140   76.08380   76.08380   68.33300   68.33300   11.07140   11.61060   13.52610   11.61060 -121.51060   -3.32870   13.52610
 6900.00000   10.83760   10.83760   64.05820   15.61080   69.72320   69.72320   38.46220   38.46220   15.61080   14.95330   18.09410   14.95330 -144.13660  -26.02520   18.09410
 6950.00000   10.58390   10.58390   81.40870   12.28370  110.33160  110.33160   69.63340   69.63340   12.28370   12.90370   16.58870   12.90370 -123.28090   -5.23990   16.58870
 7000.00000   11.21320   11.21320   77.71160   12.86810   69.58840   69.58840   40.66990   40.66990   12.86810   13.36040   14.14640   13.36040 -137.50570  -19.53520   14.14640
 7050.00000   10.94010   10.94010   64.20100   15.57620   68.07780   68.07780   65.41690   65.41690   15.57620   16.09530   17.63970   16.09530 -121.20150   -3.30110   17.63970
 7100.00000   10.24090   10.24090   58.64110   17.05290   67.11510   67.11510   46.60920   46.60920   17.05290   17.92900   20.30070   17.92900 -132.88850  -15.05890   20.30070
 7150.00000   10.43610   10.43610   50.78490   19.69090   63.20990   63.20990   46.51500   46.51500   19.69090   21.97500   23.47620   21.97500 -127.53820   -9.77900   23.47620
 7200.00000   10.64820   10.64820   50.44650   19.82300   66.61530   66.61530   42.36430   42.36430   19.82300   20.77630   22.23780   20.77630 -130.68600  -12.99730   22.23780
 7250.00000   11.27910   11.27910   75.52410   13.24080   72.05370   72.05370   74.86080   74.86080   13.24080   14.54390   15.60070   14.54390 -121.83300   -4.16460   15.60070
 7300.00000   10.71720   10.71720   80.02950   12.49540   66.86750   66.86750   49.28510   49.28510   12.49540   13.57550   15.13500   13.57550 -144.39760  -26.61430   15.13500
 7350.00000   10.01090   10.01090   36.71920   27.23370   50.31480   50.31480   47.84180   47.84180   27.23370   28.90820   32.85650   28.90820 -149.02750  -31.12830   32.85650
 7400.00000   10.75670   10.75670   73.00070   13.69850   70.44740   70.44740   47.33040   47.33040   13.69850   14.09910   14.37280   14.09910 -147.65480  -29.64030   14.37280
 7450.00000   10.62090   10.62090   68.12450   14.67900   77.82970   77.82970   60.09100   60.09100   14.67900   12.78870   19.72220   12.78870 -133.83270  -15.70280   19.72220
 7500.00000   15.00180   15.00180  184.25370    5.42730  104.63030  104.63030   68.53000   68.53000    5.42730    4.12220    6.94620    4.12220 -135.89620  -17.65090    6.94620
 7550.00000   13.23480   13.23480   81.15420   12.32270   76.08940   76.08940   77.41840   77.41840   12.32270   11.97960   13.27330   11.97960 -129.72830  -11.36820   13.27330
 7600.00000   10.37840   10.37840   57.42340   17.41450   72.80180   72.80180   79.79100   79.79100   17.41450   20.02350   17.85220   20.02350 -129.42030  -10.94430   17.85220
 7650.00000   10.29920   10.29920   13.27030   75.35630   83.21090   83.21090   44.76630   44.76630   75.35630   64.50510   84.71260   64.50510 -126.77020   -8.17880   84.71260
 7700.00000    9.91020    9.91020   71.42040   14.00160   68.64730   68.64730   30.65260   30.65260   14.00160   16.80830   32.73990   16.80830 -142.50860  -23.80180   32.73990
 7750.00000    9.76740    9.76740    2.60790  383.45190   62.92420   62.92420   27.86770   27.86770  383.45190  126.93130  169.26280  126.93130 -137.29330  -18.47120  169.26280
 7800.00000    9.34930    9.34930   34.54520   29.03050   68.04770   68.04770   45.41230   45.41230   29.03050   33.87770   37.79830   33.87770 -131.43300  -12.49610   37.79830
 7850.00000    9.07110    9.07110   17.69060   56.52710   51.71980   51.71980   28.53670   28.53670   56.52710   39.00120  281.52040   39.00120 -132.77090  -14.31850  281.52040
 7900.00000    8.74710    8.74710   16.20640   61.70390   48.84670   48.84670   10.28510   10.28510   61.70390   81.15090  128.37460   81.15090 -211.67470  -93.90750  128.37460
 7950.00000    8.77540    8.77540    0.64230 1556.93950   55.96570   55.96570   29.64330   29.64330 1556.93950 1858.62490  625.28320 1858.62490 -186.12860  -69.04660  625.28320
 8000.00000    8.58290    8.58290   99.27920   10.07260   60.74170   60.74170   15.67970   15.67970   10.07260   16.44790   61.05450   16.44790 -240.09930 -123.70260   61.05450
 8050.00000    9.93360    9.93360   26.88710   37.25780   53.23110   53.23110   25.43980   25.43980   37.25780   49.48560   73.23430   49.48560 -169.60180  -53.88690   73.23430
