~Version ---------------------------------------------------
VERS.      2.0 : CWLS log ASCII Standard -VERSION 2.0
WRAP.       NO : One line per depth step
CREA. 08/31/17 : LAS Creation Date
~Well ------------------------------------------------------
STRT.FT                            1150.0 : START DEPTH
STOP.FT                           11550.0 : STOP DEPTH
STEP.FT                          50.00000 : STEP LENGTH
NULL.                             -999.25 : NULL VALUE
COMP.    AMOCO CANADA PETROLEUM CO., LTD. : COMPANY
WELL. AMOCO HB FINA SOUTH FORK 10-8-59-19 : WELL
FLD .                                     : FIELD
LOC .                                     : LOCATION
CTRY.                              CANADA : COUNTRY
SRVC.                        Schlumberger : SERVICE COMPANY
DATE.                         10-Oct-1977 : LOGDATE
PROV.                             Alberta : PROVINCE
UWI .                    100100805919W500 : UNIQUE WELL ID
SLAT.WGS84                       54.08913 : SURFACE LATITUDE
SLON.WGS84                      -116.8085 : SURFACE LONGITUDE
~Curve Information -----------------------------------------
DEPT    .FT    : Depth Curve
CALDED  .IN    : CALIPER FROM CNT-CFD LOG [ADJ. TO ILDED]
CALSED  .IN    : CALIPER FROM BCS LOG [ADJ. TO ILDED]
CALWS   .IN    : CALIPER [CALDED]
CONDWS  .MMHO  : CONDUCTIVITY [1000/DRESWS]
DCORED  .G/C3  : DENSITY CORRECTION FROM CNT-CFD LOG [ADJ. TO ILDED]
DCORWS  .G/C3  : DENSITY CORRECTION [DCORED]
DENWS   .G/C3  : FORMATION BULK DENSITY [RHOBED]
DPHILSED.V/V   : DENSITY POROSITY LIMESTONE [M=2.71,F=1.0] FROM CNT-CFD LOG [ADJ. TO ILDED]
DPHISSED.V/V   : DENSITY POROSITY SANDSTONE [M=2.65,F=1.0] FROM CNT-CFD LOG [ADJ. TO ILDED]
DPOLSWS .V/V   : DENSITY POROSITY LIMESTONE [CALCULATED FROM DENWS, M=2.71, F=1.0]
DRESWS  .OHMM  : DEEP RESISTIVITY [ILDED]
DTED    .US/F  : DELTA-T (INTERVAL TRANSIT TIME) FROM BCS LOG [ADJ. TO ILDED]
DTWS    .US/F  : COMPRESSIONAL  SONIC [DTED]
GRDED   .GAPI  : GAMMA RAY FROM CNT-CFD LOG [ADJ. TO ILDED]
GRSED   .GAPI  : GAMMA RAY FROM BCS LOG [ADJ. TO ILDED]
GRWS    .GAPI  : GAMMA RAY [GRSED]
ILDED   .OHMM  : DEEP INDUCTION FROM DILL LOG
ILMED   .OHMM  : MEDIUM INDUCTION FROM DILL LOG
LL8ED   .OHMM  : LATEROLOG 8 FROM DILL LOG
MRESWS  .OHMM  : MEDIUM RESISTIVITY [ILMED]
NPHILSED.V/V   : NEUTRON POROSITY LIMESTONE FROM CNT-CFD LOG [ADJ. TO ILDED]
NPHISSED.V/V   : NEUTRON POROSITY SANDSTONE FROM CNT-CFD LOG [ADJ. TO ILDED]
NPOLSWS .V/V   : NEUTRON POROSITY LIMESTONE [NPHISSED CONVERTED TO LIMESTONE MATRIX, SPL. TO NPHILSED @7662.5']
RHOBED  .G/C3  : BULK DENSITY FROM CNT-CFD LOG [ADJ. TO ILDED]
SPRED   .MV    : SPONTANEOUS POTENTIAL FROM DILL LOG
SPWS    .MV    : SPONTANEOUS POTENTIAL [BASELINE 0 MV, SPRED]
SRESWS  .OHMM  : SHALLOW RESISTIVITY [LL8ED]
~Params ----------------------------------------------------
PD  .                     GL : PERMANENT DATUM
EPD .FT                 2976 : ELEVATION PERMANENT DATUM
LMF .                     KB : LOG MEASURED FROM
DAPD.FT                 20.7 : FEET ABOVE PERMANENT DATUM
EKB .FT               2996.7 : KELLY BUSHING
EGL .FT                 2976 : GROUND LEVEL
DATE.               10/10/77 : RUN DATE
RUN .                      1 : RUN NUMBER
DD  .FT                11577 : DEPTH DRILLER
DL  .FT                11569 : DEPTH LOGGER
BLI .FT                11563 : BOTTOM LOG INTERVAL
TLI .FT                 1534 : TOP LOG INTERVAL
CBD .FT                 1535 : CASING BOTTOM DRILLER
CBL .FT                 1534 : CASING BOTTOM LOGGER
BS  .IN                 8.75 : BIT SIZE
BSD .FT                11577 : BIT SIZE AT DEPTH
DFT .                    GEL : DRILLING FLUID TYPE
DFD .                      9 : DRILLING FLUID DENSITY
DFV .                     80 : DRILLING FLUID VISCOSITY
DFPH.                    8.5 : DRILLING FLUID PH
DFL .                    8.8 : DRILLING FLUID LOSS
MSS .               FLOWLINE : MUD SAMPLE SOURCE
RMS .OHMM               2.24 : RESISTIVITY MUD SAMPLE
MST .DEGF                 54 : MUD SAMPLE TEMPERATURE
RMF .OHMM               1.98 : RESISTIVITY MUD FILTRATE SAMPLE
MFST.DEGF                 64 : MUD FILTRATE SAMPLE TEMPERATURE
TCS .HRS                   3 : TIME CIRCULATED STOPPED
LUN .                   7772 : LOGGING UNIT NUMBER
LUL .                    EDM : LOGGING UNIT LOCATION
ENGI.         BERNISKY TRACY : RECORDING ENGINEER
WITN.                 NEWELL : WITNESSED BY
CLNT.                A2DTECH : CLIENT CODE
ORIG.            2" 5" PRINT : ORIGIN OF DATA
UWI .       100100805919W500 : UNIQUE WELL ID
DICO. A2D Technologies, Inc. : DIGITIZING COMPANY
~Other -----------------------------------------------------
~ASCII -----------------------------------------------------
# ...
 6350.00000   14.79320   10.20120   14.79320  233.50930    0.12380    0.12380    2.43850    -999.25    0.14110    0.15880    4.28270   90.25680   90.25680  121.98960  127.40090  127.40090    4.28270    4.60080    5.52710    4.60080    -999.25    0.42300    0.38070    2.43850 -440.72440  -11.64970    5.52710
 6400.00000   14.41760    9.90340   14.41760  160.49820    0.12160    0.12160    2.44050    -999.25    0.13320    0.15760    6.23060   86.00700   86.00700  119.76630  121.35480  121.35480    6.23060    6.48480    8.11540    6.48480    -999.25    0.32970    0.28590    2.44050 -440.06950  -10.99480    8.11540
 6450.00000   11.79030    9.61230   11.79030  112.29230    0.26490    0.26490    2.15920    -999.25    0.30290    0.32210    8.91040   79.64480   79.64480  119.66300  111.07140  111.07140    8.91040    9.86550   11.18570    9.86550    -999.25    0.31600    0.27210    2.15920 -441.13710  -12.06240   11.18570
 6500.00000    9.20560    8.67880    9.20560   48.57670    0.06560    0.06560    2.64800    -999.25    0.02140    0.03630   20.58600   66.27830   66.27830   67.01540   57.86790   57.86790   20.58600   19.60220   22.16030   19.60220    -999.25    0.14150    0.09910    2.64800 -454.26170  -25.18700   22.16030
 6550.00000   11.29600    9.45640   11.29600   74.99400    0.24090    0.24090    2.51260    -999.25    0.08940    0.11540   13.33440   74.38460   74.38460  101.75980  103.11720  103.11720   13.33440   12.69010   15.58220   12.69010    -999.25    0.22910    0.18530    2.51260 -439.01400   -9.93930   15.58220
 6600.00000   11.37230    9.55440   11.37230   62.14210    0.21740    0.21740    2.60290    -999.25    0.03550    0.06260   16.09760   71.96190   71.96190   77.00450   81.45180   81.45180   16.09760   15.37490   16.51760   15.37490    -999.25    0.23340    0.18960    2.60290 -437.57160   -8.49690   16.51760
 6650.00000   10.59980    9.33240   10.59980   93.21920    0.19770    0.19770    2.45070    -999.25    0.13210    0.15160   10.72740   73.99570   73.99570   78.40680   76.68050   76.68050   10.72740   13.26860   17.84350   13.26860    -999.25    0.25440    0.21050    2.45070 -446.56210  -17.48740   17.84350
 6700.00000    9.97730    9.30590    9.97730  116.94060    0.02640    0.02640    2.54440    -999.25    0.07380    0.09680    8.62500   71.36260   71.36260   87.79600   82.97010   82.97010    8.62500    9.62340   12.68850    9.62340    -999.25    0.28120    0.23720    2.54440 -450.30730  -21.23260   12.68850
 6750.00000    9.92250   10.27570    9.92250   68.08560    0.13420    0.13420    2.35810    -999.25    0.19340    0.20580   14.68740   83.54990   83.54990  105.60570  108.65270  108.65270   14.68740   13.86660   20.38840   13.86660    -999.25    0.46830    0.42660    2.35810 -445.55440  -16.47970   20.38840
 6800.00000    9.68320    9.33590    9.68320   72.37040    0.01830    0.01830    2.63130    -999.25    0.01450    0.04600   13.81780   70.77130   70.77130   83.88710   83.35610   83.35610   13.81780   13.19440   16.25180   13.19440    -999.25    0.23380    0.19000    2.63130 -440.00630  -10.93160   16.25180
 6850.00000    9.68540    9.80850    9.68540   65.32680    0.04080    0.04080    2.10040    -999.25    0.32410    0.35650   15.30890   85.61160   85.61160   97.76800   98.17950   98.17950   15.30890   14.62200   31.17300   14.62200    -999.25    0.42470    0.38240    2.10040 -459.62430  -32.18960   31.17300
 6900.00000    9.12770    8.78160    9.12770   16.57650    0.00230    0.00230    2.73590    -999.25   -0.00850   -0.01510   60.32650   56.50430   56.50430   37.89370   32.70460   32.70460   60.32650   39.85460  126.32920   39.85460    -999.25    0.10500    0.06340    2.73590 -476.40300  -50.84270  126.32920
 6950.00000    9.17370    8.99040    9.17370   55.49360    0.10250    0.10250    2.68890    -999.25   -0.00840    0.01230   18.02050   71.46390   71.46390   90.39330   91.21830   91.21830   18.02050   16.22150   23.23030   16.22150    -999.25    0.29500    0.25100    2.68890 -460.29520  -36.62160   23.23030
 7000.00000   10.25420    9.02560   10.25420   96.06240    0.26390    0.26390    2.36020    -999.25    0.19060    0.20460   10.40990   71.45430   71.45430   77.96430   84.01120   84.01120   10.40990    9.82580   11.54440    9.82580    -999.25    0.24960    0.20570    2.36020 -462.64770  -40.84840   11.54440
 7050.00000    9.35850    8.98800    9.35850   60.80880    0.06690    0.06690    2.67040    -999.25   -0.00910    0.02320   16.44500   69.24780   69.24780   87.29370   89.53310   89.53310   16.44500   15.54950   20.46190   15.54950    -999.25    0.23150    0.18780    2.67040 -458.08950  -38.16450   20.46190
 7100.00000    9.24960    8.88000    9.24960   59.99190    0.04240    0.04240    2.66260    -999.25   -0.00610    0.02770   16.67110   69.87230   69.87230   90.29350   92.46130   92.46130   16.67110   15.73440   19.72490   15.73440    -999.25    0.26410    0.22010    2.66260 -455.70970  -37.67140   19.72490
 7150.00000    9.06090    8.69370    9.06090   38.65090    0.02810    0.02810    2.69790    -999.25    0.00000    0.00710   25.87260   63.54460   63.54460   76.31450   64.65910   64.65910   25.87260   23.15140   35.17020   23.15140    -999.25    0.17880    0.13570    2.69790 -450.28700  -34.12310   35.17020
 7200.00000    9.98100    9.05700    9.98100   77.73310    0.26640    0.26640    2.46670    -999.25    0.12120    0.14230   12.86560   74.82600   74.82600  100.26860   92.09710   92.09710   12.86560   11.24380   15.56600   11.24380    -999.25    0.28500    0.24100    2.46670 -432.63350  -18.35620   15.56600
 7250.00000    9.47850    8.93830    9.47850   56.95700    0.11150    0.11150    2.65770    -999.25   -0.00100    0.03060   17.55710   69.75170   69.75170  103.11660   98.94630   98.94630   17.55710   16.54120   22.91360   16.54120    -999.25    0.26610    0.22210    2.65770 -425.96410   -9.22190   22.91360
 7300.00000   11.20350    9.95500   11.20350   52.13190    0.25460    0.25460    2.39120    -999.25    0.16970    0.18640   19.18210   75.46900   75.46900   99.51600   94.65300   94.65300   19.18210   25.29270   42.31430   25.29270    -999.25    0.38780    0.34470    2.39120 -439.57800  -18.60290   42.31430
 7350.00000   11.01730    9.11330   11.01730   53.33660    0.26200    0.26200    2.28240    -999.25    0.23430    0.25010   18.75210   72.04660   72.04660  112.17470  113.24650  113.24650   18.75210   17.03380   26.05940   17.03380    -999.25    0.29540    0.25140    2.28240 -449.16140  -23.92570   26.05940
 7400.00000    8.90080    8.69330    8.90080   43.13670    0.04350    0.04350    2.59970    -999.25    0.03420    0.06450   23.18210   66.55910   66.55910   89.97600   94.27540   94.27540   23.18210   21.60690   29.05870   21.60690    -999.25    0.21570    0.17210    2.59970 -481.09340  -51.62490   29.05870
 7450.00000    9.70680    9.33610    9.70680   53.03460    0.19780    0.19780    2.62290    -999.25    0.00820    0.05100   18.86380   71.36250   71.36250   87.74610   93.08410   93.08410   18.86380   19.31610   22.26170   19.31610    -999.25    0.23660    0.19280    2.62290 -462.39690  -28.66770   22.26170
 7500.00000    9.92560    8.70450    9.92560   72.95490    0.26670    0.26670    2.44270    -999.25    0.13810    0.15630   13.70710   77.39890   77.39890  117.27140  114.98890  114.98890   13.70710   12.50520   17.79660   12.50520    -999.25    0.30280    0.25880    2.44270 -453.47890  -15.51690   17.79660
 7550.00000    9.67250    8.91040    9.67250   73.25630    0.26410    0.26410    2.58630    -999.25    0.05010    0.07230   13.65070   72.06190   72.06190  103.48900   98.83530   98.83530   13.65070   12.36220   17.29690   12.36220    -999.25    0.26830    0.22430    2.58630 -454.29460  -11.91750   17.29690
 7600.00000   10.79360   10.20770   10.79360  132.52720    0.22730    0.22730    2.32490    -999.25    0.20690    0.22520    7.54640   82.60730   82.60730  111.15570  103.00430  103.00430    7.54640    7.22810    9.45670    7.22810    -999.25    0.39770    0.35480    2.32490 -454.14260   -7.02400    9.45670
