~Version ---------------------------------------------------
VERS. 2.0 : CWLS log ASCII Standard -VERSION 2.0
WRAP.  NO : ONE LINE PER DEPTH STEP
~Well ------------------------------------------------------
STRT.F                              1100.0 : START DEPTH
STOP.F                             11550.0 : STOP DEPTH
STEP.F                            50.00000 : STEP LENGTH
NULL.                              -999.25 : NULL VALUE
COMP.              MURPHY OIL COMPANY LTD. : COMPANY
WELL. MURPHY ASHLAND WOLF CREEK 11-5-53-15 : WELL
FLD .                                      : FIELD
LOC .                                      : LOCATION
CTRY.                               CANADA : COUNTRY
SRVC.               Schlumberger of Canada : SERVICE COMPANY
DATE.                          08-Dec-1976 : LOGDATE
PROV.                              Alberta : PROVINCE
UWI .                     100110505315W500 : UNIQUE WELL ID
SLAT.WGS84                        53.55101 : SURFACE LATITUDE
SLON.WGS84                        -116.179 : SURFACE LONGITUDE
~Curve Information -----------------------------------------
DEPT   .F    0   1   0  0 : 1 MEASURED DEPTH
SPR    .MV   07 010 01 00 : SPONTANEOUS POTENTIAL FROM RESISTIVITY LOG
ILD    .OHMM 07 120 46 00 : INDUCTION DEEP RESISTIVITY
ILM    .OHMM 07 120 44 00 : INDUCTION MEDIUM RESISTIVITY
LL8    .OHMM 07 220 08 00 : LATEROLOG 8
CILD   .MMHO 07 110 46 00 : INDUCTION DEEP CONDUCTIVITY
DPHI_SS.DEC  45 890 12 00 : DENSITY POROSITY SANDSTONE
NPHI_SS.DEC  42 890 03 00 : NEUTRON POROSITY SANDSTONE
GRD    .GAPI 45 310 01 00 : GAMMA RAY FROM DENSITY LOG
CALD   .IN   45 280 60 00 : CALIPER FROM DENSITY LOG
DPHI_LS.DEC  45 890 10 00 : DENSITY POROSITY LIMESTONE
NPHI_LS.DEC  42 890 01 00 : NEUTRON POROSITY LIMESTONE
DRHO   .G/C3 45 356 01 00 : BULK DENSITY CORRECTION
RHOB   .G/C3 45 350 01 00 : BULK DENSITY
DT     .US/F 60 500 00 00 : DELTA-T (INTERVAL TRANSIT TIME)
CALS   .IN   60 280 50 00 : CALIPER FROM SONIC LOG
GRS    .GAPI 60 310 01 00 : GAMMA RAY FROM SONIC LOG
~Params ----------------------------------------------------
PD  .                     GL : PERMANENT DATUM
EPD .FT               2966.3 : ELEVATION PERMANENT DATUM
LMF .                     KB : LOG MEASURED FROM
DAPD.FT                 15.4 : FEET ABOVE PERMANENT DATUM
EKB .FT               2981.7 : KELLY BUSHING
EGL .FT               2966.3 : GROUND LEVEL
DATE.               12/08/76 : RUN DATE
RUN .                      1 : RUN NUMBER
DD  .FT                11560 : DEPTH DRILLER
DL  .FT                11554 : DEPTH LOGGER
BLI .FT                11548 : BOTTOM LOG INTERVAL
TLI .FT                 1160 : TOP LOG INTERVAL
CBD .FT                 1160 : CASING BOTTOM DRILLER
CBL .FT                 1160 : CASING BOTTOM LOGGER
BS  .IN                 8.75 : BIT SIZE
BSD .FT                11560 : BIT SIZE AT DEPTH
DFT .               GEL CHEM : DRILLING FLUID TYPE
DFD .                    9.1 : DRILLING FLUID DENSITY
DFV .                    290 : DRILLING FLUID VISCOSITY
DFPH.                     11 : DRILLING FLUID PH
DFL .                    5.8 : DRILLING FLUID LOSS
MSS .               FLOWLINE : MUD SAMPLE SOURCE
RMS .OHMM               1.67 : RESISTIVITY MUD SAMPLE
MST .DEGF                 37 : MUD SAMPLE TEMPERATURE
RMF .OHMM                1.3 : RESISTIVITY MUD FILTRATE SAMPLE
MFST.DEGF                 55 : MUD FILTRATE SAMPLE TEMPERATURE
TCS .HRS                 2.5 : TIME CIRCULATED STOPPED
LUN .                   7730 : LOGGING UNIT NUMBER
LUL .                    EDM : LOGGING UNIT LOCATION
ENGI.        MCDONALD KARAKI : RECORDING ENGINEER
WITN.            ABEL WORKUM : WITNESSED BY
CLNT.                A2DTECH : CLIENT CODE
ORIG.            2" 5" PRINT : ORIGIN OF DATA
UWI .       100110505315W500 : UNIQUE WELL ID
DICO. A2D Technologies, Inc. : DIGITIZING COMPANY
~Other -----------------------------------------------------
~ASCII -----------------------------------------------------
# ...
 9700.00000 -137.91180  129.72460  308.53810  247.94970    -999.25    -999.25    -999.25   21.41170   10.69500    0.23760    0.07200    0.24040    2.33600   47.74220    8.90360   20.70730
 9750.00000 -149.31530  112.75190  752.24070  246.23000    -999.25    -999.25    -999.25   22.28150    9.66690    0.05610    0.08600    0.17880    2.61920   48.98980    8.71440   19.34550
 9800.00000 -104.51070   59.14030   78.68740   86.69710    -999.25    -999.25    -999.25   28.78150   10.00960    0.06850    0.07720    0.24900    2.58790   51.38490    8.86680   32.76010
 9850.00000  -58.02360   21.20110   22.13010   28.65010    -999.25    -999.25    -999.25   63.47480    9.13050    0.01590    0.11120    0.02270    2.68550   61.70840    8.76990   71.56270
 9900.00000  -63.61020   34.10330   35.23910   51.92290    -999.25    -999.25    -999.25   53.57350    9.01340   -0.00010    0.07650    0.01370    2.71030   55.50630    8.81510   57.08960
 9950.00000  -58.73520    9.24520    9.56030   15.44180    -999.25    -999.25    -999.25   78.20880    9.67740    0.07760    0.14720    0.20670    2.58210   66.71860    8.84550   92.44620
 10000.00000  -57.05930   15.78890   16.74220   26.19300    -999.25    -999.25    -999.25   60.00730    9.05720   -0.03220    0.10090    0.09590    2.75800   61.13720    8.70620   64.23590
 10050.00000  -62.65910    4.99820    5.16660    7.50960    -999.25    -999.25    -999.25  108.72000   10.17120    0.14800    0.28360    0.20990    2.46310   79.88050    9.11410  118.20630
 10100.00000  -60.22340   26.79200   24.54500   72.44690    -999.25    -999.25    -999.25   75.21290    9.04680    0.04010    0.15950    0.00170    2.64270   61.40620    8.76090   85.88200
 10150.00000  -57.91290   16.29840   16.55270   32.59860    -999.25    -999.25    -999.25   58.29480    9.23220   -0.01200    0.08110    0.17220    2.73770   60.75350    8.85220   64.54460
 10200.00000  -67.11520    5.76190    6.19110    7.47240    -999.25    -999.25    -999.25   90.24250   12.86850    0.28190    0.25470    0.20050    2.22930   79.74480   10.00900  109.12990
 10250.00000  -58.15070   33.69450   28.13610  101.50020    -999.25    -999.25    -999.25   59.14620    9.54030    0.04540    0.09430    0.24940    2.62090   53.47250    8.92020   65.27150
 10300.00000  -53.25660   14.21240   12.48730   23.30800    -999.25    -999.25    -999.25   85.56700    9.03180    0.03250    0.15600    0.10000    2.67170   61.22460    8.86850   80.01470
 10350.00000  -50.91100   11.13510   11.55190   17.47850    -999.25    -999.25    -999.25   88.00190    9.04980   -0.01010    0.16100    0.01480    2.70290   63.95170    8.79020   95.99210
 10400.00000  -53.28520   11.18600   10.51180   15.59210    -999.25    -999.25    -999.25   91.19700    9.37510    0.01470    0.16610    0.21230    2.69070   66.77510    8.87010  101.43710
 10450.00000  -57.63940   10.34220    8.88870   10.95900    -999.25    -999.25    -999.25  101.77960   10.68170    0.06720    0.19610    0.02830    2.58870   70.61730    9.23060  114.68530
 10500.00000  -54.50370    9.84780    9.50640   14.47370    -999.25    -999.25    -999.25   96.84420   10.03290    0.03960    0.19770    0.19370    2.67050   67.86090    9.04280  104.93440
 10550.00000  -49.76790    8.91530    8.60460   13.18710    -999.25    -999.25    -999.25   88.49600   10.20120    0.05740    0.18750    0.18320    2.62020   69.72770    8.92390  108.78980
 10600.00000  -48.68010    8.49590    8.22700   12.78780    -999.25    -999.25    -999.25   96.75680    9.47130    0.13150    0.19400    0.25040    2.48450   70.94700    9.09550  104.61010
 10650.00000  -38.79420    9.83670    9.34800   14.43270    -999.25    -999.25    -999.25   92.14360    8.97600   -0.00500    0.18900    0.01310    2.71580   68.17670    8.84170  101.51680
 10700.00000  -39.02150    8.86670    8.41510   13.34470    -999.25    -999.25    -999.25  106.82710    9.45020    0.01570    0.22050    0.02120    2.68510   70.67090    9.09660  125.78390
 10750.00000  -36.62900   10.37700    9.62860   16.10030    -999.25    -999.25    -999.25   92.61430    9.12610    0.02890    0.20530   -0.00110    2.68380   67.29350    8.88410   92.32860
 10800.00000  -32.68720   20.39800   19.26900   34.81800    -999.25    -999.25    -999.25   66.28650    9.15280   -0.01350    0.10550    0.00740    2.72770   61.68390    8.77990   75.52240
 10850.00000  -47.86540   79.20900   84.45300  219.47150    -999.25    -999.25    -999.25  127.55290    9.05880    0.08200    0.14020    0.01940    2.57360   72.20200    8.75670  134.20800
 10900.00000  -55.02270  114.19280  135.88750  342.55510    -999.25    -999.25    -999.25   51.59280    9.05140    0.01230    0.05060    0.01960    2.70340   55.69180    8.79980   50.27040
 10950.00000  -40.32510   10.12470   10.51590   15.29720    -999.25    -999.25    -999.25  105.03440    9.41370    0.02550    0.18180    0.02700    2.66260   75.95300    9.18370  120.31510
 11000.00000  -40.32680    8.94830    9.05400   15.75310    -999.25    -999.25    -999.25  107.94080    9.65580    0.03790    0.22440    0.08050    2.64400   80.07100    9.17410  116.34390
 11050.00000  -32.56750   70.66240   81.35680  134.88810    -999.25    -999.25    -999.25   47.57680    8.96640    0.01270    0.06020    0.01830    2.67870   53.41880    8.92380   51.60230
 11100.00000  -45.09680   57.59290   70.28310   93.16700    -999.25    -999.25    -999.25   25.56000    8.96970    0.00120    0.01130    0.00670    2.69590   58.77780    8.78710   58.33550
 11150.00000 -118.22880  549.91180  413.43040  910.22630    -999.25    -999.25    -999.25   31.26320    8.91350   -0.01700    0.01230    0.02820    2.73740   50.77880    8.76030   36.61020
 11200.00000 -171.01230   13.92370   12.11430   26.26000    -999.25    -999.25    -999.25   12.71940    8.39720    0.06180    0.21520    0.15850    2.61250   59.60970    8.70490   17.94320
 11250.00000 -169.20120    6.22500    5.76950   12.24230    -999.25    -999.25    -999.25   11.80050    8.63300    0.04330    0.16510    0.08780    2.63240   54.98140    8.75150   10.50620
 11300.00000 -163.54320   50.22800   53.44130  117.47030    -999.25    -999.25    -999.25   14.31130    8.44920    0.02200    0.12040    0.12200    2.66750   50.06490    8.74800   12.83240
 11350.00000 -150.30580 1376.65300 1542.44790 1401.15760    -999.25    -999.25    -999.25   16.29340    9.97470    0.03910    0.00250    0.21620    2.64010   48.56650    8.94510   17.38040
 11400.00000 -126.76760  423.86430 1489.30180  609.32790    -999.25    -999.25    -999.25   13.73950    8.83430    0.01870    0.00640    0.00560    2.68180   50.26750    8.88770   11.13590
 11450.00000  -75.45030   21.28950   13.91880   30.93250    -999.25    -999.25    -999.25  139.56600    8.89760    0.01640    0.16470    0.01620    2.67560   60.16730    8.79120  151.02230
 11500.00000  -63.15210   12.33720   13.25000   36.87940    -999.25    -999.25    -999.25   95.10350    8.89740   -0.02020    0.08680    0.06340    2.74740   51.30230    8.75210  100.41240
 11550.00000    -999.25    -999.25    -999.25    -999.25    -999.25    -999.25    -999.25  109.34740    8.70480    0.03980    0.08350    0.05910    2.64500   51.03520    8.67320  165.29210
