~Version ---------------------------------------------------
VERS.      2.0 : CWLS log ASCII Standard -VERSION 2.0
WRAP.       NO : One line per depth step
CREA. 08/27/13 : LAS Creation Date
~Well ------------------------------------------------------
STRT.m                           300.0 : START DEPTH
STOP.m                          4000.0 : STOP DEPTH
STEP.m                        50.00000 : STEP LENGTH
NULL.                          -999.25 : NULL VALUE
COMP. CHEVRON CANADA RESOURCES LIMITED : COMPANY
WELL.   CHEVRON SHELL SIMONETTE 11-14- : WELL
FLD .                                  : FIELD
LOC .                                  : LOCATION
CTRY.                           CANADA : COUNTRY
SRVC.                     Schlumberger : SERVICE COMPANY
DATE.                      10-Sep-1995 : LOGDATE
PROV.                          Alberta : PROVINCE
UWI .                 100111406427W500 : UNIQUE WELL ID
SLAT.WGS84                    54.53996 : SURFACE LATITUDE
SLON.WGS84                   -117.9743 : SURFACE LONGITUDE
~Curve Information -----------------------------------------
DEPT    .m      : Depth meter
CAL2DED .MM     : CALIPER FROM COMPENSATED DENSITY
CALDED  .MM     : CALIPER FROM FDC LOG
CALWS   .MM     : CALIPER [HDSED,SPLICED CALDED @ 3857-3862.5]
CONDWS  .MMHO   : CONDUCTIVITY [1000/DRESWS]
DCORWS  .KG/M3  : DENSITY CORRECTION [DRHOED]
DENWS   .KG/M3  : BUCK DENSITY  M=2.65 F=1.0] [RHOZED]
DPHILSED.V/V    : DENSITY POROSITY LIMESTONE FROM FDC LOG
DPHISSED.V/V    : DENSITY POROSITY SANDSTONE FROM FDC LOG
DPOLSWS .V/V    : DENSITY POROSITY [M=2.71 F=1.0] [DENWS]
DRESWS  .OHMM   : DEEP RESISTIVITY [IDPHED,SPLICED LLGDED @ 3863-3980 M]
DRHOED  .KG/M3  : DENSITY CORRECTION FROM FDC LOG
DTED    .US/M   : DELTA TIME FROM SONIC LOG
DTWS    .US/M   : DELTA TIME [DTED]
GRDED   .GAPI   : GAMMA RAY FROM FDC LOG
GRSED   .GAPI   : GAMMA RAY FROM SONIC LOG
GRWS    .GAPI   : GAMMA RAY [GRSED+15 @ 300, SPLICED GRDED @ 4001 M]
HDSED   .MM     : HOLE DIAMETER FROM SONIC LOG
IDPHED  .OHMM   : INDUCTION DEEP PHASOR RES
IMPHED  .OHMM   : INDUCTION MEDIUM PHASOR RES.
LLDGED  .OHMM   : GRONINGEN PHASE CORRECTED DEEP RESISTIVITY
LLSED   .OHMM   : LATEROLOG SHALLOW RESISTIVITY
MRESWS  .OHMM   : SHALLOW LATERAL RESISTIVITY [IMPHED,SPLICED LLSED @ 3863-3980 M]
MSFLED  .OHMM   : MICRO SPHERICALLY FOCUSED RESISTIVITY
NPOLSWS .V/V    : NEUTRON POROSITY[CONVERTED FROM [NPORLSED,SPLICED NPORSSED @ 434-2753 M]
NPORLSED.V/V    : ENCHANCED THERMAL NEUTRON POROSITY IN SELECTED LITHOLOGY SANDSTONE
NPORSSED.V/V    : NEUTRON POROSITY SANDSTONE FROM DENSITY LOG
PEFED   .B/E    : PHOTO ELECTROL LOG FROM FDC LOG [DEPTH ADJ. TO GRR]
PEFWS   .B/E    : PHOTO ELECTROL [PEFED]
RHOBED  .KG/M3  : BUCK DENSITY FROM FDC LOG
SFLUED  .OHMM   : SHALLOW FOCUS LOG
SPRED   .MV     : SPONTANEOUS POTENTIAL FROM RESISTIVITY LOG
SPWS    .MV     : SPONTANEOUS POTENTIAL [BASELINE 0 MV] [SPRED]
SRESWS  .OHMM   : SHALLOW RESISTIVITY [SFLUED,SPLICED MSFLED @ 3863-3980 M]
TENDED  .N      : TENSION FROM FDC LOG [DEPTH ADJ. TO GRR]
TENRED  .N      : TENSION FROM RESISTIVITY LOG
TENSED  .N      : TENSTION FROM SONIC LOG
~Params ----------------------------------------------------
PD  .                         GL : PERMANENT DATUM
EPD .M                    961.35 : ELEVATION PERMANENT DATUM
LMF .                         KB : LOG MEASURED FROM
DAPD.M                       5.6 : FEET ABOVE PERMANENT DATUM
DMF .                         KB : DRILLING MEASURED FROM
EKB .M                     966.9 : KELLY BUSHING
EGL .M                    961.35 : GROUND LEVEL
DATE.                   09/10/95 : RUN DATE
RUN .                          1 : RUN NUMBER
DD  .M                      4023 : DEPTH DRILLER
DL  .M                      4021 : DEPTH LOGGER
BLI .M                    4019.2 : BOTTOM LOG INTERVAL
TLI .M                    3862.5 : TOP LOG INTERVAL
CS  .MM                      177 : CASING SIZE
CBD .M                      3867 : CASING BOTTOM DRILLER
CBL .M                    3862.5 : CASING BOTTOM LOGGER
BS  .MM                      153 : BIT SIZE
BSD .M                      4023 : BIT SIZE AT DEPTH
DFT .                GEL POLYMER : DRILLING FLUID TYPE
DFD .                       1165 : DRILLING FLUID DENSITY
DFV .                         76 : DRILLING FLUID VISCOSITY
DFPH.                       11.5 : DRILLING FLUID PH
DFL .                        6.8 : DRILLING FLUID LOSS
MSS .                   FLOWLINE : MUD SAMPLE SOURCE
RMS .OHMM                   1.27 : RESISTIVITY MUD SAMPLE
MST .DEGC                     23 : MUD SAMPLE TEMPERATURE
RMF .OHMM                   1.14 : RESISTIVITY MUD FILTRATE SAMPLE
MFST.DEGC                     23 : MUD FILTRATE SAMPLE TEMPERATURE
RMC .OHMM                   1.39 : RESISTIVITY MUD CAKE
MCST.DEGC                     19 : MUD CAKE SAMPLE TEMPERATURE
MFSS.                   MEASURED : MUD FILTRATE SAMPLE SOURCE
MCSS.                   MEASURED : MUD CAKE SAMPLE SOURCE
RMB .OHMM                  0.469 : RESISTIVITY MUD AT BHT
TCS .HRS                     800 : TIME CIRCULATED STOPPED
TLAB.HRS                    1355 : TIME LOGGER AT BOTTOM
LUN .                       2028 : LOGGING UNIT NUMBER
LUL .             GRANDE PRAIRIE : LOGGING UNIT LOCATION
ENGI.                      CORTI : RECORDING ENGINEER
WITN.                     HENDRY : WITNESSED BY
CLNT.                    A2DTECH : CLIENT CODE
ORIG. 6.5"/100M 16.5"/100M PRINT : ORIGIN OF DATA
UWI .           100111406427W500 : UNIQUE WELL ID
DICO.     A2D Technologies, Inc. : DIGITIZING COMPANY
~Other -----------------------------------------------------
1. ALL CURVES APPEAR ON DEPTH, MUD DENSITY 1265 PPM.
~ASCII -----------------------------------------------------
# ...
 1300.00000    -999.25    -999.25  249.29640   75.04350    -999.25    -999.25    -999.25    -999.25    -999.25   13.32560    -999.25  290.78010  290.78010    -999.25  115.37910  115.37910  249.29640   13.32560   12.88040    -999.25    -999.25   12.88040    -999.25    -999.25    -999.25    -999.25    -999.25    -999.25    -999.25   15.26720  -87.62800   -7.69010   15.26720 13341.55370 12550.38090 12438.11230
 1350.00000    -999.25    -999.25  254.66450  107.73890    -999.25    -999.25    -999.25    -999.25    -999.25    9.28170    -999.25  302.95630  302.95630    -999.25  103.38350  103.38350  254.66450    9.28170    9.18140    -999.25    -999.25    9.18140    -999.25    -999.25    -999.25    -999.25    -999.25    -999.25    -999.25    9.80950  -85.62430   -6.13280    9.80950 13612.81740 12685.06930 12587.51560
 1400.00000    -999.25    -999.25  267.77430   90.97610    -999.25    -999.25    -999.25    -999.25    -999.25   10.99190    -999.25  265.76100  265.76100    -999.25   94.53660   94.53660  267.77430   10.99190   10.79730    -999.25    -999.25   10.79730    -999.25    -999.25    -999.25    -999.25    -999.25    -999.25    -999.25   10.57430  -86.61140   -7.56620   10.57430 13884.08200 12801.86230 12689.33300
 1450.00000    -999.25    -999.25  242.82350   57.29840    -999.25    -999.25    -999.25    -999.25    -999.25   17.45250    -999.25  244.89780  244.89780    -999.25   88.81370   88.81370  242.82350   17.45250   17.26620    -999.25    -999.25   17.26620    -999.25    -999.25    -999.25    -999.25    -999.25    -999.25    -999.25   17.89220  -88.10670   -9.50780   17.89220 14155.34670 13232.07420 13097.16890
 1500.00000    -999.25    -999.25  232.42630   56.18290    -999.25    -999.25    -999.25    -999.25    -999.25   17.79900    -999.25  252.95270  252.95270    -999.25   97.60150   97.60150  232.42630   17.79900   18.06350    -999.25    -999.25   18.06350    -999.25    -999.25    -999.25    -999.25    -999.25    -999.25    -999.25   17.73990  -83.14890   -5.13240   17.73990 14426.61040 13945.09180 13871.68160
 1550.00000    -999.25    -999.25  245.72720   81.92760    -999.25    -999.25    -999.25    -999.25    -999.25   12.20590    -999.25  267.48540  267.48540    -999.25  103.82680  103.82680  245.72720   12.20590   12.21980    -999.25    -999.25   12.21980    -999.25    -999.25    -999.25    -999.25    -999.25    -999.25    -999.25   11.65570  -83.33340   -6.45710   11.65570 14697.87500 13846.71780 13797.85740
 1600.00000    -999.25    -999.25  248.10450   86.65660    -999.25    -999.25    -999.25    -999.25    -999.25   11.53980    -999.25  285.75740  285.75740    -999.25  113.54370  113.54370  248.10450   11.53980   11.86680    -999.25    -999.25   11.86680    -999.25    -999.25    -999.25    -999.25    -999.25    -999.25    -999.25   13.82310  -80.74190   -5.00580   13.82310 14969.13870 13922.44240 13903.58690
 1650.00000    -999.25    -999.25  247.74120   91.47120    -999.25    -999.25    -999.25    -999.25    -999.25   10.93240    -999.25  280.39450  280.39450    -999.25   97.73730   97.73730  247.74120   10.93240   11.12330    -999.25    -999.25   11.12330    -999.25    -999.25    -999.25    -999.25    -999.25    -999.25    -999.25   13.23630  -81.26340   -6.66750   13.23630 15240.40330 14446.76370 14471.88090
 1700.00000    -999.25    -999.25  241.22780   90.75810    -999.25    -999.25    -999.25    -999.25    -999.25   11.01830    -999.25  289.45560  289.45560    -999.25  115.94820  115.94820  241.22780   11.01830   11.18020    -999.25    -999.25   11.18020    -999.25    -999.25    -999.25    -999.25    -999.25    -999.25    -999.25   13.33010  -76.78120   -3.32550   13.33010 15511.66800 14504.37990 14534.47560
 1750.00000  273.11560  231.88520  241.19170   88.65800   62.32930 2638.74390    -999.25    0.00690    0.04170   11.27930   62.32930  254.83650  254.83650   95.85580   95.06010   95.06010  241.19170   11.27930   11.70690    -999.25    -999.25   11.70690    -999.25    0.27490    -999.25    0.27490    2.72500    2.72500 2638.74390   12.21440  -77.67190   -5.35640   12.21440 16347.96000 14788.62110 14625.54200
 1800.00000  235.86930  223.73350  229.78920   54.81580   25.39320 2534.34720    -999.25    0.06890    0.10270   18.24290   25.39320  236.05560  236.05560   67.68140   62.49410   62.49410  229.78920   18.24290   23.19550    -999.25    -999.25   23.19550    -999.25    0.20020    -999.25    0.20020    2.95400    2.95400 2534.34720   30.10000  -87.58000  -16.40470   30.10000 16829.87500 14939.44040 14890.21580
 1850.00000  229.70420  234.92870  234.55550   86.15790  248.58090 2667.12330    -999.25   -0.01120    0.02510   11.60660  248.58090  232.51610  232.51610   87.08400   89.74640   89.74640  234.55550   11.60660   13.09870    -999.25    -999.25   13.09870    -999.25    0.21310    -999.25    0.21310    3.00540    3.00540 2667.12330   14.43120  -75.05550   -5.02040   14.43120 17133.60350 15350.68070 15455.44820
 1900.00000  233.18380  248.20400  242.17120  105.90640    -999.25 2487.91530    -999.25    0.09690    0.12990    9.44230    -999.25  263.59390  263.59390  110.49580  104.76800  104.76800  242.17120    9.44230    9.92290    -999.25    -999.25    9.92290    -999.25    0.32380    -999.25    0.32380    3.00870    3.00870 2487.91530   11.03050  -70.19920   -1.30430   11.03050 16823.47660 15356.52440 15361.95800
 1950.00000  297.16890  298.67360  251.05750  258.51820   44.51460 2409.67260    -999.25    0.14300    0.17560    3.86820   44.51460  300.56920  300.56920  104.73580   98.51560   98.51560  251.05750    3.86820    4.01100    -999.25    -999.25    4.01100    -999.25    0.37680    -999.25    0.37680    3.05890    3.05890 2409.67260    4.40130  -67.46080    0.29390    4.40130 16793.92190 15642.71000 15608.57320
 2000.00000  279.99980  226.54890  249.08660   67.34050   24.24240 2575.94580    -999.25    0.04450    0.07840   14.84990   24.24240  246.82940  246.82940  116.32430  108.75350  108.75350  249.08660   14.84990   15.94780    -999.25    -999.25   15.94780    -999.25    0.23440    -999.25    0.23440    2.81350    2.81350 2575.94580   19.01340  -74.94550  -12.08300   19.01340 17279.82420 16155.58980 16036.81540
 2050.00000  307.64170  251.55920  284.76020  141.89230  120.57600 2315.67940    -999.25    0.20590    0.23060    7.04760  120.57600  287.35570  287.35570   98.06700   93.00780   93.00780  284.76020    7.04760    7.35420    -999.25    -999.25    7.35420    -999.25    0.42740    -999.25    0.42740    2.50430    2.50430 2315.67940    6.44140  -73.15620  -16.61620    6.44140 17793.42770 16301.44730 16158.16500
 2100.00000  262.71250  235.10910  260.13810   71.93420    9.17520 2623.26120    -999.25    0.00990    0.05070   13.90160    9.17520  227.99450  227.99450   70.08410   70.68100   70.68100  260.13810   13.90160   14.41800    -999.25    -999.25   14.41800    -999.25    0.25660    -999.25    0.25660    3.52830    3.52830 2623.26120   18.86020  -96.45590  -46.23840   18.86020 18290.94530 16947.05860 16773.94530
 2150.00000  326.35340  262.46510  290.84330  115.90710  130.22960 2661.17480    -999.25   -0.00250    0.02860    8.62760  130.22960  245.56560  245.56560   74.45510   75.90050   75.90050  290.84330    8.62760    8.75460    -999.25    -999.25    8.75460    -999.25    0.32560    -999.25    0.32560    3.59050    3.59050 2661.17480    9.76330  -47.29340   -3.39840    9.76330 18299.28130 17034.85350 16765.34770
 2200.00000  257.20250  296.76190  272.34370   49.03020  234.55660 2408.72070    -999.25    0.15000    0.17620   20.39560  234.55660  230.76950  230.76950   79.06390   81.41720   81.41720  272.34370   20.39560   22.92980    -999.25    -999.25   22.92980    -999.25    0.23010    -999.25    0.23010    2.91580    2.91580 2408.72070   28.91640  -55.83360  -13.96120   28.91640 19027.26560 17011.77150 16888.72460
 2250.00000  263.68050  276.12550  274.84860   56.21200   14.01660 2573.05270    -999.25    0.04730    0.08010   17.78980   14.01660  221.51120  221.51120   78.56800   76.28510   76.28510  274.84860   17.78980   19.23120    -999.25    -999.25   19.23120    -999.25    0.20960    -999.25    0.20960    2.59840    2.59840 2573.05270   22.72500  -58.79480  -18.79360   22.72500 18372.19340 16921.38670 16958.87500
