~Version ---------------------------------------------------
VERS.      2.0 : CWLS log ASCII Standard -VERSION 2.0
WRAP.       NO : One line per depth step
CREA. 08/31/17 : LAS Creation Date
~Well ------------------------------------------------------
STRT.FT                        1050.0 : START DEPTH
STOP.FT                       10000.0 : STOP DEPTH
STEP.FT                      50.00000 : STEP LENGTH
NULL.                         -999.25 : NULL VALUE
COMP.     SAMEDAN OIL OF CANADA, INC. : COMPANY
WELL. SAMEDAN ET AL GROAT 11-26-58-14 : WELL
FLD .                              WC : FIELD
LOC .                                 : LOCATION
CTRY.                          CANADA : COUNTRY
SRVC.                    Schlumberger : SERVICE COMPANY
DATE.                     02-Sep-1971 : LOGDATE
PROV.                         Alberta : PROVINCE
UWI .                100112605814W500 : UNIQUE WELL ID
SLAT.WGS84              54.0443223027 : SURFACE LATITUDE
SLON.WGS84            -115.9745953407 : SURFACE LONGITUDE
~Curve Information -----------------------------------------
DEPT  .FT    : Depth Curve
CALSED.IN    : CALIPER FROM SONIC LOG
CALWS .IN    : CALIPER [CALSED]
CONDWS.MMHO  : CONDUCTIVITY [1000/DRESWS]
DRESWS.OHMM  : DEEP RESISTIVITY [ILDED]
DTED  .US/F  : DELTA-T (INTERVAL TRANSIT TIME) FROM SONIC LOG [DEPTH ADJ TO LL8]
DTWS  .US/F  : COMPRRESSIONAL SONIC [DTED]
GRSED .GAPI  : GAMMA RAY FROM SONIC LOG
GRWS  .GAPI  : GAMMA RAY [GRSED]
ILDED .OHMM  : DEEP INDUCTION FROM RESISTIVIY LOG
ILMED .OHMM  : MEDIUM INDUCTION  FROM RESISTIVIY LOG
LL8ED .OHMM  : LATEROLOG 8  FROM RESISTIVIY LOG
MRESWS.OHMM  : MEDIUM RESISTIVITY [ILMED]
SPRED .MV    : SPONTANEOUS POTENTIAL  FROM RESISTIVIY LOG
SPWS  .MV    : SPONTANEOUS POTENTIAL [BASELINE 0 MV, SPRED]
SRESWS.OHMM  : SHALLOW RESISTIVITY [LL8ED]
~Params ----------------------------------------------------
PD  .                     GL : PERMANENT DATUM
EPD .FT               3086.5 : ELEVATION PERMANENT DATUM
LMF .                     KB : LOG MEASURED FROM
DAPD.FT                   18 : FEET ABOVE PERMANENT DATUM
DMF .                     KB : DRILLING MEASURED FROM
EKB .FT               3104.5 : KELLY BUSHING
EGL .FT               3086.5 : GROUND LEVEL
DATE.               09/02/71 : RUN DATE
RUN .                      1 : RUN NUMBER
DD  .FT                10023 : DEPTH DRILLER
DL  .FT                10020 : DEPTH LOGGER
BLI .FT                10014 : BOTTOM LOG INTERVAL
TLI .FT                 1042 : TOP LOG INTERVAL
CBD .FT                 1043 : CASING BOTTOM DRILLER
CBL .FT                 1042 : CASING BOTTOM LOGGER
BS  .IN                 8.75 : BIT SIZE
BSD .FT                10023 : BIT SIZE AT DEPTH
DFT .                    GEL : DRILLING FLUID TYPE
DFD .                    9.1 : DRILLING FLUID DENSITY
DFV .                    145 : DRILLING FLUID VISCOSITY
DFPH.                    9.5 : DRILLING FLUID PH
DFL .                     88 : DRILLING FLUID LOSS
MSS .               FLOWLINE : MUD SAMPLE SOURCE
RMS .OHMM               1.22 : RESISTIVITY MUD SAMPLE
MST .DEGF                 82 : MUD SAMPLE TEMPERATURE
RMF .OHMM                1.0 : RESISTIVITY MUD FILTRATE SAMPLE
MFST.DEGF                 82 : MUD FILTRATE SAMPLE TEMPERATURE
TCS .HRS                 2.5 : TIME CIRCULATED STOPPED
LUN .                   7636 : LOGGING UNIT NUMBER
LUL .                    EDM : LOGGING UNIT LOCATION
ENGI.            LEITH KEOWN : RECORDING ENGINEER
WITN.           MASON MCLEOD : WITNESSED BY
CLNT.                A2DTECH : CLIENT CODE
ORIG.            2" 5" PRINT : ORIGIN OF DATA
UWI .       100112605814W500 : UNIQUE WELL ID
DICO. A2D Technologies, Inc. : DIGITIZING COMPANY
~Other -----------------------------------------------------
~ASCII -----------------------------------------------------
# ...
 5650.00000    9.74820    9.74820   57.56260   17.37240   76.85770   76.85770   38.60370   38.60370   17.37240   18.29230   20.07170   18.29230  -88.09040  -40.96760   20.07170
 5700.00000   10.99520   10.99520  123.95870    8.06720   86.56490   86.56490   79.74800   79.74800    8.06720    6.70670    7.58940    6.70670  -61.17330  -13.15610    7.58940
 5750.00000   11.08250   11.08250  190.11770    5.25990  141.90000  141.90000   81.72640   81.72640    5.25990    3.78490    4.21720    3.78490  -52.90890   -4.00320    4.21720
 5800.00000   12.12040   12.12040   64.33470   15.54370  136.31780  136.31780   53.23580   53.23580   15.54370    7.90680    9.74880    7.90680  -53.65120   -3.85710    9.74880
 5850.00000   10.00270   10.00270  111.63210    8.95800   72.42140   72.42140   42.77400   42.77400    8.95800    8.52180    9.35530    8.52180  -73.62320  -22.93470    9.35530
 5900.00000   10.36150   10.36150   87.98560   11.36550   73.32610   73.32610  100.23360  100.23360   11.36550   10.61950   11.74410   10.61950  -59.47150   -7.89450   11.74410
 5950.00000    9.66440    9.66440  118.73520    8.42210   71.50320   71.50320   64.96830   64.96830    8.42210    8.90870   10.34170    8.90870  -73.42830  -20.95700   10.34170
 6000.00000   10.14780   10.14780  170.60190    5.86160   75.26140   75.26140   66.91660   66.91660    5.86160    6.80570    6.41040    6.80570  -69.05590  -15.69610    6.41040
 6050.00000    9.67820    9.67820   87.65010   11.40900   74.92990   74.92990   74.47030   74.47030   11.40900    9.71050   10.31920    9.71050  -62.32420   -8.07590   10.31920
 6100.00000    9.67160    9.67160   59.98580   16.67060   63.25550   63.25550   35.66760   35.66760   16.67060   15.43760   22.76100   15.43760  -80.19640  -25.05380   22.76100
 6150.00000   10.29350   10.29350  111.11360    8.99980   77.59900   77.59900   71.94000   71.94000    8.99980    7.50950    7.07720    7.50950  -66.18700  -10.15590    7.07720
 6200.00000   11.15540   11.15540  123.23620    8.11450   78.06320   78.06320   74.50630   74.50630    8.11450    6.50230    7.01960    6.50230  -56.06010    1.90570    7.01960
 6250.00000    9.90120    9.90120  102.20460    9.78430   74.65790   74.65790   73.30570   73.30570    9.78430    7.29830    9.06750    7.29830  -73.13960   -9.89260    9.06750
 6300.00000    9.77040    9.77040  106.04340    9.43010   80.24340   80.24340   89.27200   89.27200    9.43010    8.88700   10.54360    8.88700  -74.08360   -5.55530   10.54360
 6350.00000    9.35690    9.35690   13.07240   76.49730   63.63350   63.63350   45.66780   45.66780   76.49730   58.47760   51.37210   58.47760  -86.39810  -12.55390   51.37210
 6400.00000    9.42020    9.42020   44.91090   22.26630   68.39120   68.39120   95.16840   95.16840   22.26630   20.42530   18.12060   20.42530  -90.29040  -11.16490   18.12060
 6450.00000   10.71440   10.71440  101.91810    9.81180   78.78220   78.78220   85.72240   85.72240    9.81180    8.08710   10.67180    8.08710  -90.87650  -10.63620   10.67180
 6500.00000    8.51530    8.51530   52.26900   19.13180   61.51170   61.51170   27.95890   27.95890   19.13180   28.72380   44.63750   28.72380 -153.48530  -73.66540   44.63750
 6550.00000    8.89850    8.89850   17.06090   58.61370   62.97320   62.97320   15.07220   15.07220   58.61370   52.01870   97.82030   52.01870 -132.36700  -52.96740   97.82030
 6600.00000    8.90220    8.90220    0.65410 1528.89250   60.33700   60.33700   32.55270   32.55270 1528.89250  244.76720  232.34970  244.76720 -104.38410  -25.40760  232.34970
 6650.00000    9.14500    9.14500   30.50710   32.77930   58.30950   58.30950  177.22910  177.22910   32.77930   42.34630   50.60000   42.34630 -118.69860  -40.14250   50.60000
 6700.00000    8.59230    8.59230   67.58360   14.79650   51.56020   51.56020   45.95390   45.95390   14.79650   16.87380   22.23240   16.87380 -119.16100  -41.02800   22.23240
 6750.00000    9.16500    9.16500   11.63120   85.97600   48.40390   48.40390   14.28560   14.28560   85.97600  181.05460  284.08510  181.05460 -179.32820 -101.61550  284.08510
 6800.00000    8.95590    8.95590   67.60460   14.79190   73.90590   73.90590   15.08150   15.08150   14.79190   25.78170   49.61430   25.78170 -179.81730 -102.52490   49.61430
 6850.00000    9.31260    9.31260  150.88650    6.62750   60.02200   60.02200   56.09480   56.09480    6.62750    7.28550    7.95510    7.28550 -116.48140  -39.61220    7.95510
 6900.00000    9.25370    9.25370   73.90980   13.53000   59.53940   59.53940   71.60810   71.60810   13.53000   13.04120   18.29770   13.04120 -113.24280  -36.79390   18.29770
 6950.00000   10.01260   10.01260  312.47070    3.20030   64.61750   64.61750   27.88780   27.88780    3.20030    3.38860   11.34640    3.38860 -144.94450  -68.91870   11.34640
 7000.00000    9.39130    9.39130   27.12660   36.86420   58.28850   58.28850   57.22330   57.22330   36.86420   28.31000   31.46100   28.31000  -95.23590  -19.63040   31.46100
 7050.00000    9.09930    9.09930   21.13660   47.31140   55.19970   55.19970   26.68970   26.68970   47.31140   37.49390   43.41690   37.49390 -119.52090  -44.33580   43.41690
 7100.00000    8.97850    8.97850   21.07280   47.45450   51.96670   51.96670   11.68090   11.68090   47.45450   40.43330   72.53160   40.43330 -143.51740  -68.75540   72.53160
 7150.00000    8.96290    8.96290   19.88860   50.28000   52.87480   52.87480   16.33710   16.33710   50.28000   36.30560   46.15680   36.30560 -136.50430  -62.16260   46.15680
 7200.00000    8.94780    8.94780    9.17100  109.03970   54.07070   54.07070   26.00680   26.00680  109.03970   63.60940   58.72110   63.60940 -106.85770  -32.93910   58.72110
 7250.00000    8.87730    8.87730   10.62910   94.08100   53.97280   53.97280   27.14510   27.14510   94.08100   61.50590   57.57750   61.50590 -108.65380  -35.15560   57.57750
 7300.00000    8.93050    8.93050    7.51170  133.12550   54.62020   54.62020   31.20710   31.20710  133.12550   75.96540   67.52440   75.96540  -97.36270  -24.28480   67.52440
 7350.00000    9.22870    9.22870   21.27300   47.00790   73.47880   73.47880  149.92280  149.92280   47.00790   38.16660   61.05100   38.16660  -85.14280  -12.48800   61.05100
 7400.00000    9.02000    9.02000    3.70060  270.22530   51.34150   51.34150   42.72370   42.72370  270.22530  241.99740  562.19650  241.99740 -107.70580  -34.65360  562.19650
 7450.00000    9.26200    9.26200    0.56810 1760.27080   49.30240   49.30240   13.59330   13.59330 1760.27080  288.29730  373.54150  288.29730 -135.77690  -62.21410  373.54150
 7500.00000    9.31650    9.31650    0.55500 1801.77110   49.72670   49.72670   15.18580   15.18580 1801.77110  476.46150  385.19800  476.46150 -142.88620  -68.81620  385.19800
 7550.00000    9.68590    9.68590    0.53290 1876.35680   50.09770   50.09770   12.44040   12.44040 1876.35680  309.38710  266.46390  309.38710 -155.35310  -80.77590  266.46390
 7600.00000    9.51920    9.51920    5.29100  189.00080   47.53340   47.53340   10.41370   10.41370  189.00080  111.84730  160.27210  111.84730 -164.72330  -89.63550  160.27210
 7650.00000    9.62980    9.62980    0.51110 1956.50210   50.27610   50.27610   10.21370   10.21370 1956.50210  268.69170  329.36450  268.69170 -164.58260  -88.98750  329.36450
 7700.00000    9.08590    9.08590   16.74250   59.72810   49.01900   49.01900    5.28750    5.28750   59.72810   43.80620  191.51010   43.80620 -171.75800  -95.65240  191.51010
 7750.00000    8.91990    8.91990   17.72390   56.42110   47.64570   47.64570    7.49940    7.49940   56.42110   61.63020  131.91560   61.63020 -176.54590  -99.93300  131.91560
 7800.00000    9.39650    9.39650    0.56300 1776.26070   48.44210   48.44210    7.45790    7.45790 1776.26070  286.29190  159.64300  286.29190 -166.27740  -89.15730  159.64300
 7850.00000    9.62000    9.62000    0.53630 1864.54920   48.83060   48.83060   12.06450   12.06450 1864.54920  444.78600  310.85950  444.78600 -161.94890  -84.31820  310.85950
 7900.00000    9.19150    9.19150    0.61970 1613.80980   48.77200   48.77200   11.18660   11.18660 1613.80980  203.53110  176.01710  203.53110 -163.71730  -85.57930  176.01710
