~Version ---------------------------------------------------
VERS.      2.0 : CWLS log ASCII Standard -VERSION 2.0
WRAP.       NO : One line per depth step
CREA. 10/26/17 : LAS Creation Date
~Well ------------------------------------------------------
STRT.FT                    1300.0 : START DEPTH
STOP.FT                   12250.0 : STOP DEPTH
STEP.FT                  50.00000 : STEP LENGTH
NULL.                     -999.25 : NULL VALUE
COMP.  TEXACO EXPLORATION COMPANY : COMPANY
WELL. TEXACO MARLBORO 10-12-54-18 : WELL
FLD .                             : FIELD
LOC .                             : LOCATION
CTRY.                      CANADA : COUNTRY
SRVC.      Schlumberger of Canada : SERVICE COMPANY
DATE.                 04-Oct-1969 : LOGDATE
PROV.                     Alberta : PROVINCE
UWI .            100101205418W500 : UNIQUE WELL ID
SLAT.WGS84                53.6526 : SURFACE LATITUDE
SLON.WGS84               -116.514 : SURFACE LONGITUDE
~Curve Information -----------------------------------------
DEPT   .FT    : Depth Curve
CALDED .IN    : CALIPER FROM DENSITY LOG [DEP. ADJ. TO RESIST. LOG]
CALSED .IN    : CALIPER FROM SONIC LOG [DEP. ADJ. TO RESIST. LOG]
CALWS  .IN    : CALIPER [3734' CALSED 8553'CALDED]
CILDED .MMHO  : CONDUCTIVITY FROM RESISTIVITY LOG
CONDWS .MMHO  : CONDUCTIVITY [1000/DRESWS]
DCORWS .G/C3  : DENSITY CORRECTION [DRHOED]
DENWS  .G/C3  : BULK DENSITY [M=2.71, F=1.00 ASSUMED] [RHOBED]
DPOLSWS.V/V   : DENSITY POROSITY [M=2.71, F=1.00 ASSUMED] [CAL. FROM DENWS]
DRESWS .OHMM  : DEEP RESISTIVITY [1000/CILDED][READINGS >2000 ARE REDUCED TO 2000 OHMM]
DRHOED .G/C3  : DENSITY CORRECTION FROM DENSITY LOG [DEP. ADJ. TO RESIST. LOG]
DTED   .US/F  : DELTA TIME FROM SONIC LOG [DEP. ADJ. TO RESIST. LOG]
DTWS   .US/F  : DELTA TIME [DTED]
GRDED  .GAPI  : GAMMA RAY FROM DENSITY LOG [DEP. ADJ. TO RESIST. LOG]
GRSED  .GAPI  : GAMMA RAY FROM SONIC LOG [DEP. ADJ. TO RESIST. LOG]
GRWS   .GAPI  : GAMMA RAY [3734' GRSED 8556' GRDED]
ILDED  .OHMM  : INDUCTION LOG DEEP RESISTIVITY
RHOBED .G/C3  : BULK DENSITY FROM DENSITY LOG [DEP. ADJ. TO RESIST. LOG]
SNED   .OHMM  : 16 INCH SHORT NORMAL RESISTIVITY FROM IEL
SPRED  .MV    : SPONTANEOUS POTENTIAL FROM RESISTIVITY LOG
SPWS   .MV    : SPONTANEOUS POTENTIAL [BASELINE 0 MV] [SPRED]
SRESWS .OHMM  : SHALLOW RESISTIVITY [SNED]
~Params ----------------------------------------------------
PD  .                     GL : PERMANENT DATUM
EPD .FT               3162.6 : ELEVATION PERMANENT DATUM
LMF .                     KB : LOG MEASURED FROM
DAPD.FT                 13.7 : FEET ABOVE PERMANENT DATUM
EKB .FT               3179.3 : KELLY BUSHING
EGL .FT               3165.6 : GROUND LEVEL
DATE.               11/18/69 : RUN DATE
RUN .                      1 : RUN NUMBER
DD  .FT                12259 : DEPTH DRILLER
DL  .FT                12263 : DEPTH LOGGER
BLI .FT                12262 : BOTTOM LOG INTERVAL
TLI .FT                 8816 : TOP LOG INTERVAL
CBD .FT                 1266 : CASING BOTTOM DRILLER
CBL .FT                 1264 : CASING BOTTOM LOGGER
BSD .FT                12259 : BIT SIZE AT DEPTH
DFT .               GEL CHEM : DRILLING FLUID TYPE
DFD .                   10.5 : DRILLING FLUID DENSITY
DFV .                     60 : DRILLING FLUID VISCOSITY
DFPH.                      9 : DRILLING FLUID PH
DFL .                    6.8 : DRILLING FLUID LOSS
RMS .OHMM               1.58 : RESISTIVITY MUD SAMPLE
MST .DEGF                 68 : MUD SAMPLE TEMPERATURE
RMF .OHMM               1.05 : RESISTIVITY MUD FILTRATE SAMPLE
MFST.DEGF                 66 : MUD FILTRATE SAMPLE TEMPERATURE
RMC .OHMM               1.92 : RESISTIVITY MUD CAKE
MCST.DEGF                 68 : MUD CAKE SAMPLE TEMPERATURE
RMB .OHMM               0.47 : RESISTIVITY MUD AT BHT
TCS .HRS                 2.5 : TIME CIRCULATED STOPPED
LUN .                   7502 : LOGGING UNIT NUMBER
LUL .                    EDM : LOGGING UNIT LOCATION
ENGI.                 SLADEN : RECORDING ENGINEER
WITN.               BRYNLUND : WITNESSED BY
CLNT.                A2DTECH : CLIENT CODE
ORIG.            2" 5" PRINT : ORIGIN OF DATA
UWI .       100101205418W500 : UNIQUE WELL ID
DICO. A2D Technologies, Inc. : DIGITIZING COMPANY
~Other -----------------------------------------------------
~ASCII -----------------------------------------------------
# ...
 4600.00000    -999.25   10.71090   10.71090  135.35000  135.35000    -999.25    -999.25    -999.25    7.38830    -999.25   86.54060   86.54060    -999.25   64.95110   64.95110    7.12000    -999.25    9.02480    3.91270   -2.46820    9.02480
 4650.00000    -999.25   10.43920   10.43920  117.14010  117.14010    -999.25    -999.25    -999.25    8.53680    -999.25   83.28930   83.28930    -999.25   59.76590   59.76590    8.45970    -999.25   11.73190    3.85550   -2.55820   11.73190
 4700.00000    -999.25   10.62650   10.62650  112.82980  112.82980    -999.25    -999.25    -999.25    8.86290    -999.25   82.72370   82.72370    -999.25   63.30760   63.30760    8.44100    -999.25   11.02080    3.60200   -2.84480   11.02080
 4750.00000    -999.25   11.32000   11.32000  104.50560  104.50560    -999.25    -999.25    -999.25    9.56890    -999.25   82.98960   82.98960    -999.25   61.32280   61.32280    8.98390    -999.25   10.51330    4.38090   -2.09870   10.51330
 4800.00000    -999.25   10.73780   10.73780  115.19950  115.19950    -999.25    -999.25    -999.25    8.68060    -999.25   85.45890   85.45890    -999.25   58.87530   58.87530    8.40710    -999.25   10.56590    4.04800   -2.46450   10.56590
 4850.00000    -999.25   10.44510   10.44510   43.97040   43.97040    -999.25    -999.25    -999.25   22.74260    -999.25   70.50390   70.50390    -999.25   37.14440   37.14440   19.66390    -999.25   27.43910   -2.79810   -9.34370   27.43910
 4900.00000    -999.25   10.39990   10.39990   64.20470   64.20470    -999.25    -999.25    -999.25   15.57520    -999.25   75.37680   75.37680    -999.25   61.24110   61.24110   13.97690    -999.25   15.55170    4.08340   -2.49500   15.55170
 4950.00000    -999.25   11.02890   11.02890   78.62690   78.62690    -999.25    -999.25    -999.25   12.71830    -999.25   84.10940   84.10940    -999.25   62.31220   62.31220   11.59190    -999.25   14.71960    3.75690   -2.85460   14.71960
 5000.00000    -999.25   10.14100   10.14100  100.71610  100.71610    -999.25    -999.25    -999.25    9.92890    -999.25   88.48860   88.48860    -999.25   60.73340   60.73340    9.27180    -999.25   12.12200    3.87160   -2.67600   12.12200
 5050.00000    -999.25   10.88480   10.88480   94.08960   94.08960    -999.25    -999.25    -999.25   10.62820    -999.25   83.15480   83.15480    -999.25   64.44340   64.44340    9.75450    -999.25   13.09600    3.81820   -2.61950   13.09600
 5100.00000    -999.25   10.68280   10.68280   90.21290   90.21290    -999.25    -999.25    -999.25   11.08490    -999.25   80.86790   80.86790    -999.25   65.82420   65.82420   10.29140    -999.25   13.18460    3.96980   -2.35720   13.18460
 5150.00000    -999.25   11.38100   11.38100   79.23150   79.23150    -999.25    -999.25    -999.25   12.62120    -999.25   79.56660   79.56660    -999.25   71.58620   71.58620   11.67610    -999.25   14.83590    3.62510   -2.59200   14.83590
 5200.00000    -999.25   11.89660   11.89660  103.92620  103.92620    -999.25    -999.25    -999.25    9.62220    -999.25   85.42750   85.42750    -999.25   90.66340   90.66340    9.12970    -999.25   12.00840    2.07830   -4.02810   12.00840
 5250.00000    -999.25   11.69750   11.69750   83.34980   83.34980    -999.25    -999.25    -999.25   11.99760    -999.25   79.42910   79.42910    -999.25   89.87170   89.87170   11.11620    -999.25   14.32270    2.17850   -3.81800   14.32270
 5300.00000    -999.25   11.09200   11.09200   65.33170   65.33170    -999.25    -999.25    -999.25   15.30650    -999.25   76.11830   76.11830    -999.25   93.71670   93.71670   13.79410    -999.25   17.00430    1.84420   -4.04240   17.00430
 5350.00000    -999.25   11.21230   11.21230   64.56150   64.56150    -999.25    -999.25    -999.25   15.48910    -999.25   78.10970   78.10970    -999.25   88.44590   88.44590   14.22200    -999.25   17.48590    2.02050   -3.75540   17.48590
 5400.00000    -999.25   11.42020   11.42020   73.33730   73.33730    -999.25    -999.25    -999.25   13.63560    -999.25   78.70310   78.70310    -999.25   88.98570   88.98570   12.53790    -999.25   16.31220    2.27430   -3.39170   16.31220
 5450.00000    -999.25   12.27050   12.27050   78.73290   78.73290    -999.25    -999.25    -999.25   12.70120    -999.25   82.08060   82.08060    -999.25   96.95650   96.95650   11.74050    -999.25   16.63130    3.90880   -1.64660   16.63130
 5500.00000    -999.25   11.24900   11.24900   62.16400   62.16400    -999.25    -999.25    -999.25   16.08650    -999.25   86.35780   86.35780    -999.25  125.39290  125.39290   14.81660    -999.25   21.45810    4.50440   -0.94100   21.45810
 5550.00000    -999.25   11.78060   11.78060   71.37180   71.37180    -999.25    -999.25    -999.25   14.01110    -999.25   81.61880   81.61880    -999.25   85.49320   85.49320   12.72160    -999.25   16.97310    2.12180   -3.31860   16.97310
 5600.00000    -999.25   11.68610   11.68610   98.48980   98.48980    -999.25    -999.25    -999.25   10.15330    -999.25   84.07960   84.07960    -999.25   95.58060   95.58060    9.52630    -999.25   12.94820    1.94990   -3.49050   12.94820
 5650.00000    -999.25   10.76380   10.76380   80.63020   80.63020    -999.25    -999.25    -999.25   12.40230    -999.25   79.01040   79.01040    -999.25   90.83800   90.83800   11.40820    -999.25   14.64560    1.76050   -3.67990   14.64560
 5700.00000    -999.25   12.91590   12.91590  121.51600  121.51600    -999.25    -999.25    -999.25    8.22940    -999.25   82.57430   82.57430    -999.25   90.49490   90.49490    7.96370    -999.25    9.95620    0.15020   -5.29020    9.95620
 5750.00000    -999.25   10.91210   10.91210  122.91100  122.91100    -999.25    -999.25    -999.25    8.13600    -999.25   87.21220   87.21220    -999.25   83.19820   83.19820    7.85440    -999.25   10.24420    1.63900   -3.80140   10.24420
 5800.00000    -999.25   10.67230   10.67230  117.11390  117.11390    -999.25    -999.25    -999.25    8.53870    -999.25   80.50210   80.50210    -999.25   94.64300   94.64300    8.08290    -999.25   10.56940    0.71050   -4.72990   10.56940
 5850.00000    -999.25   10.83210   10.83210   69.64060   69.64060    -999.25    -999.25    -999.25   14.35940    -999.25   74.19010   74.19010    -999.25   75.69640   75.69640   13.04160    -999.25   16.41340    2.12480   -3.31560   16.41340
 5900.00000    -999.25   10.75440   10.75440   81.00940   81.00940    -999.25    -999.25    -999.25   12.34420    -999.25   73.11570   73.11570    -999.25   80.92840   80.92840   11.38240    -999.25   14.46690    1.69100   -3.74940   14.46690
 5950.00000    -999.25   10.49620   10.49620  121.43220  121.43220    -999.25    -999.25    -999.25    8.23500    -999.25   82.88110   82.88110    -999.25   91.09950   91.09950    7.92320    -999.25   10.69070    2.27480   -3.16560   10.69070
 6000.00000    -999.25   11.16720   11.16720  103.76000  103.76000    -999.25    -999.25    -999.25    9.63760    -999.25   92.02500   92.02500    -999.25   90.79830   90.79830    9.25440    -999.25   11.97880    2.85220   -2.95850   11.97880
 6050.00000    -999.25   14.25310   14.25310  136.84520  136.84520    -999.25    -999.25    -999.25    7.30750    -999.25   95.85690   95.85690    -999.25   77.82440   77.82440    7.03160    -999.25    8.66760    3.48780   -3.06360    8.66760
 6100.00000    -999.25   13.02100   13.02100  104.72990  104.72990    -999.25    -999.25    -999.25    9.54840    -999.25   81.01890   81.01890    -999.25   81.63770   81.63770    9.11180    -999.25   10.08470    2.17720   -5.11980   10.08470
 6150.00000    -999.25   13.82350   13.82350  107.33540  107.33540    -999.25    -999.25    -999.25    9.31660    -999.25   89.51260   89.51260    -999.25   77.53020   77.53020    8.81300    -999.25   10.30230    3.36550   -4.67220   10.30230
 6200.00000    -999.25   10.52210   10.52210   61.47330   61.47330    -999.25    -999.25    -999.25   16.26720    -999.25   72.41430   72.41430    -999.25   83.20800   83.20800   15.17640    -999.25   18.25290    3.62360   -5.15970   18.25290
