~Version ---------------------------------------------------
VERS. 2.0 : CWLS log ASCII Standard -VERSION 2.0
WRAP.  NO : ONE LINE PER DEPTH STEP
~Well ------------------------------------------------------
STRT.F                         950.0 : START DEPTH
STOP.F                        9400.0 : STOP DEPTH
STEP.F                      50.00000 : STEP LENGTH
NULL.                        -999.25 : NULL VALUE
COMP. CANADIAN PACIFIC OIL & GAS LTD : COMPANY
WELL.       CPOG OBERLIN 10-15-38-21 : WELL
FLD .                                : FIELD
LOC .                                : LOCATION
CTRY.                         CANADA : COUNTRY
SRVC.                        Unknown : SERVICE COMPANY
DATE.                    13-Apr-1967 : LOGDATE
PROV.                        Alberta : PROVINCE
UWI .               100101503821W400 : UNIQUE WELL ID
SLAT.WGS84                  52.26833 : SURFACE LATITUDE
SLON.WGS84                 -112.9183 : SURFACE LONGITUDE
~Curve Information -----------------------------------------
DEPT.F     : 
CALD.IN    : CALIPER FROM DENSITY LOG
DRHO.G/C3  : DENSITY CORRECTION
RHOB.G/C3  : BULK DENSITY
GRN .GAPI  : GAMMA RAY FROM NEUTRON GAMMA RAY
NEUT.NAPI  : NEUTRON FROM NEUTRON GAMMA RAY
CAL .IN    : CALIPER FROM CALIPER LOG
GRS .GAPI  : GAMMA RAY FROM SONIC LOG
DT  .US/F  : DELTA TIME FROM SONIC LOG
ILD .OHMM  : DEEP INDUCTION RESISTIVITY
ILM .OHMM  : INDUCTION MEDIUM RESISTIVITY
LL8 .OHMM  : LATEROLOG-8 RESISTIVITY
SPR .MV    : SPONTANEOUS POTENTIAL FROM RESISTIVITY
~Params ----------------------------------------------------
PD  .                     GL : PERMANENT DATUM
EPD .FT               2675.8 : ELEVATION PERMANENT DATUM
LMF .                     KB : LOG MEASURED FROM
DAPD.FT                   13 : FEET ABOVE PERMANENT DATUM
DMF .                     KB : DRILLING MEASURED FROM
EKB .FT               2688.8 : KELLY BUSHING
EGL .FT               2675.8 : GROUND LEVEL
DATE.               04/13/67 : RUN DATE
RUN .                      1 : RUN NUMBER
DD  .FT                 9418 : DEPTH DRILLER
DL  .FT                 9417 : DEPTH LOGGER
BLI .FT                 9413 : BOTTOM LOG INTERVAL
TLI .FT                  920 : TOP LOG INTERVAL
CBD .FT                  920 : CASING BOTTOM DRILLER
CBL .FT                  918 : CASING BOTTOM LOGGER
BS  .IN                 8.75 : BIT SIZE
BSD .FT                 9417 : BIT SIZE AT DEPTH
DFT .            CAUSTIC GEL : DRILLING FLUID TYPE
DFD .                   10.4 : DRILLING FLUID DENSITY
DFV .                     68 : DRILLING FLUID VISCOSITY
DFPH.                   10.5 : DRILLING FLUID PH
DFL .                    9.6 : DRILLING FLUID LOSS
MSS .               FLOWLINE : MUD SAMPLE SOURCE
RMS .OHMM              0.397 : RESISTIVITY MUD SAMPLE
MST .DEGF                 62 : MUD SAMPLE TEMPERATURE
RMF .OHMM              0.211 : RESISTIVITY MUD FILTRATE SAMPLE
MFST.DEGF                 76 : MUD FILTRATE SAMPLE TEMPERATURE
RMB .OHMM              0.094 : RESISTIVITY MUD AT BHT
TCS .HRS                   3 : TIME CIRCULATED STOPPED
LUN .                   7014 : LOGGING UNIT NUMBER
LUL .                  STETT : LOGGING UNIT LOCATION
ENGI.                  YOUNG : RECORDING ENGINEER
WITN.                KOZBIAL : WITNESSED BY
CLNT.                A2DTECH : CLIENT CODE
ORIG.            2" 5" PRINT : ORIGIN OF DATA
UWI .       100101503821W400 : UNIQUE WELL ID
DICO. A2D Technologies, Inc. : DIGITIZING COMPANY
~Other -----------------------------------------------------
~ASCII -----------------------------------------------------
# ...
 6550.00000   11.40200    0.01770    2.69040    -999.25    -999.25    -999.25   34.36060   52.09730   60.98960   31.48190   71.05150  -59.27550
 6600.00000   10.64880    0.00860    2.72980    -999.25    -999.25    -999.25   40.88070   55.88070   31.22350   24.81480   47.28170 -114.64880
 6650.00000   10.94920    0.00880    2.71460    -999.25    -999.25    -999.25   24.40110   53.91760   37.21990   19.69470   86.23370 -127.89740
 6700.00000   10.74810    0.00640    2.69020    -999.25    -999.25    -999.25   33.99290   51.82270  245.75250   60.89600  148.78900 -118.28730
 6750.00000   11.17500    0.02490    2.68000    -999.25    -999.25    -999.25   24.66580   50.75820   89.46920   68.62430  138.25200 -121.93470
 6800.00000    9.07710    0.05180    2.61020    -999.25    -999.25    -999.25   17.02640   56.44820    8.20840   11.21300   22.11990 -138.82100
 6850.00000   10.50830    0.01370    2.70570    -999.25    -999.25    -999.25   24.10290   50.47200  216.70260   75.39750  434.90090 -122.61540
 6900.00000   10.16490    0.00250    2.69180    -999.25    -999.25    -999.25   27.58400   51.49460  179.57460   55.63570  244.57430 -111.70000
 6950.00000   11.48940    0.00830    2.69760    -999.25    -999.25    -999.25   18.78000   50.66600   71.38030   46.92630   87.36330 -127.05750
 7000.00000    9.81810   -0.00710    2.67640    -999.25    -999.25    -999.25   25.46190   52.14750   94.24620   60.03450   95.54670 -116.12380
 7050.00000   11.14970   -0.00170    2.70660    -999.25    -999.25    -999.25   71.44640   65.59530   10.91400   10.33030   15.63220  -94.74350
 7100.00000   10.35850    0.00730    2.71280    -999.25    -999.25    -999.25   32.69720   54.20370   71.26370   43.78320  167.91330 -103.06330
 7150.00000    9.96700    0.01010    2.75730    -999.25    -999.25    -999.25   64.31350   55.61880    9.52040    8.61450   14.69950 -103.78140
 7200.00000    9.99420    0.00980    2.67190    -999.25    -999.25    -999.25   44.21970   57.60240   24.66830   21.40200   41.06490  -97.48800
 7250.00000    -999.25    0.07480    2.29110    -999.25    -999.25    -999.25   30.45930   59.71120   59.00830    3.47540    2.81480 -118.13290
 7300.00000   10.79790    0.03710    2.66080    -999.25    -999.25    -999.25   28.81050   53.81900   16.60680   12.92250   17.93660 -139.75870
 7350.00000   10.22330    0.00870    2.43360    -999.25    -999.25    -999.25   45.01540   55.33600    4.22440    3.57310    4.54380 -142.42210
 7400.00000   11.08420    0.04050    2.49190    -999.25    -999.25    -999.25  129.05240   68.86940    4.99570    5.69110   10.86950 -137.89910
 7450.00000   10.80180    0.00520    2.57040    -999.25    -999.25    -999.25  109.30440   60.78040   37.83110   18.24060   40.38990 -120.63550
 7500.00000   12.28670    0.01440    2.58710    -999.25    -999.25    -999.25   77.21110   53.95340    4.94320   13.35230   19.97270 -108.89430
 7550.00000   12.96760    0.00350    2.59420    -999.25    -999.25    -999.25   93.40280   57.03820   20.00130    9.56910   35.51020  -83.41620
 7600.00000   11.54650    0.00760    2.50730    -999.25    -999.25    -999.25  107.12290   97.60930    6.19050    2.71970    8.79440 -102.27160
 7650.00000   12.12420    0.01940    2.50860    -999.25    -999.25    -999.25  107.31580   83.25910    4.20490    3.31830    7.48260 -118.61170
 7700.00000   11.60520    0.01680    2.53170    -999.25    -999.25    -999.25  108.97620   72.65490    4.48520    2.94840    7.87560 -102.88510
 7750.00000   10.59630   -0.00360    2.61730    -999.25    -999.25    -999.25   70.33870   54.66980   22.46200   16.20740   34.49970  -99.46560
 7800.00000   14.41950    0.14170    2.23490    -999.25    -999.25    -999.25   92.51530   82.54970    4.07410    2.11190    4.85150  -89.18140
 7850.00000    -999.25    0.06820    2.31110    -999.25    -999.25    -999.25   86.19390   68.37050    4.56120    2.45500    6.13690  -75.87910
 7900.00000    -999.25    0.14360    2.30160    -999.25    -999.25    -999.25   86.33750   69.85500    7.55470    3.78030    9.92980  -67.94950
 7950.00000   11.56480    0.18310    2.44390    -999.25    -999.25    -999.25   89.72780   58.26410   34.74670   19.58190   17.05160  -61.85160
 8000.00000   12.00670    0.07120    2.52920    -999.25    -999.25    -999.25   67.11060   59.38280   17.83240   12.58950   31.42990  -63.97940
 8050.00000   11.04660    0.03620    2.55090    -999.25    -999.25    -999.25   75.26100   60.91620   41.51230   15.04170   83.91220  -67.87190
 8100.00000   11.33020    0.17590    2.33860    -999.25    -999.25    -999.25   93.35570   65.46150   17.60880   12.51430   15.36520  -63.48280
 8150.00000   11.67670   -0.00500    2.34120    -999.25    -999.25    -999.25   89.71530   69.57370   10.12780    5.23030    9.02240  -78.24460
 8200.00000    -999.25    0.09850    2.30230    -999.25    -999.25    -999.25   86.59730   80.52430    4.00980    2.16950    4.60260  -72.07480
 8250.00000   13.72410    0.15150    2.29470    -999.25    -999.25    -999.25   99.35800   77.63640    4.39750    3.59730    6.07130  -61.26520
 8300.00000    -999.25    0.02800    1.45840    -999.25    -999.25    -999.25   78.05180   82.78860    7.29220    1.61130    4.34120  -65.39890
 8350.00000    -999.25    0.16370    2.38970    -999.25    -999.25    -999.25   54.10530   77.29320   11.45260    4.59670   10.25660  -61.71120
 8400.00000   14.86030    0.19050    2.19860    -999.25    -999.25    -999.25   49.34870   62.20530    5.88650    9.57930   56.32810  -70.30800
 8450.00000    -999.25    0.15870    2.19080    -999.25    -999.25    -999.25   62.19150   69.74160   17.48980    3.36180   12.02760  -65.18730
 8500.00000    -999.25    0.01560    1.43480    -999.25    -999.25    -999.25   68.94950   69.50500    3.69660    1.19500    3.27200  -71.65880
 8550.00000    -999.25    0.17290    2.15980    -999.25    -999.25    -999.25   50.18060   60.45860   10.16470    5.89960   13.55820  -68.77250
 8600.00000    -999.25    0.04070    1.55530    -999.25    -999.25    -999.25   67.02570   75.05700    9.44120    2.87340    5.65520  -73.64860
 8650.00000    -999.25    0.15520    2.22970    -999.25    -999.25    -999.25   70.60230   75.39170    8.02320    3.14460    6.24010  -59.42210
 8700.00000   14.85100    0.22100    2.36220    -999.25    -999.25    -999.25   88.01180   76.07400    6.88040    3.67840    8.79920  -70.14000
 8750.00000   12.42220    0.03120    2.63970    -999.25    -999.25    -999.25  130.18330   73.15610    6.31090    5.98840    8.64020  -84.23860
 8800.00000   15.03070    0.17660    2.38240    -999.25    -999.25    -999.25   93.18690   79.60120    5.70370    5.23020   11.41390  -77.15220
 8850.00000   13.22210    0.21520    2.47800    -999.25    -999.25    -999.25   89.33060   62.76640   11.60160    9.98210   25.52690  -73.45960
 8900.00000   10.84050    0.03940    2.64280    -999.25    -999.25    -999.25  142.60500   63.73650   17.94340   13.08020   25.47580  -75.07480
 8950.00000   10.24310    0.02590    2.61820    -999.25    -999.25    -999.25  121.02630   62.39540    5.48460    5.93750   14.70920 -117.04920
 9000.00000    9.41770    0.00500    2.55090    -999.25    -999.25    -999.25   61.93790   64.91280    4.99200    5.14550   11.82350 -130.51710
 9050.00000    9.91020    0.04820    2.51910    -999.25    -999.25    -999.25   36.58520   66.61220    4.66210    5.51640   11.48840 -138.50560
 9100.00000   10.01740    0.01770    2.56280    -999.25    -999.25    -999.25   44.20110   61.40100    6.52370    6.89130   12.13770 -128.37940
 9150.00000    8.51820    0.12200    2.45460    -999.25    -999.25    -999.25   30.91460   69.36400    1.78420    2.82910    5.62730 -124.69770
 9200.00000    9.30020    0.04250    2.65970    -999.25    -999.25    -999.25  107.53370   52.81730  163.10270 2422.72310 1448.08010  -79.73330
 9250.00000    9.03700    0.00480    2.73600    -999.25    -999.25    -999.25  134.26330   49.71300    -999.25 2823.12330    -999.25  -81.29720
 9300.00000    8.96170    0.01350    2.66800    -999.25    -999.25    -999.25  153.11090   49.23130    -999.25 3039.51340    -999.25  -91.93400
