~Version ---------------------------------------------------
VERS.      2.0 : CWLS log ASCII Standard -VERSION 2.0
WRAP.       NO : One line per depth step
CREA. 11/21/17 : LAS Creation Date
~Well ------------------------------------------------------
STRT.FT                          1000.0 : START DEPTH
STOP.FT                         13800.0 : STOP DEPTH
STEP.FT                        50.00000 : STEP LENGTH
NULL.                           -999.25 : NULL VALUE
COMP. HUDSONS BAY OIL & GAS COMPANY LTD : COMPANY
WELL. HB AMOCO FINA BAYBERNE 11-5-57-18 : WELL
FLD .                                   : FIELD
LOC .                                   : LOCATION
CTRY.                            CANADA : COUNTRY
SRVC.                           Unknown : SERVICE COMPANY
DATE.                       13-Aug-1977 : LOGDATE
PROV.                           Alberta : PROVINCE
UWI .                  100110505718W500 : UNIQUE WELL ID
SLAT.WGS84                     53.89911 : SURFACE LATITUDE
SLON.WGS84                    -116.6428 : SURFACE LONGITUDE
~Curve Information -----------------------------------------
DEPT    .FT    : Depth Curve
CALDED  .IN    : CALIPER FROM DENSITY LOG [ADJ. TO RESISTIVITY LOG]
CALSED  .IN    : CALIPER FROM SONIC LOG
CALWS   .IN    : CALIPER [CALSED SPL. TO CALDED @ 5994']
CILDED  .MMHO  : CONDUCTIVITY FROM RESISTIVITY LOG
CONDWS  .MMHO  : CONDUCTIVITY [1000/DRESWS]
DCORWS  .G/C3  : DENSITY CORRECTION [DRHOED]
DENWS   .G/C3  : FORMATION BULK DENSITY [RHOBED]
DPHILSED.V/V   : DENSITY POROSITY LIMESTONE [M=2.71, F=1.00] FROM DENSITY LOG [ADJ. TO RESISTIVITY LOG]
DPHISSED.V/V   : DENSITY POROSITY SANDSTONE [M=2.65, F=1.00] FROM DENSITY LOG [ADJ. TO RESISTIVITY LOG]
DPOLSWS .V/V   : DENSITY POROSITY LIMESTONE [CALC. FROM DENWS, M=2.71, F=1.00]
DRESWS  .OHMM  : DEEP RESISTIVITY [ILDED]
DRHOED  .G/C3  : DENSITY CORRECTION FROM DENSITY LOG [ADJ. TO RESISTIVITY LOG]
DTED    .US/F  : DELTA TIME FROM SONIC LOG
DTWS    .US/F  : COMPRESSIONAL SONIC [DTED]
GRDED   .GAPI  : GAMMA RAY FROM DENSITY LOG [ADJ. TO RESISTIVITY LOG]
GRSED   .GAPI  : GAMMA RAY FROM SONIC LOG
GRWS    .GAPI  : GAMMA RAY [GRSED SPL. TO GRDED @ 13780']
ILDED   .OHMM  : DEEP INDUCTION RESISTIVITY FROM RESISTIVITY LOG
ILMED   .OHMM  : MEDIUM INDUCTION RESISTIVITY FROM RESISTIVITY LOG
LL8ED   .OHMM  : LATEROLOG-8 RESISTIVITY FROM RESISTIVITY LOG
MRESWS  .OHMM  : MEDIUM RESISTIVITY [ILMED]
NPHILSED.V/V   : NEUTRON POROSITY LIMESTONE FROM DENSITY LOG [ADJ. TO RESISTIVITY LOG]
NPHISSED.V/V   : NEUTRON POROSITY SANDSTONE FROM DENSITY LOG [ADJ. TO RESISTIVITY LOG]
NPOLSWS .V/V   : NEUTRON POROSITY LIMESTONE [NPHISSED MATRIX CONVERSION FOR LIMESTONE, SPL. TO NPHILSED @ 8509']
RHOBED  .G/C3  : BULK DENSITY FROM DENSITY LOG [ADJ. TO RESISTIVITY LOG]
SPRED   .MV    : SPONTANEOUS POTENTIAL FROM RESISTIVITY LOG [ADJ. TO RESISTIVITY LOG]
SPWS    .MV    : SPONTANEOUS POTENTIAL [BASELINE 0 MV, SPRED]
SRESWS  .OHMM  : SHALLOW RESISTIVITY [LL8ED]
~Params ----------------------------------------------------
PD  .                     GL : PERMANENT DATUM
EPD .FT               3898.7 : ELEVATION PERMANENT DATUM
LMF .                     KB : LOG MEASURED FROM
DAPD.FT                 20.4 : FEET ABOVE PERMANENT DATUM
DMF .                     KB : DRILLING MEASURED FROM
EKB .FT               3919.1 : KELLY BUSHING
EGL .FT               3898.7 : GROUND LEVEL
DATE.               08/13/77 : RUN DATE
RUN .                      2 : RUN NUMBER
DD  .FT                13825 : DEPTH DRILLER
DL  .FT                13826 : DEPTH LOGGER
BLI .FT                13820 : BOTTOM LOG INTERVAL
TLI .FT                 8771 : TOP LOG INTERVAL
CBD .FT                 8770 : CASING BOTTOM DRILLER
CBL .FT                 8771 : CASING BOTTOM LOGGER
BS  .IN                  8.5 : BIT SIZE
BSD .FT                13825 : BIT SIZE AT DEPTH
DFT .                    GEL : DRILLING FLUID TYPE
DFD .                    8.9 : DRILLING FLUID DENSITY
DFV .                    120 : DRILLING FLUID VISCOSITY
DFPH.                     11 : DRILLING FLUID PH
DFL .                   11.2 : DRILLING FLUID LOSS
MSS .                    MUD : MUD SAMPLE SOURCE
RMS .OHMM               1.38 : RESISTIVITY MUD SAMPLE
MST .DEGF                 62 : MUD SAMPLE TEMPERATURE
RMF .OHMM                1.0 : RESISTIVITY MUD FILTRATE SAMPLE
MFST.DEGF                 62 : MUD FILTRATE SAMPLE TEMPERATURE
RMC .OHMM               1.72 : RESISTIVITY MUD CAKE
MCST.DEGF                 64 : MUD CAKE SAMPLE TEMPERATURE
RMB .OHMM               0.24 : RESISTIVITY MUD AT BHT
TCS .HRS                 3.5 : TIME CIRCULATED STOPPED
LUN .                   7809 : LOGGING UNIT NUMBER
LUL .                    EDM : LOGGING UNIT LOCATION
ENGI.     CROCKFORD DEROCHIE : RECORDING ENGINEER
WITN.       NORTON GILBREATH : WITNESSED BY
CLNT.                A2DTECH : CLIENT CODE
ORIG.            2" 5" PRINT : ORIGIN OF DATA
UWI .       100110505718W500 : UNIQUE WELL ID
DICO. A2D Technologies, Inc. : DIGITIZING COMPANY
~Other -----------------------------------------------------
DIL-FDC-CNL-BHC LOG RUN
ALL RESISTIVITY & SONIC DATA FROM SMALL SECTION @ TOP-5928'
CALS INVALID FROM 4993' TO CASING ON MAIN PASS, THEREFORE THIS SECTION WAS RELOGGED
~ASCII -----------------------------------------------------
# ...
 6000.00000   13.96900   12.78110   13.96900    -999.25  118.13210    -999.25    2.46120    -999.25    0.11510    0.14550    8.46510    -999.25   72.16990   72.16990   93.25160  105.12500  105.12500    8.46510   13.14450   10.94670   13.14450    -999.25    0.19590    0.15250    2.46120 -103.97980   -5.27270   10.94670
 6050.00000   15.51120   12.80530   15.51120    -999.25  199.46190    0.25000    2.35830    -999.25    0.17870    0.20560    5.02920    0.25000   82.12130   82.12130  131.05250  149.64980  149.64980    5.02920    5.76820    6.26380    5.76820    -999.25    0.30870    0.26470    2.35830 -103.87420   -5.09670    6.26380
 6100.00000   15.24690   12.91040   15.24690    -999.25  180.63910    0.25000    2.33420    -999.25    0.19270    0.21980    5.53590    0.25000   83.59300   83.59300  122.07560  148.35770  148.35770    5.53590    6.81590    7.67610    6.81590    -999.25    0.29630    0.25230    2.33420 -104.20790   -5.35950    7.67610
 6150.00000   15.48720   12.85030   15.48720    -999.25  146.10270    0.25000    2.32440    -999.25    0.20340    0.22550    6.84450    0.25000   81.11350   81.11350  129.78780  140.69910  140.69910    6.84450    7.36150    7.70950    7.36150    -999.25    0.31240    0.26850    2.32440 -104.28350   -5.36470    7.70950
 6200.00000   16.51570   12.71220   16.51570    -999.25  124.80650    0.26790    2.36240    -999.25    0.17530    0.20330    8.01240    0.26790   81.09070   81.09070  124.46600  143.29940  143.29940    8.01240    6.93060    6.29310    6.93060    -999.25    0.32000    0.27610    2.36240 -104.98280   -5.99320    6.29310
 6250.00000   16.06660   13.39070   16.06660    -999.25  110.35210    0.25000    2.32940    -999.25    0.19730    0.22260    9.06190    0.25000   75.80890   75.80890  112.84410  121.18280  121.18280    9.06190    9.43360   10.01540    9.43360    -999.25    0.28670    0.24270    2.32940 -105.39680   -6.33680   10.01540
 6300.00000   14.56590   12.41330   14.56590    -999.25   60.19220    0.27900    2.32510    -999.25    0.19260    0.22510   16.72020    0.27900   72.62620   72.62620   93.95460  102.63410  102.63410   16.72020   14.06840   14.82570   14.06840    -999.25    0.19230    0.14900    2.32510 -107.15540   -8.02500   14.82570
 6350.00000   14.25540   12.56850   14.25540    -999.25  108.77130    0.25000    2.39540    -999.25    0.16610    0.18400    9.19360    0.25000   71.09120   71.09120  118.81640  134.79600  134.79600    9.19360   11.69430   11.24510   11.69430    -999.25    0.25970    0.21570    2.39540 -104.66990   -5.46860   11.24510
 6400.00000   14.43380   12.69870   14.43380    -999.25  104.08860    0.25000    2.42320    -999.25    0.14440    0.16770    9.60720    0.25000   73.87330   73.87330  118.40680  136.99860  136.99860    9.60720   11.79380   11.52380   11.79380    -999.25    0.24550    0.20160    2.42320 -105.73580   -6.46410   11.52380
 6450.00000   14.10670   12.62080   14.10670    -999.25  124.55320    0.25000    2.37360    -999.25    0.16850    0.19670    8.02870    0.25000   76.67530   76.67530  120.66590  139.36580  139.36580    8.02870   10.66590   10.10490   10.66590    -999.25    0.27000    0.22600    2.37360 -104.98360   -5.64100   10.10490
 6500.00000   14.01890   12.78340   14.01890    -999.25  119.24640    0.25000    2.39370    -999.25    0.16480    0.18490    8.38600    0.25000   76.71630   76.71630  124.89240  147.10630  147.10630    8.38600   10.29240    9.54810   10.29240    -999.25    0.28750    0.24350    2.39370 -104.90370   -5.49070    9.54810
 6550.00000   14.16310   12.66670   14.16310    -999.25  133.17230    0.25000    2.34820    -999.25    0.18390    0.21160    7.52140    0.25000   79.34130   79.34130  125.42030  141.82140  141.82140    7.52140    8.92360    9.30130    8.92360    -999.25    0.31280    0.26880    2.34820 -104.60120   -5.11780    9.30130
 6600.00000   14.31790   12.48190   14.31790    -999.25  106.42150    0.25000    2.43740    -999.25    0.13250    0.15940    9.39660    0.25000   78.92980   78.92980  121.25460  144.14510  144.14510    9.39660   10.10800   11.61020   10.10800    -999.25    0.28030    0.23630    2.43740 -104.35740   -4.80320   11.61020
 6650.00000   14.00370   12.22120   14.00370    -999.25  120.26750    0.25130    2.49540    -999.25    0.09940    0.12550    8.31480    0.25130   86.52200   86.52200  140.92870  151.08380  151.08380    8.31480   10.15130   11.69450   10.15130    -999.25    0.33020    0.28640    2.49540 -104.32830   -4.70370   11.69450
 6700.00000   13.25600   12.26140   13.25600    -999.25   91.27090    0.26430    2.52480    -999.25    0.08280    0.10830   10.95640    0.26430   84.64780   84.64780  137.95640  157.94000  157.94000   10.95640   11.53370   13.86350   11.53370    -999.25    0.35850    0.31500    2.52480 -104.17600   -4.48050   13.86350
 6750.00000   14.00720   12.56350   14.00720    -999.25  106.34900    0.26490    2.42330    -999.25    0.14090    0.16770    9.40300    0.26490   84.74870   84.74870  131.10700  153.92770  153.92770    9.40300   10.58240   12.05670   10.58240    -999.25    0.36040    0.31690    2.42330 -105.08090   -5.31500   12.05670
 6800.00000   12.73570   12.22280   12.73570    -999.25   85.34090    0.26190    2.48230    -999.25    0.10770    0.13320   11.75940    0.26190   84.64200   84.64200  146.76790  162.15940  162.15940   11.75940   17.74200   18.60770   17.74200    -999.25    0.33600    0.29220    2.48230 -104.68820   -4.85190   18.60770
 6850.00000   12.71720   12.35080   12.71720    -999.25  105.26650    0.07930    2.59010    -999.25    0.02860    0.07010    9.49970    0.07930   86.25310   86.25310  135.80180  157.49610  157.49610    9.49970   12.52090   15.87780   12.52090    -999.25    0.34080    0.29710    2.59010 -103.37370   -3.46650   15.87780
 6900.00000   12.86240   12.25530   12.86240    -999.25  118.56350    0.23710    2.49740    -999.25    0.09890    0.12430    8.43430    0.23710   87.88640   87.88640  139.42850  151.20290  151.20290    8.43430   13.21710   17.91200   13.21710    -999.25    0.37410    0.33080    2.49740 -103.87270   -3.89510   17.91200
 6950.00000   13.25960   12.77650   13.25960    -999.25  166.01640    0.25760    2.53240    -999.25    0.06360    0.10390    6.02350    0.25760   86.65400   86.65400  122.66120  138.42490  138.42490    6.02350    9.56530   12.87030    9.56530    -999.25    0.32620    0.28230    2.53240 -104.46350   -4.41510   12.87030
 7000.00000   12.57970   12.26130   12.57970    -999.25  110.63660    0.07090    2.56370    -999.25    0.05590    0.08560    9.03860    0.07090   97.39890   97.39890  139.85860  164.30520  164.30520    9.03860   14.03950   19.70020   14.03950    -999.25    0.39310    0.35010    2.56370 -103.71360   -3.59470   19.70020
 7050.00000   14.69450   12.64030   14.69450    -999.25  143.53620    0.24550    2.43870    -999.25    0.12800    0.15870    6.97450    0.24550   81.27900   81.27900  119.32680  145.21980  145.21980    6.97450    7.84670    8.27220    7.84670    -999.25    0.30150    0.25750    2.43870 -106.31430   -6.12500    8.27220
 7100.00000   15.02390   12.75340   15.02390    -999.25  208.93400    0.25000    2.40700    -999.25    0.14940    0.17720    4.78620    0.25000   82.38810   82.38810  131.68500  137.61740  137.61740    4.78620    5.76710    6.53490    5.76710    -999.25    0.29900    0.25500    2.40700 -105.98730   -5.72720    6.53490
 7150.00000   12.72400   12.49630   12.72400    -999.25  160.92690    0.25000    2.54400    -999.25    0.07130    0.09710    6.21400    0.25000   78.18220   78.18220  124.56110  152.75540  152.75540    6.21400    6.67900    7.59370    6.67900    -999.25    0.33850    0.29470    2.54400 -106.13830   -5.80780    7.59370
 7200.00000   13.02640   12.38120   13.02640    -999.25  125.62810    0.26480    2.60330    -999.25    0.03570    0.06240    7.96000    0.26480   77.62560   77.62560  129.10350  145.87040  145.87040    7.96000    8.51050    9.90980    8.51050    -999.25    0.33660    0.29280    2.60330 -104.96700   -4.56560    9.90980
