~Version ---------------------------------------------------
VERS.      2.0 : CWLS log ASCII Standard -VERSION 2.0
WRAP.       NO : One line per depth step
CREA. 08/21/13 : LAS Creation Date
~Well ------------------------------------------------------
STRT.M                      450.0 : START DEPTH
STOP.M                     4050.0 : STOP DEPTH
STEP.M                   50.00000 : STEP LENGTH
NULL.                     -999.25 : NULL VALUE
COMP.                PETRO CANADA : COMPANY
WELL. PC NEWPORT EDSON 4-35-50-18 : WELL
FLD .                       EDSON : FIELD
LOC .                             : LOCATION
CTRY.                      CANADA : COUNTRY
SRVC.                Schlumberger : SERVICE COMPANY
DATE.                 12-Apr-1988 : LOGDATE
PROV.                     Alberta : PROVINCE
UWI .            100043505018W500 : UNIQUE WELL ID
SLAT.WGS84               53.35424 : SURFACE LATITUDE
SLON.WGS84                -116.53 : SURFACE LONGITUDE
~Curve Information -----------------------------------------
DEPT    .M      : DEPTH METER
AHT10ED .OHMM   : 10 INCH RESISTIVITY ONE FOOT RESOLUTION FROM AIT LOG
AHT20ED .OHMM   : 20 INCH RESISTIVITY ONE FOOT RESOLUTION FROM AIT LOG
AHT30ED .OHMM   : 30 INCH RESISTIVITY ONE FOOT RESOLUTION FROM AIT LOG
AHT60ED .OHMM   : 60 INCH RESISTIVITY ONE FOOT RESOLUTION FROM AIT LOG
AHT90ED .OHMM   : 90 INCH RESISTIVITY ONE FOOT RESOLUTION FROM AIT LOG
CAL2ED  .MM     : CALIPER 2 HORIZONTAL FROM DENSITY LOG
CALWS   .MM     : CALIPER [HCALDED]
CONDWS  .MMHO   : CONDUCTIVITY [1000/DRESWS]
DCORWS  .KG/M3  : DENSITY CORRECTION [HDRAED]
DENWS   .KG/M3  : FORMATION BULK DENSITY [CALC. FROM DPOLSWS M=2710,F=1000]
DNPHED  .V/V    : DELTA THERMAL NEUTRON POROSITY SANDSTONE [M=2650,F=1000] FROM DENSITY LOG
DPHZLSED.V/V    : DENSITY POROSITY LIMESTONE [M=2710,F=1000] FROM DENSITY LOG
DPHZSSED.V/V    : DENSITY POROSITY SANDSTONE [M=2650,F=1000] FROM DENSITY LOG
DPOLSWS .V/V    : DENSITY POROSITY LIMESTONE [DPHISSED CONVERRED TO LIMESTONE, SPL. TO DPHILSED @ 2984M - 2987.82M]
DRESWS  .OHMM   : DEEP RESISTIVITY AHT90ED]
DTED    .US/M   : DELTA TIME FROM SONIC LOG
DTWS    .US/M   : COMPRESSIONAL SONIC [DTED]
GRDED   .GAPI   : GAMMA RAY FROM DENSITY LOG
GRWS    .GAPI   : GAMMA RAY [GRDED]
HCALDED .MM     : CALIPER FROM DENSITY LOG
HDRAED  .KG/M3  : DENSITY CORRECTION FROM DENSITY LOG
HPRAED  .B/E    : HRDD PHOTOELECTRIC FACTOR CORRECTION FROM DENSITY LOG
MRESWS  .OHMM   : MEDIUM RESISTIVITY AHT30ED]
NPOLSWS .V/V    : NEUTRON POROSITY LIMESTONE [NPHISSED MATRIX CONVERSION FOR LIMESTONE FROM BALER ATLAS (CNL-2420), SPL. TO NPHILSED @ 2980M]
NPORLSED.V/V    : NEUTRON POROSITY LIMESTONE FROM DENSITY LOG
NPORSSED.V/V    : NEUTRON POROSITY SANDSTONE FROM DENSITY LOG
PEFWS   .B/E    : PHOTOELECTRIC FACTOR [HPRAED SPL. TO PEFZED @ 2087.89M]
PEFZED  .B/E    : PHOTO ELECTRIC FACTOR FROM DENSITY LOG
RHOZED  .KG/M3  : BULK DENSITY HRDD STANDARD RESOLUTION FROM DENSITY LOG [ADJ. TO DPHZSSED/DPHZLSED]
RXOZED  .OHMM   : MICRO RESISTIVITY FROM AIT LOG
SPRED   .MV     : SPONTANEOUS POTENTIAL FROM AIT LOG
SPWS    .MV     : SPONTANEOUS POTENTIAL [BASELINE 0 MV,SPRED]
SRESWS  .OHMM   : SHALLOW RESISTIVITY [AHT10ED]
TENSED  .N      : TENSION FROM SONIC LOG
~Params ----------------------------------------------------
PD  .                           GL : PERMANENT DATUM
EPD .M                      995.13 : ELEVATION PERMANENT DATUM
LMF .                           KB : LOG MEASURED FROM
DAPD.M                         7.6 : FEET ABOVE PERMANENT DATUM
DMF .                           KB : DRILLING MEASURED FROM
EKB .M                     1002.75 : KELLY BUSHING
EDF .M                     1002.45 : DRILLING FLOOR
EGL .M                      995.13 : GROUND LEVEL
DATE.                     04/12/98 : RUN DATE
RUN .                            2 : RUN NUMBER
DD  .M                        4095 : DEPTH DRILLER
DL  .M                        4091 : DEPTH LOGGER
BLI .M                        4091 : BOTTOM LOG INTERVAL
TLI .M                        2927 : TOP LOG INTERVAL
CS  .MM                      244.5 : CASING SIZE
CBD .M                        2989 : CASING BOTTOM DRILLER
CBL .M                        2987 : CASING BOTTOM LOGGER
BS  .MM                        216 : BIT SIZE
BSD .M                        4095 : BIT SIZE AT DEPTH
DFT .                  GEL POLYMER : DRILLING FLUID TYPE
DFD .                         1245 : DRILLING FLUID DENSITY
DFV .                           65 : DRILLING FLUID VISCOSITY
DFPH.                          4.5 : DRILLING FLUID PH
DFL .                         11.5 : DRILLING FLUID LOSS
MSS .                     FLOWLINE : MUD SAMPLE SOURCE
RMS .OHMM                     1.14 : RESISTIVITY MUD SAMPLE
MST .DEGC                       12 : MUD SAMPLE TEMPERATURE
RMF .OHMM                     0.93 : RESISTIVITY MUD FILTRATE SAMPLE
MFST.DEGC                       12 : MUD FILTRATE SAMPLE TEMPERATURE
RMC .OHMM                     0.55 : RESISTIVITY MUD CAKE
MCST.DEGC                      118 : MUD CAKE SAMPLE TEMPERATURE
MFSS.                         MEAS : MUD FILTRATE SAMPLE SOURCE
MCSS.                         MEAS : MUD CAKE SAMPLE SOURCE
RMB .OHMM                    0.274 : RESISTIVITY MUD AT BHT
TCS .HRS                      2030 : TIME CIRCULATED STOPPED
TLAB.HRS                       630 : TIME LOGGER AT BOTTOM
LUN .                         2111 : LOGGING UNIT NUMBER
LUL .                     NISKU ES : LOGGING UNIT LOCATION
ENGI.                       HARVEY : RECORDING ENGINEER
WITN.                     MARSLAND : WITNESSED BY
CLNT.                      A2DTECH : CLIENT CODE
ORIG. 6.5IN/100M 16.5IN/100M PRINT : ORIGIN OF DATA
UWI .             100043505018W500 : UNIQUE WELL ID
DICO.       A2D Technologies, Inc. : DIGITIZING COMPANY
~Other -----------------------------------------------------
PEX-AIT-TDL-CNL-XY-DSLT LOG RUN IN COMBO.
NEUTRON MATRIX CONVERSION FOR LIMESTONE FROM BALER ATLAS (CNL-2420)
~ASCII -----------------------------------------------------
# ...
 1500.00000   32.94730   26.55950   26.33190   25.93890   25.52410   65.58770  123.27490   39.17870  -82.72610    -999.25   -0.04270    -999.25    -999.25    -999.25   25.52410  230.38310  230.38310   69.99140   69.99140  123.27490  -82.72610    0.02470   26.33190    -999.25    -999.25    -999.25    0.02470    -999.25    -999.25    -999.25    -999.25    -999.25   32.94730 14393.13960
 1550.00000  116.79910   47.08420   40.66720   37.65660   34.58790   80.64420  151.14080   28.91180  155.58700    -999.25   -0.04840    -999.25    -999.25    -999.25   34.58790  217.37180  217.37180   55.42040   55.42040  151.14080  155.58700    0.35690   40.66720    -999.25    -999.25    -999.25    0.35690    -999.25    -999.25    -999.25    -999.25    -999.25  116.79910 16085.19340
 1600.00000   16.82560   11.40210   10.94430   10.08110    9.67160  372.83540  171.45960  103.39550  -77.74950    -999.25   -0.04320    -999.25    -999.25    -999.25    9.67160  301.56650  301.56650   56.17830   56.17830  171.45960  -77.74950    0.20160   10.94430    -999.25    -999.25    -999.25    0.20160    -999.25    -999.25    -999.25    -999.25    -999.25   16.82560 14683.01860
 1650.00000   26.02600   15.11710   14.36210   12.23720   12.01050  374.27000  130.36680   83.26050   54.54770    -999.25   -0.04050    -999.25    -999.25    -999.25   12.01050  335.14880  335.14880   58.12040   58.12040  130.36680   54.54770    0.51920   14.36210    -999.25    -999.25    -999.25    0.51920    -999.25    -999.25    -999.25    -999.25    -999.25   26.02600 15352.06740
 1700.00000  228.06390   52.45600   48.93890   44.16060   39.69440  227.25420   66.78400   25.19250   25.12150    -999.25   -0.02550    -999.25    -999.25    -999.25   39.69440  202.05630  202.05630   54.84520   54.84520   66.78400   25.12150    0.18110   48.93890    -999.25    -999.25    -999.25    0.18110    -999.25    -999.25    -999.25    -999.25    -999.25  228.06390 15684.83500
 1750.00000  128.41500   52.60830   49.37790   46.69810   44.53530   77.60930   65.92910   22.45410   69.38330    -999.25   -0.02640    -999.25    -999.25    -999.25   44.53530  224.46830  224.46830   37.99560   37.99560   65.92910   69.38330    0.22010   49.37790    -999.25    -999.25    -999.25    0.22010    -999.25    -999.25    -999.25    -999.25    -999.25  128.41500 16102.40920
 1800.00000   28.62770   18.14580   17.19420   16.48120   15.95040  232.97120   95.53570   62.69440   98.95290    -999.25   -0.03610    -999.25    -999.25    -999.25   15.95040  236.29420  236.29420   64.13270   64.13270   95.53570   98.95290    0.57260   17.19420    -999.25    -999.25    -999.25    0.57260    -999.25    -999.25    -999.25    -999.25    -999.25   28.62770 16144.62600
 1850.00000   77.18460   32.87420   29.40230   26.24330   25.15340  202.17500   73.20720   39.75610   11.74660    -999.25   -0.03090    -999.25    -999.25    -999.25   25.15340  222.58630  222.58630   80.27970   80.27970   73.20720   11.74660    0.10800   29.40230    -999.25    -999.25    -999.25    0.10800    -999.25    -999.25    -999.25    -999.25    -999.25   77.18460 16440.24800
 1900.00000   35.01520   17.55120   15.61330   13.60570   13.26780  352.94700   63.40190   75.37040   63.97340    -999.25   -0.03030    -999.25    -999.25    -999.25   13.26780  260.87670  260.87670   95.10440   95.10440   63.40190   63.97340    0.16830   15.61330    -999.25    -999.25    -999.25    0.16830    -999.25    -999.25    -999.25    -999.25    -999.25   35.01520 16734.42770
 1950.00000   37.35210   25.83800   25.39090   24.91780   24.34510  132.68080   67.63570   41.07600  103.13170    -999.25   -0.02920    -999.25    -999.25    -999.25   24.34510  267.11080  267.11080  118.80970  118.80970   67.63570  103.13170    1.62020   25.39090    -999.25    -999.25    -999.25    1.62020    -999.25    -999.25    -999.25    -999.25    -999.25   37.35210 17086.98240
 2000.00000   13.44670   10.17040   10.01980    9.66080    9.18470  136.25720  348.93000  108.87670   56.91390    -999.25   -0.03610    -999.25    -999.25    -999.25    9.18470  263.39220  263.39220  105.52920  105.52920  348.93000   56.91390    0.08160   10.01980    -999.25    -999.25    -999.25    0.08160    -999.25    -999.25    -999.25    -999.25    -999.25   13.44670 17058.07620
 2050.00000   12.88730    8.60460    8.19830    8.03900    7.80050  171.33130  310.72490  128.19690   31.84100    -999.25   -0.02900    -999.25    -999.25    -999.25    7.80050  253.97860  253.97860  104.87060  104.87060  310.72490   31.84100    0.12850    8.19830    -999.25    -999.25    -999.25    0.12850    -999.25    -999.25    -999.25    -999.25    -999.25   12.88730 17455.64060
 2100.00000    8.19680    7.63040    7.54800    7.21760    7.03710  320.65050  429.42680  142.10400  164.11470 2552.98000   -0.05170    -999.25    0.05880    0.09180    7.03710  256.26140  256.26140   98.64200   98.64200  429.42680  164.11470    2.15320    7.54800    0.30130    -999.25    0.30130    9.85370    9.85370 2540.00830    -999.25    -999.25    -999.25    8.19680 17754.12890
 2150.00000    8.54450    7.65660    7.04610    6.60780    6.44270  324.53180  370.17970  155.21440  146.83060 2523.44500   -0.04240    -999.25    0.07670    0.10910    6.44270  270.50100  270.50100  107.46020  107.46020  370.17970  146.83060    2.09600    7.04610    0.29580    -999.25    0.29580    9.80710    9.80710 2553.06640    -999.25    -999.25    -999.25    8.54450 17970.36330
 2200.00000   19.97440   16.28630   15.26380   14.85170   14.35050  317.37510  357.16670   69.68400  212.07740 2629.37500   -0.03570    -999.25    0.01250    0.04710   14.35050  227.08430  227.08430   84.01840   84.01840  357.16670  212.07740    2.02800   15.26380    0.20200    -999.25    0.20200    9.48890    9.48890 2606.61040    -999.25    -999.25    -999.25   19.97440 18321.16020
 2250.00000   10.90450    9.27140    9.00620    8.66010    8.44570  323.26410  352.32750  118.40340  144.46550 2474.93500   -0.03850    -999.25    0.10610    0.13750    8.44570  258.48480  258.48480  107.44650  107.44650  352.32750  144.46550    0.91010    9.00620    0.26020    -999.25    0.26020    9.45890    9.45890 2508.54470    -999.25    -999.25    -999.25   10.90450 18464.80080
 2300.00000   10.60090    8.90970    8.70760    8.09580    7.89240  324.54310  356.36870  126.70420  948.39370 3528.79000   -0.03840    -999.25   -0.53260   -0.47880    7.89240  281.16590  281.16590  110.96000  110.96000  356.36870  948.39370    0.04830    8.70760    0.29660    -999.25    0.29660   10.00000   10.00000 3451.59590    -999.25    -999.25    -999.25   10.60090 18312.50590
 2350.00000   12.03830   10.58270    9.84260    9.52290    8.74940  318.34540  336.51570  114.29360   78.02960 2573.11000   -0.03170    -999.25    0.04660    0.08010    8.74940  277.11130  277.11130  107.67890  107.67890  336.51570   78.02960    0.62880    9.84260    0.31050    -999.25    0.31050    6.39840    6.39840 2584.97880    -999.25    -999.25    -999.25   12.03830 18928.60350
 2400.00000   15.10370   11.71960   11.40240   11.04710   10.65120  325.59870  325.91920   93.88610   27.55390 2597.86000   -0.03180    -999.25    0.03160    0.06560   10.65120  306.15900  306.15900  121.60810  121.60810  325.91920   27.55390    0.71630   11.40240    0.31950    -999.25    0.31950    5.29900    5.29900 2593.84620    -999.25    -999.25    -999.25   15.10370 18805.68750
 2450.00000    9.42390    7.85890    7.43600    7.23670    6.85480  322.58940  339.92660  145.88320   50.70930 2632.01500   -0.03450    -999.25    0.01090    0.04560    6.85480  305.47120  305.47120  103.19970  103.19970  339.92660   50.70930    1.12940    7.43600    0.30320    -999.25    0.30320    5.81210    5.81210 2622.46780    -999.25    -999.25    -999.25    9.42390 18713.61130
 2500.00000    7.80970    6.76620    6.44970    6.16270    5.85210  318.24930  336.10580  170.87880  114.40890 2633.83000   -0.03360    -999.25    0.00980    0.04450    5.85210  274.48900  274.48900  100.04020  100.04020  336.10580  114.40890    2.61680    6.44970    0.26460    -999.25    0.26460    7.41630    7.41630 2627.41210    -999.25    -999.25    -999.25    7.80970 19122.58790
