~Version ---------------------------------------------------
VERS.      2.0 : CWLS log ASCII Standard -VERSION 2.0
WRAP.       NO : One line per depth step
CREA. 11/07/17 : LAS Creation Date
~Well ------------------------------------------------------
STRT.FT                            650.0 : START DEPTH
STOP.FT                           5950.0 : STOP DEPTH
STEP.FT                         50.00000 : STEP LENGTH
NULL.                            -999.25 : NULL VALUE
COMP. CANADIAN NATURAL RESOURCES LIMITED : COMPANY
WELL.            LASMO NIPISI 10-31-80-8 : WELL
FLD .                             NIPISI : FIELD
LOC .                                    : LOCATION
CTRY.                             CANADA : COUNTRY
SRVC.                         Lane Wells : SERVICE COMPANY
DATE.                        29-Jun-1966 : LOGDATE
PROV.                            Alberta : PROVINCE
UWI .                   100103108008W500 : UNIQUE WELL ID
SLAT.WGS84                 55.9797973633 : SURFACE LATITUDE
SLON.WGS84               -115.2371520996 : SURFACE LONGITUDE
~Curve Information -----------------------------------------
DEPT  .FT    : Depth Curve
ACED  .US/F  : DELTA TIME (ACOUSTIC) FROM SONIC LOG
CALSED.IN    : CALIPER FROM SONIC LOG
CALWS .IN    : CALIPER [CALSED]
CILDED.MMHO  : CONDUCTIVITY FROM RESISTIVITY LOG
CONDWS.MMHO  : CONDUCTIVITY [1000/DRESWS]
DRESWS.OHMM  : DEEP RESISTIVITY [ILDED]
DTWS  .US/F  : DELTA TIME [ACED]
GRSED .GAPI  : GAMMA RAY FROM SONIC LOG
GRWS  .GAPI  : GAMMA RAY [GRSED]
ILDED .OHMM  : INDUCTION LOG DEEP RESISTIVITY
SNED  .OHMM  : 16 INCH SHORT NORMAL RESISTIVITY FROM IEL
SPRED .MV    : SPONTANEOUS POTENTIAL FROM RESISTIVITY LOG
SPWS  .MV    : SPONTANEOUS POTENTIAL [BASELINE 0 MV] [SPRED]
SRESWS.OHMM  : SHALLOW RESISTIVITY [SNED]
~Params ----------------------------------------------------
PD  .                    CBF : PERMANENT DATUM
EPD .FT               2159.4 : ELEVATION PERMANENT DATUM
LMF .                     KB : LOG MEASURED FROM
DAPD.FT                 14.6 : FEET ABOVE PERMANENT DATUM
DMF .                     KB : DRILLING MEASURED FROM
EKB .FT                 2174 : KELLY BUSHING
EGL .FT               2159.4 : GROUND LEVEL
DATE.               06/29/66 : RUN DATE
RUN .                      1 : RUN NUMBER
DD  .FT                 5979 : DEPTH DRILLER
DL  .FT                 5976 : DEPTH LOGGER
BLI .FT                 5972 : BOTTOM LOG INTERVAL
TLI .FT                  627 : TOP LOG INTERVAL
CS  .IN                8.625 : CASING SIZE
CBD .FT                  627 : CASING BOTTOM DRILLER
CBL .FT                  627 : CASING BOTTOM LOGGER
BS  .IN                7.875 : BIT SIZE
BSD .FT                 5979 : BIT SIZE AT DEPTH
DFT .                MUD GEL : DRILLING FLUID TYPE
DFD .                   10.2 : DRILLING FLUID DENSITY
DFV .                     84 : DRILLING FLUID VISCOSITY
DFPH.                   10.5 : DRILLING FLUID PH
DFL .                    7.6 : DRILLING FLUID LOSS
MSS .                   CIRC : MUD SAMPLE SOURCE
RMS .OHMM               0.94 : RESISTIVITY MUD SAMPLE
MST .DEGF                 66 : MUD SAMPLE TEMPERATURE
RMF .OHMM               0.71 : RESISTIVITY MUD FILTRATE SAMPLE
MFST.DEGF                 67 : MUD FILTRATE SAMPLE TEMPERATURE
RMC .OHMM                1.9 : RESISTIVITY MUD CAKE
MCST.DEGF                 68 : MUD CAKE SAMPLE TEMPERATURE
MFSS.                      M : MUD FILTRATE SAMPLE SOURCE
MCSS.                      M : MUD CAKE SAMPLE SOURCE
RMB .OHMM               0.45 : RESISTIVITY MUD AT BHT
TCS .HRS                   2 : TIME CIRCULATED STOPPED
LUN .                   8038 : LOGGING UNIT NUMBER
LUL .                     SL : LOGGING UNIT LOCATION
ENGI.                 MOURRE : RECORDING ENGINEER
WITN.                 GASPER : WITNESSED BY
CLNT.                A2DTECH : CLIENT CODE
ORIG.            2" 5" PRINT : ORIGIN OF DATA
UWI .       100103108008W500 : UNIQUE WELL ID
DICO. A2D Technologies, Inc. : DIGITIZING COMPANY
~Other -----------------------------------------------------
~ASCII -----------------------------------------------------
  650.00000    -999.25   11.93510   11.93510  257.81410  223.89400    4.46640    -999.25    -999.25    -999.25    4.46640    6.18550  -34.56890   -4.44840    6.18550
  700.00000    -999.25   11.05950   11.05950  282.95640  233.50310    4.28260    -999.25    -999.25    -999.25    4.28260    5.22160  -39.93380  -10.51090    5.22160
  750.00000    -999.25   13.43320   13.43320  238.69470  202.76570    4.93180    -999.25    -999.25    -999.25    4.93180    5.49690  -33.85250   -5.12360    5.49690
  800.00000    -999.25   13.55660   13.55660  282.62820  232.92110    4.29330    -999.25    -999.25    -999.25    4.29330    5.46110  -31.38930   -3.35100    5.46110
  850.00000    -999.25   11.95480   11.95480  259.15640  259.77550    3.84980    -999.25    -999.25    -999.25    3.84980    4.34130  -27.53910   -0.19840    4.34130
  900.00000    -999.25   10.16060   10.16060  442.32750  322.16490    3.10400    -999.25    -999.25    -999.25    3.10400    3.60060  -32.58180   -5.93170    3.60060
  950.00000    -999.25    9.47240    9.47240  487.57260  346.12260    2.88920    -999.25    -999.25    -999.25    2.88920    3.38970  -28.92270   -2.97010    3.38970
 1000.00000    -999.25   10.17400   10.17400  413.61660  313.01460    3.19500    -999.25    -999.25    -999.25    3.19500    4.02870  -28.13410   -2.87560    4.02870
 1050.00000    -999.25   10.32820   10.32820  428.30250  323.01830    3.09580    -999.25    -999.25    -999.25    3.09580    3.84770  -30.13900   -5.57110    3.84770
 1100.00000    -999.25   10.52460   10.52460  312.79650  235.02860    4.25580    -999.25    -999.25    -999.25    4.25580    5.17960  -35.67780  -11.80740    5.17960
 1150.00000    -999.25   12.36800   12.36800  675.27030  437.40700    2.28620    -999.25    -999.25    -999.25    2.28620    2.64580  -25.65470   -2.40280    2.64580
 1200.00000    -999.25    8.28110    8.28110  334.50200  261.87090    3.81890    -999.25    -999.25    -999.25    3.81890    6.62050  -48.27680  -24.99690    6.62050
 1250.00000    -999.25    8.50090    8.50090  255.10220  219.37520    4.55840    -999.25    -999.25    -999.25    4.55840    6.67480  -37.64880  -14.34090    6.67480
 1300.00000    -999.25   10.23090   10.23090  494.94730  372.73100    2.68290    -999.25    -999.25    -999.25    2.68290    3.23120  -33.77720  -10.44150    3.23120
 1350.00000    -999.25   11.78730   11.78730  478.00210  354.84910    2.81810    -999.25    -999.25    -999.25    2.81810    3.39470  -34.08300  -10.71920    3.39470
 1400.00000    -999.25    8.85910    8.85910  274.39290  226.59300    4.41320    -999.25    -999.25    -999.25    4.41320    8.81340  -49.21620  -25.82470    8.81340
 1450.00000    -999.25   10.53110   10.53110  404.35130  293.44910    3.40780    -999.25    -999.25    -999.25    3.40780    4.52150  -43.01970  -19.60020    4.52150
 1500.00000    -999.25   10.89790   10.89790  373.47360  290.22520    3.44560    -999.25    -999.25    -999.25    3.44560    4.80050  -36.63490  -13.18740    4.80050
 1550.00000    -999.25   11.75160   11.75160  388.73220  289.40210    3.45540    -999.25    -999.25    -999.25    3.45540    4.80990  -37.76120  -14.28590    4.80990
 1600.00000    -999.25   10.38230   10.38230  146.55270  142.79770    7.02050    -999.25    -999.25    -999.25    7.02050   10.32040  -40.30550  -16.80220   10.32040
 1650.00000    -999.25   11.05430   11.05430  280.98480  212.23310    4.71180    -999.25    -999.25    -999.25    4.71180    5.82000  -39.47560  -15.94450    5.82000
 1700.00000    -999.25   13.10930   13.10930  266.53200  218.75400    4.57450    -999.25    -999.25    -999.25    4.57450    5.53870  -38.20000  -14.64090    5.53870
 1750.00000    -999.25   10.75540   10.75540  293.67830  244.43790    4.09140    -999.25    -999.25    -999.25    4.09140    5.69540  -42.05440  -18.46730    5.69540
 1800.00000    -999.25   12.75300   12.75300  358.18100  273.78510    3.65250    -999.25    -999.25    -999.25    3.65250    2.76580  -41.87220  -18.25730    2.76580
 1850.00000    -999.25   10.95290   10.95290  163.12450  118.80770    8.48050    -999.25    -999.25    -999.25    8.48050    9.60350  -44.08330  -20.44030    9.60350
 1900.00000    -999.25   10.76090   10.76090   65.45620   61.23850   16.32960    -999.25    -999.25    -999.25   16.32960   18.38710  -43.85140  -20.18070   18.38710
 1950.00000    -999.25   10.17190   10.17190  158.63680  139.48520    7.17120    -999.25    -999.25    -999.25    7.17120   16.97370  -59.88230  -36.18350   16.97370
 2000.00000    -999.25   12.06930   12.06930  162.61420  146.44780    6.82850    -999.25    -999.25    -999.25    6.82850   10.09770  -35.72530  -11.99860   10.09770
 2050.00000    -999.25    9.86640    9.86640  117.57340  102.77180    9.73030    -999.25    -999.25    -999.25    9.73030   15.35540  -41.32100  -17.56650   15.35540
 2100.00000    -999.25   11.52810   11.52810  205.87490  185.43240    5.40660    -999.25    -999.25    -999.25    5.40660   10.56180  -33.22070   -9.43820   10.56180
 2150.00000    -999.25    9.42850    9.42850   33.17860   32.90690   30.38880    -999.25    -999.25    -999.25   30.38880   39.52300  -38.35760  -14.54730   39.52300
 2200.00000    -999.25    9.96260    9.96260   54.85460   52.66270   18.98930    -999.25    -999.25    -999.25   18.98930   25.19730  -32.06650   -8.22810   25.19730
 2250.00000    -999.25    9.72260    9.72260  166.05030  139.33650    7.20560    -999.25    -999.25    -999.25    7.20560   12.99650  -28.61110   -5.11950   12.99650
 2300.00000    -999.25    8.77870    8.77870   73.38110   67.14070   14.89410    -999.25    -999.25    -999.25   14.89410   22.17800  -38.72360  -15.57910   22.17800
 2350.00000    -999.25    9.63830    9.63830   90.32910   88.89990   11.25450    -999.25    -999.25    -999.25   11.25450   15.38950  -37.78300  -14.98890   15.38950
 2400.00000    -999.25    9.15900    9.15900   83.91080   79.64570   12.55560    -999.25    -999.25    -999.25   12.55560   18.83990  -40.32380  -17.87680   18.83990
 2450.00000    -999.25    9.67850    9.67850  122.17320  126.97540    7.89160    -999.25    -999.25    -999.25    7.89160   11.04140  -26.25250   -4.15600   11.04140
 2500.00000    -999.25    9.81050    9.81050  174.60480  166.72530    5.99990    -999.25    -999.25    -999.25    5.99990    9.57500  -24.10820   -1.84230    9.57500
 2550.00000    -999.25    8.72380    8.72380   95.50640   92.74970   10.78170    -999.25    -999.25    -999.25   10.78170   20.31500  -40.49230  -18.01590   20.31500
 2600.00000    -999.25    8.73450    8.73450  120.58540  116.22310    8.60450    -999.25    -999.25    -999.25    8.60450   16.99980  -32.30090   -9.61210   16.99980
 2650.00000    -999.25   11.55050   11.55050  462.41090  368.24270    2.71560    -999.25    -999.25    -999.25    2.71560    3.53720  -26.08220   -3.18290    3.53720
 2700.00000    -999.25    8.96300    8.96300    4.16410   77.89090   12.88280    -999.25    -999.25    -999.25   12.88280   62.27420  -45.88860  -22.77680   62.27420
 2750.00000    -999.25    9.08870    9.08870   34.12110   31.45110   31.79540    -999.25    -999.25    -999.25   31.79540   62.84320  -89.33280  -66.00960   62.84320
 2800.00000    -999.25    8.74390    8.74390   32.35330   30.79340   32.47450    -999.25    -999.25    -999.25   32.47450   69.11800  -70.03620  -46.50260   69.11800
 2850.00000    -999.25    8.96380    8.96380   34.54260   33.32410   30.01480    -999.25    -999.25    -999.25   30.01480   63.52440  -71.21300  -47.46680   63.52440
 2900.00000    -999.25    8.95560    8.95560   39.26800   36.95560   27.05950    -999.25    -999.25    -999.25   27.05950   51.12450  -87.60520  -63.64860   51.12450
 2950.00000    -999.25    8.99960    8.99960   78.44360   75.92080   13.17220    -999.25    -999.25    -999.25   13.17220   57.51660  -97.08430  -72.91530   57.51660
 3000.00000    -999.25    9.21190    9.21190   77.53500   74.15970   13.48460    -999.25    -999.25    -999.25   13.48460   57.70640  -96.02190  -71.64130   57.70640
 3050.00000    -999.25    8.65540    8.65540   21.29610   21.82220   45.82480    -999.25    -999.25    -999.25   45.82480   70.28110  -57.66970  -33.07880   70.28110
