~Version ---------------------------------------------------
VERS.      2.0 : CWLS log ASCII Standard -VERSION 2.0
WRAP.       NO : One line per depth step
CREA. 11/15/17 : LAS Creation Date
~Well ------------------------------------------------------
STRT.FT                        600.0 : START DEPTH
STOP.FT                      10800.0 : STOP DEPTH
STEP.FT                     50.00000 : STEP LENGTH
NULL.                        -999.25 : NULL VALUE
COMP.           PETROFINA CANADA LTD : COMPANY
WELL. FINA AMOCO HB FOXCK 6-35-60-18 : WELL
FLD .                                : FIELD
LOC .                                : LOCATION
CTRY.                         CANADA : COUNTRY
SRVC.         Schlumberger of Canada : SERVICE COMPANY
DATE.                    29-Aug-1976 : LOGDATE
PROV.                        Alberta : PROVINCE
UWI .               100063506018W500 : UNIQUE WELL ID
SLAT.WGS84                  54.22952 : SURFACE LATITUDE
SLON.WGS84                 -116.5928 : SURFACE LONGITUDE
~Curve Information -----------------------------------------
DEPT    .FT    : Depth Curve
CALDED  .IN    : CALIPER FROM DENSITY LOG, DEPTH ADJUSTED WITH [SPRED]
CALSED  .IN    : CALIPER FROM SONIC LOG, DEPTH ADJUSTED WITH [SPRED]
CALWS   .IN    : CALIPER [CALSED]
CONDWS  .MMHO  : CONDUCTIVITY [1000/DRESWS]
DCORED  .G/C3  : DENSITY CORRECTION FROM DENSITY LOG, DEPTH ADJUSTED WITH [SPRED]
DCORWS  .G/C3  : DENSITY CORRECTION [DCORED]
DENWS   .G/C3  : BULK DENSITY [RHOBED]
DPOLSWS .V/V   : DENSITY POROSITY LIMESTONE [CALCULATED FROM DENWS]
DPORLSED.V/V   : DENSITY POROSITY LIMESTONE FROM DENSITY LOG, DEPTH ADJUSTED WITH [SPRED]
DPORSSED.V/V   : DENSITY POROSITY SANDSTONE FROM DENSITY LOG, DEPTH ADJUSTED WITH [SPRED]
DRESWS  .OHMM  : DEEP RESISTIVITY [ILDED]
DTED    .US/F  : DELTA TIME FROM SONIC LOG, DEPTH ADJUSTED WITH [SPRED]
DTWS    .US/F  : DELTA TIME [DTED]
GRDED   .GAPI  : GAMMA RAY FROM DENSITY LOG, DEPTH ADJUSTED WITH [SPRED]
GRED    .GAPI  : GAMMA RAY FROM CEMENT LOG, DEPTH ADJUSTED WITH [SPRED]
GRSED   .GAPI  : GAMMA RAY FROM SONIC LOG, DEPTH ADJUSTED WITH [SPRED]
GRWS    .GAPI  : GAMMA RAY [GRSED], SPLICED WITH [GRED] FROM TOP TO 1095'
ILDED   .OHMM  : INDUCTION LOG DEEP RESISTIVITY
ILMED   .OHMM  : INDUCTION LOG MEDIUM RESISTIVITY
LL8ED   .OHMM  : 8 INCH LATEROLOG RESISTIVITY
MRESWS  .OHMM  : MEDIUM RESISTIVITY [ILMED]
NPOLSWS .V/V   : NEUTRON POROSITY LIMESTONE [NPORLSED], MATRIX CONVERTED FROM [NPORSSED] TO LIMESTONE FROM TOP TO 6954'
NPORLSED.V/V   : NEUTRON POROSITY LIMESTONE FROM DENSITY LOG, DEPTH ADJUSTED WITH [SPRED]
NPORSSED.V/V   : NEUTRON POROSITY SANDSTONE FROM DENSITY LOG, DEPTH ADJUSTED WITH [SPRED]
RHOBED  .G/C3  : BULK DENSITY FROM DENSITY LOG, DEPTH ADJUSTED WITH [SPRED]
SPRED   .MV    : SPONTANEOUS POTENTIAL FROM RESISTIVITY LOG
SPWS    .MV    : SPONTANEOUS POTENTIAL [BASELINE 0 MV] [SPRED]
SRESWS  .OHMM  : SHALLOW RESISTIVITY [LL8ED]
~Params ----------------------------------------------------
PD  .                     GL : PERMANENT DATUM
EPD .FT                 3085 : ELEVATION PERMANENT DATUM
LMF .                     KB : LOG MEASURED FROM
DAPD.FT                 15.7 : FEET ABOVE PERMANENT DATUM
EKB .FT               3100.9 : KELLY BUSHING
EDF .FT               3085.2 : DRILLING FLOOR
EGL .FT               3085.5 : GROUND LEVEL
DATE.               08/29/76 : RUN DATE
RUN .                      1 : RUN NUMBER
DD  .FT                10843 : DEPTH DRILLER
DL  .FT                10840 : DEPTH LOGGER
BLI .FT                10834 : BOTTOM LOG INTERVAL
TLI .FT                 1119 : TOP LOG INTERVAL
CBD .FT                 1119 : CASING BOTTOM DRILLER
CBL .FT                 1119 : CASING BOTTOM LOGGER
BS  .IN                 8.75 : BIT SIZE
BSD .FT                10843 : BIT SIZE AT DEPTH
DFT .               GEL CHEM : DRILLING FLUID TYPE
DFD .                    9.3 : DRILLING FLUID DENSITY
DFV .                    150 : DRILLING FLUID VISCOSITY
DFPH.                   10.5 : DRILLING FLUID PH
DFL .                    7.0 : DRILLING FLUID LOSS
MSS .            CIRCULATION : MUD SAMPLE SOURCE
RMS .OHMM               2.43 : RESISTIVITY MUD SAMPLE
MST .DEGF                 76 : MUD SAMPLE TEMPERATURE
RMF .OHMM               2.33 : RESISTIVITY MUD FILTRATE SAMPLE
MFST.DEGF                 73 : MUD FILTRATE SAMPLE TEMPERATURE
RMC .OHMM               2.22 : RESISTIVITY MUD CAKE
MCST.DEGF                 67 : MUD CAKE SAMPLE TEMPERATURE
RMB .OHMM               0.86 : RESISTIVITY MUD AT BHT
TCS .HRS                   3 : TIME CIRCULATED STOPPED
LUN .                   7691 : LOGGING UNIT NUMBER
LUL .                    WCT : LOGGING UNIT LOCATION
ENGI.              CROCKFORD : RECORDING ENGINEER
WITN.                 HALKOW : WITNESSED BY
CLNT.                A2DTECH : CLIENT CODE
ORIG.            2" 5" PRINT : ORIGIN OF DATA
UWI .       100063506018W500 : UNIQUE WELL ID
DICO. A2D Technologies, Inc. : DIGITIZING COMPANY
~Other -----------------------------------------------------
~ASCII -----------------------------------------------------
# ...
 1850.00000    -999.25   10.23360   10.23360  204.80050    -999.25    -999.25    -999.25    -999.25    -999.25    -999.25    4.88280  120.39350  120.39350    -999.25    -999.25   80.59810   80.59810    4.88280    3.80360    4.08700    3.80360    -999.25    -999.25    -999.25    -999.25  -42.00200   -6.34500    4.08700
 1900.00000    -999.25    9.62480    9.62480  157.82330    -999.25    -999.25    -999.25    -999.25    -999.25    -999.25    6.33620  103.02790  103.02790    -999.25    -999.25   86.39000   86.39000    6.33620    5.13540    5.95570    5.13540    -999.25    -999.25    -999.25    -999.25  -41.47440   -6.23700    5.95570
 1950.00000    -999.25   11.08790   11.08790  207.95210    -999.25    -999.25    -999.25    -999.25    -999.25    -999.25    4.80880  132.19290  132.19290    -999.25    -999.25   69.78860   69.78860    4.80880    3.88160    4.19000    3.88160    -999.25    -999.25    -999.25    -999.25  -43.34070   -8.52290    4.19000
 2000.00000   10.21240    9.38870    9.38870   79.13960    0.04420    0.04420    2.40870    0.17620    -999.25    0.14360   12.63590   86.65930   86.65930   63.10660    -999.25   62.30460   62.30460   12.63590   10.26030   10.08810   10.26030    -999.25    -999.25    -999.25    2.40870  -38.82800   -4.42980   10.08810
 2050.00000   13.62330    9.69150    9.69150  280.29470    0.11600    0.11600    1.82000    0.52040    -999.25    0.49140    3.56780  104.20600  104.20600   90.34150    -999.25   76.14630   76.14630    3.56780    3.08550    3.96640    3.08550    -999.25    -999.25    -999.25    1.82000  -41.12540   -7.14480    3.96640
 2100.00000   12.54110    9.92800    9.92800  206.06660    0.16530    0.16530    1.89630    0.47590    -999.25    0.44080    4.85280  106.37400  106.37400   85.51680    -999.25   79.12030   79.12030    4.85280    3.74020    4.37720    3.74020    -999.25    -999.25    -999.25    1.89630  -41.42250   -7.86350    4.37720
 2150.00000   14.12430   10.57690   10.57690  276.02960    0.12520    0.12520    1.81930    0.52090    -999.25    0.52470    3.62280  107.72400  107.72400   80.70790    -999.25   73.94520   73.94520    3.62280    3.22690    6.47370    3.22690    -999.25    -999.25    -999.25    1.81930  -40.14520   -7.00580    6.47370
 2200.00000   11.43560   10.37380   10.37380  188.03000    0.06280    0.06280    2.28920    0.24610    -999.25    0.20030    5.31830  113.47900  113.47900   75.91080    -999.25   68.08400   68.08400    5.31830    4.24690    6.68870    4.24690    -999.25    -999.25    -999.25    2.28920  -40.76930   -8.04950    6.68870
 2250.00000    -999.25   11.89170   11.89170  257.63900    0.05980    0.05980    1.53260    0.68850    -999.25    0.58280    3.88140  108.03200  108.03200   71.38870    -999.25   64.43510   64.43510    3.88140    3.15990    3.76670    3.15990    -999.25    -999.25    -999.25    1.53260  -42.44000  -10.13980    3.76670
 2300.00000   15.28730   11.12660   11.12660  158.48900    0.18690    0.18690    1.86780    0.49250    -999.25    0.50600    6.30990   97.01490   97.01490   74.01990    -999.25   69.49040   69.49040    6.30990    5.05550    5.59660    5.05550    -999.25    -999.25    -999.25    1.86780  -38.06420   -6.18150    5.59660
 2350.00000   12.04960    9.80060    9.80060  158.90920    0.16640    0.16640    1.87420    0.48880    -999.25    0.48080    6.29290   96.43080   96.43080   89.42110    -999.25   86.16160   86.16160    6.29290    4.97570    5.40430    4.97570    -999.25    -999.25    -999.25    1.87420  -41.31190   -9.85090    5.40430
 2400.00000   13.65050   10.29270   10.29270  302.55360    0.13220    0.13220    1.93610    0.45260    -999.25    0.38040    3.30520  104.41850  104.41850   78.03770    -999.25   75.85650   75.85650    3.30520    2.77070    3.62720    2.77070    -999.25    -999.25    -999.25    1.93610  -39.97300   -8.93160    3.62720
 2450.00000    9.68360    9.27610    9.27610  106.15600    0.03140    0.03140    2.29920    0.24020    -999.25    0.22250    9.42010   83.36400   83.36400   75.29480    -999.25   75.99420   75.99420    9.42010    8.98900   13.40100    8.98900    -999.25    -999.25    -999.25    2.29920  -36.99760   -6.37580   13.40100
 2500.00000   13.06330    9.87730    9.87730  222.92070    0.17830    0.17830    1.74890    0.56200    -999.25    0.54870    4.48590  109.51050  109.51050   83.89580    -999.25   82.64780   82.64780    4.48590    3.56590    4.74730    3.56590    -999.25    -999.25    -999.25    1.74890  -37.60520   -7.40300    4.74730
 2550.00000   10.20830    9.20320    9.20320  153.27900    0.14720    0.14720    2.04690    0.38770    -999.25    0.33970    6.52470   99.62100   99.62100   70.24240    -999.25   70.42230   70.42230    6.52470    5.20300    6.22450    5.20300    -999.25    -999.25    -999.25    2.04690  -31.11300   -1.32830    6.22450
 2600.00000    9.60600    8.79980    8.79980   28.44550    0.07930    0.07930    2.46390    0.14390    -999.25    0.13280   35.15490   80.03190   80.03190   70.09880    -999.25   68.37480   68.37480   35.15490   28.10670   66.00310   28.10670    -999.25    -999.25    -999.25    2.46390  -33.80680   -4.44380   66.00310
 2650.00000   15.02710    9.77970    9.77970  279.20480    0.15320    0.15320    1.81380    0.52410    -999.25    0.50530    3.58160  104.87850  104.87850   79.36460    -999.25   79.59590   79.59590    3.58160    3.13280    3.65600    3.13280    -999.25    -999.25    -999.25    1.81380  -34.13660   -5.19320    3.65600
 2700.00000   11.94490    9.54990    9.54990  129.60250    0.21960    0.21960    2.22890    0.28130    -999.25    0.28260    7.71590   94.86580   94.86580   77.38630    -999.25   72.24810   72.24810    7.71590    6.62410    7.20920    6.62410    -999.25    -999.25    -999.25    2.22890  -31.74500   -3.20110    7.20920
 2750.00000   15.30460    9.90230    9.90230  182.74190    0.19540    0.19540    1.93560    0.45290    -999.25    0.44670    5.47220   98.90440   98.90440   81.84090    -999.25   77.73980   77.73980    5.47220    4.56920    4.93310    4.56920    -999.25    -999.25    -999.25    1.93560  -38.49420  -10.33190    4.93310
 2800.00000   11.12290   10.07080   10.07080  104.14070    0.10130    0.10130    2.02900    0.39820    -999.25    0.28990    9.60900   95.70130   95.70130   70.52290    -999.25   62.32070   62.32070    9.60900    7.73980    8.45380    7.73980    0.29110    -999.25    0.34040    2.02900  -44.10700  -16.32430    8.45380
 2850.00000   12.69240    9.69850    9.69850  294.44670    0.17590    0.17590    1.89630    0.47580    -999.25    0.40690    3.39620   94.75130   94.75130   85.97360    -999.25   80.80030   80.80030    3.39620    3.06320    3.85850    3.06320    0.32700    -999.25    0.37420    1.89630  -38.09770  -10.69860    3.85850
 2900.00000   14.96140   10.41010   10.41010  177.59780    0.14130    0.14130    1.80840    0.52730    -999.25    0.45860    5.63070   90.03480   90.03480   67.06160    -999.25   68.91520   68.91520    5.63070    4.15310    4.75680    4.15310    0.41280    -999.25    0.45240    1.80840  -40.40430  -13.38680    4.75680
 2950.00000   15.14580   12.41090   12.41090  220.08010    0.05550    0.05550    1.54660    0.68040    -999.25    0.60030    4.54380  141.19640  141.19640   57.52280    -999.25   56.89560   56.89560    4.54380    3.99910    4.51330    3.99910    0.44880    -999.25    0.48470    1.54660  -38.22170  -11.58580    4.51330
 3000.00000   14.16250   12.98630   12.98630  230.53690    0.11850    0.11850    1.58060    0.66050    -999.25    0.59690    4.33770  110.54730  110.54730   74.09490    -999.25   63.14690   63.14690    4.33770    3.53240    3.93560    3.53240    0.52590    -999.25    0.55420    1.58060  -38.62560  -12.37140    3.93560
 3050.00000    9.52970    9.17070    9.17070   31.12290    0.10780    0.10780    2.37440    0.19620    -999.25    0.17350   32.15140   77.40930   77.40930   39.75200    -999.25   39.09780   39.09780   32.15140   36.19790   58.85190   36.19790    0.19850    -999.25    0.25100    2.37440  -48.62900  -22.75450   58.85190
