~Version ---------------------------------------------------
VERS.      2.0 : CWLS log ASCII Standard -VERSION 2.0
WRAP.       NO : One line per depth step
CREA. 12/18/17 : LAS Creation Date
~Well ------------------------------------------------------
STRT.FT                               950.0 : START DEPTH
STOP.FT                              9500.0 : STOP DEPTH
STEP.FT                            50.00000 : STEP LENGTH
NULL.                               -999.25 : NULL VALUE
COMP.                 TEXACO CANADA LIMITED : COMPANY
WELL. TEXACO AMERADA SNIPE LAKE 14-29-69-19 : WELL
FLD .                                       : FIELD
LOC .                                       : LOCATION
CTRY.                                CANADA : COUNTRY
SRVC.                Schlumberger of Canada : SERVICE COMPANY
DATE.                           13-Mar-1960 : LOGDATE
PROV.                               Alberta : PROVINCE
UWI .                      100142906919W500 : UNIQUE WELL ID
SLAT.WGS84                         55.00866 : SURFACE LATITUDE
SLON.WGS84                        -116.8632 : SURFACE LONGITUDE
~Curve Information -----------------------------------------
DEPT   .FT     : Depth Curve
CALWS  .IN     : CALIPER [MCALED]
CILDED .MMHO   : CONDUCTIVITY FROM RESISTIVITY LOG
CONDWS .MMHO   : CONDUCTIVITY [1000/DRESWS]
DRESWS .OHMM   : DEEP RESISTIVITY [1000/CILDED IF ILDED<1, ILDED]
DTED   .US/F   : DELTA-T FROM SONIC LOG
DTWS   .US/F   : COMPRESSIONAL SONIC [DTED]
GRED   .GAPI   : GAMMA RAY FROM GR-CCL LOG
GRN1ED .GAPI   : GAMMA RAY FROM GR-CCL-N LOG
GRNED  .UR/HR  : GAMMA RAY FROM GRN LOG [ADJ TO RESISTIVITY LOG]
GRWS   .GAPI   : GAMMA RAY [GRED SPL. TO GRN1ED @ 4242' @ 8497' TO GRNED*10.4]
ILDED  .OHMM   : DEEP INDUCTION RESISTIVITY FROM RESISTIVITY LOG
MCALED .IN     : MICRO CALIPER FROM ML LOG [ADJ TO RESISTIVITY LOG]
NEUT1ED.NAPI   : NEUTRON FROM GR-CCL-N LOG
NEUTED .NAPI   : NEUTRON FROM GRN LOG [ADJ TO RESISTIVITY LOG]
NEUTWS .NAPI   : NEUTRON [NEUT1ED SPL. TO NEUTED @ 4954']
SNED   .OHMM   : SHORT NORMAL RESISTIVITY FROM RESISTIVITY LOG
SPRED  .MV     : SPONTANEOUS POTENTIAL FROM RESISTIVITY LOG
SPWS   .MV     : SPONTANEOUS POTENTIAL [BASELINE 0MV, SPRED]
SRESWS .OHMM   : SHALLOW RESISTIVITY [SNED]
~Params ----------------------------------------------------
LMF .                     KB : LOG MEASURED FROM
DMF .                     KB : DRILLING MEASURED FROM
EKB .FT                 2397 : KELLY BUSHING
DATE.               03/13/60 : RUN DATE
RUN .                      1 : RUN NUMBER
DD  .FT                 9513 : DEPTH DRILLER
DL  .FT                 9508 : DEPTH LOGGER
BLI .FT                 9503 : BOTTOM LOG INTERVAL
TLI .FT                  945 : TOP LOG INTERVAL
CBD .FT                  948 : CASING BOTTOM DRILLER
CBL .FT                  945 : CASING BOTTOM LOGGER
BS  .IN                    9 : BIT SIZE
BSD .FT                 9513 : BIT SIZE AT DEPTH
DFT .                    GEL : DRILLING FLUID TYPE
DFD .                   10.6 : DRILLING FLUID DENSITY
DFV .                    110 : DRILLING FLUID VISCOSITY
DFPH.                   10.5 : DRILLING FLUID PH
DFL .                    5.2 : DRILLING FLUID LOSS
RMS .OHMM                  3 : RESISTIVITY MUD SAMPLE
MST .DEGF                 60 : MUD SAMPLE TEMPERATURE
RMF .OHMM                1.3 : RESISTIVITY MUD FILTRATE SAMPLE
MFST.DEGF                 70 : MUD FILTRATE SAMPLE TEMPERATURE
RMC .OHMM                3.1 : RESISTIVITY MUD CAKE
MCST.DEGF                 70 : MUD CAKE SAMPLE TEMPERATURE
RMB .OHMM               0.95 : RESISTIVITY MUD AT BHT
TCS .HRS                   4 : TIME CIRCULATED STOPPED
LUN .                   2742 : LOGGING UNIT NUMBER
LUL .                     VV : LOGGING UNIT LOCATION
ENGI.                    GAU : RECORDING ENGINEER
WITN.                  IRVIN : WITNESSED BY
CLNT.                A2DTECH : CLIENT CODE
ORIG.            2" 5" PRINT : ORIGIN OF DATA
UWI .       100142906919W500 : UNIQUE WELL ID
DICO. A2D Technologies, Inc. : DIGITIZING COMPANY
~Other -----------------------------------------------------
GR-CCL-N-GRN-IEL-ML-SONIC LOG
~ASCII -----------------------------------------------------
# ...
 2800.00000   11.13000  248.83060  251.95900    3.96890  106.43830  106.43830    -999.25    -999.25    -999.25    -999.25    3.96890   11.13000    -999.25    -999.25    -999.25    4.74300 -174.63920   -7.10380    4.74300
 2850.00000   11.26080  285.02210  295.25520    3.38690  102.49050  102.49050    -999.25    -999.25    -999.25    -999.25    3.38690   11.26080    -999.25    -999.25    -999.25    4.08150 -178.74370  -11.14340    4.08150
 2900.00000   11.87800  320.83150  335.87480    2.97730  100.31480  100.31480    -999.25    -999.25    -999.25    -999.25    2.97730   11.87800    -999.25    -999.25    -999.25    3.68630 -172.33360   -4.66880    3.68630
 2950.00000   11.75570  198.73290  198.00020    5.05050  105.12680  105.12680    -999.25    -999.25    -999.25    -999.25    5.05050   11.75570    -999.25    -999.25    -999.25    5.54450 -174.40820   -6.88200    5.54450
 3000.00000   10.91200  234.41750  235.66010    4.24340  104.57150  104.57150    -999.25    -999.25    -999.25    -999.25    4.24340   10.91200    -999.25    -999.25    -999.25    4.94260 -174.24830   -7.00890    4.94260
 3050.00000   11.62830  260.41570  272.33860    3.67190  104.87600  104.87600    -999.25    -999.25    -999.25    -999.25    3.67190   11.62830    -999.25    -999.25    -999.25    4.77590 -171.57110   -4.61860    4.77590
 3100.00000   10.79530  489.26130  552.48620    1.81000  118.23820  118.23820    -999.25    -999.25    -999.25    -999.25    1.81000   10.79530    -999.25    -999.25    -999.25    2.53260 -173.24310   -6.57940    2.53260
 3150.00000   12.23070  497.37420  556.88590    1.79570  114.05350  114.05350    -999.25    -999.25    -999.25    -999.25    1.79570   12.23070    -999.25    -999.25    -999.25    2.40900 -171.00880   -4.63200    2.40900
 3200.00000   12.99750  495.39970  590.77210    1.69270  111.99670  111.99670    -999.25    -999.25    -999.25    -999.25    1.69270   12.99750    -999.25    -999.25    -999.25    2.45740 -170.30420   -4.21610    2.45740
 3250.00000   11.99570  328.22770  339.90480    2.94200  100.55130  100.55130    -999.25    -999.25    -999.25    -999.25    2.94200   11.99570    -999.25    -999.25    -999.25    3.51850 -172.30750   -6.50630    3.51850
 3300.00000   12.10750  313.25850  334.30280    2.99130  102.84000  102.84000    -999.25    -999.25    -999.25    -999.25    2.99130   12.10750    -999.25    -999.25    -999.25    3.83280 -173.13290   -7.61860    3.83280
 3350.00000    9.59050  241.24780  242.44190    4.12470   96.97820   96.97820    -999.25    -999.25    -999.25    -999.25    4.12470    9.59050    -999.25    -999.25    -999.25    5.51740 -173.15690   -7.93130    5.51740
 3400.00000    9.78800  272.40700  281.25440    3.55550   87.48660   87.48660    -999.25    -999.25    -999.25    -999.25    3.55550    9.78800    -999.25    -999.25    -999.25    4.66310 -178.67810  -13.73940    4.66310
 3450.00000    9.75800  274.43600  255.77410    3.90970   91.38560   91.38560    -999.25    -999.25    -999.25    -999.25    3.90970    9.75800    -999.25    -999.25    -999.25    5.22320 -171.03360   -6.71610    5.22320
 3500.00000    8.99930  202.11230  202.38410    4.94110   91.98760   91.98760    -999.25    -999.25    -999.25    -999.25    4.94110    8.99930    -999.25    -999.25    -999.25    7.53610 -203.30160  -39.84520    7.53610
 3550.00000    9.59680  255.16920  257.22150    3.88770   92.42350   92.42350    -999.25    -999.25    -999.25    -999.25    3.88770    9.59680    -999.25    -999.25    -999.25    4.82460 -177.38780  -14.79240    4.82460
 3600.00000    9.30630  229.04130  228.30010    4.38020   95.34420   95.34420    -999.25    -999.25    -999.25    -999.25    4.38020    9.30630    -999.25    -999.25    -999.25    6.84410 -189.90520  -28.17660    6.84410
 3650.00000    8.64720  159.28010  149.32060    6.69700   87.28550   87.28550    -999.25    -999.25    -999.25    -999.25    6.69700    8.64720    -999.25    -999.25    -999.25   14.73730 -232.50960  -71.64200   14.73730
 3700.00000    8.70840  209.94260  203.97760    4.90250   91.71030   91.71030    -999.25    -999.25    -999.25    -999.25    4.90250    8.70840    -999.25    -999.25    -999.25    7.45800 -208.99540  -48.99460    7.45800
 3750.00000    9.73510  254.64940  261.76640    3.82020   93.74050   93.74050    -999.25    -999.25    -999.25    -999.25    3.82020    9.73510    -999.25    -999.25    -999.25    4.87420 -180.38730  -21.24750    4.87420
 3800.00000    8.63470  162.82810  155.10130    6.44740   92.15080   92.15080    -999.25    -999.25    -999.25    -999.25    6.44740    8.63470    -999.25    -999.25    -999.25   14.08150 -233.45490  -75.17620   14.08150
 3850.00000    8.88470  172.56500  162.55670    6.15170   81.67400   81.67400    -999.25    -999.25    -999.25    -999.25    6.15170    8.88470    -999.25    -999.25    -999.25   10.69390 -212.66070  -55.24870   10.69390
 3900.00000    8.60840  195.65360  187.80750    5.32460   94.60330   94.60330    -999.25    -999.25    -999.25    -999.25    5.32460    8.60840    -999.25    -999.25    -999.25   12.73030 -247.75200  -91.20110   12.73030
 3950.00000    8.66630  240.73240  238.09520    4.20000   89.99250   89.99250    -999.25    -999.25    -999.25    -999.25    4.20000    8.66630    -999.25    -999.25    -999.25   12.16200 -257.01130 -101.32710   12.16200
 4000.00000    9.82080  155.21020  143.68230    6.95980  113.05760  113.05760    -999.25    -999.25    -999.25    -999.25    6.95980    9.82080    -999.25    -999.25    -999.25    9.21890 -195.54710  -40.72400    9.21890
 4050.00000    8.55770  158.09860  148.68560    6.72560   86.41500   86.41500    -999.25    -999.25    -999.25    -999.25    6.72560    8.55770    -999.25    -999.25    -999.25   15.71620 -257.29860 -103.33650   15.71620
 4100.00000    9.63610  205.60290  205.59210    4.86400   92.40580   92.40580    -999.25    -999.25    -999.25    -999.25    4.86400    9.63610    -999.25    -999.25    -999.25    5.94900 -203.84730  -50.75200    5.94900
 4150.00000    9.35920  124.10740  113.50610    8.81010   77.80290   77.80290    -999.25    -999.25    -999.25    -999.25    8.81010    9.35920    -999.25    -999.25    -999.25   14.55430 -243.43540  -91.20110   14.55430
 4200.00000    9.54840  177.24520  170.98690    5.84840   87.18470   87.18470    -999.25    -999.25    -999.25    -999.25    5.84840    9.54840    -999.25    -999.25    -999.25    8.34840 -244.18720  -92.81960    8.34840
 4250.00000    9.67760  196.63350  195.13340    5.12470   89.89840   89.89840    -999.25   70.59040    -999.25   70.59040    5.12470    9.67760    -999.25    -999.25    -999.25    6.41390 -215.36560  -64.85910    6.41390
 4300.00000   10.09570  212.01450  213.64780    4.68060   92.08740   92.08740    -999.25   72.31380    -999.25   72.31380    4.68060   10.09570  194.55580    -999.25  194.55580    5.83050 -202.94650  -53.30110    5.83050
 4350.00000    9.63980  217.57150  209.41970    4.77510   98.03530   98.03530    -999.25   62.17330    -999.25   62.17330    4.77510    9.63980  143.94720    -999.25  143.94720    5.82850 -195.73890  -46.96020    5.82850
 4400.00000    9.44190  101.13050   92.21180   10.84460   84.18530   84.18530    -999.25   63.79550    -999.25   63.79550   10.84460    9.44190  241.95300    -999.25  241.95300   14.75160 -192.54450  -44.62690   14.75160
 4450.00000    9.25910  116.70190  106.56780    9.38370   81.63130   81.63130    -999.25   73.88600    -999.25   73.88600    9.38370    9.25910  179.22670    -999.25  179.22670   13.09330 -204.80040  -57.74950   13.09330
 4500.00000    8.90710   75.27520   61.34820   16.30040   76.27860   76.27860    -999.25   45.63960    -999.25   45.63960   16.30040    8.90710  238.88690    -999.25  238.88690   27.10660 -230.07390  -83.88410   27.10660
 4550.00000    9.57910  138.38210  129.07720    7.74730   85.64240   85.64240    -999.25  133.64800    -999.25  133.64800    7.74730    9.57910  194.27290    -999.25  194.27290   11.41340 -190.24350  -44.91470   11.41340
 4600.00000    9.91270  353.13440  382.42380    2.61490  112.55300  112.55300    -999.25   77.58610    -999.25   77.58610    2.61490    9.91270  153.06140    -999.25  153.06140    4.16730 -162.16530  -17.70320    4.16730
