~Version ---------------------------------------------------
VERS.      2.0 : CWLS log ASCII Standard -VERSION 2.0
WRAP.       NO : One line per depth step
CREA. 12/19/12 : LAS Creation Date
~Well ------------------------------------------------------
STRT.M                      300.0 : START DEPTH
STOP.M                     3100.0 : STOP DEPTH
STEP.M                   50.00000 : STEP LENGTH
NULL.                     -999.25 : NULL VALUE
COMP.        PETROFINA CANADA LTD : COMPANY
WELL. FINA ET AL CHIC 11-25-62-16 : WELL
FLD .                             : FIELD
LOC .                             : LOCATION
CTRY.                      CANADA : COUNTRY
SRVC.                Schlumberger : SERVICE COMPANY
DATE.                 08-Nov-1978 : LOGDATE
PROV.                     Alberta : PROVINCE
UWI .            100112506216W500 : UNIQUE WELL ID
SLAT.WGS84               54.39508 : SURFACE LATITUDE
SLON.WGS84              -116.2673 : SURFACE LONGITUDE
~Curve Information -----------------------------------------
DEPT    .M      : DEPTH METER
CALDED  .MM     : CALIPER FROM CND LOG [ADJ. TO ILDED]
CALSED  .MM     : CALIPER FROM BCS LOG [ADJ. TO ILDED]
CALWS   .MM     : CALIPER [CALSED SPL. TO CALDED @ 3113M]
CILDED  .MMHO   : DEEP INDUCTION CONDUCTIVITY FROM DI-SFL LOG
CONDWS  .MMHO   : CONDUCTIVITY [1000/DRESWS]
DCORED  .KG/M3  : DENSITY CORRECTION FROM CND LOG
DCORWS  .KG/M3  : BULK DENSITY [DCORED]
DENWS   .KG/M3  : FORMATION BULK DENSITY [RHOBED]
DPHILSED.V/V    : DENSITY POROSITY LIMESTONE [M=2710, F=1000] FROM CND LOG [ADJ. TO RHOBED]
DPHISSED.V/V    : DENSITY POROSITY SANDSTONE [D=2650, F=1000] FROM CND LOG [ADJ. TO RHOBED]
DPOWS   .V/V    : DENSITY POROSITY LIMESTONE [DPHISSED CONVERTED TO LIMESTONE MATRIX, M=2710, F=1000, SPL. TO DPHILSED @ 1960 M]
DRESWS  .OHMM   : DEEP RESISTIVITY [ILDED]
DTED    .US/M   : DELTA-T FROM BCS LOG [ADJ. TO ILDED]
DTWS    .US/M   : COMPRESSIONAL SONIC [DTED]
GRDED   .GAPI   : GAMMA RAY FROM DI-SFL LOG
GRSED   .GAPI   : GAMMA RAY FROM BCS LOG [ADJ. TO GRDED]
GRWS    .GAPI   : GAMMA RAY [GRSED SPL. TO GRDED @ 3102.3M]
ILDED   .OHMM   : DEEP INDUCTION FROM BCS LOG
ILMED   .OHMM   : MEDIUM INDUCTION FROM BCS LOG
MRESWS  .OHMM   : MEDIUM RESISTIVITY [ILMED]
NPHILSED.V/V    : NEUTRON POROSITY LIMESTONE FROM CND LOG [ADJ. TO RHOBED]
NPHISSED.V/V    : NEUTRON POROSITY SANDSTONE FROM CND LOG [ADJ. TO RHOBED]
NPOWS   .V/V    : NEUTRON POROSITY LIMESTONE [NPHISSED MATRIX CONVERSION FOR LIMESTONE, SPL. TO NPHISSED @ 1960 M]
RHOBED  .KG/M3  : BULK DENSITY FROM CND LOG
SFLED   .OHMM   : SPHERICALLY FOCUSED FROM DI-SFL LOG
SPRED   .MV     : SPONTANEOUS POTENTIAL FROM DI-SFL LOG
SPWS    .MV     : SPONTANEOUS POTENTIAL [BASELINED 0 MV, SPRED]
SRESWS  .OHMM   : SHALLOW RESISTIVITY [SFLED]
~Params ----------------------------------------------------
PD  .                         GL : PERMANENT DATUM
EPD .M                   1019.76 : ELEVATION PERMANENT DATUM
LMF .                         KB : LOG MEASURED FROM
DAPD.M                      5.24 : FEET ABOVE PERMANENT DATUM
DMF .                         KB : DRILLING MEASURED FROM
EKB .M                      1025 : KELLY BUSHING
EGL .M                   1019.76 : GROUND LEVEL
DATE.                   11/08/78 : RUN DATE
RUN .                          2 : RUN NUMBER
DD  .M                      3113 : DEPTH DRILLER
DL  .M                      3114 : DEPTH LOGGER
BLI .M                      3113 : BOTTOM LOG INTERVAL
TLI .M                      1825 : TOP LOG INTERVAL
CBD .M                       318 : CASING BOTTOM DRILLER
CBL .M                       318 : CASING BOTTOM LOGGER
BS  .MM                      222 : BIT SIZE
BSD .M                      3113 : BIT SIZE AT DEPTH
DFT .                        KCL : DRILLING FLUID TYPE
DFD .                       1120 : DRILLING FLUID DENSITY
DFV .                         42 : DRILLING FLUID VISCOSITY
DFPH.                         10 : DRILLING FLUID PH
DFL .                       15.2 : DRILLING FLUID LOSS
MSS .                CIRCULATION : MUD SAMPLE SOURCE
RMS .OHMM                  0.189 : RESISTIVITY MUD SAMPLE
MST .DEGF                     25 : MUD SAMPLE TEMPERATURE
RMF .OHMM                  0.168 : RESISTIVITY MUD FILTRATE SAMPLE
MFST.DEGC                     15 : MUD FILTRATE SAMPLE TEMPERATURE
MFSS.                CIRCULATION : MUD FILTRATE SAMPLE SOURCE
TCS .HRS                    2100 : TIME CIRCULATED STOPPED
TLAB.HRS                    1500 : TIME LOGGER AT BOTTOM
LUN .                       7738 : LOGGING UNIT NUMBER
LUL .                        EDM : LOGGING UNIT LOCATION
ENGI.                       GUNN : RECORDING ENGINEER
WITN.                      SMITH : WITNESSED BY
CLNT.                    A2DTECH : CLIENT CODE
ORIG. 6.5"/100M 16.5"/100M PRINT : ORIGIN OF DATA
UWI .           100112506216W500 : UNIQUE WELL ID
DICO.     A2D Technologies, Inc. : DIGITIZING COMPANY
~Other -----------------------------------------------------
SFLED, CILDED, ILDED & SPRED FOR DEPTH 750M IS FROM 1"LOG SECTION, DTED, GRSED, CALSED UPTO DEPTH 700M IS FROM 1" LOG SECTION,
~ASCII -----------------------------------------------------
# ...
 1550.00000  311.23400  272.19140  272.19140    -999.25  256.22420  253.85650  253.85650 2120.44310    -999.25    0.31920    0.34310    3.90580  305.93190  305.93190  124.85930  123.61910  123.61910    3.90430    3.87530    3.89710    -999.25    0.32530    0.28140 2120.44310    5.19410  -49.56160  -38.10250    5.19460
 1600.00000  268.37740  260.50210  260.50210    -999.25  305.58290  254.72110  254.72110 2301.62670    -999.25    0.21390    0.24150    3.27260  313.26260  313.26260  123.51050  121.51150  121.51150    3.27250    3.54270    3.55670    -999.25    0.33150    0.28770 2301.62670    3.96940  -49.81840  -36.70790    3.96910
 1650.00000  375.29470  336.55870  336.55870    -999.25  678.53960  139.59180  139.59180 1691.38940    -999.25    0.55440    0.57000    1.47380  372.22630  372.22630  102.12730  106.19190  106.19190    1.46480    1.16680    1.16430    -999.25    0.48740    0.44570 1691.38940    1.42630  -42.73750  -28.37670    1.43530
 1700.00000  278.01310  257.64130  257.64130    -999.25  122.65120   35.55760   35.55760 2489.04860    -999.25    0.09990    0.13150    8.15320  255.79790  255.79790   83.67370   80.51050   80.51050    8.15320    8.72780    8.72780    -999.25    0.22770    0.18400 2489.04860   10.02140  -45.54770  -30.88150   10.02140
 1750.00000  265.81030  275.26770  275.26770    -999.25    0.49730  163.84980  163.84980 2264.07620    -999.25    0.25290    0.27910 2010.68710  321.25670  321.25670  114.19860  120.90350  120.90350 2010.68710   10.65780   10.65780    -999.25    0.39110    0.34810 2264.07620   38.15070  -39.30770  -24.33610   38.15070
 1800.00000  267.88200  262.19960  262.19960    -999.25  229.00590   80.75510   80.75510 2449.83500    -999.25    0.12250    0.15330    4.36670  255.07740  255.07740   82.09410   84.71680   84.71680    4.36670    4.63530    4.63530    -999.25    0.23720    0.19340 2449.83500    4.95500  -41.97960  -26.70260    4.95500
 1850.00000  233.69280  239.88810  239.88810    -999.25  140.94230   60.99870   60.99870 2607.39890    -999.25    0.04090    0.07460    7.09510  247.62300  247.62300   89.49720   86.68030   86.68030    7.09510    7.69910    7.69910    -999.25    0.23360    0.18980 2607.39890   11.81850  -43.71620  -28.13390   11.81850
 1900.00000  216.22440  221.41960  221.41960    -999.25  593.22540  102.02620  102.02620 2434.88160    -999.25    0.13550    0.16580    1.68570  261.95000  261.95000   46.42750   46.52130   46.52130    1.68570    1.80790    1.80790    -999.25    0.21820    0.17460 2434.88160    1.91140  -32.12480  -16.23710    1.91140
 1950.00000  229.36940  231.59130  231.59130    -999.25   92.56860   22.87010   22.87010 2598.30220    -999.25    0.04040    0.07400   10.80280  246.14900  246.14900  103.73050  104.64720  104.64720   10.80280   11.42660   11.42660    -999.25    0.23150    0.18770 2598.30220   13.89670  -44.22560  -28.03250   13.89670
 2000.00000  220.56270  214.70680  214.70680    -999.25  221.78360   15.80970   15.80970 2676.07470    0.02910    -999.25    0.02910    4.50890  205.89610  205.89610   52.95180   48.05670   48.05670    4.50890   18.31500   18.31500    0.09430    -999.25    0.09430 2676.07470   15.31740  -47.58160  -31.08310   15.31740
 2050.00000  240.21830  237.93320  237.93320    -999.25   65.37960  -31.63360  -31.63360 2744.67990   -0.02290    -999.25   -0.02290   15.29530  170.28040  170.28040   56.39850   58.13230   58.13230   15.29530   38.53450   38.53450    0.05900    -999.25    0.05900 2744.67990   52.05880  -46.55280  -29.74890   52.05880
 2100.00000  273.12110  239.96150  239.96150    -999.25   71.13950   45.68200   45.68200 2731.15700   -0.00700    -999.25   -0.00700   14.13700  157.34210  157.34210   28.01540   23.24780   23.24780   13.67680   30.89390   31.23730    0.01020    -999.25    0.01020 2731.15700  294.41600  -51.86740  -34.75810  294.28960
 2150.00000  257.61740  251.49040  251.49040    -999.25   25.46640    0.85210    0.85210 2709.89400   -0.00130    -999.25   -0.00130   39.26970  188.49190  188.49190   69.86900   62.14110   62.14110   39.55820   29.89670   46.62830    0.04100    -999.25    0.04100 2709.89400   69.84800  -38.87600  -21.46140   85.52440
 2200.00000  240.71230  241.35100  241.35100    -999.25    9.18220  -33.01990  -33.01990 2680.67750    0.01030    -999.25    0.01030  109.02520  162.32750  162.32750   32.88760   34.29410   34.29410  108.96580  146.49570  222.37370    0.00920    -999.25    0.00920 2680.67750  138.87700  -56.23830  -38.51830  139.65640
 2250.00000  231.65650  228.39910  228.39910    -999.25    0.84230  -35.98910  -35.98910 2665.77120    0.02490    -999.25    0.02490 1299.45530  165.93270  165.93270   42.00550   39.67830   39.67830 1418.63760  569.82390  630.12180    0.01800    -999.25    0.01800 2665.77120  473.29170  -54.62690  -36.60150  446.11340
 2300.00000  247.56420  236.88420  236.88420    -999.25    0.53190  -14.01200  -14.01200 2732.44870   -0.01570    -999.25   -0.01570 1880.00170  153.04900  153.04900   25.97250   23.16900   23.16900 1880.00170  867.28640  867.28640    0.00070    -999.25    0.00070 2732.44870  389.85260  -52.47960  -34.14880  389.85260
 2350.00000  264.90800  241.22590  241.22590    -999.25   16.69650   22.84020   22.84020 2654.29050    0.02770    -999.25    0.02770   59.89280  149.86500  149.86500   20.86740   17.95740   17.95740   59.89280   45.79040   45.79040    0.00270    -999.25    0.00270 2654.29050   92.66660  -56.29070  -37.65450   92.66660
 2400.00000  240.11430  231.83020  231.83020    -999.25   12.22570  -29.26930  -29.26930 2751.40720   -0.03140    -999.25   -0.03140   81.79510  165.99800  165.99800   20.69200   17.14530   17.14530   81.79510 2233.59420 2233.59420    0.01160    -999.25    0.01160 2751.40720  242.57580  -51.66530  -32.72380  242.57580
 2450.00000  271.28710  235.40050  235.40050    -999.25   11.79430  174.41180  174.41180 2630.42580    0.04020    -999.25    0.04020   84.78690  154.11700  154.11700   23.57160   20.00100   20.00100   84.78690   19.40160   19.40160    0.00230    -999.25    0.00230 2630.42580  397.80210  -51.90990  -32.66300  397.80210
 2500.00000  277.99380  241.62190  241.62190    -999.25   31.64220  192.44850  192.44850 2654.62430    0.03820    -999.25    0.03820   31.60340  145.87110  145.87110   21.85140   20.86890   20.86890   31.60340  184.30310  184.30310    0.00590    -999.25    0.00590 2654.62430  245.32630  -53.78800  -34.23570  245.32630
 2550.00000  320.28750  241.23920  241.23920    -999.25   52.56160  165.46750  165.46750 2580.33500    0.06680    -999.25    0.06680   19.02530  148.50930  148.50930   30.09960   27.98080   27.98080   19.02530 1999.81300 1999.81300    0.07450    -999.25    0.07450 2580.33500  642.27370  -43.74930  -23.89160  642.27370
 2600.00000  241.80660  235.80810  235.80810    -999.25    0.63640  -22.52770  -22.52770 2714.17240   -0.00690    -999.25   -0.00690 1571.27810  164.88650  164.88650   40.30370   38.27240   38.27240 1571.27810   62.72380   62.72380    0.01070    -999.25    0.01070 2714.17240  180.76670  -40.53840  -20.37530  180.76670
 2650.00000  242.18480  239.96480  239.96480    -999.25   68.02030  -16.84390  -16.84390 2686.39090    0.00460    -999.25    0.00460   14.70150  185.02620  185.02620   62.34460   64.30620   64.30620   14.70150   16.06970   16.06970    0.04950    -999.25    0.04950 2686.39090   27.96780  -29.80070   -9.33220   27.96780
 2700.00000  230.11800  229.29390  229.29390    -999.25   78.38400  -44.11910  -44.11910 2662.64500    0.02510    -999.25    0.02510   12.76080  185.65170  185.65170   50.37540   49.60460   49.60460   12.75920   19.70370   19.69900    0.06240    -999.25    0.06240 2662.64500   25.65070  -26.11350   -5.33970   25.49870
 2750.00000  231.51270  226.85490  226.85490    -999.25  127.39310  -24.11750  -24.11750 2647.69430    0.03890    -999.25    0.03890    7.84980  218.57870  218.57870   96.88420   93.77940   93.77940    7.91410    8.69160    8.75580    0.16340    -999.25    0.16340 2647.69430    9.78290  -29.24460   -8.16540   10.22200
