~Version ---------------------------------------------------
VERS.      2.0 : CWLS log ASCII Standard -VERSION 2.0
WRAP.       NO : One line per depth step
CREA. 11/07/17 : LAS Creation Date
~Well ------------------------------------------------------
STRT.FT                               650.0 : START DEPTH
STOP.FT                              5650.0 : STOP DEPTH
STEP.FT                            50.00000 : STEP LENGTH
NULL.                               -999.25 : NULL VALUE
COMP. CONOCOPHILLIPS CANADA RESOURCES CORP. : COMPANY
WELL.       CO-ENERCO ARCO NIPISI 3-30-80-9 : WELL
FLD .                                NIPISI : FIELD
LOC .                                       : LOCATION
CTRY.                                CANADA : COUNTRY
SRVC.                Schlumberger of Canada : SERVICE COMPANY
DATE.                           22-Jul-1970 : LOGDATE
PROV.                               Alberta : PROVINCE
UWI .                      100033008009W500 : UNIQUE WELL ID
SLAT.WGS84                    55.9583505448 : SURFACE LATITUDE
SLON.WGS84                  -115.4010684886 : SURFACE LONGITUDE
~Curve Information -----------------------------------------
DEPT  .FT    : Depth Curve
CALSED.IN    : CALIPER FROM SONIC LOG
CALWS .IN    : CALIPER [CALSED]
CILDED.MMHO  : CONDUCTIVITY FROM IEL LOG
CONDWS.MMHO  : CONDUCTIVITY [1000/DRESWS]
DRESWS.OHMM  : DEEP RESISTIVITY [ILDED] IF ILDED<2;1000/CILDED;ELSE ILDED
DTED  .US/F  : DELTA TIME FROM SONIC LOG
DTWS  .US/F  : DELTA TIME [DTED]
GRSED .GAPI  : GAMMA RAY FROM SONIC LOG
GRWS  .GAPI  : GAMMA RAY [GRSED]
ILDED .OHMM  : INDUCTION LOG DEEP RESISTIVITY
SNED  .OHMM  : 16 INCH SHORT NORMAL RESISTIVITY FROM IEL LOG
SPRED .MV    : SPONTANEOUS POTENTIAL FROM IEL LOG
SPWS  .MV    : SPONTANEOUS POTENTIAL [BASELINE 0 MV] [SPRED]
SRESWS.OHMM  : SHALLOW RESISTIVITY [SNED]
~Params ----------------------------------------------------
PD  .                     GL : PERMANENT DATUM
EPD .FT                 2138 : ELEVATION PERMANENT DATUM
LMF .                     KB : LOG MEASURED FROM
DAPD.FT                   14 : FEET ABOVE PERMANENT DATUM
EKB .FT                 2152 : KELLY BUSHING
EGL .FT                 2138 : GROUND LEVEL
DATE.               07/22/70 : RUN DATE
RUN .                      1 : RUN NUMBER
DD  .FT                 5700 : DEPTH DRILLER
DL  .FT                 5701 : DEPTH LOGGER
BLI .FT                 5700 : BOTTOM LOG INTERVAL
TLI .FT                  623 : TOP LOG INTERVAL
CBD .FT                  624 : CASING BOTTOM DRILLER
CBL .FT                  623 : CASING BOTTOM LOGGER
BS  .IN                7.875 : BIT SIZE
BSD .FT                 5700 : BIT SIZE AT DEPTH
DFT .                    GEL : DRILLING FLUID TYPE
DFD .                    9.6 : DRILLING FLUID DENSITY
DFV .                    167 : DRILLING FLUID VISCOSITY
DFPH.                   10.5 : DRILLING FLUID PH
DFL .                    6.6 : DRILLING FLUID LOSS
RMS .OHMM               1.23 : RESISTIVITY MUD SAMPLE
MST .DEGF                 60 : MUD SAMPLE TEMPERATURE
RMF .OHMM               0.76 : RESISTIVITY MUD FILTRATE SAMPLE
MFST.DEGF                 60 : MUD FILTRATE SAMPLE TEMPERATURE
RMC .OHMM               1.62 : RESISTIVITY MUD CAKE
MCST.DEGF                 62 : MUD CAKE SAMPLE TEMPERATURE
RMB .OHMM              0.435 : RESISTIVITY MUD AT BHT
TCS .HRS                1515 : TIME CIRCULATED STOPPED
TLAB.HRS                2200 : TIME LOGGER AT BOTTOM
LUN .                   7501 : LOGGING UNIT NUMBER
LUL .                    EDM : LOGGING UNIT LOCATION
ENGI.                 HADDOW : RECORDING ENGINEER
WITN.                 SUMNER : WITNESSED BY
CLNT.                A2DTECH : CLIENT CODE
ORIG.            2" 5" PRINT : ORIGIN OF DATA
UWI .       100033008009W500 : UNIQUE WELL ID
DICO. A2D Technologies, Inc. : DIGITIZING COMPANY
~Other -----------------------------------------------------
~ASCII -----------------------------------------------------
# ...
 3100.00000    8.62850    8.62850   29.67620   27.01420   37.03040   55.25700   55.25700   15.37970   15.37970   37.03040   57.23090  -54.72530  -65.93800   57.23090
 3150.00000    8.84090    8.84090   43.33710   42.14550   23.72730   56.16400   56.16400   17.57500   17.57500   23.72730   51.01800  -53.04240  -64.20380   51.01800
 3200.00000    8.40300    8.40300   32.85990   31.32890   31.92490   55.29790   55.29790   13.63920   13.63920   31.92490   83.33710  -64.02670  -75.13640   83.33710
 3250.00000    8.49930    8.49930   29.85440   26.55330   37.66010   56.13670   56.13670   11.67310   11.67310   37.66010   74.34750  -62.10140  -73.15980   74.34750
 3300.00000    8.43250    8.43250   45.29540   43.01890   23.24560   56.11800   56.11800   13.61700   13.61700   23.24560   70.79280  -59.86590  -70.87280   70.79280
 3350.00000    8.53670    8.53670   12.62290    9.93540  100.65680   53.54380   53.54380   10.82270   10.82270  100.65680  139.57230  -53.43470  -64.38980  139.57230
 3400.00000    8.37520    8.37520   20.63650   16.71330   59.83260   54.17740   54.17740    9.48910    9.48910   59.83260   93.07360  -36.51760  -47.42150   93.07360
 3450.00000    8.52350    8.52350   29.37530   26.34800   37.96230   55.56600   55.56600   15.21400   15.21400   37.96230   60.71890    -999.25    -999.25   60.71890
 3500.00000    8.50580    8.50580   21.10290   17.81400   56.13550   53.94290   53.94290   15.17140   15.17140   56.13550   68.61810  -80.95190  -45.49970   68.61810
 3550.00000    8.64800    8.64800   25.45330   23.41300   42.71130   56.68830   56.68830   13.46210   13.46210   42.71130   65.36930  -83.67920  -48.30340   65.36930
 3600.00000    8.45850    8.45850   10.75030    8.84780  113.03760   52.20740   52.20740   15.81400   15.81400  113.03760   85.40640  -73.13710  -37.83810   85.40640
 3650.00000    8.57360    8.57360   37.06860   37.65030   26.56020   54.57860   54.57860   10.79440   10.79440   26.56020   53.16340  -92.53480  -57.31180   53.16340
 3700.00000    8.48430    8.48430   19.75110   16.19660   61.76050   53.78760   53.78760   18.28660   18.28660   61.76050   46.65890  -71.47770  -36.33140   46.65890
 3750.00000    8.35730    8.35730   43.17520   42.84380   23.34060   57.07630   57.07630   16.62780   16.62780   23.34060   65.90010 -109.89930  -74.82900   65.90010
 3800.00000    8.34320    8.34320  198.22410  204.16500    4.89800   53.72740   53.72740   26.49630   26.49630    4.89800   19.32180  -95.03170  -60.03780   19.32180
 3850.00000    8.20460    8.20460   89.06280   92.28370   10.83650   53.69340   53.69340   29.57440   29.57440   10.83650   25.61750  -84.73860  -49.82150   25.61750
 3900.00000    8.40050    8.40050   80.97070   85.66040   11.67400   55.37890   55.37890   20.54710   20.54710   11.67400   26.51540  -92.80110  -57.96000   26.51540
 3950.00000    8.31750    8.31750   88.19010   92.46180   10.81960   60.85620   60.85620   24.06630   24.06630   10.81960   23.02330  -67.20770  -32.44340   23.02330
 4000.00000    8.08890    8.08890  104.77400  111.62580    8.95850   59.19980   59.19980   23.88020   23.88020    8.95850   39.95490 -104.91950  -70.23110   39.95490
 4050.00000    8.28780    8.28780   40.83700   34.62200   28.88340   55.88530   55.88530   23.09650   23.09650   28.88340   28.87720    -999.25    -999.25   28.87720
 4100.00000    8.24060    8.24060   51.21100   52.63010   19.00070   62.42430   62.42430   32.92190   32.92190   19.00070   22.24210 -101.20640   -9.45080   22.24210
 4150.00000    8.28920    8.28920   97.57930   99.14930   10.08580   70.27290   70.27290   53.72340   53.72340   10.08580   12.26460  -86.25650   -2.71750   12.26460
 4200.00000   14.09980   14.09980  278.41640  297.57190    3.36330   99.70430   99.70430   60.66280   60.66280    3.36330    4.39590 -104.54500  -22.75580    4.39590
 4250.00000   12.74580   12.74580  380.08830  419.09390    2.38610  102.90830  102.90830   72.94850   72.94850    2.38610    2.58340 -104.12640  -14.75130    2.58340
 4300.00000   11.29190   11.29190  329.01890  356.22680    2.80720   95.63440   95.63440   89.13650   89.13650    2.80720    3.10600 -104.92340    2.82860    3.10600
 4350.00000   11.68190   11.68190  350.90990  385.31210    2.59530  100.39550  100.39550   77.34860   77.34860    2.59530    2.82740  -99.83460    7.85260    2.82740
 4400.00000    7.80630    7.80630  287.50690  315.97570    3.16480   89.82580   89.82580   65.52790   65.52790    3.16480    3.61680  -93.67430   10.10230    3.61680
 4450.00000   11.18510   11.18510  300.63390  316.57560    3.15880   93.97340   93.97340   71.98410   71.98410    3.15880    3.38820  -98.58370    1.24290    3.38820
 4500.00000   11.48530   11.48530  329.06480  355.92250    2.80960   98.63620   98.63620   70.18330   70.18330    2.80960    3.19290  -89.01310   10.07300    3.19290
 4550.00000    9.81680    9.81680  280.40250  293.23790    3.41020   92.67980   92.67980   75.65840   75.65840    3.41020    3.97530  -88.58690   10.05570    3.97530
 4600.00000   10.34100   10.34100  349.13390  372.13470    2.68720  101.35070  101.35070   76.07280   76.07280    2.68720    2.92780  -95.57100    2.63070    2.92780
 4650.00000   10.91590   10.91590  303.74310  325.01300    3.07680  108.40950  108.40950   69.60780   69.60780    3.07680    3.27810  -79.79160   17.80810    3.27810
 4700.00000   13.90440   13.90440  408.81480  469.39550    2.13050  103.29820  103.29820   80.51290   80.51290    2.13050    2.29620  -80.82940   11.36600    2.29620
 4750.00000    9.37630    9.37630  314.98900  322.60140    3.09980   60.61530   60.61530   25.20180   25.20180    3.09980    4.18560  -83.32670    1.19660    4.18560
 4800.00000    9.54770    9.54770  307.80400  327.53590    3.05310   95.00050   95.00050   76.86750   76.86750    3.05310    4.23750  -74.60810   -3.20250    4.23750
 4850.00000    8.29480    8.29480  134.30480  138.96930    7.19600   70.64320   70.64320   50.47950   50.47950    7.19600    9.30560  -66.38740   -5.00090    9.30560
 4900.00000    8.72050    8.72050  152.26730  159.01540    6.28870   74.44540   74.44540   53.81490   53.81490    6.28870    8.32520  -62.48590   -2.70300    8.32520
 4950.00000    8.48290    8.48290  131.31340  137.24890    7.28650   73.09210   73.09210   65.26770   65.26770    7.28650    9.57680  -58.50420   -0.26490    9.57680
 5000.00000    8.47940    8.47940  145.04760  152.86310    6.54180   76.05240   76.05240   67.90390   67.90390    6.54180    8.57720  -70.01540   -0.11290    8.57720
 5050.00000   12.26590   12.26590  434.52380  434.52380    2.30140  110.18870  110.18870   73.83960   73.83960    1.97420    2.58440  -74.74020   10.69370    2.58440
 5100.00000    8.43500    8.43500  115.15930  118.47450    8.44060   72.04410   72.04410   61.67830   61.67830    8.44060   11.42410  -60.35770   26.49160   11.42410
 5150.00000   10.37060   10.37060  294.44340  307.43690    3.25270   95.12340   95.12340   81.16040   81.16040    3.25270    4.00370  -87.58310    0.66760    4.00370
 5200.00000    9.75660    9.75660  315.07060  326.95250    3.06010   93.66130   93.66130   73.84930   73.84930    3.06010    3.90530  -80.64480    0.94050    3.90530
 5250.00000    8.66610    8.66610  127.13030  127.63730    7.83470   65.02990   65.02990   36.24850   36.24850    7.83470   10.29280  -61.14170   13.84460   10.29280
 5300.00000    8.59320    8.59320  134.27670  134.60760    7.42900   69.62500   69.62500   47.59150   47.59150    7.42900   10.54440  -62.56700   -3.16720   10.54440
 5350.00000    8.34310    8.34310   23.16760   20.55200   48.65780   56.18120   56.18120   24.79430   24.79430   48.65780   44.64890  -69.51170  -16.36240   44.64890
 5400.00000    8.81540    8.81540  151.39670  155.37360    6.43610   78.16120   78.16120   78.45280   78.45280    6.43610    9.30180  -57.98100   -5.77920    9.30180
 5450.00000    8.18690    8.18690   36.35020   36.43930   27.44360   55.48100   55.48100   17.82500   17.82500   27.44360   30.97400  -84.84450  -33.53630   30.97400
 5500.00000    8.25560    8.25560  111.93920  114.39290    8.74180   68.27390   68.27390   45.30770   45.30770    8.74180   11.88130  -55.37970   -4.87410   11.88130
