~Version ---------------------------------------------------
VERS.      2.0 : CWLS log ASCII Standard -VERSION 2.0
WRAP.       NO : One line per depth step
CREA. 11/17/17 : LAS Creation Date
~Well ------------------------------------------------------
STRT.FT                  950.0 : START DEPTH
STOP.FT                 9500.0 : STOP DEPTH
STEP.FT               50.00000 : STEP LENGTH
NULL.                  -999.25 : NULL VALUE
COMP.    CANADIAN FINA OIL LTD : COMPANY
WELL. FINA GOOSE R 11-16-68-19 : WELL
FLD .                          : FIELD
LOC .                          : LOCATION
CTRY.                   CANADA : COUNTRY
SRVC.                  Unknown : SERVICE COMPANY
DATE.              04-Mar-1970 : LOGDATE
PROV.                  Alberta : PROVINCE
UWI .         100111606819W500 : UNIQUE WELL ID
SLAT.WGS84            54.88958 : SURFACE LATITUDE
SLON.WGS84           -116.8394 : SURFACE LONGITUDE
~Curve Information -----------------------------------------
DEPT   .FT    : Depth Curve
CALDED .IN    : CALIPER FROM DENSITY LOG
CALSED .IN    : CALIPER FROM SONIC LOG
CALWS  .IN    : CALIPER [SPIL. CALSED TO CALDED @ 5005']
CONDWS .MMHO  : CONDUCTIVITY [1000/DRESWS]
DCORWS .G/C3  : DENSITY CORRECTION [DRHOED]
DENWS  .G/C3  : FORMATION BULK DENSITY [RHOBED]
DPOLSWS.V/V   : DENSITY POROSITY LIMESTONE [CALC. FROM DENWS, M=2.71, F=1.00]
DRESWS .OHMM  : DEEP RESISTIVITY [ILDED]
DRHOED .G/C3  : DENSITY CORRECTION FROM DENSITY LOG
DTED   .US/F  : DELTA TIME FROM SONIC LOG
DTWS   .US/F  : COMPRESSIONAL SONIC [DTED]
GRDED  .GAPI  : GAMMA RAY FROM DENSITY LOG
GRWS   .GAPI  : GAMMA RAY [GRDED]
ILDED  .OHMM  : DEEP  INDUCTION RESISTIVITY FROM RESISTIVITY LOG
ILMED  .OHMM  : MEDIUM INDUCTION RESISTIVITY FROM RESISTIVITY LOG
LL8ED  .OHMM  : 8 INCH LATEROLOG RESISTIVITY FROM RESISTIVITY LOG
MRESWS .OHMM  : MEDIUM RESISTIVITY [ILMED]
RHOBED .G/C3  : BULK DENSITY FROM DENSITY LOG
SPRED  .MV    : SPONTANEOUS POTENTIAL FROM RESISTIVITY LOG
SPWS   .MV    : SPONTANEOUS POTENTIAL [BASELINE 0 MV, SPRED]
SRESWS .OHMM  : SHALLOW RESISTIVITY [LL8ED]
~Params ----------------------------------------------------
PD  .                     GL : PERMANENT DATUM
EPD .FT                 2553 : ELEVATION PERMANENT DATUM
LMF .                     KB : LOG MEASURED FROM
DAPD.FT                   13 : FEET ABOVE PERMANENT DATUM
EKB .FT                 2566 : KELLY BUSHING
EGL .FT                 2553 : GROUND LEVEL
DATE.               03/04/70 : RUN DATE
RUN .                      1 : RUN NUMBER
DD  .FT                 9523 : DEPTH DRILLER
DL  .FT                 9520 : DEPTH LOGGER
BLI .FT                 9514 : BOTTOM LOG INTERVAL
TLI .FT                  972 : TOP LOG INTERVAL
CBD .FT                  972 : CASING BOTTOM DRILLER
CBL .FT                  972 : CASING BOTTOM LOGGER
BS  .IN                7.875 : BIT SIZE
BSD .FT                 9523 : BIT SIZE AT DEPTH
DFT .               GEL CHEM : DRILLING FLUID TYPE
DFD .                    9.3 : DRILLING FLUID DENSITY
DFV .                    100 : DRILLING FLUID VISCOSITY
DFPH.                    9.5 : DRILLING FLUID PH
DFL .                    6.4 : DRILLING FLUID LOSS
RMS .OHMM               1.46 : RESISTIVITY MUD SAMPLE
MST .DEGF                 82 : MUD SAMPLE TEMPERATURE
RMF .OHMM               1.39 : RESISTIVITY MUD FILTRATE SAMPLE
MFST.DEGF                 65 : MUD FILTRATE SAMPLE TEMPERATURE
RMB .OHMM               0.59 : RESISTIVITY MUD AT BHT
TCS .HRS                   3 : TIME CIRCULATED STOPPED
LUN .                   7003 : LOGGING UNIT NUMBER
LUL .                     RD : LOGGING UNIT LOCATION
ENGI.               ROBINSON : RECORDING ENGINEER
WITN.               MCINTYRE : WITNESSED BY
CLNT.                A2DTECH : CLIENT CODE
ORIG.            2" 5" PRINT : ORIGIN OF DATA
UWI .       100111606819W500 : UNIQUE WELL ID
DICO. A2D Technologies, Inc. : DIGITIZING COMPANY
~Other -----------------------------------------------------
~ASCII -----------------------------------------------------
# ...
 5900.00000    9.61190    9.42610    9.61190  180.17040    0.01630    2.67110    0.02270    5.55030    0.01630   63.75210   63.75210   30.18440   30.18440    5.55030    7.20160   22.74890    7.20160    2.67110 -108.40280 -130.18130   22.74890
 5950.00000    9.08020    9.06830    9.08020   72.53530    0.01830    2.76110   -0.02990   13.78640    0.01830   57.11720   57.11720   20.25650   20.25650   13.78640   19.70270   88.86090   19.70270    2.76110  -85.44200 -103.09910   88.86090
 6000.00000    8.81860    8.72460    8.81860   64.95910    0.01270    2.58510    0.07300   15.39430    0.01270   57.00280   57.00280   11.89330   11.89330   15.39430   18.64080   95.08160   18.64080    2.58510 -106.43730 -119.97290   95.08160
 6050.00000    9.26510    9.63030    9.26510  153.46140    0.07000    2.60060    0.06390    6.52280    0.07000   53.65420   53.65420   16.62470   16.62470    6.52280   11.77450   44.23990   11.77450    2.60060 -155.95550 -165.39040   44.23990
 6100.00000    9.32680    9.37340    9.32680   50.97180    0.10920    2.59340    0.06820   19.61870    0.10920   52.92000   52.92000   15.06920   15.06920   19.61870   29.48220  142.58950   29.48220    2.59340 -154.76390 -160.05670  142.58950
 6150.00000    8.83160    9.08170    8.83160    9.65920    0.02780    2.68130    0.01680  103.52860    0.02780   50.34770   50.34770   17.76820   17.76820  103.52860  170.62080  224.97190  170.62080    2.68130 -134.21810 -135.38950  224.97190
 6200.00000    9.67120    9.49440    9.67120  398.78770    0.00580    2.61530    0.05540    2.50760    0.00580   66.47220   66.47220   46.85940   46.85940    2.50760    2.56850    3.62460    2.56850    2.61530  -63.74950  -60.79950    3.62460
 6250.00000    9.22560    9.21020    9.22560  170.87300    0.02450    2.62230    0.05130    5.85230    0.02450   70.46570   70.46570   71.42320   71.42320    5.85230    6.12630    9.06150    6.12630    2.62230  -22.94840  -15.87700    9.06150
 6300.00000    9.16930    9.11820    9.16930  200.92860    0.03540    2.68290    0.01580    4.97750    0.03540   65.67350   65.67350   61.62990   61.62990    4.97750    4.62910    6.05490    4.62910    2.68290  -19.17030   -7.99800    6.05490
 6350.00000    9.21340    9.45230    9.21340   11.90510    0.00600    2.70590    0.00240   83.99780    0.00600   51.00510   51.00510   13.02150   13.02150   83.99780   86.15730  124.75970   86.15730    2.70590  -38.04760  -26.63650  124.75970
 6400.00000    8.29590    8.34150    8.29590   29.75000    0.00470    2.69100    0.01110   33.61340    0.00470   55.46370   55.46370   27.03020   27.03020   33.61340   32.97900   48.46500   32.97900    2.69100  -44.09680  -37.54990   48.46500
 6450.00000    8.31370    8.34250    8.31370   25.99820    0.03780    2.75550   -0.02660   38.46420    0.03780   54.64910   54.64910   22.79910   22.79910   38.46420   39.57240   61.76250   39.57240    2.75550  -41.19840  -39.51570   61.76250
 6500.00000    8.60710    8.57960    8.60710   41.53840    0.00630    2.66910    0.02390   24.07410    0.00630   47.79250   47.79250   36.48130   36.48130   24.07410   24.66100   41.04260   24.66100    2.66910  -35.91570  -39.09720   41.04260
 6550.00000    8.27100    8.29450    8.27100   26.32340    0.00660    2.70470    0.00310   37.99150    0.00660   54.01310   54.01310   26.61070   26.61070   37.99150   40.44230   58.24810   40.44230    2.70470  -65.17510  -73.19650   58.24810
 6600.00000    8.37090    8.41000    8.37090   27.81130    0.01030    2.67860    0.01840   35.95660    0.01030   55.85560   55.85560   34.30600   34.30600   35.95660   37.54500   43.97850   37.54500    2.67860  -53.99290  -66.90280   43.97850
 6650.00000    8.26740    8.35340    8.26740   19.11640    0.01270    2.70260    0.00430   52.31100    0.01270   55.41960   55.41960   29.97500   29.97500   52.31100   59.87750   74.15530   59.87750    2.70260  -27.14640  -44.92050   74.15530
 6700.00000    8.15660    8.15850    8.15660   10.71490    0.01580    2.69460    0.00900   93.32820    0.01580   53.97160   53.97160   21.81630   21.81630   93.32820  108.37430  148.56340  108.37430    2.69460   -1.95570  -24.59410  148.56340
 6750.00000    8.31050    8.42250    8.31050   49.31430    0.00820    2.65310    0.03330   20.27810    0.00820   67.11190   67.11190   76.39710   76.39710   20.27810   18.25870   22.14790   18.25870    2.65310   26.01320   -0.18290   22.14790
 6800.00000    8.39360    8.53490    8.39360   46.29790    0.01330    2.52170    0.11010   21.59920    0.01330   88.35380   88.35380  158.49790  158.49790   21.59920   22.09970   27.55270   22.09970    2.52170   13.23280   -2.64210   27.55270
 6850.00000    8.70470    8.86980    8.70470   92.37700    0.01440    2.62730    0.04840   10.82520    0.01440   64.12880   64.12880   80.03200   80.03200   10.82520   11.06580   12.18930   11.06580    2.62730   -4.56070   -3.56500   12.18930
 6900.00000    8.30950    8.38890    8.30950    3.87600    0.00730    2.71830   -0.00490  257.99940    0.00730   49.83360   49.83360   17.61230   17.61230  257.99940  468.44700  467.05780  468.44700    2.71830  -70.70870  -66.22050  467.05780
 6950.00000    8.50640    8.46400    8.50640    5.70630    0.03940    2.72510   -0.00880  175.24440    0.03940   49.76690   49.76690   14.86760   14.86760  175.24440  233.46930  326.12950  233.46930    2.72510 -127.92680 -122.11030  326.12950
 7000.00000    8.80190    8.39130    8.80190    1.00080    0.01540    2.69790    0.00710  999.20650    0.01540   49.78930   49.78930   14.35140   14.35140  999.20650  924.96340  821.90550  924.96340    2.69790 -126.72870 -119.58390  821.90550
 7050.00000    9.38890    8.62040    9.38890    4.46400    0.17020    2.66560    0.02600  226.44580    0.17020   56.16720   56.16720   13.01480   13.01480  226.44580  343.34480  902.62400  343.34480    2.66560 -162.40060 -153.93410  902.62400
 7100.00000    8.73520    8.37240    8.73520    8.45830    0.02970    2.72220   -0.00710  118.22660    0.02970   50.01440   50.01440   10.81830   10.81830  118.22660  100.78000  138.78390  100.78000    2.72220 -122.78990 -112.98850  138.78390
 7150.00000    8.47240    8.36420    8.47240   21.24800    0.06460    2.57880    0.07670   47.06320    0.06460   53.23590   53.23590   11.00010   11.00010   47.06320   58.80800  202.75870   58.80800    2.57880 -146.79390 -135.66410  202.75870
 7200.00000    9.28130    8.39430    9.28130   11.51020    0.05980    2.64670    0.03700   86.87910    0.05980   49.91740   49.91740   12.05150   12.05150   86.87910  100.46140  175.45240  100.46140    2.64670 -117.40970 -104.95160  175.45240
 7250.00000    9.10460    8.30240    9.10460   13.38700    0.14510    2.70060    0.00550   74.69940    0.14510   48.92410   48.92410    9.69010    9.69010   74.69940   87.98860  127.21520   87.98860    2.70060 -116.39400 -102.60760  127.21520
 7300.00000    9.50560    8.62440    9.50560    0.71420    0.21580    2.64830    0.03610 1400.97440    0.21580   49.24230   49.24230   15.47470   15.47470 1400.97440 1452.96850 1507.71060 1452.96850    2.64830 -104.43470  -89.32660 1507.71060
 7350.00000    8.70260    8.35670    8.70260    7.32890   -0.00560    2.68000    0.01750  136.44620   -0.00560   48.49830   48.49830   13.27740   13.27740  136.44620  157.39930  149.49590  157.39930    2.68000  -91.35670  -74.91370  149.49590
 7400.00000    9.19660    8.48300    9.19660    0.63060    0.12750    2.71190   -0.00110 1585.69670    0.12750   48.70520   48.70520   12.51520   12.51520 1585.69670 1526.39420  860.71720 1526.39420    2.71190  -89.71900  -71.94770  860.71720
 7450.00000    9.83440    8.62140    9.83440    2.55090    0.20060    2.63410    0.04440  392.02060    0.20060   49.51630   49.51630   13.92590   13.92590  392.02060  589.72810  776.26990  589.72810    2.63410 -114.30120  -95.20160  776.26990
 7500.00000    8.06880    8.21270    8.06880   55.43300    0.02330    2.63060    0.04640   18.03980    0.02330   53.10380   53.10380    9.85310    9.85310   18.03980   26.20770  124.38980   26.20770    2.63060 -203.58660 -183.15870  124.38980
