~Version ---------------------------------------------------
VERS.      2.0 : CWLS log ASCII Standard -VERSION 2.0
WRAP.       NO : One line per depth step
CREA. 12/21/17 : LAS Creation Date
~Well ------------------------------------------------------
STRT.FT                         1250.0 : START DEPTH
STOP.FT                        12650.0 : STOP DEPTH
STEP.FT                       50.00000 : STEP LENGTH
NULL.                          -999.25 : NULL VALUE
COMP. AMOCO CANADA PETROLEUM CO., LTD. : COMPANY
WELL. AMOCO A-1 DEEP VALLEY 6-32-61-23 : WELL
FLD .                                  : FIELD
LOC .                                  : LOCATION
CTRY.                           CANADA : COUNTRY
SRVC.           Schlumberger of Canada : SERVICE COMPANY
DATE.                      06-Sep-1970 : LOGDATE
PROV.                          Alberta : PROVINCE
UWI .                 100063206123W500 : UNIQUE WELL ID
SLAT.WGS84                    54.31655 : SURFACE LATITUDE
SLON.WGS84                   -117.4164 : SURFACE LONGITUDE
~Curve Information -----------------------------------------
DEPT    .FT    : Depth Curve
CALDED  .IN    : CALIPER FROM DENSITY LOG [ADJ. TO RESISTIVITY LOG]
CALNED  .IN    : CALIPER FROM SNP LOG [ADJ. TO RESISTIVITY LOG]
CALSED  .IN    : CALIPER FROM SONIC LOG
CALWS   .IN    : CALIPER [CALSED]
CONDWS  .MMHO  : CONDUCTIVITY [1000/DRESWS]
CORRED  .G/C3  : DENSITY CORRECTION FROM DENSITY LOG [ADJ. TO RESISTIVITY LOG]
DCORWS  .G/C3  : DENSITY CORRECTION [CORRED]
DENWS   .G/C3  : FORMATION BULK DENSITY [RHOBED]
DPHILSED.V/V   : DENSITY POROSITY LIMESTONE [M=2.71, F=1.00] FROM DENSITY LOG [ADJ. TO RESISTIVITY LOG]
DPOLSWS .V/V   : DENSITY POROSITY LIMESTONE [CALC FROM DENWS,M=2.71, F=1.00]
DRESWS  .OHMM  : DEEP RESISTIVITY [ILDED]
DTED    .US/F  : DELTA-T FROM SONIC LOG [ADJ. TO RESISTIVITY LOG]
DTWS    .US/F  : COMPRESSIONAL SONIC [DTED]
GRDED   .GAPI  : GAMMA RAY FROM DENSITY LOG [ADJ. TO RESISTIVITY LOG]
GRNED   .GAPI  : GAMMA RAY FROM SNP LOG [ADJ. TO RESISTIVITY LOG]
GRSED   .GAPI  : GAMMA RAY FROM SONIC LOG
GRWS    .GAPI  : GAMMA RAY [GRSED SPL. TO GRDED @ 1502'& SPL. TO GRNED @ 12657']
ILDED   .OHMM  : DEEP INDUCTION RESISTIVITY FROM RESISTIVITY LOG
ILMED   .OHMM  : MEDIUM INDUCTION FROM RESISTIVITY LOG
LL8ED   .OHMM  : LATEROLOG 8 FROM RESISTIVITY LOG
MRESWS  .OHMM  : MEDIUM RESISTIVITY [ILMED]
NPHILSED.V/V   : NEUTRON POROSITY LIMESTONE FROM SNP LOG [ADJ. TO RESISTIVITY LOG]
NPOLSWS .V/V   : NEUTRON POROSITY LIMESTONE [NPHILSED]
RHOBED  .G/C3  : BULK DENSITY FROM DENSITY LOG [ADJ. TO RESISTIVITY LOG]
SPRED   .MV    : SPONTANEOUS POTENTIAL FROM RESISTIVITY LOG
SPWS    .MV    : SPONTANEOUS POTENTIAL [BASELINE 0 MV,SPRED]
SRESWS  .OHMM  : SHALLOW RESISTIVITY [LLBED]
~Params ----------------------------------------------------
PD  .                     GL : PERMANENT DATUM
EPD .FT                 3450 : ELEVATION PERMANENT DATUM
LMF .                     KB : LOG MEASURED FROM
DAPD.FT                   14 : FEET ABOVE PERMANENT DATUM
EKB .FT                 3464 : KELLY BUSHING
EGL .FT                 3450 : GROUND LEVEL
DATE.               11/06/70 : RUN DATE
RUN .                      1 : RUN NUMBER
DD  .FT                12700 : DEPTH DRILLER
DL  .FT                12697 : DEPTH LOGGER
BLI .FT                12691 : BOTTOM LOG INTERVAL
TLI .FT                 1513 : TOP LOG INTERVAL
CBD .FT                 1514 : CASING BOTTOM DRILLER
CBL .FT                 1513 : CASING BOTTOM LOGGER
BS  .IN                 8.75 : BIT SIZE
BSD .FT                12700 : BIT SIZE AT DEPTH
DFT .                    GEL : DRILLING FLUID TYPE
DFD .                    9.1 : DRILLING FLUID DENSITY
DFV .                     85 : DRILLING FLUID VISCOSITY
DFPH.                    8.5 : DRILLING FLUID PH
DFL .                   11.8 : DRILLING FLUID LOSS
MSS .               MEASURED : MUD SAMPLE SOURCE
RMS .OHMM               2.56 : RESISTIVITY MUD SAMPLE
MST .DEGF                 59 : MUD SAMPLE TEMPERATURE
RMF .OHMM               2.14 : RESISTIVITY MUD FILTRATE SAMPLE
MFST.DEGF                 58 : MUD FILTRATE SAMPLE TEMPERATURE
RMC .OHMM               2.35 : RESISTIVITY MUD CAKE
MCST.DEGF                 62 : MUD CAKE SAMPLE TEMPERATURE
TCS .HRS                 500 : TIME CIRCULATED STOPPED
TLAB.HRS                  30 : TIME LOGGER AT BOTTOM
LUN .                   7501 : LOGGING UNIT NUMBER
LUL .                    EDM : LOGGING UNIT LOCATION
ENGI.                HAYWOOD : RECORDING ENGINEER
WITN.                   DION : WITNESSED BY
CLNT.                A2DTECH : CLIENT CODE
ORIG.            2" 5" PRINT : ORIGIN OF DATA
UWI .       100063206123W500 : UNIQUE WELL ID
DICO. A2D Technologies, Inc. : DIGITIZING COMPANY
~Other -----------------------------------------------------
DIL-LAT,FDC-SNP-BCS LOG RAN
~ASCII -----------------------------------------------------
# ...
 11650.00000    -999.25    -999.25    9.20060    9.20060   20.83500    -999.25    -999.25    -999.25    -999.25    -999.25   47.99620   66.71260   66.71260    -999.25    -999.25   72.42770   72.42770   47.99620   62.91830  117.68930   62.91830    -999.25    -999.25    -999.25  -26.82040  -15.29880  117.68930
 11700.00000    9.88600    9.23200    9.59340    9.59340  102.27560    0.21780    0.21780    2.45750    0.14500    0.14770    9.77750   64.77780   64.77780   45.19830   48.99380   62.96650   45.19830    9.77750   11.71520   14.97550   11.71520    0.14730    0.14730    2.45750  -34.10120  -24.01620   14.97550
 11750.00000   10.14310    9.98620    9.73780    9.73780   98.33040    0.18420    0.18420    2.41160    0.17090    0.17450   10.16980   74.78140   74.78140   63.24380   66.67190   79.19620   63.24380   10.16980   11.77890   13.28150   11.77890    0.18210    0.18210    2.41160  -40.45330  -31.80340   13.28150
 11800.00000    9.04060    8.36110    9.21180    9.21180   25.22040    0.00750    0.00750    2.61330    0.05070    0.05650   39.65040   56.47330   56.47330   34.71610   34.05290   43.40570   34.71610   39.65040   56.04530   90.29510   56.04530    0.03040    0.03040    2.61330  -39.94010  -32.72520   90.29510
 11850.00000    9.52330    8.49190    9.26070    9.26070  105.78990    0.01690    0.01690    2.72210    0.00340   -0.00710    9.45270   65.58160   65.58160   54.42950   57.48180   65.96810   54.42950    9.45270    9.89490   12.23940    9.89490    0.10550    0.10550    2.72210  -30.20260  -24.42430   12.23940
 11900.00000    9.36440    8.33200    9.18950    9.18950   90.14210    0.02550    0.02550    2.80250   -0.04640   -0.05410   11.09360   63.70410   63.70410   57.28940   64.07360   69.78840   57.28940   11.09360   12.64650   17.16450   12.64650    0.07250    0.07250    2.80250  -35.10390  -30.76070   17.16450
 11950.00000    9.38660    8.37140    9.22820    9.22820  125.31800    0.01740    0.01740    2.73570   -0.01240   -0.01500    7.97970   68.86810   68.86810   78.75360   78.35760   96.50520   78.75360    7.97970    8.89490   11.82000    8.89490    0.11250    0.11250    2.73570  -48.60570  -45.69900   11.82000
 12000.00000    9.70720    8.40830    9.42200    9.42200  174.97200    0.21720    0.21720    2.67080    0.02540    0.02290    5.71520   72.33280   72.33280   84.40630   81.18700   95.32080   84.40630    5.71520    6.02940    7.82260    6.02940    0.15630    0.15630    2.67080  -46.07780  -44.60620    7.82260
 12050.00000    9.50120    8.52500    9.24730    9.24730  135.45360    0.15120    0.15120    2.68980    0.01090    0.01180    7.38260   73.31130   73.31130   94.09080   76.34260   94.94240   94.09080    7.38260    8.60060   11.13480    8.60060    0.16440    0.16440    2.68980  -44.79840  -44.76200   11.13480
 12100.00000   10.88750   10.28680   10.37540   10.37540  151.55420    0.24690    0.24690    2.54740    0.09460    0.09510    6.59830   80.43880   80.43880   97.60690   95.32910  109.32210   97.60690    6.59830    7.05920    9.99850    7.05920    0.22770    0.22770    2.54740  -37.16830  -38.56840    9.99850
 12150.00000    9.21110    8.37040    9.18100    9.18100    8.38610    0.07220    0.07220    2.59320    0.06710    0.06830  119.24560   77.16780   77.16780   95.74970   94.21230  112.75630   95.74970  119.24560  115.17200  183.76220  115.17200    0.10930    0.10930    2.59320   -3.53710   -6.28230  183.76220
 12200.00000    9.31940    8.36660    9.31960    9.31960    0.69780    0.04780    0.04780    2.49010    0.12400    0.12860 1433.14390   75.52590   75.52590  160.14040  146.05320  168.95100  160.14040 1433.14390 1195.12890 1684.19370 1195.12890    0.11710    0.11710    2.49010  -37.96670  -40.88190 1684.19370
 12250.00000    9.12890    8.10610    9.12850    9.12850    4.88280    0.06440    0.06440    2.65860    0.03260    0.03010  204.79880   63.22920   63.22920   80.36790   72.19820   89.59110   80.36790  204.79880  281.22240 1356.71610  281.22240    0.05390    0.05390    2.65860  -23.51730  -26.43250 1356.71610
 12300.00000    8.45610    8.12680    9.01080    9.01080    1.34930    0.13660    0.13660    2.52260    0.10810    0.10960  741.11760   54.95810   54.95810   36.41200   31.40000   46.26810   36.41200  741.11760 1512.37450 1652.18650 1512.37450    0.02620    0.02620    2.52260  -67.67650  -70.59170 1652.18650
 12350.00000    8.43720   10.46060    9.46650    9.46650    0.67070    0.09550    0.09550    2.64540    0.03710    0.03780 1490.98360   50.11030   50.11030   18.36230   17.13970   22.67250   18.36230 1490.98360 1542.78830 1708.77390 1542.78830    0.05460    0.05460    2.64540 -142.56840 -145.48360 1708.77390
 12400.00000    7.46540    7.11140    8.68290    8.68290   97.43550    -999.25    -999.25    2.50040    0.12090    0.12260   10.26320   57.20320   57.20320    7.53640    8.52070   10.19490    7.53640   10.26320    7.29850   10.53030    7.29850    0.22950    0.22950    2.50040 -170.77420 -173.68940   10.53030
 12450.00000    7.01470    6.58250    8.67150    8.67150   62.67230    -999.25    -999.25    2.39940    0.17660    0.18160   15.95600   51.65980   51.65980    9.03800    7.60880    9.19740    9.03800   15.95600   22.80800   85.47740   22.80800    0.22420    0.22420    2.39940 -174.34920 -177.26440   85.47740
 12500.00000    6.89170    6.49960    8.68780    8.68780   23.82400    -999.25    -999.25    2.48900    0.12780    0.12920   41.97440   52.00420   52.00420   10.07670    8.57350    9.58940   10.07670   41.97440   66.14480   99.24210   66.14480    0.23670    0.23670    2.48900 -169.66150 -172.57670   99.24210
 12550.00000    6.38830    6.56280    8.81880    8.81880   24.97000    -999.25    -999.25    2.42830    0.16320    0.16470   40.04800   49.96770   49.96770    8.71170    8.02350   11.17060    8.71170   40.04800   43.73020   95.17850   43.73020    0.16820    0.16820    2.42830 -161.52440 -164.43960   95.17850
 12600.00000    8.33730    9.54300    9.39810    9.39810    0.98380    0.24400    0.24400    2.29590    0.21670    0.24220 1016.45450   48.70100   48.70100    6.70920    8.79220    8.97150    6.70920 1016.45450 1397.59460  739.20700 1397.59460    0.12200    0.12200    2.29590 -152.03600 -154.95120  739.20700
 12650.00000   10.91860   12.72100    9.82710    9.82710    8.25710    0.14650    0.14650    1.70990    0.59520    0.58490  121.10780   52.11950   52.11950   26.34690   12.77350   15.38970   26.34690  121.10780   55.53040  288.72060   55.53040    0.27140    0.27140    1.70990  -94.77090  -97.68610  288.72060
