~Version ---------------------------------------------------
VERS.      2.0 : CWLS log ASCII Standard -VERSION 2.0
WRAP.       NO : One line per depth step
CREA. 07/27/17 : LAS Creation Date
~Well ------------------------------------------------------
STRT.FT                             1150.0 : START DEPTH
STOP.FT                            10100.0 : STOP DEPTH
STEP.FT                           50.00000 : STEP LENGTH
NULL.                              -999.25 : NULL VALUE
COMP.      SYSTEX EXPLORATION SERVICES LTD : COMPANY
WELL. SYSTEX DOME ET AL EAGLET 11-27-63-16 : WELL
FLD .                                      : FIELD
LOC .                                      : LOCATION
CTRY.                               CANADA : COUNTRY
SRVC.                         Schlumberger : SERVICE COMPANY
DATE.                          01-Jan-1973 : LOGDATE
PROV.                              Alberta : PROVINCE
UWI .                     100112706316W500 : UNIQUE WELL ID
SLAT.WGS84                        54.48232 : SURFACE LATITUDE
SLON.WGS84                        -116.336 : SURFACE LONGITUDE
~Curve Information -----------------------------------------
DEPT  .FT    : Depth Curve
CALSED.IN    : CALIPER FROM SONIC LOG
CALWS .IN    : CALIPER [CALSED]
CILDED.MMHO  : DEEP INDUCTION CONDUCTIVITY FROM RESISTIVITY LOG
CONDWS.MMHO  : CONDUCTIVITY [1000/DRESWS]
DRESWS.OHMM  : DEEP RESISTIVITY [1000/CILDED IF ILDED<1, ILDED]
DTED  .US/F  : DELTA-T (INTERVAL TRANSIT TIME) FROM SONIC LOG
DTWS  .US/F  : COMPRESSIONAL  SONIC [DTED]
GRSED .GAPI  : GAMMA RAY FROM BCS LOG
GRWS  .GAPI  : GAMMA RAY [GRSED]
ILDED .OHMM  : DEEP INDUCTION FROM RESISTIVITY LOG
SNED  .OHMM  : SHORT NORMAL FROM RESISTIVITY LOG
SPRED .MV    : SPONTANEOUS POTENTIAL FROM RESISTIVITY LOG
SPWS  .MV    : SPONTANEOUS POTENTIAL [BASELINE 0 MV, SPRED]
SRESWS.OHMM  : SHALLOW RESISTIVITY [SNED]
~Params ----------------------------------------------------
PD  .                     GL : PERMANENT DATUM
EPD .FT               3365.6 : ELEVATION PERMANENT DATUM
LMF .                     KB : LOG MEASURED FROM
DAPD.FT                 15.4 : FEET ABOVE PERMANENT DATUM
DMF .                     KB : DRILLING MEASURED FROM
EKB .FT                 3381 : KELLY BUSHING
EGL .FT               3365.6 : GROUND LEVEL
DATE.               01/01/73 : RUN DATE
RUN .                      1 : RUN NUMBER
DD  .FT                10150 : DEPTH DRILLER
DL  .FT                10150 : DEPTH LOGGER
BLI .FT                10149 : BOTTOM LOG INTERVAL
TLI .FT                 1100 : TOP LOG INTERVAL
CBD .FT                 1125 : CASING BOTTOM DRILLER
CBL .FT                 1126 : CASING BOTTOM LOGGER
BS  .IN                7.875 : BIT SIZE
BSD .FT                10150 : BIT SIZE AT DEPTH
DFT .               GEL CHEM : DRILLING FLUID TYPE
DFD .                    9.5 : DRILLING FLUID DENSITY
DFV .                    190 : DRILLING FLUID VISCOSITY
DFPH.                   10.0 : DRILLING FLUID PH
DFL .                     92 : DRILLING FLUID LOSS
RMF .OHMM               1.17 : RESISTIVITY MUD FILTRATE SAMPLE
MFST.DEGF                 61 : MUD FILTRATE SAMPLE TEMPERATURE
TCS .HRS                   9 : TIME CIRCULATED STOPPED
LUN .                   7636 : LOGGING UNIT NUMBER
LUL .                    EDM : LOGGING UNIT LOCATION
ENGI.               BENOWSKI : RECORDING ENGINEER
WITN.                  GIETZ : WITNESSED BY
CLNT.                A2DTECH : CLIENT CODE
ORIG.            2" 5" PRINT : ORIGIN OF DATA
UWI .       100112706316W500 : UNIQUE WELL ID
DICO. A2D Technologies, Inc. : DIGITIZING COMPANY
~Other -----------------------------------------------------
~ASCII -----------------------------------------------------
# ...
 3600.00000    -999.25    -999.25  150.62390  152.71840    6.54800    -999.25    -999.25    -999.25    -999.25    6.54800    6.15420 -106.10580   -9.88080    6.15420
 3650.00000    -999.25    -999.25  157.01970  161.61350    6.18760    -999.25    -999.25    -999.25    -999.25    6.18760    6.78660 -104.99160   -9.30020    6.78660
 3700.00000    -999.25    -999.25  103.06250  102.55250    9.75110    -999.25    -999.25    -999.25    -999.25    9.75110    9.72150 -106.27410  -11.11990    9.72150
 3750.00000    -999.25    -999.25  124.58380  126.18300    7.92500    -999.25    -999.25    -999.25    -999.25    7.92500    8.37600 -104.15110   -9.53050    8.37600
 3800.00000    -999.25    -999.25  122.76850  130.46650    7.66480    -999.25    -999.25    -999.25    -999.25    7.66480    8.00380 -104.21490  -10.12800    8.00380
 3850.00000    -999.25    -999.25  131.69420  131.47000    7.60630    -999.25    -999.25    -999.25    -999.25    7.60630    6.60590 -103.59470  -10.04490    6.60590
 3900.00000    -999.25    -999.25  100.93840  106.23150    9.41340    -999.25    -999.25    -999.25    -999.25    9.41340    6.88480 -104.21050  -11.19440    6.88480
 3950.00000    -999.25    -999.25  106.68420  106.02880    9.43140    -999.25    -999.25    -999.25    -999.25    9.43140    8.00190 -101.71400   -9.23500    8.00190
 4000.00000    -999.25    -999.25  126.06830  133.06010    7.51540    -999.25    -999.25    -999.25    -999.25    7.51540    6.82540 -101.00680   -9.06150    6.82540
 4050.00000    -999.25    -999.25   92.61750  100.69890    9.93060    -999.25    -999.25    -999.25    -999.25    9.93060    7.46170 -100.77110   -9.35940    7.46170
 4100.00000    -999.25    -999.25   83.31360   89.71910   11.14590    -999.25    -999.25    -999.25    -999.25   11.14590    8.70410 -100.57930   -9.70480    8.70410
 4150.00000    -999.25    -999.25  137.20350  135.05300    7.40450    -999.25    -999.25    -999.25    -999.25    7.40450    6.69120 -100.04610   -9.70520    6.69120
 4200.00000    -999.25    -999.25  100.34340  101.09690    9.89150    -999.25    -999.25    -999.25    -999.25    9.89150    8.05210  -98.90160   -9.09790    8.05210
 4250.00000    -999.25    -999.25   96.41990  101.65600    9.83710    -999.25    -999.25    -999.25    -999.25    9.83710    8.07350  -97.37950   -8.10940    8.07350
 4300.00000    -999.25    -999.25   96.38980  105.20340    9.50540    -999.25    -999.25    -999.25    -999.25    9.50540    8.18870  -96.10070   -7.36430    8.18870
 4350.00000    -999.25    -999.25  103.54620  105.97940    9.43580    -999.25    -999.25    -999.25    -999.25    9.43580    8.39610  -95.97370   -7.77440    8.39610
 4400.00000    -999.25    -999.25  142.41710  136.57840    7.32180    -999.25    -999.25    -999.25    -999.25    7.32180    7.54670  -94.15250   -6.48690    7.54670
 4450.00000    -999.25    -999.25  144.10720  148.22060    6.74670    -999.25    -999.25    -999.25    -999.25    6.74670    7.43700  -92.55070   -5.42220    7.43700
 4500.00000    -999.25    -999.25  126.17260  128.90920    7.75740    -999.25    -999.25    -999.25    -999.25    7.75740    9.35050  -91.10270   -4.50790    9.35050
 4550.00000    -999.25    -999.25  110.06910  111.03220    9.00640    -999.25    -999.25    -999.25    -999.25    9.00640   11.14430  -90.35590   -4.29470   11.14430
 4600.00000    -999.25    -999.25  109.61610  113.73720    8.79220    -999.25    -999.25    -999.25    -999.25    8.79220   11.52140  -89.51290   -3.98890   11.52140
 4650.00000    -999.25    -999.25  101.40840  104.76800    9.54490    -999.25    -999.25    -999.25    -999.25    9.54490   12.39860  -89.00310   -4.01270   12.39860
 4700.00000    -999.25    -999.25  176.63520  176.68780    5.65970    -999.25    -999.25    -999.25    -999.25    5.65970    6.96330  -89.78490   -5.33170    6.96330
 4750.00000    -999.25    -999.25  150.07870  155.29640    6.43930    -999.25    -999.25    -999.25    -999.25    6.43930    7.25820  -90.31070   -6.39110    7.25820
 4800.00000    -999.25    -999.25  153.84000  147.50570    6.77940    -999.25    -999.25    -999.25    -999.25    6.77940    7.60600  -89.68650   -6.30060    7.60600
 4850.00000    -999.25    -999.25  157.07870  156.06470    6.40760    -999.25    -999.25    -999.25    -999.25    6.40760    7.13920  -89.15780   -6.30900    7.13920
 4900.00000    -999.25    -999.25  208.72490  199.52510    5.01190    -999.25    -999.25    -999.25    -999.25    5.01190    5.87330  -88.49180   -6.17670    5.87330
 4950.00000    -999.25    -999.25  114.75150  124.85950    8.00900    -999.25    -999.25    -999.25    -999.25    8.00900    8.33770  -88.42120   -6.64320    8.33770
 5000.00000   11.05490   11.05490  242.94870  245.83310    4.06780    -999.25    -999.25    -999.25    -999.25    4.06780    4.64400  -87.68200   -6.43770    4.64400
 5050.00000   11.12180   11.12180  179.20350  184.17560    5.42960   91.92880   91.92880   94.99360   94.99360    5.42960    6.27430  -86.10610   -5.39540    6.27430
 5100.00000    9.55340    9.55340  164.43210  235.00660    4.25520  101.18510  101.18510  242.20500  242.20500    4.25520    5.27200  -83.09610   -2.92260    5.27200
 5150.00000   10.80510   10.80510  438.80040  437.56020    2.28540  116.78860  116.78860   94.02620   94.02620    2.28540    3.22230  -82.82210   -3.18220    3.22230
 5200.00000   11.23370   11.23370  217.69070  217.21660    4.60370   88.68730   88.68730   88.99250   88.99250    4.60370    5.55310  -82.85500   -3.75230    5.55310
 5250.00000   10.78620   10.78620  207.33740  210.79260    4.74400   87.22220   87.22220   89.10420   89.10420    4.74400    6.05310  -82.24490   -3.67580    6.05310
 5300.00000    8.88120    8.88120   67.69380   71.96000   13.89660   76.47220   76.47220   47.29600   47.29600   13.89660   16.85170 -102.26850  -24.23310   16.85170
 5350.00000   11.17420   11.17420  289.11290  264.94280    3.77440  109.69560  109.69560   60.73600   60.73600    3.77440    4.73830  -81.34890   -3.95000    4.73830
 5400.00000   12.17740   12.17740   96.89920   97.41940   10.26490  100.02620  100.02620   66.85000   66.85000   10.26490   15.40440  -90.29100  -14.50460   15.40440
 5450.00000    9.93020    9.93020   74.59400   76.86690   13.00950   77.51170   77.51170   48.16710   48.16710   13.00950   17.19760 -116.50700  -42.34370   17.19760
 5500.00000   10.49640   10.49640  120.56180  121.01850    8.26320  106.99410  106.99410   71.88890   71.88890    8.26320   11.81170  -74.82730   -2.27650   11.81170
 5550.00000   10.04160   10.04160   87.80790   87.74850   11.39620   72.75980   72.75980   70.12680   70.12680   11.39620   15.42380  -79.38570   -8.44740   15.42380
 5600.00000    9.97890    9.97890   78.61970   79.05200   12.64990   71.80390   71.80390   58.63230   58.63230   12.64990   17.46050  -88.77530  -19.18160   17.46050
 5650.00000   10.37340   10.37340  111.30350  111.82930    8.94220   80.81250   80.81250   60.17160   60.17160    8.94220   17.93110  -94.67740  -25.89720   17.93110
 5700.00000    9.80170    9.80170  125.88110  132.64010    7.53920   77.46760   77.46760   81.84960   81.84960    7.53920   11.47090  -76.73950   -8.77830   11.47090
 5750.00000   11.36920   11.36920   83.19190   85.92620   11.63790  103.18260  103.18260   65.84720   65.84720   11.63790   12.86690  -84.95700  -17.80930   12.86690
 5800.00000    8.83550    8.83550  114.88260  118.04150    8.47160   75.45280   75.45280   46.97160   46.97160    8.47160   15.17740 -134.75200  -68.41790   15.17740
 5850.00000    9.69630    9.69630  187.46690  192.43720    5.19650   76.24090   76.24090   53.33870   53.33870    5.19650   11.95460 -116.81760  -51.30240   11.95460
 5900.00000   10.29830   10.29830  137.25490  139.69020    7.15870   75.55340   75.55340   63.95900   63.95900    7.15870    9.46170  -87.85110  -23.14950    9.46170
 5950.00000   10.15620   10.15620  112.46390  112.88590    8.85850   74.93670   74.93670   92.78520   92.78520    8.85850   11.69970  -70.34640   -6.46370   11.69970
 6000.00000   10.95400   10.95400  120.41360  124.09410    8.05840   78.59790   78.59790   69.90760   69.90760    8.05840    9.35740  -65.92660   -2.85750    9.35740
