~Version ---------------------------------------------------
VERS.      2.0 : CWLS log ASCII Standard -VERSION 2.0
WRAP.       NO : One line per depth step
CREA. 08/24/13 : LAS Creation Date
~Well ------------------------------------------------------
STRT.M                           450.0 : START DEPTH
STOP.M                          2950.0 : STOP DEPTH
STEP.M                        50.00000 : STEP LENGTH
NULL.                          -999.25 : NULL VALUE
COMP. AMOCO CANADA PETROLEUM CO., LTD. : COMPANY
WELL.   PROGRESS BRIALTO TWO CK 6-6-65 : WELL
FLD .                                  : FIELD
LOC .                                  : LOCATION
CTRY.                           CANADA : COUNTRY
SRVC.                          Unknown : SERVICE COMPANY
DATE.                      07-Jan-1980 : LOGDATE
PROV.                          Alberta : PROVINCE
UWI .                 100060606515W500 : UNIQUE WELL ID
SLAT.WGS84                    54.59579 : SURFACE LATITUDE
SLON.WGS84                   -116.2612 : SURFACE LONGITUDE
~Curve Information -----------------------------------------
DEPT    .M      : DEPTH METER
CALDED  .MM     : CALIPER FROM DENSITY LOG [ADJ. TO RESISTIVITY LOG]
CALSED  .MM     : CALIPER FROM SONIC LOG [ADJ. TO RESISTIVITY LOG]
CALWS   .MM     : CALIPER [CALSED]
CONDWS  .MMHO   : CONDUCTIVITY [1000/DRESWS]
DCORED  .KG/M3  : DENSITY CORRECTION FROM DENSITY LOG [ADJ. TO DPHISSED/DPHILSED/RESISTIVITY LOG]
DCORWS  .KG/M3  : DENSITY CORRECTION [DCORED]
DENWS   .KG/M3  : FORMATION BULK DENSITY [CALC. FROM DPOLSWS, M=2710, F=1000]
DPHILSED.V/V    : DENSITY POROSITY LIMESTONE [M=2710, F=1000] FROM DENSITY LOG [ADJ. TO RESISTIVITY LOG]
DPHISSED.V/V    : DENSITY POROSITY SANDSTONE [M=2650, F=1000] FROM DENSITY LOG [ADJ. TO RESISTIVITY LOG]
DPOLSWS .V/V    : DENSITY POROSITY LIMESTONE [DPHISSED CONVERTED TO LIMESTONE MATRIX, M=2710, F=1000, SPL. TO DPHILSED @ 1800 M]
DRESWS  .OHMM   : DEEP RESISTIVITY [ILDED]
DTED    .US/M   : DELTA T FROM SONIC LOG [ADJ. TO RESISTIVITY LOG]
DTWS    .US/M   : COMPRESSIONAL SONIC [DTED]
GRDED   .GAPI   : GAMMA RAY FROM DENSITY LOG [ADJ. TO RESISTIVITY LOG]
GRED    .GAPI   : GAMMA RAY FROM CBL LOG [ADJ. TO RESISTIVITY LOG]
GRSED   .GAPI   : GAMMA RAY FROM SONIC LOG [ADJ. TO RESISTIVITY LOG]
GRWS    .GAPI   : GAMMA RAY [GRSED]
ILDED   .OHMM   : DEEP INDUCTION FROM RESISTIVITY LOG
ILMED   .OHMM   : MEDIUM INDUCTION FROM RESISTIVITY LOG
MRESWS  .OHMM   : MEDIUM RESISTIVITY [ILMED]
NPHILSED.V/V    : NEUTRON POROSITY LIMESTONE FROM DENSITY LOG [ADJ. TO RESISTIVITY LOG]
NPHISSED.V/V    : NEUTRON POROSITY SANDSTONE FROM DENSITY LOG [ADJ. TO RESISTIVITY LOG]
NPOLSWS .V/V    : NEUTRON POROSITY LIMESTONE [NPHISSED CONVERTED TO LIMESTONE MATRIX, SPL. TO NPHILSED @ 1808.3 M]
RHOBED  .KG/M3  : BULK DENSITY FROM DENSITY LOG [ADJ. TO DPHISSED/DPHILSED/RESISTIVITY LOG]
SFLED   .OHMM   : SPHERICALLY FOCUSED FROM RESISTIVITY LOG
SPRED   .MV     : SPONTANEOUS POTENTIAL FROM RESISTIVITY LOG
SPWS    .MV     : SPONTANEOUS POTENTIAL [BASELINE 0 MV, SPRED]
SRESWS  .OHMM   : SHALLOW RESISTIVITY [SFLED]
TENED   .N      : TENSION FROM CBL LOG [ADJ. TO RESISTIVITY LOG]
~Params ----------------------------------------------------
PD  .                         GL : PERMANENT DATUM
EPD .M                    1014.4 : ELEVATION PERMANENT DATUM
LMF .                         KB : LOG MEASURED FROM
DAPD.M                         5 : FEET ABOVE PERMANENT DATUM
DMF .                         KB : DRILLING MEASURED FROM
EKB .M                    1019.4 : KELLY BUSHING
EGL .M                    1014.4 : GROUND LEVEL
DATE.                   01/07/80 : RUN DATE
RUN .                          1 : RUN NUMBER
DD  .M                      2995 : DEPTH DRILLER
DL  .M                      2993 : DEPTH LOGGER
BLI .M                      2992 : BOTTOM LOG INTERVAL
TLI .M                       457 : TOP LOG INTERVAL
CS  .MM                    244.5 : CASING SIZE
CBD .M                       457 : CASING BOTTOM DRILLER
CBL .M                       457 : CASING BOTTOM LOGGER
BS  .MM                      200 : BIT SIZE
BSD .M                      2995 : BIT SIZE AT DEPTH
DFT .                  GEL BENEX : DRILLING FLUID TYPE
DFD .                       1110 : DRILLING FLUID DENSITY
DFV .                         85 : DRILLING FLUID VISCOSITY
DFPH.                         10 : DRILLING FLUID PH
DFL .                        8.8 : DRILLING FLUID LOSS
MSS .                   FLOWLINE : MUD SAMPLE SOURCE
RMS .OHMM                   1.92 : RESISTIVITY MUD SAMPLE
MST .DEGC                   8.33 : MUD SAMPLE TEMPERATURE
RMF .OHMM                   1.57 : RESISTIVITY MUD FILTRATE SAMPLE
MFST.DEGC                   8.89 : MUD FILTRATE SAMPLE TEMPERATURE
MFSS.                       MEAS : MUD FILTRATE SAMPLE SOURCE
RMB .OHMM                   0.45 : RESISTIVITY MUD AT BHT
TCS .HRS                    1915 : TIME CIRCULATED STOPPED
TLAB.HRS                     400 : TIME LOGGER AT BOTTOM
LUN .                       7783 : LOGGING UNIT NUMBER
LUL .                       5270 : LOGGING UNIT LOCATION
ENGI.                  MIDDLETON : RECORDING ENGINEER
WITN.                      LARIO : WITNESSED BY
CLNT.                    A2DTECH : CLIENT CODE
ORIG. 6.5"/100M 16.5"/100M PRINT : ORIGIN OF DATA
UWI .           100060606515W500 : UNIQUE WELL ID
DICO.     A2D Technologies, Inc. : DIGITIZING COMPANY
~Other -----------------------------------------------------
CNFD-DIL-SFL-BCS-CBL LOG RAN.
RHOB & DCOR FROM SMALL SECTION.
~ASCII -----------------------------------------------------
# ...
 1700.00000  304.50380  293.13530  293.13530  358.20470  208.05310  208.05310 2199.22000    -999.25    0.27320    0.29870    2.79170  295.15950  295.15950   80.73700   51.22530   75.80560   75.80560    2.79170    2.95960    2.95960    -999.25    0.42330    0.38090 2197.77200    3.70550  -89.32840   -3.49290    3.70550 7061.44630
 1750.00000  217.63300  230.70370  230.70370  120.64180   61.98840   61.98840 2404.31500    -999.25    0.14890    0.17880    8.28900  252.85250  252.85250   54.88180   29.88970   52.19040   52.19040    8.28900   10.10430   10.10430    -999.25    0.24220    0.19830 2405.29270   16.08670 -139.42250  -62.48000   16.08670 7071.04690
 1800.00000  243.00110  247.43790  247.43790  144.57970   77.60500   77.60500 2519.15500    0.12160    0.07930    0.11160    6.91660  273.37960  273.37960   87.10800   58.42970   83.15000   83.15000    6.91660    7.86060    7.86060    0.24890    0.30170    0.25770 2519.00510   18.11340  -85.44140   -1.74510   18.11340 7170.76560
 1850.00000  245.45300  247.78520  247.78520  149.70060   12.45350   12.45350 2694.26800    0.00920    -999.25    0.00920    6.68000  193.42060  193.42060   34.87260   25.75210   32.86850   32.86850    6.68000    7.74880    7.74880    0.11610    -999.25    0.11610 2694.27150   15.12300 -134.75890  -40.55590   15.12300 7216.59380
 1900.00000  247.88750  250.86770  250.86770   71.64560   39.53000   39.53000 2774.12500   -0.03750    -999.25   -0.03750   13.95760  187.62710  187.62710   21.82750    -999.25   23.08480   23.08480   13.95760   16.33430   16.33430    0.07590    -999.25    0.07590 2749.88060   39.39860 -124.47460  -38.64260   39.39860    -999.25
 1950.00000  230.38610  222.44150  222.44150   54.53280   64.77020   64.77020 2603.98000    0.06200    -999.25    0.06200   18.33760  181.05850  181.05850   13.49140    -999.25   12.53390   12.53390   18.33760   31.04870   31.04870    0.05970    -999.25    0.05970 2615.06030   76.85740 -213.69890 -131.60540   76.85740    -999.25
 2000.00000  247.38560  241.02760  241.02760  642.96280   42.04690   42.04690 2501.20900    0.12210    -999.25    0.12210    1.55530  239.00950  239.00950   44.77670    -999.25   44.52840   44.52840    1.55530    1.88360    1.88360    0.22970    -999.25    0.22970 2509.88430    3.74950 -156.55180  -80.02210    3.74950    -999.25
 2050.00000  232.63570  235.27420  235.27420   76.50470    5.82800    5.82800 2655.96400    0.03160    -999.25    0.03160   13.07110  175.85870  175.85870   27.85250    -999.25   23.44330   23.44330   13.07110   19.55730   19.55730    0.03270    -999.25    0.03270 2661.59280   52.39990 -154.14270  -81.86610   52.39990    -999.25
 2100.00000  234.61950  236.20040  236.20040   19.26970   16.32290   16.32290 2689.82200    0.01180    -999.25    0.01180   51.89490  177.89730  177.89730   34.94910    -999.25   32.98550   32.98550   51.89490   54.85040   54.85040    0.02410    -999.25    0.02410 2685.36250   65.34920 -102.14040  -34.20780   65.34920    -999.25
 2150.00000  231.15910  232.61180  232.61180   24.76350    4.32380    4.32380 2711.19700   -0.00070    -999.25   -0.00070   40.38200  169.34690  169.34690   27.21230    -999.25   26.19720   26.19720   40.38200   48.92540   48.92540    0.01230    -999.25    0.01230 2706.04080   76.15680  -99.25950  -35.87970   76.15680    -999.25
 2200.00000  229.26430  234.03340  234.03340   13.11680   10.25200   10.25200 2700.08200    0.00580    -999.25    0.00580   76.23790  166.57120  166.57120   11.03930    -999.25   12.59230   12.59230   76.23790   64.41200   64.41200    0.01150    -999.25    0.01150 2698.39380  121.91090 -147.20090  -89.93460  121.91090    -999.25
 2250.00000  230.41470  236.25040  236.25040   12.15870   -2.41080   -2.41080 2707.26400    0.00160    -999.25    0.00160   82.24570  159.73550  159.73550    8.31710    -999.25    8.53630    8.53630   82.24570  110.71110  110.71110    0.00890    -999.25    0.00890 2691.37650  269.73010 -177.51700 -126.36420  269.73010    -999.25
 2300.00000  238.27630  239.49970  239.49970    3.95760    8.97440    8.97440 2727.10000   -0.01000    -999.25   -0.01000  252.67600  158.34150  158.34150   12.26760    -999.25   11.51960   11.51960  252.67600  213.54070  213.54070    0.00300    -999.25    0.00300 2723.37990  837.89050 -163.05160 -118.01230  837.89050    -999.25
 2350.00000  213.73350  211.54190  211.54190  114.21520  131.02560  131.02560 2730.34900   -0.01190    -999.25   -0.01190    8.75540  170.90250  170.90250    9.15480    -999.25    8.56270    8.56270    8.75540   13.71500   13.71500    0.09500    -999.25    0.09500 2710.24880   73.39330 -220.80400 -181.87820   73.39330    -999.25
 2400.00000  235.60700  236.08880  236.08880    5.08320    7.40990    7.40990 2818.75600   -0.06360    -999.25   -0.06360  196.72630  148.50960  148.50960   13.27250    -999.25    8.66870    8.66870  196.72630  176.03600  176.03600    0.02940    -999.25    0.02940 2808.41430  422.46420 -150.02850 -117.21630  422.46420    -999.25
 2450.00000  238.87850  239.25080  239.25080   45.52950   37.53560   37.53560 2782.33300   -0.04230    -999.25   -0.04230   21.96380  167.96330  167.96330   25.95760    -999.25   26.08580   26.08580   21.96380   23.12280   23.12280    0.09290    -999.25    0.09290 2774.13870   31.25010 -101.17620  -74.47750   31.25010    -999.25
 2500.00000  248.61380  246.12940  246.12940   68.08970   -0.14100   -0.14100 2725.04800   -0.00880    -999.25   -0.00880   14.68650  188.11590  188.11590   35.35720    -999.25   35.05800   35.05800   14.68650   16.13210   16.13210    0.07230    -999.25    0.07230 2717.57420   21.16390  -33.24990  -12.42240   21.16390    -999.25
 2550.00000  241.86380  237.09070  237.09070  118.20610    0.62770    0.62770 2637.66700    0.04230    -999.25    0.04230    8.45980  233.27480  233.27480   73.23340    -999.25   64.12440   64.12440    8.45980    9.51750    9.51750    0.17160    -999.25    0.17160 2636.08130   11.83880  -27.95540   -9.75190   11.83880    -999.25
 2600.00000  251.59280  238.65220  238.65220  169.37100   93.03580   93.03580 2646.04600    0.03740    -999.25    0.03740    5.90420  232.00000  232.00000   79.05750    -999.25   67.91910   67.91910    5.90420    6.57760    6.57760    0.18470    -999.25    0.18470 2645.73140    8.87180  -45.37010  -28.15850    8.87180    -999.25
 2650.00000  285.66880  259.37560  259.37560  177.21380  196.74880  196.74880 2460.51100    0.14590    -999.25    0.14590    5.64290  247.53560  247.53560   69.67150    -999.25   66.22670   66.22670    5.64290    6.46410    6.46410    0.20960    -999.25    0.20960 2459.16500    8.53670  -56.87330  -40.65360    8.53670    -999.25
 2700.00000  235.08490  231.54950  231.54950  125.75450    1.19970    1.19970 2668.27600    0.02440    -999.25    0.02440    7.95200  222.65420  222.65420   81.99800    -999.25   76.01360   76.01360    7.95200    9.24240    9.24240    0.16760    -999.25    0.16760 2660.43700   11.67870  -64.80110  -49.57330   11.67870    -999.25
 2750.00000  275.82510  262.29550  262.29550  229.53680  152.88810  152.88810 2567.72800    0.08320    -999.25    0.08320    4.35660  267.78240  267.78240  104.10840    -999.25   98.81100   98.81100    4.35660    5.03010    5.03010    0.25290    -999.25    0.25290 2569.63620    7.08740  -61.64440  -47.40860    7.08740    -999.25
 2800.00000  228.31220  227.11810  227.11810    3.73500  -14.33790  -14.33790 2461.53700    0.14530    -999.25    0.14530  267.73480  277.18640  277.18640  151.31430    -999.25  125.38810  125.38810  267.73480  241.66110  241.66110    0.23740    -999.25    0.23740 2467.32370  557.15370  -26.99850  -13.75460  557.15370    -999.25
 2850.00000  230.77820  226.64890  226.64890   23.69660  -23.32210  -23.32210 2629.45900    0.04710    -999.25    0.04710   42.20020  198.62900  198.62900   44.41620    -999.25   47.73440   47.73440   42.20020   46.73270   46.73270    0.09030    -999.25    0.09030 2636.10550   92.93960  -19.07620   -8.98360   92.93960    -999.25
 2900.00000  230.94400  224.54880  224.54880   11.50540  -22.55660  -22.55660 2688.28300    0.01270    -999.25    0.01270   86.91570  165.78910  165.78910   20.26610    -999.25   18.35260   18.35260   86.91570   87.91060   87.91060    0.01290    -999.25    0.01290 2690.26150   76.70440  -30.81440  -23.97730   76.70440    -999.25
