~Version ---------------------------------------------------
VERS. 2.0 : CWLS log ASCII Standard -VERSION 2.0
WRAP.  NO : ONE LINE PER DEPTH STEP
~Well ------------------------------------------------------
STRT.F                      1300.0 : START DEPTH
STOP.F                     12000.0 : STOP DEPTH
STEP.F                    50.00000 : STEP LENGTH
NULL.                      -999.25 : NULL VALUE
COMP. CENTRAL DEL RIO OILS LIMITED : COMPANY
WELL.     CDR GULF TONY 7-21-62-23 : WELL
FLD .                           WC : FIELD
LOC .                              : LOCATION
CTRY.                       CANADA : COUNTRY
SRVC.                 Schlumberger : SERVICE COMPANY
DATE.                  26-Feb-1970 : LOGDATE
PROV.                      Alberta : PROVINCE
UWI .             100072106223W500 : UNIQUE WELL ID
SLAT.WGS84                54.37491 : SURFACE LATITUDE
SLON.WGS84               -117.3829 : SURFACE LONGITUDE
~Curve Information -----------------------------------------
DEPT   .F                 : 
CALD   .IN   42 280 60 00 : CALIPER FROM DENSITY LOG
GRD    .GAPI 42 310 01 00 : GAMMA RAY FROM DENSITY LOG
NPOR_SS.DEC               : ENCHANCED THERMAL NEUTRON POROSITY IN SELECTED LITHOLOGY SANDSTONE
NPHI_DM.DEC  42 890 11 00 : NEUTRON POROSITY DOLOMITE MATRIX
NPHI_LS.DEC  42 890 10 00 : NEUTRON POROSITY LIMESTONE
ILD    .OHMM 07 120 46 00 : INDUCTION DEEP RESISTIVITY
ILM    .OHMM 07 120 44 00 : INDUCTION MEDIUM RESISTIVITY
LL8    .OHMM 07 220 08 00 : LATEROLOG 8
SPR    .MV   07 010 01 00 : SPONTANEOUS POTENTIAL FROM RESISTIVITY LOG
GRS    .GAPI 60 310 01 00 : GAMMA RAY FROM SONIC LOG
DT     .US/F 60 500 00 00 : DELTA-T (INTERVAL TRANSIT TIME)
CALS   .IN   60 280 50 00 : CALIPER FROM SONIC LOG
~Params ----------------------------------------------------
PD  .                     GL : PERMANENT DATUM
EPD .FT               2973.7 : ELEVATION PERMANENT DATUM
LMF .                     KB : LOG MEASURED FROM
DAPD.FT                 13.3 : FEET ABOVE PERMANENT DATUM
EKB .FT               2987.0 : KELLY BUSHING
EGL .FT               2973.7 : GROUND LEVEL
DATE.               02/26/70 : RUN DATE
RUN .                      1 : RUN NUMBER
DD  .FT                12050 : DEPTH DRILLER
DL  .FT                12048 : DEPTH LOGGER
BLI .FT                12044 : BOTTOM LOG INTERVAL
TLI .FT                 1302 : TOP LOG INTERVAL
CBD .FT                 1303 : CASING BOTTOM DRILLER
CBL .FT                 1302 : CASING BOTTOM LOGGER
BS  .IN                 8.75 : BIT SIZE
BSD .FT                12050 : BIT SIZE AT DEPTH
DFT .                 FGM CS : DRILLING FLUID TYPE
DFD .                    9.4 : DRILLING FLUID DENSITY
DFV .                     68 : DRILLING FLUID VISCOSITY
DFPH.                    9.5 : DRILLING FLUID PH
DFL .                   10.1 : DRILLING FLUID LOSS
MSS .               FLOWLINE : MUD SAMPLE SOURCE
RMS .OHMM               2.43 : RESISTIVITY MUD SAMPLE
MST .DEGF                 74 : MUD SAMPLE TEMPERATURE
RMF .OHMM               2.06 : RESISTIVITY MUD FILTRATE SAMPLE
MFST.DEGF                 74 : MUD FILTRATE SAMPLE TEMPERATURE
RMC .OHMM               2.57 : RESISTIVITY MUD CAKE
MCST.DEGF                 74 : MUD CAKE SAMPLE TEMPERATURE
TCS .HRS                3.25 : TIME CIRCULATED STOPPED
LUN .                   7502 : LOGGING UNIT NUMBER
LUL .                    EDM : LOGGING UNIT LOCATION
ENGI.                KERCHUM : RECORDING ENGINEER
WITN.          RONCO WHEELER : WITNESSED BY
CLNT.                A2DTECH : CLIENT CODE
ORIG.            2" 5" PRINT : ORIGIN OF DATA
UWI .       100072106223W500 : UNIQUE WELL ID
DICO. A2D Technologies, Inc. : DIGITIZING COMPANY
~Other -----------------------------------------------------
~ASCII -----------------------------------------------------
# ...
 9700.00000    -999.25    -999.25    -999.25    -999.25    -999.25 1776.18860 1833.61050  435.12320  -85.02140   12.20880   48.87270    9.72010
 9750.00000    -999.25    -999.25    -999.25    -999.25    -999.25 1858.13720 1744.74460  835.56570  -87.07680   10.00760   49.33970    9.72470
 9800.00000    -999.25    -999.25    -999.25    -999.25    -999.25 1768.55440 1718.66830  434.51670 -105.34980    8.02980   49.70040    9.46650
 9850.00000    -999.25    -999.25    -999.25    -999.25    -999.25 1724.05570 1831.81050  579.95250 -107.00170    9.86980   49.61970    9.61630
 9900.00000    -999.25    -999.25    -999.25    -999.25    -999.25 1791.75940 1873.43160  469.75300  -91.78450   16.64270   49.78200    9.70210
 9950.00000    -999.25    -999.25    -999.25    -999.25    -999.25 1639.27950 1841.43850  264.48800  -94.40400   13.57800   50.53960    9.23830
 10000.00000    -999.25    -999.25    -999.25    -999.25    -999.25 1775.00230 1855.06630  591.34190  -90.99230   13.04870   50.05350    9.72450
 10050.00000    -999.25    -999.25    -999.25    -999.25    -999.25 1719.01370 1854.37590  701.16110 -102.55980   12.17550   50.84460    9.65950
 10100.00000    -999.25    -999.25    -999.25    -999.25    -999.25 1730.62820 1824.65650  375.94130 -104.84440    8.69460   50.44190    9.73380
 10150.00000    -999.25    -999.25    -999.25    -999.25    -999.25  197.12320  112.59950  119.18250 -116.26830    8.68210   49.37120    9.22690
 10200.00000   10.87500   10.48570    -999.25    -999.25    0.03870 1691.67440 1596.93810  310.17680 -115.45910    9.43360   47.70860    9.76070
 10250.00000    9.18560   11.78940    -999.25    -999.25    0.01530 1708.86500 1569.37980  465.32290  -93.65820    9.35760   49.04850    9.19830
 10300.00000    8.52320   16.16430    -999.25    -999.25    0.07260 1454.44740 1541.25440  223.29310 -126.41300   12.89290   47.91090    8.93730
 10350.00000    8.61040   13.73160    -999.25    -999.25    0.10950   14.67140   32.28590  103.91220 -146.39210   10.52760   49.84380    8.76060
 10400.00000   10.74380   23.97120    -999.25    -999.25    0.07080 1845.75000 1747.02100 1119.79080 -106.82020   20.39320   48.17880    9.81610
 10450.00000    8.51040   32.28910    -999.25    -999.25    0.02420 1855.83120 1767.09390 1532.04580  -68.98740   25.10720   49.60230    9.00980
 10500.00000    8.85230   33.98590    -999.25    -999.25    0.00600 1674.40040 1797.17860  949.22380  -42.03590   33.24270   49.96690    9.02190
 10550.00000    8.85520   33.45200    -999.25    -999.25    0.01130 1758.10270 1874.00660 1032.45120  -25.34890   30.63010   50.50130    9.09560
 10600.00000    -999.25    -999.25    -999.25    -999.25    -999.25 1685.26650 1785.76920  766.14450  -31.59940   27.40030   50.22650    9.33460
 10650.00000    -999.25    -999.25    -999.25    -999.25    -999.25 1593.99780 1652.75620  284.65400  -29.33400   28.27930   52.01850    9.24770
 10700.00000    -999.25    -999.25    -999.25    -999.25    -999.25 1511.98440 1589.68600  211.15500  -26.26370   34.71200   52.90370    9.11690
 10750.00000    -999.25    -999.25    -999.25    -999.25    -999.25 1636.11840 1728.17770  525.61450  -33.80740   25.72000   51.73240    9.10810
 10800.00000    -999.25    -999.25    -999.25    -999.25    -999.25 1669.96830 1806.90520  660.24550  -36.16810   26.81160   52.66790    9.12870
 10850.00000    -999.25    -999.25    -999.25    -999.25    -999.25   60.24650   58.30500   55.70040  -25.52560   46.78410   58.65660    9.11510
 10900.00000    -999.25    -999.25    -999.25    -999.25    -999.25   11.34170   12.17190   16.51810  -26.93980   68.65830   65.68390    9.55360
 10950.00000    -999.25    -999.25    -999.25    -999.25    -999.25    5.97080    5.64970    7.25520  -40.62760   94.56110   77.52850   11.10000
 11000.00000    -999.25    -999.25    -999.25    -999.25    -999.25    7.16740    6.43330   11.99450  -42.11840   74.96630   70.90170    9.74230
 11050.00000    -999.25    -999.25    -999.25    -999.25    -999.25    7.11790    6.46420   16.93100  -32.51050  102.83760   74.71590   10.87070
 11100.00000    -999.25    -999.25    -999.25    -999.25    -999.25   11.95140   12.48000   15.99450  -21.06830   72.56150   62.78430    9.29370
 11150.00000    -999.25    -999.25    -999.25    -999.25    -999.25   12.63460   13.29850   17.61290  -20.50210   66.73370   62.45020    9.15640
 11200.00000    -999.25    -999.25    -999.25    -999.25    -999.25   10.53210   11.10010   14.95020  -20.91530   89.61390   66.01930    9.13320
 11250.00000    -999.25    -999.25    -999.25    -999.25    -999.25   17.28950   17.84790   23.13930  -20.17410   73.90010   62.66310    9.09190
 11300.00000    -999.25    -999.25    -999.25    -999.25    -999.25    7.03770    7.47210    9.75740  -29.20960  108.28040   74.51620    9.84080
 11350.00000    -999.25    -999.25    -999.25    -999.25    -999.25    8.18190    8.71660   12.70560  -22.47290  106.73030   71.48200    9.49940
 11400.00000    -999.25    -999.25    -999.25    -999.25    -999.25    7.03320    7.46780   11.76800  -33.23720  120.48710   80.64210   10.09830
 11450.00000    -999.25    -999.25    -999.25    -999.25    -999.25 1604.26030 1721.43410  536.25230  -21.74860  114.65070   72.03310    9.14560
 11500.00000    -999.25    -999.25    -999.25    -999.25    -999.25 1723.81530 1823.80630 1952.24050  -24.91280  229.22360   81.85690    9.35510
 11550.00000    9.33590  122.84370    -999.25    -999.25    0.09680 1643.18180 1748.86150  580.19460  -13.83000  125.35590   72.73030    9.42290
 11600.00000   14.86410  108.58530    -999.25    -999.25    0.32150   14.50280   14.62670   15.73590  -36.00100  108.86240   81.90700   11.88470
 11650.00000   10.04940   47.98620    -999.25    -999.25    0.03740   92.23740  143.04570   63.68300  -24.87250   45.15430   56.03180    9.42780
 11700.00000    9.97210   29.77040    -999.25    -999.25    0.02160 1646.86450 1740.20190  485.24680  -30.88500   25.86640   72.12960    9.36360
 11750.00000    9.45890   43.85100    -999.25    -999.25    0.02390 1563.02930 1668.89420  259.17310  -22.63070   36.46350   52.28370    9.30030
 11800.00000    9.20780   63.20990    -999.25    -999.25    0.03330   61.46620   53.83030   68.36850   -9.73500   58.55940   55.70380    9.12830
 11850.00000    9.16390   54.96310    -999.25    -999.25    0.03230  861.90260  473.03070  160.97660   -2.34280   49.11610   54.62370    9.11880
 11900.00000    8.73010   18.24140    -999.25    -999.25    0.04290 1644.46330 1691.95500  336.58150  -56.47250   13.42540   49.22140    9.07050
 11950.00000   11.59750   25.82000    -999.25    -999.25    0.10360 1829.06630 1734.36890 1925.00000   -9.20280   21.74340   50.41160    9.73920
 12000.00000    8.67440  258.23610    -999.25    -999.25    0.08310   33.56760   33.24140   46.08670   -1.67660  229.89870   68.42800    8.87870
