~Version ---------------------------------------------------
VERS.      2.0 : CWLS log ASCII Standard -VERSION 2.0
WRAP.       NO : One line per depth step
CREA. 12/14/17 : LAS Creation Date
~Well ------------------------------------------------------
STRT.FT                        1500.0 : START DEPTH
STOP.FT                        9650.0 : STOP DEPTH
STEP.FT                      50.00000 : STEP LENGTH
NULL.                         -999.25 : NULL VALUE
COMP.           OCELOT INDUSTRIES LTD : COMPANY
WELL. OIL ET AL VIRGHILLS 11-15-63-13 : WELL
FLD .                                 : FIELD
LOC .                                 : LOCATION
CTRY.                          CANADA : COUNTRY
SRVC.                   Dresser Atlas : SERVICE COMPANY
DATE.                     19-Jun-1978 : LOGDATE
PROV.                         Alberta : PROVINCE
UWI .                100111506313W500 : UNIQUE WELL ID
SLAT.WGS84                   54.45302 : SURFACE LATITUDE
SLON.WGS84                  -115.8819 : SURFACE LONGITUDE
~Curve Information -----------------------------------------
DEPT     .FT    : Depth Curve
CALD1ED  .IN    : CALIPER FROM CNFD LOG [AJ. TO RESISTIVITY LOG]
CALDED   .IN    : CALIPER FROM CDL-CNL LOG [AJ. TO RESISTIVITY LOG]
CALWS    .IN    : CALIPER [CALD1ED SPL. TO CALDED @ 1881.3M]
CONDWS   .MMHO  : CONDUCTIVITY [1000/DRESWS]
CORRED   .G/C3  : DENSITY CORRECTION FROM CDL-CNL LOG [ADJ. TO RESISTIVITY LOG/DPHILSED/DPHISSED] [CORRED*1000]
DCORED   .G/C3  : DENSITY CORRECTION FROM CNFD LOG [ADJ. TO RESISTIVITY LOG/DPHISS1ED] [DCOR1ED*1000]
DCORWS   .G/C3  : DENSITY CORRECTION [DCORED SPL.TO CORRED @ 5900']
DENWS    .G/C3  : FORMATION BULK DENSITY [CALC. FROM DPOLSWS M=2.71,F=1.00]
DPHILSED .V/V   : DENSITY POROSITY LIMESTONE [M=2.71,F=1.0] FROM CDL-CNL LOG [AJ. TO RESISTIVITY LOG]
DPHISS1ED.V/V   : DENSITY POROSITY SANDSTONE [M=2.65,F=1.0] FROM CNFD LOG [AJ. TO RESISTIVITY LOG]
DPHISSED .V/V   : DENSITY POROSITY SANDSTONE [M=2.65,F=1.0] FROM CDL-CNL LOG [AJ. TO RESISTIVITY LOG]
DPOLSWS  .V/V   : DENSITY POROSITY LIMESTONE [DPHISS1ED CONVERTED TO LIMESTONE MATRIX, M=2.71,F=1.00, SPL. TO DPHILSED @ 5604']
DRESWS   .OHMM  : DEEP RESISTIVITY [ILDED]
GRD1ED   .GAPI  : GAMMA RAY FROM CNFD LOG [AJ. TO RESISTIVITY LOG]
GRDED    .GAPI  : GAMMA RAY FROM CDL-CNL LOG [AJ. TO RESISTIVITY LOG]
GRWS     .GAPI  : GAMMA RAY [GRD1ED SPL. TO GRDED @ 5873']
ILDED    .OHMM  : DEEP INDUCTION FROM RESISTIVITY LOG
ILMED    .OHMM  : MEDIUM INDUCTION FROM RESISTIVITY LOG
MRESWS   .OHMM  : MEDIUM RESISTIVITY [ILMED]
NPHILSED .V/V   : NEUTRON POROSITY LIMESTONE FROM CDL-CNL LOG [AJ. TO RESISTIVITY LOG]
NPHISS1ED.V/V   : NEUTRON POROSITY SANDSTONE FROM CNFD LOG [AJ. TO RESISTIVITY LOG]
NPHISSED .V/V   : NEUTRON POROSITY SANDSTONE FROM CDL-CNL LOG [AJ. TO RESISTIVITY LOG]
NPOLSWS  .V/V   : NEUTRON POROSITY LIMESTONE [NPHISSED MATRIX CONVERSION FOR LIMESTONE FROM SCHLUMBERGER (CNL), SPL. TO NPHILSED @ 5604']
RHOB1ED  .G/C3  : BULK DENSITY FROM CNFD LOG [ADJ. TO RESISTIVITY LOG/DPHISS1ED]
RHOBED   .G/C3  : BULK DENSITY FROM CDL-CNL LOG [ADJ. TO RESISTIVITY LOG/DPHILSED/DPHISSED]
SFLED    .OHMM  : SPHERICALLY FOCUSED FROM RESISTIVITY LOG
SPRED    .MV    : SPONTANEOUS POTENTIAL FROM RESISTIVITY LOG
SPWS     .MV    : SPONTANEOUS POTENTIAL [BASELINE 0 MV, SPRED]
SRESWS   .OHMM  : SHALLOW RESISTIVITY [SFLED]
~Params ----------------------------------------------------
PD  .                     GL : PERMANENT DATUM
EPD .FT               3435.5 : ELEVATION PERMANENT DATUM
LMF .                     KB : LOG MEASURED FROM
DAPD.FT                 15.5 : FEET ABOVE PERMANENT DATUM
DMF .                     KB : DRILLING MEASURED FROM
EKB .FT                 3451 : KELLY BUSHING
EGL .FT               3435.5 : GROUND LEVEL
DATE.               06/19/78 : RUN DATE
RUN .                      1 : RUN NUMBER
DD  .FT                 9683 : DEPTH DRILLER
DL  .FT                 9684 : DEPTH LOGGER
BLI .FT                 9681 : BOTTOM LOG INTERVAL
TLI .FT                 1517 : TOP LOG INTERVAL
CS  .IN                8.625 : CASING SIZE
CBD .FT                 1517 : CASING BOTTOM DRILLER
CBL .FT                 1517 : CASING BOTTOM LOGGER
BS  .IN                7.875 : BIT SIZE
BSD .FT                 9683 : BIT SIZE AT DEPTH
DFT .               GEL CHEM : DRILLING FLUID TYPE
DFD .                    9.1 : DRILLING FLUID DENSITY
DFV .                     65 : DRILLING FLUID VISCOSITY
DFPH.                      9 : DRILLING FLUID PH
DFL .                     11 : DRILLING FLUID LOSS
MSS .                   CIRC : MUD SAMPLE SOURCE
RMS .OHMM                  3 : RESISTIVITY MUD SAMPLE
MST .DEGF                 76 : MUD SAMPLE TEMPERATURE
RMF .OHMM                2.8 : RESISTIVITY MUD FILTRATE SAMPLE
MFST.DEGF                 72 : MUD FILTRATE SAMPLE TEMPERATURE
RMC .OHMM                2.5 : RESISTIVITY MUD CAKE
MCST.DEGF                 72 : MUD CAKE SAMPLE TEMPERATURE
MFSS.                   MEAS : MUD FILTRATE SAMPLE SOURCE
MCSS.                   MEAS : MUD CAKE SAMPLE SOURCE
RMB .OHMM               1.23 : RESISTIVITY MUD AT BHT
TCS .HRS                   5 : TIME CIRCULATED STOPPED
LUN .                HL 6155 : LOGGING UNIT NUMBER
LUL .                     VV : LOGGING UNIT LOCATION
ENGI.                 GORDON : RECORDING ENGINEER
WITN.                  BROCK : WITNESSED BY
CLNT.                A2DTECH : CLIENT CODE
ORIG.            2" 5" PRINT : ORIGIN OF DATA
UWI .       100111506313W500 : UNIQUE WELL ID
DICO. A2D Technologies, Inc. : DIGITIZING COMPANY
~Other -----------------------------------------------------
DIL-CNFD-CNL-CDL LOG RUN
RHOBED,RHOB1ED,CORRED & DCORED VERIFY FROM 2" SCALE
~ASCII -----------------------------------------------------
# ...
 4000.00000    8.51340    -999.25    8.51340  148.55310    -999.25    0.21400    0.21400    2.30270    -999.25    0.21050    -999.25    0.23820    6.73160  116.06130    -999.25  116.06130    6.73160    7.11850    7.11850    -999.25    0.41350    -999.25    0.37090    2.30550    -999.25    7.67740  -39.20240  -11.11680    7.67740
 4050.00000    8.81200    -999.25    8.81200  155.00020    -999.25    0.16660    0.16660    2.53100    -999.25    0.07210    -999.25    0.10470    6.45430  115.12250    -999.25  115.12250    6.45430    6.92750    6.92750    -999.25    0.44550    -999.25    0.40370    2.55130    -999.25    8.50950  -37.80340   -9.68620    8.50950
 4100.00000    9.28470    -999.25    9.28470  153.14870    -999.25    0.22530    0.22530    2.29610    -999.25    0.21450    -999.25    0.24210    6.52960  123.52240    -999.25  123.52240    6.52960    6.87960    6.87960    -999.25    0.39020    -999.25    0.34710    2.31970    -999.25    7.12100  -35.34510   -7.19610    7.12100
 4150.00000    8.89120    -999.25    8.89120  194.08500    -999.25    0.25000    0.25000    2.26150    -999.25    0.23540    -999.25    0.26230    5.15250  134.41370    -999.25  134.41370    5.15250    5.41450    5.41450    -999.25    0.45420    -999.25    0.41260    2.24410    -999.25    6.45070  -34.31360   -6.13300    6.45070
 4200.00000    9.32940    -999.25    9.32940  179.83670    -999.25    0.25360    0.25360    2.20170    -999.25    0.27170    -999.25    0.29730    5.56060  126.22760    -999.25  126.22760    5.56060    5.67720    5.67720    -999.25    0.45750    -999.25    0.41600    2.16930    -999.25    6.56780  -33.65070   -5.43830    6.56780
 4250.00000    8.82930    -999.25    8.82930  162.88500    -999.25    0.16180    0.16180    2.43880    -999.25    0.12800    -999.25    0.15860    6.13930  141.85400    -999.25  141.85400    6.13930    6.24480    6.24480    -999.25    0.43210    -999.25    0.38990    2.44030    -999.25    7.23450  -35.60320   -7.35920    7.23450
 4300.00000    8.17850    -999.25    8.17850  169.55100    -999.25    0.06050    0.06050    2.47060    -999.25    0.10870    -999.25    0.14000    5.89800  148.63520    -999.25  148.63520    5.89800    6.09660    6.09660    -999.25    0.45330    -999.25    0.41170    2.46770    -999.25    7.60170  -33.11910   -4.84350    7.60170
 4350.00000    8.00940    -999.25    8.00940  142.62280    -999.25    0.00730    0.00730    2.42800    -999.25    0.13450    -999.25    0.16490    7.01150  168.64640    -999.25  168.64640    7.01150    7.33310    7.33310    -999.25    0.45380    -999.25    0.41220    2.43360    -999.25   10.02400  -34.10140   -5.79400   10.02400
 4400.00000    7.99300    -999.25    7.99300  168.26520    -999.25    0.04200    0.04200    2.31120    -999.25    0.20540    -999.25    0.23320    5.95100  188.71880    -999.25  188.71880    5.95100    6.75680    6.75680    -999.25    0.47790    -999.25    0.43720    2.31420    -999.25    9.00750  -34.52200   -6.18310    9.00750
 4450.00000    9.96090    -999.25    9.96090  247.03560    -999.25    0.25020    0.25020    2.16610    -999.25    0.29330    -999.25    0.31810    4.04800  123.48290    -999.25  123.48290    4.04800    4.23320    4.23320    -999.25    0.40720    -999.25    0.36450    2.16420    -999.25    5.48110  -33.31940   -4.94870    5.48110
 4500.00000    7.81730    -999.25    7.81730  155.34220    -999.25    0.11220    0.11220    2.43620    -999.25    0.12960    -999.25    0.16010    6.43740  102.98170    -999.25  102.98170    6.43740    7.53450    7.53450    -999.25    0.34530    -999.25    0.30160    2.43780    -999.25    7.80950  -52.42470  -24.02240    7.80950
 4550.00000    8.54670    -999.25    8.54670  197.75350    -999.25    0.18710    0.18710    2.51630    -999.25    0.08110    -999.25    0.11330    5.05680  127.10110    -999.25  127.10110    5.05680    5.36070    5.36070    -999.25    0.38060    -999.25    0.33730    2.51640    -999.25    5.75060  -34.29970   -5.86580    5.75060
 4600.00000    8.77500    -999.25    8.77500  169.27920    -999.25    0.15220    0.15220    2.50350    -999.25    0.08880    -999.25    0.12080    5.90740  112.44520    -999.25  112.44520    5.90740    6.16000    6.16000    -999.25    0.34980    -999.25    0.30620    2.49340    -999.25    5.72810  -36.35990   -7.89420    5.72810
 4650.00000    9.93340    -999.25    9.93340  262.66830    -999.25    0.19580    0.19580    2.35350    -999.25    0.17970    -999.25    0.20850    3.80730  129.72320    -999.25  129.72320    3.80730    3.93870    3.93870    -999.25    0.39820    -999.25    0.35530    2.35460    -999.25    4.48730  -32.55500   -4.05770    4.48730
 4700.00000   12.21840    -999.25   12.21840  283.33430    -999.25    0.24690    0.24690    2.26130    -999.25    0.23550    -999.25    0.26240    3.52940  114.20390    -999.25  114.20390    3.52940    3.67920    3.67920    -999.25    0.47480    -999.25    0.43390    2.26220    -999.25    4.32590  -33.25800   -4.72890    4.32590
 4750.00000    9.92980    -999.25    9.92980  496.91910    -999.25    0.21880    0.21880    2.30660    -999.25    0.20810    -999.25    0.23590    2.01240  166.55690    -999.25  166.55690    2.01240    2.12140    2.12140    -999.25    0.49690    -999.25    0.45700    2.30030    -999.25    4.02860  -32.46460   -3.90390    4.02860
 4800.00000   10.24890    8.74420   10.24890  491.47440    -999.25    0.15940    0.15940    2.20340    -999.25    0.27070    0.30490    0.29630    2.03550  126.14470  134.12600  126.14470    2.03550    2.15580    2.15580    -999.25    0.51130    0.41450    0.47200    2.19610    -999.25    3.34200  -31.73480   -3.14250    3.34200
 4850.00000    9.85710    9.75770    9.85710  303.09460    0.06650    0.19580    0.19580    2.31750    -999.25    0.20150    0.21680    0.22950    3.29930  118.70300  128.41670  118.70300    3.29930    3.55300    3.55300    -999.25    0.39550    0.35210    0.35250    2.32810    2.24260    3.62010  -31.99990   -3.47310    3.62010
 4900.00000   10.25030    9.83470    9.83470  373.93870    0.09690    0.21630    0.21630    2.38190    -999.25    0.16250    0.24290    0.19190    2.67430  122.17450  134.85120  122.17450    2.67430    2.88620    2.88620    -999.25    0.41320    0.36190    0.37060    2.37850    2.24930    3.65470  -31.32590   -3.05750    3.65470
 4950.00000    8.58730    8.84650    8.84650  212.40440    0.03570    0.07980    0.07980    2.51140    -999.25    0.08400    0.14800    0.11610    4.70800  128.64310  136.76360  128.64310    4.70800    5.38310    5.38310    -999.25    0.33790    0.30830    0.29410    2.50820    2.43170    5.79850  -35.41370   -7.40550    5.79850
 5000.00000    7.33950    7.34590    7.34590   93.54890    0.09490    0.12080    0.12080    2.48290    -999.25    0.10130    0.08740    0.13280   10.68960   68.17750   89.87530   68.17750   10.68960   15.66560   15.66560    -999.25    0.26130    0.22820    0.21730    2.48290    2.49270   17.65570  -52.36090  -24.61110   17.65570
 5050.00000    8.21060    7.89170    7.89170  184.12540    0.11330    0.00650    0.00650    2.53310    -999.25    0.07080    0.06240    0.10350    5.43670   82.87860   95.55060   82.87860    5.43670    6.29040    6.29040    -999.25    0.34260    0.27690    0.29890    2.54090    2.50770    6.40310  -39.58150  -12.09010    6.40310
 5100.00000    8.36100    8.04580    8.04580  201.51540    0.12330    0.10220    0.10220    2.66420    -999.25   -0.00860    0.01050    0.02680    4.96240   90.09210  109.04730   90.09210    4.96240    5.20150    5.20150    -999.25    0.38300    0.32980    0.33980    2.80270    2.59600    7.55010  -33.74900   -6.51780    7.55010
 5150.00000    8.98560    8.64280    8.64280  137.57930    0.00370    0.02460    0.02460    2.54030    -999.25    0.06650    0.09580    0.09930    7.26850   76.27280   89.27590   76.27280    7.26850    7.73440    7.73440    -999.25    0.30760    0.28420    0.26370    2.53090    2.48740    8.25150  -42.78420  -15.81140    8.25150
 5200.00000    9.18920    9.84670    9.84670  199.76030    0.06880    0.07320    0.07320    2.42030    -999.25    0.13920    0.39880    0.16940    5.00600  116.29260  114.02350  116.29260    5.00600    5.22540    5.22540    -999.25    0.40230    0.40280    0.35950    2.32460    2.07490    6.53150  -31.32500   -4.61230    6.53150
