~Version ---------------------------------------------------
VERS.      2.0 : CWLS log ASCII Standard -VERSION 2.0
WRAP.       NO : One line per depth step
CREA. 10/25/17 : LAS Creation Date
~Well ------------------------------------------------------
STRT.FT                         1100.0 : START DEPTH
STOP.FT                        10800.0 : STOP DEPTH
STEP.FT                       50.00000 : STEP LENGTH
NULL.                          -999.25 : NULL VALUE
COMP. AMOCO CANADA PETROLEUM CO., LTD. : COMPANY
WELL.       AMOCO N-2 ANTE 11-25-65-23 : WELL
FLD .                                  : FIELD
LOC .                                  : LOCATION
CTRY.                           CANADA : COUNTRY
SRVC.           Schlumberger of Canada : SERVICE COMPANY
DATE.                      30-Oct-1976 : LOGDATE
PROV.                          Alberta : PROVINCE
UWI .                 100112506523W500 : UNIQUE WELL ID
SLAT.WGS84                    54.65705 : SURFACE LATITUDE
SLON.WGS84                   -117.3447 : SURFACE LONGITUDE
~Curve Information -----------------------------------------
DEPT    .FT    : Depth Curve
CALDED  .IN    : CALIPER FROM DENSITY LOG [DEP. ADJ. TO RESIST. LOG]
CALSED  .IN    : CALIPER FROM SONIC LOG [DEP. ADJ. TO RESIST. LOG]
CALWS   .IN    : CALIPER [1152' CALDED 10764' CALSED]
CONDWS  .MMHO  : CONDUCTIVITY [1000/DRESWS]
DCORWS  .G/C3  : DENSITY CORRECTION [DRHOED]
DENWS   .G/C3  : BULK DENSITY [M=2.71, F=1.00] [RHOBED]
DPHILSED.V/V   : DENSITY POROSITY [M=2.71, F=1.00] FROM DENSITY LOG [DEP. ADJ. TO RESIST. LOG]
DPHISSED.V/V   : DENSITY POROSITY [M=2.65, F=1.00] FROM DENSITY LOG [DEP. ADJ. TO RESIST. LOG]
DPOLSWS .V/V   : DENSITY POROSITY [M=2.71, F=1.00] [CAL. FROM DENWS]
DRESWS  .OHMM  : DEEP RESISTIVITY [ILDED]
DRHOED  .G/C3  : DENSITY CORRECTION FROM DENSITY LOG [DEP. ADJ. TO RESIST. LOG]
DTED    .US/F  : DELTA TIME FROM SONIC LOG [DEP. ADJ. TO RESIST. LOG]
DTWS    .US/F  : DELTA TIME [DTED]
GRDED   .GAPI  : GAMMA RAY FROM DENSITY LOG [DEP. ADJ. TO RESIST. LOG]
GRSED   .GAPI  : GAMMA RAY FROM SONIC LOG [DEP. ADJ. TO RESIST. LOG]
GRWS    .GAPI  : GAMMA RAY [1096' GRSED 1142' GRDED]
ILDED   .OHMM  : INDUCTION LOG DEEP RESISTIVITY
ILMED   .OHMM  : INDUCTION LOG MEDIUM RESISTIVITY
LL8ED   .OHMM  : 8 INCH LATEROLOG RESISTIVITY
MRESWS  .OHMM  : MEDIUM RESISTIVITY [ILMED]
NPHILSED.V/V   : NEUTRON POROSITY LIMESTONE FROM DENSITY LOG [DEP. ADJ. TO RESIST. LOG]
NPHISSED.V/V   : NEUTRON POROSITY SANDSTONE FROM DENSITY LOG [DEP. ADJ. TO RESIST. LOG]
NPOLSWS .V/V   : NEUTRON POROSITY LIMESTONE [NPHISSED CONVERTED FOR LIMESTONE, SPL. TO NPHILSED @ 6253']
RHOBED  .G/C3  : BULK DENSITY FROM DENSITY LOG [DEP. ADJ. TO RESIST. LOG]
SPRED   .MV    : SPONTANEOUS POTENTIAL FROM RESISTIVITY LOG
SPWS    .MV    : SPONTANEOUS POTENTIAL [BASELINE 0 MV] [SPRED]
SRESWS  .OHMM  : SHALLOW RESISTIVITY [LL8ED]
~Params ----------------------------------------------------
PD  .                     GL : PERMANENT DATUM
EPD .FT                 2441 : ELEVATION PERMANENT DATUM
LMF .                     KB : LOG MEASURED FROM
DAPD.FT                 13.6 : FEET ABOVE PERMANENT DATUM
EKB .FT               2454.6 : KELLY BUSHING
EGL .FT                 2441 : GROUND LEVEL
DATE.               10/30/76 : RUN DATE
RUN .                      1 : RUN NUMBER
DD  .FT                10805 : DEPTH DRILLER
DL  .FT                10818 : DEPTH LOGGER
BLI .FT                10812 : BOTTOM LOG INTERVAL
TLI .FT                 1155 : TOP LOG INTERVAL
CBD .FT                 1153 : CASING BOTTOM DRILLER
CBL .FT                 1155 : CASING BOTTOM LOGGER
BS  .IN                 8.75 : BIT SIZE
BSD .FT                10805 : BIT SIZE AT DEPTH
DFT .                    GEL : DRILLING FLUID TYPE
DFD .                      9 : DRILLING FLUID DENSITY
DFV .                    115 : DRILLING FLUID VISCOSITY
DFPH.                    9.5 : DRILLING FLUID PH
DFL .                    8.6 : DRILLING FLUID LOSS
MSS .             CIRCULATED : MUD SAMPLE SOURCE
RMS .OHMM               3.02 : RESISTIVITY MUD SAMPLE
MST .DEGF                 62 : MUD SAMPLE TEMPERATURE
RMF .OHMM               2.62 : RESISTIVITY MUD FILTRATE SAMPLE
MFST.DEGF                 52 : MUD FILTRATE SAMPLE TEMPERATURE
MFSS.             CALCULATED : MUD FILTRATE SAMPLE SOURCE
MCSS.             CALCULATED : MUD CAKE SAMPLE SOURCE
TCS .HRS                   3 : TIME CIRCULATED STOPPED
LUN .                   7809 : LOGGING UNIT NUMBER
LUL .                    EDM : LOGGING UNIT LOCATION
ENGI.               SEDGWICK : RECORDING ENGINEER
WITN.              SCHWIEDER : WITNESSED BY
CLNT.                A2DTECH : CLIENT CODE
ORIG.            2" 5" PRINT : ORIGIN OF DATA
UWI .       100112506523W500 : UNIQUE WELL ID
DICO. A2D Technologies, Inc. : DIGITIZING COMPANY
~Other -----------------------------------------------------
~ASCII -----------------------------------------------------
# ...
 10200.00000    9.86850    9.50000    9.86850  166.66310    0.04390    2.66730    0.02380    -999.25    0.02500    6.00050    0.04390   67.00100   67.00100   77.98500   83.64540   77.98500    6.00050    7.16030    9.37090    7.16030    0.18760    -999.25    0.18760    2.66730 -117.32610  -13.02820    9.37090
 10250.00000   10.87380    9.69900   10.87380  214.60610    0.17570    2.50130    0.12610    -999.25    0.12200    4.65970    0.17570   81.57340   81.57340  117.99000  125.91910  117.99000    4.65970    5.02450    6.59750    5.02450    0.27250    -999.25    0.27250    2.50130 -130.40200  -40.87250    6.59750
 10300.00000    9.34420    9.19900    9.34420   25.61950    0.02630    2.69700    0.00750    -999.25    0.00760   39.03270    0.02630   55.78540   55.78540   38.29500   43.70930   38.29500   39.03270   43.49790   53.57460   43.49790    0.07380    -999.25    0.07380    2.69700 -106.65110  -24.32110   53.57460
 10350.00000    9.89420   10.02450    9.89420   31.12690    0.12630    2.50740    0.12430    -999.25    0.11850   32.16580    0.12630   77.78540   77.78540  112.04250  108.79870  112.04250   32.16580   49.84610  216.89610   49.84610    0.25070    -999.25    0.25070    2.50740 -110.82740  -27.92880  216.89610
 10400.00000    9.40950    8.84900    9.40950   15.19550    0.03620    2.72630   -0.00850    -999.25   -0.00950   65.80910    0.03620   52.95700   52.95700   29.19000   34.58330   29.19000   65.80910   85.19230  115.06150   85.19230    0.03990    -999.25    0.03990    2.72630  -93.54130  -10.07790  115.06150
 10450.00000    9.37930    9.14900    9.37930   77.73900    0.01310    2.70120    0.00060    -999.25    0.00510   12.86780    0.01310   59.75920   59.75920   54.09000   59.26180   54.09000   12.86780   15.28760   16.37550   15.28760    0.13320    -999.25    0.13320    2.70120  -98.71530  -14.68340   16.37550
 10500.00000    9.36890    9.19900    9.36890   81.94030    0.00970    2.70130    0.00100    -999.25    0.00510   12.20400    0.00970   60.75850   60.75850   52.59000   63.54950   52.59000   12.20400   13.53160   16.26290   13.53160    0.13230    -999.25    0.13230    2.70130  -92.10190  -13.27680   16.26290
 10550.00000    9.32520    9.14900    9.32520    6.19490    0.02590    2.71660   -0.00930    -999.25   -0.00390  161.42290    0.02590   51.99050   51.99050   26.59500   29.81450   26.59500  161.42290  258.81230  266.82530  258.81230    0.03670    -999.25    0.03670    2.71660  -76.87850  -11.16150  266.82530
 10600.00000    9.38060    9.19900    9.38060   30.23660   -0.00040    2.66520    0.02840    -999.25    0.02620   33.10200   -0.00040   63.61520   63.61520   60.09750   56.06820   60.09750   33.10200   38.55540   47.58690   38.55540    0.12510    -999.25    0.12510    2.66520  -79.13900  -21.30440   47.58690
 10650.00000    9.38960    9.09900    9.38960    6.58190    0.00790    2.69410    0.00930    -999.25    0.00930  151.93170    0.00790   57.86450   57.86450   39.39000   47.05450   39.39000  151.93170  191.39240  274.63250  191.39240    0.07980    -999.25    0.07980    2.69410  -59.05210   -9.04840  274.63250
 10700.00000   11.33590   10.00000   11.33590    0.91410    0.23260    2.58290    0.08560    -999.25    0.07440 1106.08940    0.23260   51.71920   51.71920   26.25000   25.55430   26.25000 1106.08940 1216.96630 1109.60450 1216.96630    0.02750    -999.25    0.02750    2.58290  -85.35000  -31.10420 1109.60450
 10750.00000    8.84670    8.79900    8.84670  201.86520    0.08230    2.58600    0.08230    -999.25    0.07250    4.95380    0.08230   61.26050   61.26050  144.49500  157.93970  144.49500    4.95380    6.32280   26.44540    6.32280    0.11220    -999.25    0.11220    2.58600 -176.66710 -113.34470   26.44540
 10800.00000    8.94700    9.00000    9.00000   43.18670    0.02490    2.64070    0.04090    -999.25    0.04050   23.15530    0.02490   68.23050   68.23050  156.79500  118.02380  156.79500   23.15530   23.91710   41.27060   23.91710    0.16710    -999.25    0.16710    2.64070  -82.25600  -12.06650   41.27060
