~Version ---------------------------------------------------
VERS.      2.0 : CWLS log ASCII Standard -VERSION 2.0
WRAP.       NO : One line per depth step
CREA. 10/15/14 : LAS Creation Date
~Well ------------------------------------------------------
STRT.M                    300.0 : START DEPTH
STOP.M                   1850.0 : STOP DEPTH
STEP.M                 50.00000 : STEP LENGTH
NULL.                   -999.25 : NULL VALUE
COMP.    DOME PETROLEUM LIMITED : COMPANY
WELL. DOME ET AL GIFT 4-9-79-10 : WELL
FLD .                           : FIELD
LOC .                           : LOCATION
CTRY.                    CANADA : COUNTRY
SRVC.              Schlumberger : SERVICE COMPANY
DATE.               06-Apr-1984 : LOGDATE
PROV.                   Alberta : PROVINCE
UWI .          100040907910W500 : UNIQUE WELL ID
SLAT.WGS84             55.82881 : SURFACE LATITUDE
SLON.WGS84            -115.5085 : SURFACE LONGITUDE
~Curve Information -----------------------------------------
DEPT    .M      : DEPTH METER
C2DED   .MM     : CALIPER 2 FROM DENSITY LOG
CALDED  .MM     : CALIPER FROM DENSITY LOG
CALSED  .MM     : CALIPER FROM SONIC LOG
CALWS   .MM     : CALIPER [CALSED]
CONDWS  .MMHO   : CONDUCTIVITY [1000/DRESWS]
DCORWS  .KG/M3  : DENSITY CORRECTION [DRHOED]
DENWS   .KG/M3  : FORMATION BULK DENSITY [CALC. FROM DPOLSWS, M=2710, F=1000]
DPHILSED.V/V    : DENSITY POROSITY LIMESTONE  FROM DENSITY LOG
DPHISSED.V/V    : DENSITY POROSITY SANDSTONE  FROM DENSITY LOG
DPOLSWS .V/V    : DENSITY POROSITY [M=2710, F=1000][DPHILSED]
DRESWS  .OHMM   : DEEP RESISTIVITY [ILDED]
DRHOED  .KG/M3  : BULK DENSITY CORRECTION FROM DENSITY LOG [ADJ. TO DPHILSED]
DTED    .US/M   : DELTA TIME FROM SONIC LOG
DTWS    .US/M   : COMPRESSIONAL SONIC [DTED]
GRDED   .GAPI   : GAMMA RAY FROM DENSITY LOG
GRED    .GAPI   : GAMMA RAY FROM CEMENT PLUG LOG [ADJ. TO GRSED]
GRSED   .GAPI   : GAMMA RAY FROM SONIC LOG
GRWS    .GAPI   : GAMMA RAY [GRED SPL. TO GRSED @ 223.8 M]
ILDED   .OHMM   : DEEP INDUCTION RESISTIVITY FROM DIL LOG
ILMED   .OHMM   : MEDIUM INDUCTION RESISTIVITY FROM DIL LOG
MLLED   .OHMM   : MICRO FOCUSED LATEROLOG RESISTIVITY FROM MLL LOG
MRESWS  .OHMM   : MEDIUM RESISTIVITY [ILMED]
NPHILSED.V/V    : NEUTRON POROSITY LIMESTONE FROM DENSITY LOG
NPHISSED.V/V    : NEUTRON POROSITY SANDSTONE FROM DENSITY LOG
NPOLSWS .V/V    : NEUTRON POROSITY LIMESTONE [NPHILSED]
PEFED   .B/E    : PHOTOELECTRIC FACTOR FROM DENSITY LOG
PEFWS   .B/E    : PHOTOELECTRIC FACTOR [PEFED]
RHOBED  .KG/M3  : BULK DENSITY FROM DENSITY LOG [ADJ. TO DPHILSED]
SFLUED  .OHMM   : SHALLOW FOCUSED RESISTIVITY  FROM DIL LOG
SPRED   .MV     : SPONTANEOUS POTENTIAL FROM DIL LOG
SPWS    .MV     : SPONTANEOUS POTENTIAL [BASELINE 0 MV, SPRED]
SRESWS  .OHMM   : SHALLOW RESISTIVITY [SFLUED]
~Params ----------------------------------------------------
PD  .                         GL : PERMANENT DATUM
EPD .M                    642.69 : ELEVATION PERMANENT DATUM
LMF .                         KB : LOG MEASURED FROM
DAPD.M                      5.47 : FEET ABOVE PERMANENT DATUM
DMF .                         KB : DRILLING MEASURED FROM
EKB .M                    648.16 : KELLY BUSHING
EDF .M                    647.86 : DRILLING FLOOR
EGL .M                    642.69 : GROUND LEVEL
DATE.                   04/06/84 : RUN DATE
RUN .                          1 : RUN NUMBER
DD  .M                      1865 : DEPTH DRILLER
DL  .M                      1866 : DEPTH LOGGER
BLI .M                      1865 : BOTTOM LOG INTERVAL
TLI .M                       248 : TOP LOG INTERVAL
CS  .MM                    244.5 : CASING SIZE
CBD .M                       248 : CASING BOTTOM DRILLER
CBL .M                       248 : CASING BOTTOM LOGGER
BS  .MM                      222 : BIT SIZE
BSD .M                      1865 : BIT SIZE AT DEPTH
DFT .                   GEL CHEM : DRILLING FLUID TYPE
DFD .                       1130 : DRILLING FLUID DENSITY
DFV .                         40 : DRILLING FLUID VISCOSITY
DFPH.                       10.5 : DRILLING FLUID PH
DFL .                       28.5 : DRILLING FLUID LOSS
MSS .                   FLOWLINE : MUD SAMPLE SOURCE
RMS .OHMM                   0.95 : RESISTIVITY MUD SAMPLE
MST .DEGC                   14.4 : MUD SAMPLE TEMPERATURE
RMF .OHMM                   0.68 : RESISTIVITY MUD FILTRATE SAMPLE
MFST.DEGC                   15.5 : MUD FILTRATE SAMPLE TEMPERATURE
MFSS.                   MEASURED : MUD FILTRATE SAMPLE SOURCE
MCSS.                   MEASURED : MUD CAKE SAMPLE SOURCE
RMB .OHMM                   0.44 : RESISTIVITY MUD AT BHT
TCS .HRS                    2000 : TIME CIRCULATED STOPPED
TLAB.HRS                     630 : TIME LOGGER AT BOTTOM
LUN .                       8211 : LOGGING UNIT NUMBER
LUL .                        EDM : LOGGING UNIT LOCATION
ENGI.                   PIERACCI : RECORDING ENGINEER
WITN.                  FORTINSKI : WITNESSED BY
CLNT.                    A2DTECH : CLIENT CODE
ORIG. 6.5"/100M 16.5"/100M PRINT : ORIGIN OF DATA
UWI .           100040907910W500 : UNIQUE WELL ID
DICO.     A2D Technologies, Inc. : DIGITIZING COMPANY
~Other -----------------------------------------------------
DIL-MLL-BHC-CNL-LDT-CPL LOG RUN
RHOB & DRHO CURVES VERIFIED FROM 2" SCALE SECTION
~ASCII -----------------------------------------------------
  300.00000  346.27510  323.85620  307.83570  307.83570  333.42220   82.72560 1812.59200    0.52480    0.50970    0.52480    2.99920   82.72560  467.82690  467.82690   76.81940    -999.25   81.51740   81.51740    2.99920    2.75960    -999.25    2.75960    0.53560    0.53700    0.53560    1.76190    1.76190 1812.04080    3.07630  -38.22290   -7.08180    3.07630
  350.00000  220.96960  228.22710  231.41620  231.41620  176.79400   73.26830 2238.89500    0.27550    0.25330    0.27550    5.65630   73.26830  365.97260  365.97260   49.11900   27.55690   53.66800   53.66800    5.65630    5.49380    -999.25    5.49380    0.34010    0.34030    0.34010    2.00500    2.00500 2230.74390    5.61840  -59.35090  -22.68370    5.61840
  400.00000  223.15190  220.99660  228.57630  228.57630  121.81900   28.49090 2638.52200    0.04180    0.05130    0.04180    8.20890   28.49090  189.24400  189.24400   48.62440   26.91320   51.61150   51.61150    8.20890    9.32990    -999.25    9.32990    0.32590    0.30530    0.32590    3.66320    3.66320 2634.54370   33.36970  -47.28080  -19.09750   33.36970
  450.00000  273.35590  242.68260  249.16050  249.16050  116.23580   19.51420 2108.59300    0.35170    0.33020    0.35170    8.60320   19.51420  396.83280  396.83280   50.56000   29.23310   56.34130   56.34130    8.60320    9.47210    -999.25    9.47210    0.41450    0.41040    0.41450    2.29500    2.29500 2105.78270   10.63250  -46.83470   -9.73320   10.63250
  500.00000  256.09650  227.44490  247.93670  247.93670  222.10870   39.56390 2196.31600    0.30040    0.29140    0.30040    4.50230   39.56390  378.85470  378.85470   65.24700   34.81470   68.94180   68.94180    4.50230    4.19520    3.99500    4.19520    0.38040    0.37990    0.38040    2.25130    2.25130 2167.55250    4.25270  -44.17520   -8.53870    4.25270
  550.00000  313.75270  269.75710  289.38850  289.38850  250.93470   68.06920 1952.64100    0.44290    0.38770    0.44290    3.98510   68.06920  398.45650  398.45650   72.13920    -999.25   75.74890   75.74890    3.98510    3.58350    3.22030    3.58350    0.43650    0.42080    0.43650    2.06430    2.06430 1979.60960    3.21970  -38.58570   -7.83230    3.21970
  600.00000  254.95640  259.20470  250.39390  250.39390   88.14770   31.04030 2167.58800    0.31720    0.29200    0.31720   11.34460   31.04030  338.26470  338.26470   65.43890    -999.25   71.73820   71.73820   11.34460    9.72020    4.03070    9.72020    0.36550    0.37570    0.36550    2.36270    2.36270 2155.37180   15.61910  -41.80500  -14.66260   15.61910
  650.00000  323.62110  311.37950  314.94850  314.94850  153.68540  100.90670 2478.63700    0.13530    0.10030    0.13530    6.50680  100.90670  300.65620  300.65620   42.69870    -999.25   45.77330   45.77330    6.50680    5.79170    6.09770    5.79170    0.32600    0.32940    0.32600    3.38670    3.38670 2479.87990    6.15300  -40.12490   -7.43830    6.15300
  700.00000  268.44310  286.52880  286.06270  286.06270   95.57760   -1.79360 2236.33000    0.27700    -999.25    0.27700   10.46270   -1.79360  300.15600  300.15600   31.64150    -999.25   35.64460   35.64460   10.46270   15.59140    -999.25   15.59140    0.29400    -999.25    0.29400    3.51040    3.51040 2003.56900   38.06250  -38.78900   -5.21420   38.06250
  750.00000  267.31280  250.44400  263.27770  263.27770   97.64960    5.85740 2575.93600    0.07840    -999.25    0.07840   10.24070    5.85740  201.43340  201.43340   29.44470    -999.25   32.20760   32.20760   10.24070    9.34960    -999.25    9.34960    0.18400    -999.25    0.18400    3.49940    3.49940 2572.21880   13.04030  -52.43430  -21.05530   13.04030
  800.00000  293.51530  277.36550  281.76330  281.76330   51.78130   25.55240 2650.66300    0.03470    -999.25    0.03470   19.31200   25.55240  200.14060  200.14060   21.92780    -999.25   21.72980   21.72980   19.31200   24.15080    -999.25   24.15080    0.19450    -999.25    0.19450    4.41290    4.41290 2646.49170   36.55410  -47.68060  -29.48660   36.55410
  850.00000  243.40940  230.71750  234.78910  234.78910   61.21220    7.51170 2594.57500    0.06750    -999.25    0.06750   16.33660    7.51170  191.50290  191.50290   20.59400    -999.25   22.35610   22.35610   16.33660   17.02830    -999.25   17.02830    0.09250    -999.25    0.09250    4.17640    4.17640 2599.30910   20.31110  -53.77730  -35.58330   20.31110
  900.00000  325.47540  318.52670  313.18120  313.18120  232.41220    7.78150 1947.68200    0.44580    -999.25    0.44580    4.30270    7.78150  290.78180  290.78180   38.73460    -999.25   41.67280   41.67280    4.30270    4.15830    -999.25    4.15830    0.40730    -999.25    0.40730    2.37400    2.37400 1879.84570    4.34380  -27.60140   -7.96180    4.34380
  950.00000  318.97520  320.87420  322.25960  322.25960  268.93290  104.64670 2354.14900    0.20810    -999.25    0.20810    3.71840  104.64670  327.76480  327.76480   60.84220    -999.25   66.80690   66.80690    3.71840    3.85130    -999.25    3.85130    0.41000    -999.25    0.41000    3.03960    3.03960 2355.09860    3.92810  -42.41410  -10.52390    3.92810
 1000.00000  254.64550  240.14900  248.01520  248.01520   23.52890    9.15970 2655.45100    0.03190    -999.25    0.03190   42.50090    9.15970  177.05000  177.05000   17.22420    -999.25   16.31090   16.31090   42.50090   43.77110    -999.25   43.77110    0.06860    -999.25    0.06860    4.87780    4.87780 2655.84200   64.30170  -63.60460  -30.86310   64.30170
 1050.00000  255.90370  248.03850  254.63220  254.63220   50.88540   81.15190 2577.30400    0.07760    -999.25    0.07760   19.65200   81.15190  183.69740  183.69740   19.61840    -999.25   21.72370   21.72370   19.65200   31.90280    -999.25   31.90280    0.10200    -999.25    0.10200    3.97010    3.97010 2577.30960   66.89660  -84.55000  -52.75160   66.89660
 1100.00000  243.85210  234.70540  248.70640  248.70640  102.52100  107.22460 2550.11500    0.09350    -999.25    0.09350    9.75410  107.22460  194.32940  194.32940   19.39350    -999.25   15.39330   15.39330    9.75410   14.59640    -999.25   14.59640    0.13520    -999.25    0.13520    3.61540    3.61540 2551.91090   34.95030  -69.15760  -41.60950   34.95030
 1150.00000  257.25550  244.43140  250.17910  250.17910   26.89680    6.31850 2635.95700    0.04330    -999.25    0.04330   37.17920    6.31850  179.59730  179.59730   16.04560    -999.25   15.42860   15.42860   37.17920   46.93740    -999.25   46.93740    0.08350    -999.25    0.08350    4.28540    4.28540 2631.85250   66.21560  -35.45020  -18.08300   66.21560
 1200.00000  290.62800  260.65850  274.34840  274.34840   97.79950  116.82600 2487.52900    0.13010    -999.25    0.13010   10.22500  116.82600  197.46430  197.46430   15.63600    -999.25   18.52520   18.52520   10.22500   17.78760    -999.25   17.78760    0.20140    -999.25    0.20140    3.44900    3.44900 2486.27270   42.34920  -60.25490  -53.06870   42.34920
 1250.00000  224.25680  221.70410  233.84480  233.84480  113.29900  107.06190 2623.13200    0.05080    -999.25    0.05080    8.82620  107.06190  195.62240  195.62240   26.36860   21.88600   28.64960   28.64960    8.82620   13.53500    -999.25   13.53500    0.18740    -999.25    0.18740    2.76380    2.76380 2623.64090   30.25780  -42.56430  -44.72510   30.25780
 1300.00000  239.36450  223.75510  236.22500  236.22500   86.82740   98.71100 2623.13200    0.05080    -999.25    0.05080   11.51710   98.71100  179.90020  179.90020   35.14450    -999.25   31.30460   31.30460   11.51710   16.40960    -999.25   16.40960    0.13200    -999.25    0.13200    2.89410    2.89410 2634.05320   36.32940  -52.72300  -57.34320   36.32940
 1350.00000  254.55060  246.47790  246.75030  246.75030  102.46430  151.35040 2224.18900    0.28410    -999.25    0.28410    9.75950  151.35040  220.16460  220.16460   51.73600    -999.25   51.17990   51.17990    9.75950    8.48570    -999.25    8.48570    0.20080    -999.25    0.20080    2.64500    2.64500 2231.24680    8.85120   -8.36730   -4.99850    8.85120
