~Version ---------------------------------------------------
VERS.      2.0 : CWLS log ASCII Standard -VERSION 2.0
WRAP.       NO : One line per depth step
CREA. 12/14/17 : LAS Creation Date
~Well ------------------------------------------------------
STRT.FT                          1300.0 : START DEPTH
STOP.FT                         13000.0 : STOP DEPTH
STEP.FT                        50.00000 : STEP LENGTH
NULL.                           -999.25 : NULL VALUE
COMP.            AMERADA PETROLEUM CORP : COMPANY
WELL. AMERADA HB CR DR SUNDRE 4-16-33-5 : WELL
FLD .                           WILDCAL : FIELD
LOC .                                   : LOCATION
CTRY.                            CANADA : COUNTRY
SRVC.                      Schlumberger : SERVICE COMPANY
DATE.                       14-Sep-1963 : LOGDATE
PROV.                           Alberta : PROVINCE
UWI .                  100041603305W500 : UNIQUE WELL ID
SLAT.WGS84                     51.82557 : SURFACE LATITUDE
SLON.WGS84                    -114.6593 : SURFACE LONGITUDE
~Curve Information -----------------------------------------
DEPT  .FT    : Depth Curve
CALSED.IN    : CALIPER FROM SONIC LOG, DEPTH ADJUSTED WITH [ILDED]
CALWS .IN    : CALIPER [CALSED]
CILDED.MMHO  : CONDUCTIVITY FROM RESISTIVITY LOG
CONDWS.MMHO  : CONDUCTIVITY [1000/DRESWS]
DRESWS.OHMM  : DEEP RESISTIVITY [ILDED] IF DRESWS<1;1000/CONDWS
DTED  .US/F  : DELTA TIME FROM SONIC LOG, DEPTH ADJUSTED WITH [ILDED]
DTWS  .US/F  : DELTA TIME [DTED]
GRSED .GAPI  : GAMMA RAY FROM SONIC LOG, DEPTH ADJUSTED WITH [ILDED]
GRWS  .GAPI  : GAMMA RAY [GRSED]
ILDED .OHMM  : INDUCTION LOG DEEP RESISTIVITY
SNED  .OHMM  : 16 INCH SHORT NORMAL RESISTIVITY FROM IEL
SPRED .MV    : SPONTANEOUS POTENTIAL FROM RESISTIVITY LOG
SPWS  .MV    : SPONTANEOUS POTENTIAL [BASELINE 0 MV] [SPRED]
SRESWS.OHMM  : SHALLOW RESISTIVITY [SNED]
~Params ----------------------------------------------------
PD  .                     GL : PERMANENT DATUM
EPD .FT                 3748 : ELEVATION PERMANENT DATUM
LMF .                     KB : LOG MEASURED FROM
DAPD.FT                   15 : FEET ABOVE PERMANENT DATUM
EKB .FT                 3763 : KELLY BUSHING
EGL .FT                 3748 : GROUND LEVEL
DATE.               09/14/63 : RUN DATE
RUN .                      3 : RUN NUMBER
DD  .FT                13033 : DEPTH DRILLER
DL  .FT                13033 : DEPTH LOGGER
BLI .FT                13032 : BOTTOM LOG INTERVAL
TLI .FT                12190 : TOP LOG INTERVAL
BS  .IN                 8.75 : BIT SIZE
BSD .FT                13033 : BIT SIZE AT DEPTH
DFT .                    GEL : DRILLING FLUID TYPE
DFD .                     10 : DRILLING FLUID DENSITY
DFV .                    255 : DRILLING FLUID VISCOSITY
DFPH.                     11 : DRILLING FLUID PH
DFL .                    5.8 : DRILLING FLUID LOSS
RMS .OHMM               1.42 : RESISTIVITY MUD SAMPLE
MST .DEGF                 56 : MUD SAMPLE TEMPERATURE
RMF .OHMM               0.91 : RESISTIVITY MUD FILTRATE SAMPLE
MFST.DEGF                 57 : MUD FILTRATE SAMPLE TEMPERATURE
RMC .OHMM               1.56 : RESISTIVITY MUD CAKE
MCST.DEGF                 58 : MUD CAKE SAMPLE TEMPERATURE
RMB .OHMM               0.42 : RESISTIVITY MUD AT BHT
TCS .HRS                   2 : TIME CIRCULATED STOPPED
LUN .                   4508 : LOGGING UNIT NUMBER
LUL .                     RD : LOGGING UNIT LOCATION
ENGI.                   LYNN : RECORDING ENGINEER
WITN.                MERRETT : WITNESSED BY
CLNT.                A2DTECH : CLIENT CODE
ORIG.            2" 5" PRINT : ORIGIN OF DATA
UWI .       100041603305W500 : UNIQUE WELL ID
DICO. A2D Technologies, Inc. : DIGITIZING COMPANY
~Other -----------------------------------------------------
~ASCII -----------------------------------------------------
# ...
 11100.00000    9.92480    9.92480    7.68180    1.67470  597.12490   52.91030   52.91030   45.40280   45.40280  597.12490  169.46730 -166.65560  -34.21770  169.46730
 11150.00000    9.22910    9.22910    5.26440    2.04790  488.30010   48.83090   48.83090   51.73140   51.73140  488.30010  165.62420 -153.83600  -21.66500  165.62420
 11200.00000    9.21010    9.21010    6.85430    3.36020  297.60250   46.20220   46.20220   42.56130   42.56130  297.60250  108.89960 -169.54390  -37.63970  108.89960
 11250.00000    9.46410    9.46410    5.25340    1.58160  632.27310   51.87550   51.87550   36.16360   36.16360  632.27310  159.27420 -183.61330  -51.97600  159.27420
 11300.00000    9.19960    9.19960    1.73270    1.58670  630.25460   48.93170   48.93170   38.73570   38.73570  630.25460  146.95900 -231.39600 -100.02550  146.95900
 11350.00000    9.17650    9.17650    3.10340    1.83310  545.52620   51.60400   51.60400   85.99120   85.99120  545.52620  112.02180 -225.40190  -94.29830  112.02180
 11400.00000    8.69430    8.69430    4.77900    3.32720  300.55220   46.48710   46.48710   40.94440   40.94440  300.55220   86.68600 -225.08870  -94.25200   86.68600
 11450.00000    8.50880    8.50880    7.72570   11.03320   90.63580   51.46710   51.46710   36.24080   36.24080   90.63580   82.34250 -266.75710 -136.18720   82.34250
 11500.00000    9.22810    9.22810    3.31710    1.57610  634.46640   45.13700   45.13700   32.80040   32.80040  634.46640  150.56910 -223.62390  -93.32090  150.56910
 11550.00000    8.71850    8.71850    4.53070    1.59330  627.61570   46.61590   46.61590   41.19190   41.19190  627.61570  156.13910 -191.80800  -61.77180  156.13910
 11600.00000    9.13700    9.13700    5.60740    5.01530  199.39040   50.42270   50.42270   67.21620   67.21620  199.39040   98.00510 -174.59800  -44.82870   98.00510
 11650.00000    9.05840    9.05840    4.20840    4.52840  220.82760   52.54980   52.54980   69.42550   69.42550  220.82760   87.80110  -73.45990   56.04260   87.80110
 11700.00000    9.06180    9.06180    2.73520    4.50060  222.19430   54.90850   54.90850   69.12820   69.12820  222.19430   80.21310 -157.14330  -27.90770   80.21310
 11750.00000    8.93550    8.93550    3.10140    2.84340  351.69600   53.65660   53.65660   72.11290   72.11290  351.69600   96.47130 -117.78380   11.18490   96.47130
 11800.00000    8.86830    8.86830    5.30600    5.20710  192.04540   53.21520   53.21520   80.77790   80.77790  192.04540   75.13380  -99.80060   28.90130   75.13380
 11850.00000    8.86870    8.86870   13.40610   13.02250   76.79000   57.50300   57.50300   92.74720   92.74720   76.79000   49.81540 -132.86570   -4.43070   49.81540
 11900.00000    8.84060    8.84060   27.80900   27.53900   36.31220   66.70230   66.70230  108.44700  108.44700   36.31220   49.18020 -136.53490   -8.36670   49.18020
 11950.00000    9.12610    9.12610    2.39970    1.57850  633.50650   52.04540   52.04540   43.86140   43.86140  633.50650  244.98890  -73.68330   54.21800  244.98890
 12000.00000    9.10090    9.10090    2.51540    1.57770  633.85250   51.39470   51.39470   37.59570   37.59570  633.85250  191.79590 -158.16030  -30.52580  191.79590
 12050.00000    8.79450    8.79450    2.88510    1.57880  633.39940   55.48230   55.48230   36.17670   36.17670  633.39940  215.71910 -186.74080  -59.37320  215.71910
 12100.00000    9.03180    9.03180    2.94580    1.57860  633.45340   48.43900   48.43900   39.05550   39.05550  633.45340  169.97630 -223.20610  -96.10530  169.97630
 12150.00000    9.07010    9.07010    3.91580    1.58010  632.85770   45.65490   45.65490   42.12910   42.12910  632.85770  217.91690 -168.30050  -41.46660  217.91690
 12200.00000    8.52540    8.52540    2.05640    1.58380  631.39820   59.53160   59.53160   64.09510   64.09510  631.39820  222.52560 -124.45230    2.11470  222.52560
 12250.00000    8.87550    8.87550    2.68270    1.58060  632.67880   50.59660   50.59660   44.15900   44.15900  632.67880  224.21760 -143.63800  -17.33780  224.21760
 12300.00000    8.84760    8.84760    3.31330    1.57880  633.38130   49.26180   49.26180   25.70520   25.70520  633.38130  302.48010 -132.70040   -6.66710  302.48010
 12350.00000    9.70130    9.70130    2.36150    1.71290  583.81930   48.34170   48.34170   22.87110   22.87110  583.81930   20.30240  -32.01680  -17.17240   20.30240
 12400.00000    8.09960    8.09960    0.70870    1.58060  632.67550   50.13550   50.13550   44.99600   44.99600  632.67550   24.12070 -250.42360 -236.70800   24.12070
 12450.00000    9.04880    9.04880    0.78540    1.58050  632.69340   53.37490   53.37490   47.05910   47.05910  632.69340   21.32470 -123.93550 -111.34870   21.32470
 12500.00000    9.22650    9.22650    1.10200    1.57750  633.89550   53.14650   53.14650   71.72230   71.72230  633.89550   19.53750  -50.43750  -38.97950   19.53750
 12550.00000    9.03750    9.03750    0.24600    1.57640  634.37550   49.32950   49.32950   46.29550   46.29550  634.37550   18.59290 -125.89260 -115.56340   18.59290
 12600.00000    8.92560    8.92560   19.27220   19.70700   50.74330   63.40520   63.40520   86.42630   86.42630   50.74330    7.82950 -268.54490 -259.34450    7.82950
 12650.00000    9.32140    9.32140    0.51910    1.57400  635.33070   46.65220   46.65220   16.83910   16.83910  635.33070   26.37140 -101.22640  -93.15480   26.37140
 12700.00000    8.47590    8.47590    1.36960    1.57820  633.62230   46.68030   46.68030   12.76220   12.76220  633.62230   21.40830  259.12540  266.06820   21.40830
 12750.00000    9.23750    9.23750    0.49830    1.57300  635.73010   47.67340   47.67340   15.39100   15.39100  635.73010   25.39600  145.12450  150.93850   25.39600
 12800.00000    9.02830    9.02830    0.24390    1.57070  636.66800   47.25920   47.25920   22.28270   22.28270  636.66800   23.81060   63.29660   67.98180   23.81060
 12850.00000    9.44670    9.44670    0.66410    1.57260  635.87300   48.46670   48.46670   15.61920   15.61920  635.87300   20.41980  192.30760  195.86400   20.41980
 12900.00000    8.79060    8.79060    1.16750    1.57770  633.84610   46.58760   46.58760   19.13140   19.13140  633.84610   16.72810   79.99900   82.42660   16.72810
 12950.00000    8.72440    8.72440    3.45300    4.02070  248.71280   45.96490   45.96490   56.67470   56.67470  248.71280   11.23940 -140.20340 -138.90460   11.23940
 13000.00000    8.93700    8.93700   14.47850   15.55150   64.30250   56.36260   56.36260   67.62090   67.62090   64.30250    7.02430 -290.51780 -290.34780    7.02430
