~Version ---------------------------------------------------
VERS. 2.0 : CWLS log ASCII Standard -VERSION 2.0
WRAP.  NO : ONE LINE PER DEPTH STEP
~Well ------------------------------------------------------
STRT.M                               380.5 : START DEPTH
STOP.M                              2549.3 : STOP DEPTH
STEP.M                             0.20000 : STEP LENGTH
NULL.                              -999.25 : NULL VALUE
COMP.                DEVON ARL CORPORATION : COMPANY
WELL. DEVON ARL ETAL 7D GVILLEE 7-25-76-23 : WELL
FLD .                                      : FIELD
LOC .                                      : LOCATION
CTRY.                               CANADA : COUNTRY
SRVC.                         Schlumberger : SERVICE COMPANY
DATE.                          06-Mar-2003 : LOGDATE
PROV.                              Alberta : PROVINCE
UWI .                     100072507623W500 : UNIQUE WELL ID
SLAT.WGS84                        55.61368 : SURFACE LATITUDE
SLON.WGS84                       -117.4224 : SURFACE LONGITUDE
~Curve Information -----------------------------------------
DEPT    .M    0   1   0  0 : 1 MEASURED DEPTH
GRS     .GAPI 60 310 01 00 : GAMMA RAY FROM SONIC LOG
HDS     .MM   60 280 00 00 : HOLE DIAMETER FROM SONIC
DT      .US/M 60 500 00 00 : DELTA-T (INTERVAL TRANSIT TIME)
HCALS   .MM   60 280 50 00 : HRCC CALIPER CALIBRATED FROM SONIC LOG
TENS    .N    60 635 00 00 : TENSION FROM SONIC LOG
GRR     .GAPI 06 310 01 00 : GAMMA RAY FROM RESISTIVITY LOG
RXOZ    .OHMM 06 270 04 00 : INVADED FORMATION RESISTIVITY FILTERED AT 18 INCHES
TENR    .N    06 635 00 00 : TENSION FROM RESISTIVITY LOG
SPR     .MV   06 010 01 00 : SPONTANEOUS POTENTIAL FROM RESISTIVITY LOG
AHF30   .OHMM 06 120 30 00 : ARRAY INDUCTION FOUR FOOT RESISTIVITY A30
AHF20   .OHMM 06 120 20 00 : ARRAY INDUCTION FOUR FOOT RESISTIVITY A20
AHF60   .OHMM 06 120 60 00 : ARRAY INDUCTION FOUR FOOT RESISTIVITY A60
GRD     .GAPI 45 310 01 00 : GAMMA RAY FROM DENSITY LOG
NPOR_SAN.DEC  42 890 03 00 : ENHANCED THERMAL NEUTRON POROSITY (SANDSTONE)
HDD     .MM   45 280 60 00 : HOLE DIAMETER
HCALD   .MM   45 280 60 00 : HRCC CALIPER CALIBRATED FROM DENSITY LOG
DPHI_SAN.DEC  45 890 12 00 : DENSITY POROSITY (MATRIX SANDSTONE)
HDRA    .K/M3 45 356 01 00 : HRDD SPINE AND RIBS DENSITY CORRECTION
PEFZ    .B/E  45 358 01 00 : HRDD STANDARD RESOLUTION FORMATION PHOTOELECTRIC FACTOR
TEND    .N    45 635 00 00 : TENSION FROM DENSITY LOG
NPOR_LS .DEC  42 890 01 00 : NEUTRON POROSITY LIMESTONE
DPHI_LS .DEC  45 890 10 00 : DENSITY POROSITY LIMESTONE
RHOZ    .K/M3 45 350 01 00 : HRDD STANDARD RESOLUTION FORMATION DENSITY
~Params ----------------------------------------------------
PD  .                                  GL : PERMANENT DATUM
EPD .M                              551.9 : ELEVATION PERMANENT DATUM
LMF .                                  KB : LOG MEASURED FROM
DAPD.M                                4.7 : FEET ABOVE PERMANENT DATUM
DMF .                                  KB : DRILLING MEASURED FROM
EKB .M                              556.6 : KELLY BUSHING
EDF .M                              556.3 : DRILLING FLOOR
EGL .M                              551.9 : GROUND LEVEL
DATE.                            03/06/03 : RUN DATE
RUN .                                   1 : RUN NUMBER
DD  .M                               2545 : DEPTH DRILLER
DL  .M                               2544 : DEPTH LOGGER
BLI .M                             2538.3 : BOTTOM LOG INTERVAL
TLI .M                                421 : TOP LOG INTERVAL
CS  .MM                             219.1 : CASING SIZE
CBD .M                                421 : CASING BOTTOM DRILLER
CBL .M                              420.5 : CASING BOTTOM LOGGER
BS  .MM                               200 : BIT SIZE
BSD .M                               2545 : BIT SIZE AT DEPTH
DFT .                            GEL CHEM : DRILLING FLUID TYPE
DFD .                                1050 : DRILLING FLUID DENSITY
DFV .                                  83 : DRILLING FLUID VISCOSITY
DFPH.                                10.5 : DRILLING FLUID PH
DFL .                                   7 : DRILLING FLUID LOSS
MSS .                            FLOWLINE : MUD SAMPLE SOURCE
RMS .OHMM                            1.27 : RESISTIVITY MUD SAMPLE
MST .DEGC                              17 : MUD SAMPLE TEMPERATURE
RMF .OHMM                            0.98 : RESISTIVITY MUD FILTRATE SAMPLE
MFST.DEGC                              18 : MUD FILTRATE SAMPLE TEMPERATURE
RMC .OHMM                            1.55 : RESISTIVITY MUD CAKE
MCST.DEGC                              18 : MUD CAKE SAMPLE TEMPERATURE
MFSS.                            MEASURED : MUD FILTRATE SAMPLE SOURCE
MCSS.                             MEAURED : MUD CAKE SAMPLE SOURCE
RMB .OHMM                           0.566 : RESISTIVITY MUD AT BHT
TCS .HRS                              640 : TIME CIRCULATED STOPPED
TLAB.HRS                             1645 : TIME LOGGER AT BOTTOM
LUN .                                2133 : LOGGING UNIT NUMBER
LUL .                      GRANDE PRAIRIE : LOGGING UNIT LOCATION
ENGI.                            STIRLING : RECORDING ENGINEER
WITN.                              MCLEAY : WITNESSED BY
CLNT.                             A2DTECH : CLIENT CODE
ORIG. 6.5"/100M 16.5"/100M 33"/100M PRINT : ORIGIN OF DATA
UWI .                    100072507623W500 : UNIQUE WELL ID
DICO.              A2D Technologies, Inc. : DIGITIZING COMPANY
~Other -----------------------------------------------------
~ASCII -----------------------------------------------------
# ...
  986.50000  140.40050  206.74560  345.90960  218.70160 12204.22850  141.51390   20.64160 12212.78610  -24.52290   14.32880   13.46650   14.85920  141.20620    0.38170  206.90770  217.73940    0.16040   -7.76440    3.49240 12054.22170    -999.25    -999.25 2397.99780
  986.70000  148.02930  206.91180  358.08800  218.81100 12177.07620  151.24230   15.91770 12138.08110  -24.63690   13.46290   12.46910   13.67560  150.01820    0.43590  206.59680  218.24240    0.17380   -7.04370    3.34260 12223.78420    -999.25    -999.25 2372.38940
  986.90000  155.65810  206.79920  365.58920  218.75100 12090.81540  156.64800   14.34280 12133.30960  -24.60580   12.78720   11.71040   12.97990  156.08850    0.46410  206.63170  218.49460    0.18660   -7.34220    3.34790 12090.98930    -999.25    -999.25 2345.74290
  987.10000  157.73370  206.98070  366.33500  219.21170 12352.52540  157.96580   14.47900 12120.15920  -24.61980   12.60660   11.73800   12.96960  157.71430    0.45650  206.85400  218.50570    0.19520   -7.59970    3.40400 12422.46390    -999.25    -999.25 2331.80030
  987.30000  159.37180  207.36000  365.42980  219.36180 12660.18850  160.04060   15.59410 12450.41410  -24.75450   13.03910   12.33240   13.77770  159.41870    0.44610  207.52300  218.69280    0.19900   -8.64040    3.48720 12741.21680    -999.25    -999.25 2324.83670
  987.50000  161.77140  207.17670  361.36090  219.70870 12598.40430  161.75370   17.42270 12669.90330  -24.86470   13.92250   12.99410   14.74990  161.22760    0.44140  207.16910  219.10070    0.19860  -11.48760    3.55940 12491.42380    -999.25    -999.25 2320.15260
  987.70000  160.45270  206.96690  351.95640  219.93740 12508.45800  159.06290   19.17010 12611.34570  -24.93010   14.60340   13.69120   15.44910  158.73680    0.44610  206.76530  219.15160    0.18980  -10.80910    3.63390 12496.69630    -999.25    -999.25 2326.86840
  987.90000  154.62410  206.88360  344.18550  220.16560 12547.07910  152.61490   19.74200 12521.34280  -25.20690   14.93960   14.24950   15.88680  151.31620    0.43220  206.59120  219.76650    0.17930   -9.69680    3.66260 12529.02540    -999.25    -999.25 2350.59280
  988.10000  146.02790  206.89070  344.87630  220.53750 12557.60550  145.97820   21.44810 12517.25980  -25.50060   14.75030   14.06490   15.28860  146.79030    0.40540  206.66610  220.06210    0.17720   -7.05980    3.56910 12578.33300    -999.25    -999.25 2363.90480
  988.30000  145.77090  206.84930  352.85640  220.91890 12563.32810  147.11020   20.12520 12540.07710  -25.87760   13.76960   13.16610   14.14210  147.14480    0.43930  206.85650  220.36490    0.18440   -5.62080    3.46690 12608.76460    -999.25    -999.25 2350.78150
  988.50000  152.59230  206.80800  358.95470  221.22810 12563.18950  153.69930   15.53080 12654.14940  -26.17430   12.85410   12.28170   13.11860  154.07620    0.49290  206.71690  220.71590    0.18920   -7.15930    3.41450 12384.21880    -999.25    -999.25 2340.75270
  988.70000  158.59930  206.77190  358.78620  221.52930 12271.86720  160.12020   14.14700 12479.53910  -26.44340   12.47400   11.75780   12.64740  160.11210    0.46520  206.85380  221.25960    0.19100   -9.42980    3.40040 12228.70120    -999.25    -999.25 2335.95340
  988.90000  162.06620  206.78010  357.87340  221.80220 12167.58890  162.50710   14.04400 12216.58690  -26.64550   12.57760   11.92950   13.04850  162.17960    0.44850  206.66900  221.37570    0.19430   -9.53820    3.37020 12269.03220    -999.25    -999.25 2333.30030
  989.10000  163.95700  206.76020  358.24400  221.22130 12259.35250  165.33060   15.61330 12196.38870  -26.58320   13.38030   12.61870   13.96460  164.31320    0.47110  206.92480  220.95360    0.19790   -9.29960    3.34270 12309.36330    -999.25    -999.25 2326.89530
  989.30000  166.33370  206.74020  358.55550  219.81350 12354.94240  166.46560   18.76990 12367.96000  -26.49210   14.27780   13.25620   14.94500  166.25490    0.47830  206.87680  219.45420    0.19900   -9.06110    3.37030 12349.69430    -999.25    -999.25 2317.72800
  989.50000  164.27410  206.72020  352.84990  218.02380 12277.73930  162.83630   19.16660 12376.70120  -26.31330   14.98780   13.89040   15.35760  163.14520    0.48280  206.88110  217.90820    0.19080   -8.85800    3.46500 12249.56540    -999.25    -999.25 2325.82690
  989.70000  158.61060  206.70030  340.39330  216.87790 12280.96290  157.23530   19.55890 12269.19730  -26.80120   13.88200   13.47820   14.72760  157.07750    0.48410  206.60520  217.06480    0.17150   -8.66620    3.59260 12247.07520    -999.25    -999.25 2356.76200
  989.90000  152.91390  206.68030  333.62710  216.66860 12304.80080  152.14370   26.56780 12300.36040  -27.34850   11.91510   11.48110   12.42650  151.70350    0.41220  206.86730  216.99020    0.15440   -8.47430    3.63730 12245.34770    -999.25    -999.25 2387.33250
  990.10000  150.97180  206.70520  339.58940  216.61280 12425.87010  151.19950   16.25430 12384.58590  -27.95930    9.98120    9.45780   10.40790  151.29160    0.36910  207.02510  217.00960    0.15310   -8.89550    3.66160 12326.93260    -999.25    -999.25 2409.12110
  990.30000  154.88560  206.50290  356.99340  215.96430 12492.00100  156.91780    8.97240 12461.62010  -28.17030    8.36120    8.09540    8.71730  156.76780    0.43090  206.85770  216.94260    0.16800  -10.23640    3.58620 12443.30960    -999.25    -999.25 2399.47630
  990.50000  162.34890  206.06280  368.81640  216.28920 12426.45510  164.08110    8.52720 12538.13090  -27.73390    7.88100    7.69240    8.00310  163.81330    0.48280  206.20580  216.70060    0.18580  -11.57730    3.52030 12434.31150    -999.25    -999.25 2363.36740
  990.70000  166.08020  205.45300  369.68180  215.42860 12395.87110  166.81450   11.41930 12438.95310  -27.41490    8.70870    8.44240    8.98820  166.51190    0.47700  205.38460  216.16920    0.19310   -9.71890    3.48360 12335.58690    -999.25    -999.25 2335.64530
  990.90000  167.99370  204.68290  368.49440  215.21400 12538.57420  169.59890   10.53380 12446.59770  -27.33630    9.88510    9.34280   10.19460  169.36810    0.46430  204.36270  215.47950    0.19920   -7.75850    3.54380 12557.96970    -999.25    -999.25 2330.95020
  991.10000  175.85840  203.68950  367.22890  214.30030 12599.57130  177.45030   12.71120 12633.68850  -27.32750   11.19400   11.39400   11.54450  177.75550    0.45530  203.47220  214.83050    0.22230   -6.83960    3.66660 12552.54790    -999.25    -999.25 2321.25120
  991.30000  185.99230  203.56680  366.70420  213.60240 12603.58200  188.36190   19.99800 12674.41890  -26.98970   14.86740   13.89550   16.12460  188.80460    0.47890  203.47050  214.15280    0.24760   -6.85950    3.72460 12473.41990    -999.25    -999.25 2266.81200
  991.50000  194.72460  203.57680  364.89440  212.95670 12505.52830  197.06070   25.71040 12560.54300  -26.98620   21.08550   18.92960   22.66850  196.84170    0.46840  203.47230  213.47520    0.26240   -6.87940    3.83110 12371.71000    -999.25    -999.25 2221.59380
  991.70000  204.07790  203.58140  359.47050  212.35300 12507.05270  206.24850   33.12430 12475.31930  -27.15020   29.06500   26.60270   31.25650  206.49030    0.47470  203.47140  212.79170    0.26810  -11.45610    3.93430 12394.10740    -999.25    -999.25 2210.03610
  991.90000  214.29070  203.49290  350.60980  211.97820 12443.59180  216.41160   51.84040 12552.47950  -27.16180   44.23250   37.94260   48.97130  216.26350    0.49080  203.43440  211.99310    0.27430  -13.87860    4.22240 12308.43950    -999.25    -999.25 2199.92920
  992.10000  219.33120  203.40480  341.39510  210.70250 12309.72270  219.16520  124.24130 12360.75290  -27.11310   71.33670   61.27450   82.60970  219.49740    0.46170  203.37780  211.29690    0.28050  -13.11350    4.38900 12334.77440    -999.25    -999.25 2189.90380
  992.30000  215.66420  203.51660  339.23950  210.13740 12412.75000  214.82180  436.14200 12317.43750  -27.21440  137.37810  108.12880  159.07570  215.40580    0.43340  203.32120  210.60070    0.28990  -12.71260    4.49300 12337.90620    -999.25    -999.25 2178.67110
