~Version ---------------------------------------------------
VERS.      2.0 : CWLS log ASCII Standard -VERSION 2.0
WRAP.       NO : One line per depth step
CREA. 12/14/17 : LAS Creation Date
~Well ------------------------------------------------------
STRT.FT                     1150.0 : START DEPTH
STOP.FT                    10050.0 : STOP DEPTH
STEP.FT                   50.00000 : STEP LENGTH
NULL.                      -999.25 : NULL VALUE
COMP.     HOME OIL COMPANY LIMITED : COMPANY
WELL. HOME HB CHIP LAKE 8-33-55-12 : WELL
FLD .                              : FIELD
LOC .                              : LOCATION
CTRY.                       CANADA : COUNTRY
SRVC.                      Unknown : SERVICE COMPANY
DATE.                  04-Jan-1962 : LOGDATE
PROV.                      Alberta : PROVINCE
UWI .             100083305512W500 : UNIQUE WELL ID
SLAT.WGS84                53.79379 : SURFACE LATITUDE
SLON.WGS84               -115.7126 : SURFACE LONGITUDE
~Curve Information -----------------------------------------
DEPT  .FT    : Depth Curve
CALWS .IN    : CALIPER [MCALED]
CILDED.MMHO  : DEEP INDUCTION CONDUCTIVITY FROM IEL LOG [ADJ. TO ILDED]
CONDWS.MMHO  : DEEP CONDUCTIVITY [CILDED]
DRESWS.OHMM  : DEEP RESISTIVITY [1000/CILDED]
DTED  .US/F  : DELTA-T (3' SPACING & 3' PICKUP SPAN) FROM SONIC LOG [ADJ. TO IEL LOG]
DTWS  .US/F  : COMPRESSIONAL SONIC [DTED]
GRSED .GAPI  : GAMMA RAY FROM SONIC LOG [ADJ. TO IEL LOG]
GRWS  .GAPI  : GAMMA RAY [GRSED]
ILDED .OHMM  : DEEP INDUCTION RESISTIVITY FROM IEL LOG
MCALED.IN    : MICRO CALIPER FROM ML LOG
SNED  .OHMM  : 16 INCH  SHORT NORMAL FROM IEL LOG
SPRED .MV    : SPONTANEOUS POTENTIAL FROM IEL LOG
SPWS  .MV    : SPONTANEOUS POTENTIAL [BASELINE 0 MV,SPRED]
SRESWS.OHMM  : SHALLOW RESISTIVITY [SNED]
~Params ----------------------------------------------------
PD  .                    CBF : PERMANENT DATUM
EPD .FT               2849.9 : ELEVATION PERMANENT DATUM
LMF .                     KB : LOG MEASURED FROM
DAPD.FT                 13.4 : FEET ABOVE PERMANENT DATUM
EKB .FT               2863.3 : KELLY BUSHING
EGL .FT               2849.9 : GROUND LEVEL
DATE.               01/04/62 : RUN DATE
RUN .                      2 : RUN NUMBER
DD  .FT                10056 : DEPTH DRILLER
DL  .FT                10055 : DEPTH LOGGER
BLI .FT                10055 : BOTTOM LOG INTERVAL
TLI .FT                 6100 : TOP LOG INTERVAL
CBD .FT                 1152 : CASING BOTTOM DRILLER
BS  .IN                 8.75 : BIT SIZE
BSD .FT                10056 : BIT SIZE AT DEPTH
DFT .                 UNICAL : DRILLING FLUID TYPE
DFD .                    9.7 : DRILLING FLUID DENSITY
DFV .                    135 : DRILLING FLUID VISCOSITY
DFPH.                    9.0 : DRILLING FLUID PH
DFL .                    5.0 : DRILLING FLUID LOSS
RMS .OHMM                2.2 : RESISTIVITY MUD SAMPLE
MST .DEGF                 53 : MUD SAMPLE TEMPERATURE
RMF .OHMM                1.3 : RESISTIVITY MUD FILTRATE SAMPLE
MFST.DEGF                 50 : MUD FILTRATE SAMPLE TEMPERATURE
RMC .OHMM                2.7 : RESISTIVITY MUD CAKE
MCST.DEGF                 50 : MUD CAKE SAMPLE TEMPERATURE
RMB .OHMM               0.72 : RESISTIVITY MUD AT BHT
TCS .HRS                 2.5 : TIME CIRCULATED STOPPED
LUN .                   1576 : LOGGING UNIT NUMBER
LUL .                     DV : LOGGING UNIT LOCATION
ENGI.                NORQUAY : RECORDING ENGINEER
WITN.                  SCOTT : WITNESSED BY
CLNT.                A2DTECH : CLIENT CODE
ORIG.            2" 5" PRINT : ORIGIN OF DATA
UWI .       100083305512W500 : UNIQUE WELL ID
DICO. A2D Technologies, Inc. : DIGITIZING COMPANY
~Other -----------------------------------------------------
~ASCII -----------------------------------------------------
# ...
 3600.00000    9.36530   89.92280   89.92280   11.12070   85.32220   85.32220   63.65110   63.65110   11.55010    9.36530   14.90200  -36.75580   -6.26970   14.90200
 3650.00000   11.27230  159.98830  159.98830    6.25050  113.64930  113.64930   72.28680   72.28680    6.09600   11.27230    7.65950  -36.46860   -6.01150    7.65950
 3700.00000   13.14620  120.46560  120.46560    8.30110  108.96960  108.96960   86.85900   86.85900    8.14420   13.14620    9.67280  -40.83550  -10.48340    9.67280
 3750.00000   12.16950  117.47670  117.47670    8.51230  106.15050  106.15050   92.39380   92.39380    8.55890   12.16950   10.12310  -46.27050  -16.02280   10.12310
 3800.00000   13.23390  112.79830  112.79830    8.86540   95.93420   95.93420   96.97390   96.97390    8.86270   13.23390   10.30530  -48.72590  -18.58250   10.30530
 3850.00000   13.05900  103.95510  103.95510    9.61950  112.10610  112.10610   92.71330   92.71330    9.60580   13.05900   11.78230  -46.80120  -16.76280   11.78230
 3900.00000   12.90440  121.56340  121.56340    8.22620  110.29820  110.29820   85.52020   85.52020    8.29660   12.90440   10.94320  -46.11760  -16.18360   10.94320
 3950.00000   11.00050  120.25980  120.25980    8.31530  118.55160  118.55160  122.25920  122.25920    8.21890   11.00050   12.26080  -41.19900  -11.37000   12.26080
 4000.00000   10.96170   97.46260   97.46260   10.26030  124.96840  124.96840  105.29660  105.29660   10.27980   10.96170   14.20140  -40.70460  -10.97990   14.20140
 4050.00000   10.90230  116.82850  116.82850    8.55960  101.73190  101.73190  107.96650  107.96650    8.65600   10.90230   11.52430  -41.00530  -11.38500   11.52430
 4100.00000   11.51870  144.65070  144.65070    6.91320   89.98750   89.98750   89.77350   89.77350    6.91110   11.51870    8.41710  -43.47950  -13.96420    8.41710
 4150.00000   11.76020  125.40300  125.40300    7.97430   87.42590   87.42590   98.55220   98.55220    7.90770   11.76020    9.52730  -42.33160  -12.92060    9.52730
 4200.00000   11.25490  123.50780  123.50780    8.09670   96.23860   96.23860   90.50700   90.50700    8.10540   11.25490    9.76710  -43.37980  -14.07380    9.76710
 4250.00000   10.41580  117.87480  117.87480    8.48360   94.74320   94.74320   98.59430   98.59430    8.43770   10.41580   10.41880  -44.22930  -15.02770   10.41880
 4300.00000   10.01710  136.38890  136.38890    7.33200   92.75700   92.75700   98.35350   98.35350    7.15650   10.01710    9.05410  -43.95570  -14.85840    9.05410
 4350.00000   10.53260  139.51720  139.51720    7.16760   89.55620   89.55620   95.80200   95.80200    7.13090   10.53260    8.83870  -43.77630  -14.78400    8.83870
 4400.00000   10.82120  131.91230  131.91230    7.58080   84.20040   84.20040   96.07240   96.07240    7.76080   10.82120    9.68520  -43.02600  -14.13810    9.68520
 4450.00000   12.83260  115.21320  115.21320    8.67960   93.95510   93.95510  101.92290  101.92290    8.64780   12.83260   10.30830  -42.47680  -13.69390   10.30830
 4500.00000   11.88620   94.15370   94.15370   10.62090   81.82900   81.82900   82.42870   82.42870   10.63050   11.88620   12.76430  -41.16950  -12.49090   12.76430
 4550.00000   11.58590  103.99400  103.99400    9.61590  119.96090  119.96090   81.35830   81.35830    9.70570   11.58590   12.54130  -40.55650  -11.98230   12.54130
 4600.00000   11.89860   94.88300   94.88300   10.53930   88.25670   88.25670  101.01150  101.01150   10.71990   11.89860   12.75780  -42.91580  -14.44660   12.75780
 4650.00000   11.95610   95.86930   95.86930   10.43090   81.08820   81.08820   92.85210   92.85210   10.64830   11.95610   12.34260  -46.89330  -18.52840   12.34260
 4700.00000   10.74610  116.80930  116.80930    8.56100   84.99840   84.99840   99.41820   99.41820    8.39920   10.74610   10.53530  -46.45770  -18.19790   10.53530
 4750.00000   10.69930  140.30020  140.30020    7.12760   92.48290   92.48290  103.60190  103.60190    7.15590   10.69930    9.53160  -42.70350  -14.54800    9.53160
 4800.00000   10.64520  103.94090  103.94090    9.62090  102.83840  102.83840  102.63600  102.63600    9.76350   10.64520   13.49190  -41.08850  -13.03730   13.49190
 4850.00000   10.88260  113.11400  113.11400    8.84060   90.26680   90.26680   99.80520   99.80520    8.95820   10.88260   12.29210  -44.02040  -16.07430   12.29210
 4900.00000    9.32840   92.83030   92.83030   10.77230  103.86930  103.86930  112.32880  112.32880   10.80360    9.32840   15.81390  -44.65710  -16.81530   15.81390
 4950.00000    9.22400   64.04980   64.04980   15.61290   81.07630   81.07630   96.84450   96.84450   17.18010    9.22400   27.41010  -43.18580  -15.44900   27.41010
 5000.00000   10.48840  119.98370  119.98370    8.33450   93.24480   93.24480  101.91580  101.91580    8.41130   10.48840   12.98800  -43.62310  -15.99070   12.98800
 5050.00000    9.14330   70.28850   70.28850   14.22710   85.38590   85.38590  129.06820  129.06820   14.43490    9.14330   20.33310  -42.71580  -15.18770   20.33310
 5100.00000    9.28720   81.17510   81.17510   12.31900   75.61650   75.61650   88.28120   88.28120   12.70560    9.28720   15.71030  -46.60160  -19.17850   15.71030
 5150.00000   10.52350  118.85930  118.85930    8.41330   85.51470   85.51470   87.21370   87.21370    8.24340   10.52350   10.69620  -47.70930  -20.39060   10.69620
 5200.00000   13.44180  157.47850  157.47850    6.35010   95.22670   95.22670  103.35230  103.35230    6.31360   13.44180    8.54470  -46.91470  -19.70100    8.54470
 5250.00000   12.53410  130.15750  130.15750    7.68300   92.31410   92.31410   93.53290   93.53290    7.77880   12.53410   10.48220  -46.23780  -19.12840   10.48220
 5300.00000   12.70670  152.86490  152.86490    6.54170  109.37850  109.37850  109.03590  109.03590    6.46220   12.70670    8.79430  -44.01490  -17.00990    8.79430
 5350.00000   11.55140  214.47410  214.47410    4.66260  118.12480  118.12480  127.73950  127.73950    4.33590   11.55140    6.26660  -42.61960  -15.71960    6.26660
 5400.00000   12.59620  297.44720  297.44720    3.36190   99.35320   99.35320  107.69750  107.69750    3.00340   12.59620    4.19310  -46.12940  -19.33370    4.19310
 5450.00000   11.73110  240.41950  240.41950    4.15940  107.21800  107.21800   96.15230   96.15230    3.78820   11.73110    5.25480  -43.81230  -17.12160    5.25480
 5500.00000    8.61350   84.31690   84.31690   11.86000   77.11820   77.11820   42.94180   42.94180   12.12660    8.61350   29.08280 -107.72460  -81.13830   29.08280
 5550.00000    9.49420   60.59070   60.59070   16.50420   71.82340   71.82340   76.81050   76.81050   17.15100    9.49420   21.96420  -44.02890  -17.54690   21.96420
 5600.00000   10.61340  417.40870  417.40870    2.39570  115.23600  115.23600   98.51140   98.51140    1.97560   10.61340    3.36320  -46.51910  -20.14210    3.36320
 5650.00000    9.63600   84.68380   84.68380   11.80860   77.64720   77.64720   86.10910   86.10910   12.01020    9.63600   17.63250  -43.97950  -17.70690   17.63250
 5700.00000    9.53610   85.49430   85.49430   11.69670   75.53780   75.53780   83.61800   83.61800   11.69040    9.53610   15.03940  -41.98400  -15.81640   15.03940
 5750.00000    9.42300   61.19330   61.19330   16.34170   76.75970   76.75970   67.11360   67.11360   16.71150    9.42300   22.34900  -49.89330  -23.83000   22.34900
 5800.00000   13.49880   74.37850   74.37850   13.44470   79.16530   79.16530   88.25340   88.25340   14.07650   13.49880   25.11920  -35.23110   -9.39550   25.11920
 5850.00000    9.66700   98.87500   98.87500   10.11380   73.58200   73.58200   71.77060   71.77060   10.46710    9.66700   14.87700  -45.76650  -20.51980   14.87700
 5900.00000    9.83550   80.80240   80.80240   12.37590   69.54370   69.54370   82.09290   82.09290   13.07150    9.83550   22.14530  -36.59610  -11.93440   22.14530
 5950.00000   10.57870   49.92810   49.92810   20.02880   98.60410   98.60410   55.49220   55.49220   21.44910   10.57870   27.56870  -35.07250  -10.99970   27.56870
 6000.00000    9.60680   59.61750   59.61750   16.77360   68.30620   68.30620   68.22330   68.22330   17.55290    9.60680   20.91440  -39.75280  -16.26510   20.91440
