~Version ---------------------------------------------------
VERS.      2.0 : CWLS log ASCII Standard -VERSION 2.0
WRAP.       NO : One line per depth step
CREA. 11/22/17 : LAS Creation Date
~Well ------------------------------------------------------
STRT.FT                         900.0 : START DEPTH
STOP.FT                        8350.0 : STOP DEPTH
STEP.FT                      50.00000 : STEP LENGTH
NULL.                         -999.25 : NULL VALUE
COMP.         QUINTANA EXPLORATION CO : COMPANY
WELL. QUINTANA ET AL SNIPE 6-23-72-18 : WELL
FLD .                                 : FIELD
LOC .                                 : LOCATION
CTRY.                          CANADA : COUNTRY
SRVC.          Schlumberger of Canada : SERVICE COMPANY
DATE.                     22-Mar-1977 : LOGDATE
PROV.                         Alberta : PROVINCE
UWI .                100062307218W500 : UNIQUE WELL ID
SLAT.WGS84                   55.24794 : SURFACE LATITUDE
SLON.WGS84                  -116.6597 : SURFACE LONGITUDE
~Curve Information -----------------------------------------
DEPT    .FT    : Depth Curve
CALDED  .IN    : CALIPER FROM DENSITY LOG
CALSED  .IN    : CALIPER FROM SONIC LOG
CALWS   .IN    : CALIPER [CALSED]
CONDWS  .MMHO  : CONDUCTIVITY [1000/DRESWS]
DCORWS  .G/C3  : DENSITY CORRECTION [DRHOED]
DENWS   .G/C3  : FORMATION BULK DENSITY [CALC FROM DPOLSWS, M=2.71, F=1.00]
DPHILSED.V/V   : DENSITY POROSITY LIMESTONE [M=2.71, F=1.00] FROM DENSITY LOG
DPHISSED.V/V   : DENSITY POROSITY SANDSTONE [M=2.65, F=1.00] FROM DENSITY LOG
DPOLSWS .V/V   : DENSITY POROSITY LIMESTONE [DPHISSED CONVERTED TO LS, SPL TO DPHILSED @1274M & SPL TO CALC FROM RHOBED, SEE the Other Information]
DRESWS  .OHMM  : DEEP RESISTIVITY [ILDED]
DRHOED  .G/C3  : DENSITY CORRECTION FROM DENSITY LOG
DTED    .US/F  : DELTA TIME FROM SONIC LOG
DTWS    .US/F  : COMPRESSIONAL SONIC [DTED]
GRDED   .GAPI  : GAMMA RAY FROM DENSITY LOG
GRSED   .GAPI  : GAMMA RAY FROM SONIC LOG
GRWS    .GAPI  : GAMMA RAY [GRSED SPL. TO GRDED @ 964'-8333']
ILDED   .OHMM  : DEEP INDUCTION FROM RESISTIVITY LOG
ILMED   .OHMM  : MEDIUM INDUCTION FROM RESISTIVITY LOG
LL8ED   .OHMM  : 8 INCH LATEROLOG RESISTIVITY FROM RESISTIVITY LOG
MRESWS  .OHMM  : MEDIUM RESISTIVITY [ILMED]
NPHILSED.V/V   : NEUTRON POROSITY LIMESTONE FROM DENSITY LOG
NPHISSED.V/V   : NEUTRON POROSITY SANDSTONE FROM DENSITY LOG
NPOLSWS .V/V   : NEUTRON POROSITY LIMESTONE [NPHISSED MATRIX CONVERSION FOR LIMESTONE & SPL. TO NPHILSED @ 4200']
RHOBED  .G/C3  : BULK DENSITY FROM DENSITY LOG
SPRED   .MV    : SPONTANEOUS POTENTIAL FROM RESISTIVITY LOG
SPWS    .MV    : SPONTANEOUS POTENTIAL [BASELINE 0 MV, SPRED]
SRESWS  .OHMM  : SHALLOW RESISTIVITY [LL8ED]
~Params ----------------------------------------------------
PD  .                     GL : PERMANENT DATUM
EPD .FT                 2330 : ELEVATION PERMANENT DATUM
LMF .                     KB : LOG MEASURED FROM
DAPD.FT                    7 : FEET ABOVE PERMANENT DATUM
EKB .FT                 2347 : KELLY BUSHING
EGL .FT                 2330 : GROUND LEVEL
DATE.               03/22/77 : RUN DATE
RUN .                      1 : RUN NUMBER
DD  .FT                 8390 : DEPTH DRILLER
DL  .FT                 8389 : DEPTH LOGGER
BLI .FT                 8383 : BOTTOM LOG INTERVAL
TLI .FT                  615 : TOP LOG INTERVAL
CBD .FT                  918 : CASING BOTTOM DRILLER
CBL .FT                  916 : CASING BOTTOM LOGGER
BS  .IN                 8.75 : BIT SIZE
BSD .FT                 8390 : BIT SIZE AT DEPTH
DFT .               GEL CHEM : DRILLING FLUID TYPE
DFD .                    9.3 : DRILLING FLUID DENSITY
DFV .                     76 : DRILLING FLUID VISCOSITY
DFPH.                    9.0 : DRILLING FLUID PH
DFL .                    6.0 : DRILLING FLUID LOSS
MSS .               FLOWLINE : MUD SAMPLE SOURCE
RMS .OHMM               3.18 : RESISTIVITY MUD SAMPLE
MST .DEGF                 68 : MUD SAMPLE TEMPERATURE
RMF .OHMM               2.96 : RESISTIVITY MUD FILTRATE SAMPLE
MFST.DEGF                 70 : MUD FILTRATE SAMPLE TEMPERATURE
RMB .OHMM               1.48 : RESISTIVITY MUD AT BHT
TCS .HRS                 1.5 : TIME CIRCULATED STOPPED
LUN .                   7802 : LOGGING UNIT NUMBER
LUL .                    EDM : LOGGING UNIT LOCATION
ENGI.              CERANTOLA : RECORDING ENGINEER
WITN.                  SKOKO : WITNESSED BY
CLNT.                A2DTECH : CLIENT CODE
ORIG.            2" 5" PRINT : ORIGIN OF DATA
UWI .       100062307218W500 : UNIQUE WELL ID
DICO. A2D Technologies, Inc. : DIGITIZING COMPANY
~Other -----------------------------------------------------
DPOLSWS.(@5685'-5705',7139'-7303', 7342'-7345',7375'-7378',7539'-7552' & 7884'-7890']
DIL-CNFD-BCS LOG RUN
RHOB & DRHO HAVE BEEN VERIFIED FROM 2" SECTION
NEUTRON CONVERSION [CNL (NPHI)] USING SCHLUMBERGER CHART
~ASCII -----------------------------------------------------
# ...
 7400.00000   13.31480   11.99370   11.99370  169.92640    0.15340    2.28250    0.25000    -999.25    0.25000    5.88490    0.15340   65.71380   65.71380  123.53770  116.46150  123.53770    5.88490    6.00360    7.22500    6.00360    0.30630    -999.25    0.30630    2.28250  -60.31280  -14.01900    7.22500
 7450.00000   11.64280   10.58000   10.58000  130.09150    0.24990    2.32410    0.22560    -999.25    0.22560    7.68690    0.24990   70.04900   70.04900   97.04340   82.16070   97.04340    7.68690    7.33650    9.61480    7.33650    0.19310    -999.25    0.19310    2.32410  -58.92780  -12.01550    9.61480
 7500.00000    9.78770    9.64730    9.64730   95.47180    0.08090    2.70080    0.00540    -999.25    0.00540   10.47430    0.08090   65.87510   65.87510  103.50260   80.21830  103.50260   10.47430   11.53170   17.42500   11.53170    0.12780    -999.25    0.12780    2.70080  -45.95220   -0.95940   17.42500
 7550.00000   13.50220   11.52420   11.52420  161.83590    0.21210    2.30090    0.23050    -999.25    0.23920    6.17910    0.21210   71.86320   71.86320  109.46530   89.16000  109.46530    6.17910    6.47840    9.08490    6.47840    0.24760    -999.25    0.24760    2.31580  -64.85070  -21.77740    9.08490
 7600.00000   12.27570   10.38110   10.38110  157.51750    0.25170    2.16720    0.31740    -999.25    0.31740    6.34850    0.25170   77.17320   77.17320  128.84850  109.26590  128.84850    6.34850    6.00780    9.55810    6.00780    0.26520    -999.25    0.26520    2.16720  -78.52920  -37.37540    9.55810
 7650.00000   11.64030   10.65200   10.65200  148.91810    0.25480    2.37020    0.19870    -999.25    0.19870    6.71510    0.25480   75.43650   75.43650  110.01330   97.32620  110.01330    6.71510    6.31860    9.43130    6.31860    0.26050    -999.25    0.26050    2.37020  -76.05730  -36.82300    9.43130
 7700.00000   12.52130   10.11900   10.11900  166.33400    0.24030    2.16090    0.32110    -999.25    0.32110    6.01200    0.24030   75.20510   75.20510  119.58230  106.69240  119.58230    6.01200    6.54770    8.50780    6.54770    0.26500    -999.25    0.26500    2.16090  -68.77240  -31.45760    8.50780
 7750.00000   15.38680   12.47570   12.47570  190.07430    0.23980    2.06480    0.37730    -999.25    0.37730    5.26110    0.23980   74.42250   74.42250  110.82430   93.68340  110.82430    5.26110    5.86200    9.09900    5.86200    0.26890    -999.25    0.26890    2.06480  -67.04770  -31.65240    9.09900
 7800.00000   14.26440   12.43910   12.43910  204.87190    0.25210    2.02840    0.39860    -999.25    0.39860    4.88110    0.25210   77.04720   77.04720  137.84490  108.57130  137.84490    4.88110    4.98150    7.37850    4.98150    0.30680    -999.25    0.30680    2.02840  -81.21500  -47.73920    7.37850
 7850.00000   10.00480    9.58770    9.58770  177.45280    0.22050    2.19530    0.30100    -999.25    0.30100    5.63530    0.22050  100.99860  100.99860  211.21470  205.08290  211.21470    5.63530    6.55650   11.63960    6.55650    0.35080    -999.25    0.35080    2.19530  -72.73870  -40.46890   11.63960
 7900.00000   10.47360   10.74560   10.74560  123.82370    0.16700    2.12520    0.34200    -999.25    0.34200    8.07600    0.16700   92.24000   92.24000  174.03530  154.75610  174.03530    8.07600    7.78480   13.05700    7.78480    0.28350    -999.25    0.28350    2.12520  -65.73510  -35.09810   13.05700
 7950.00000   10.02330   10.05530   10.05530   55.41520    0.18710    2.66180    0.02820    -999.25    0.02820   18.04560    0.18710   61.19780   61.19780   62.58400   54.45520   62.58400   18.04560   19.66400   22.29060   19.66400    0.10050    -999.25    0.10050    2.66180  -60.01530  -31.01110   22.29060
 8000.00000   10.00420    9.97690    9.97690   69.24680    0.02370    2.69360    0.00960    -999.25    0.00960   14.44110    0.02370   60.37760   60.37760   62.93730   52.67150   62.93730   14.44110   16.03420   20.24940   16.03420    0.06800    -999.25    0.06800    2.69360  -44.95060  -17.57910   20.24940
 8050.00000    9.88610    9.76560    9.76560   38.25100    0.03650    2.71410   -0.00240    -999.25   -0.00240   26.14310    0.03650   55.67570   55.67570   55.48310   47.31240   55.48310   26.14310   30.62390   47.15640   30.62390    0.02510    -999.25    0.02510    2.71410  -53.81720  -28.07850   47.15640
 8100.00000    9.55490    9.51600    9.51600   35.80690    0.03550    2.67490    0.02050    -999.25    0.02050   27.92760    0.03550   57.13260   57.13260   50.62370   46.28280   50.62370   27.92760   33.64520   42.28560   33.64520    0.04530    -999.25    0.04530    2.67490  -48.80810  -24.70220   42.28560
 8150.00000    9.22320    9.30110    9.30110   83.91510    0.06400    2.74170   -0.01860    -999.25   -0.01860   11.91680    0.06400   64.96820   64.96820  112.36440   91.84790  112.36440   11.91680   13.25880   17.16050   13.25880    0.11250    -999.25    0.11250    2.74170  -43.00150  -20.52830   17.16050
 8200.00000    9.17790    9.20620    9.20620   92.26280    0.02010    2.67440    0.02080    -999.25    0.02080   10.83860    0.02010   66.58590   66.58590  122.30690   91.57240  122.30690   10.83860   12.36360   16.99480   12.36360    0.13840    -999.25    0.13840    2.67440  -41.59610  -20.75570   16.99480
 8250.00000    8.99160    8.99160    8.99160   13.39810   -0.00670    2.65150    0.03420    -999.25    0.03420   74.63740   -0.00670   53.92170   53.92170   34.38650   30.96280   34.38650   74.63740  116.51720  321.96180  116.51720    0.02190    -999.25    0.02190    2.65150  -46.35390  -27.10660  321.96180
 8300.00000    8.96990    9.03960    9.03960  550.96420    0.05850    2.45350    0.15000    -999.25    0.15000    1.81500    0.05850   71.65640   71.65640  237.53620  195.56830  237.53620    1.81500    2.01680    7.00480    2.01680    0.13640    -999.25    0.13640    2.45350 -104.97690  -79.22230    7.00480
 8350.00000    9.18780    9.15370    9.15370  285.20910    0.07210    2.59020    0.07010    -999.25    0.07010    3.50620    0.07210   79.67270   79.67270  240.81880  196.54540  196.54540    3.50620    3.83040    5.17610    3.83040    0.20840    -999.25    0.20840    2.59020  -44.07380  -11.54640    5.17610
