~Version ---------------------------------------------------
VERS.      2.0 : CWLS log ASCII Standard -VERSION 2.0
WRAP.       NO : One line per depth step
CREA. 08/27/14 : LAS Creation Date
~Well ------------------------------------------------------
STRT.FT                          1000.0 : START DEPTH
STOP.FT                          9700.0 : STOP DEPTH
STEP.FT                        50.00000 : STEP LENGTH
NULL.                           -999.25 : NULL VALUE
COMP.                      GUYER OIL CO : COMPANY
WELL. GUYER ET AL SAKWATAMAU 2-15-63-15 : WELL
FLD .                                WC : FIELD
LOC .                                   : LOCATION
CTRY.                            CANADA : COUNTRY
SRVC.                      Schlumberger : SERVICE COMPANY
DATE.                       13-Nov-1969 : LOGDATE
PROV.                           Alberta : PROVINCE
UWI .                  100021506315W500 : UNIQUE WELL ID
SLAT.WGS84                     54.44702 : SURFACE LATITUDE
SLON.WGS84                     -116.175 : SURFACE LONGITUDE
~Curve Information -----------------------------------------
DEPT   .FT    : Depth Curve
CALN   .IN    : CALIPER FROM SNP LOG
CALS   .IN    : CALIPER FROM SONIC LOG
DT     .US/F  : DELTA TIME FROM SONIC LOG
GRS    .GAPI  : GAMMA RAY FROM SONIC LOG
ILD    .OHMM  : DEEP INDUCTION RESISTIVITY FROM RESISTIVITY LOG
ILM    .OHMM  : MEDIUM INDUCTION RESISTIVITY FROM RESISTIVITY LOG
LL8    .OHMM  : LATEROLOG-8 RESISTIVITY FROM RESISTIVITY LOG
SNP_LS .DEC   : SIDEWALL NEUTRON POROSITY LIMESTONE FROM SNP LOG
SPHI_LS.DEC   : SONIC POROSITY LIMESTONE [DTM=47.6, DTF=189] FROM SONIC LOG
SPHI_SS.DEC   : SONIC POROSITY SANDSTONE [DTM=55.6, DTF=189] FROM SONIC LOG
SPR    .MV    : SPONTANEOUS POTENTIAL FROM RESISTIVITY LOG
~Params ----------------------------------------------------
PD  .                     GL : PERMANENT DATUM
EPD .FT                 3072 : ELEVATION PERMANENT DATUM
LMF .                     KB : LOG MEASURED FROM
DAPD.FT                   13 : FEET ABOVE PERMANENT DATUM
EKB .FT                 3085 : KELLY BUSHING
EGL .FT                 3072 : GROUND LEVEL
DATE.               11/13/69 : RUN DATE
RUN .                      1 : RUN NUMBER
DD  .FT                 9704 : DEPTH DRILLER
DL  .FT                 9705 : DEPTH LOGGER
BLI .FT                 9701 : BOTTOM LOG INTERVAL
TLI .FT                 1005 : TOP LOG INTERVAL
CBD .FT                 1005 : CASING BOTTOM DRILLER
CBL .FT                 1005 : CASING BOTTOM LOGGER
BS  .IN                7.875 : BIT SIZE
BSD .FT                 9704 : BIT SIZE AT DEPTH
DFT .                    GEL : DRILLING FLUID TYPE
DFD .                    9.1 : DRILLING FLUID DENSITY
DFV .                     70 : DRILLING FLUID VISCOSITY
DFPH.                    8.5 : DRILLING FLUID PH
DFL .                      9 : DRILLING FLUID LOSS
MSS .                DRILLER : MUD SAMPLE SOURCE
RMS .OHMM               2.61 : RESISTIVITY MUD SAMPLE
MST .DEGF                 74 : MUD SAMPLE TEMPERATURE
RMF .OHMM               2.12 : RESISTIVITY MUD FILTRATE SAMPLE
MFST.DEGF                 75 : MUD FILTRATE SAMPLE TEMPERATURE
RMC .OHMM               2.91 : RESISTIVITY MUD CAKE
MCST.DEGF                 75 : MUD CAKE SAMPLE TEMPERATURE
TCS .HRS                   6 : TIME CIRCULATED STOPPED
LUN .                   7501 : LOGGING UNIT NUMBER
LUL .                    EDM : LOGGING UNIT LOCATION
ENGI.                 EDGSON : RECORDING ENGINEER
WITN.              ZASEYBIDA : WITNESSED BY
CLNT.                A2DTECH : CLIENT CODE
ORIG.            2" 5" PRINT : ORIGIN OF DATA
UWI .       100021506315W500 : UNIQUE WELL ID
DICO. A2D Technologies, Inc. : DIGITIZING COMPANY
~Other -----------------------------------------------------
~ASCII -----------------------------------------------------
# ...
 4050.00000    -999.25   10.50480  100.35470   95.53160    5.93640    5.71290    6.84810    -999.25    -999.25    -999.25  -58.00120
 4100.00000    -999.25   10.91830  100.22070  103.57230    7.24960    6.97620    8.59860    -999.25    -999.25    -999.25  -54.35220
 4150.00000    -999.25   10.38890  100.67870  103.85100    7.16640    6.83410    8.93610    -999.25    -999.25    -999.25  -54.13300
 4200.00000    -999.25    8.98880   94.47940  131.29410    9.19830   10.00950   12.73690    -999.25    -999.25    -999.25  -54.19660
 4250.00000    -999.25    8.89080   98.58830  116.94320    9.38030    9.07040   12.14950    -999.25    -999.25    -999.25  -52.06250
 4300.00000    -999.25   11.13400   99.20210  100.66420    5.78290    5.37680    7.01110    -999.25    -999.25    -999.25  -47.22630
 4350.00000    -999.25   10.64560   85.72520   74.49280    6.84740    6.44120    7.15330    -999.25    -999.25    -999.25  -50.68080
 4400.00000    -999.25   10.65080   94.44770   89.44670    4.46750    4.20420    5.19220    -999.25    -999.25    -999.25  -46.19910
 4450.00000    -999.25   10.85400   91.79880   87.68020    4.91920    4.76550    5.42240    -999.25    -999.25    -999.25  -46.62580
 4500.00000    -999.25   10.81230   86.05440   82.07250    6.87330    6.63890    7.34020    -999.25    -999.25    0.22550  -47.14510
 4550.00000    -999.25   10.74840   87.70640   88.17290    4.98010    4.84300    5.61730    -999.25    -999.25    0.24070  -44.59090
 4600.00000    -999.25   12.50660   96.09960   78.74320    4.05440    3.78540    4.71060    -999.25    -999.25    -999.25  -44.18110
 4650.00000    -999.25   11.32130   91.30360   96.73740    5.80980    5.55250    6.49840    -999.25    -999.25    0.26890  -43.20510
 4700.00000    -999.25   10.03240   99.14620  199.80240    3.76620    3.67370    4.90930    -999.25    -999.25    -999.25  -42.76770
 4750.00000    -999.25   12.02160  103.61380   84.28310    2.90130    3.04440    3.25870    -999.25    -999.25    -999.25  -46.24720
 4800.00000    -999.25   11.66400   91.34330   80.42870    3.82580    3.99900    4.15350    -999.25    -999.25    0.26840  -49.89370
 4850.00000    -999.25   10.32580   78.69190   92.72340    7.94620    8.58400   14.93650    -999.25    -999.25    0.16560  -49.71220
 4900.00000    -999.25   10.79520   77.41760   42.83170    9.69190   10.84340   11.61560    -999.25    -999.25    0.16150  -67.27630
 4950.00000    -999.25   11.02720   78.52880   50.55150   10.37240   11.34550   12.87480    -999.25    -999.25    0.16830  -66.72290
 5000.00000    -999.25   11.06630   80.93810   53.71620    9.95700   10.35680   10.86510    -999.25    -999.25    0.19020  -55.95520
 5050.00000    -999.25   14.72980  116.49140   64.68510    6.35230    6.00640    6.04580    -999.25    -999.25    0.29950  -41.03270
 5100.00000    -999.25   11.27190   77.81160   67.04500    5.48350    5.76710    5.94750    -999.25    -999.25    0.16630  -43.36070
 5150.00000    -999.25   11.44560   79.57400   56.59850    5.70380    6.15710    6.34610    -999.25    -999.25    0.17590  -46.87550
 5200.00000    -999.25   12.29340  122.46970   21.90680   13.34410   14.63970   19.58470    -999.25    -999.25    -999.25  -61.19830
 5250.00000    -999.25   11.09900   73.54670   56.05350   10.18320   10.80900   11.03800    -999.25    -999.25    0.13120  -62.28800
 5300.00000    -999.25   11.52280   80.37080   48.44280    8.51260    9.09140    9.80790    -999.25    -999.25    0.18580  -56.63330
 5350.00000    -999.25   10.89550   74.31230   54.96380    7.79360   10.01440   14.89240    -999.25    -999.25    0.13890  -77.45490
 5400.00000    -999.25   10.88260   82.28870   68.34660    8.40300    9.07890   10.35230    -999.25    -999.25    0.19710  -47.86280
 5450.00000    -999.25   11.12510   78.75150   55.86520    7.26300    7.84240   10.43600    -999.25    -999.25    0.17370  -57.82010
 5500.00000    -999.25   10.28360   76.63250   68.20470    8.33830    8.68640    8.97950    -999.25    -999.25    0.15470  -38.69800
 5550.00000    -999.25   11.99230   87.87660   58.65590    5.56310    5.93290    5.09670    -999.25    -999.25    0.24190  -32.62690
 5600.00000    -999.25   10.88330   79.75140   69.01570    8.34400    8.79320    9.45000    -999.25    -999.25    0.18130  -31.15330
 5650.00000   13.49200   11.83600   94.77650   85.91210    8.32160    8.72790    9.10080    0.45840    -999.25    0.29370  -32.09510
 5700.00000    9.80020    9.82550   72.75900   74.45540   10.14210   12.03800   18.82530    0.13070    -999.25    0.13350  -47.68540
 5750.00000   10.37840   10.32400   76.17400   25.24090    7.17270    8.47230   17.54130    0.11050    -999.25    0.15150  -80.33300
 5800.00000   14.08560   12.31900   82.89210   72.42050    5.52940    5.83110    6.55420    0.36730    -999.25    0.20620  -24.30460
 5850.00000   10.16230    9.84040   77.00660   78.26790   12.28270   12.62850   15.22180    0.15660    -999.25    0.15840  -22.35640
 5900.00000    -999.25   14.49250  103.08570   71.92120    5.13110    5.35100    7.17520    0.43610    -999.25    0.29940  -20.94210
 5950.00000    8.67840    8.61770   59.24830   38.82820  446.20920  390.24700  294.47440    0.05100    0.08040    -999.25  -41.36520
 6000.00000    8.30030    8.26850   66.56930   61.28480    7.66580   10.11820   26.14800    0.10240    0.12940    -999.25 -135.68750
 6050.00000   10.47380   10.21700   65.27290   38.12160    5.36740    5.77980    5.90010    0.12470    0.10400    -999.25  -64.06960
 6100.00000    9.62870    9.62610   57.19400   36.01300    9.07790   12.61900   21.53740    0.04870    0.06540    -999.25  -73.21710
 6150.00000    9.84920   10.08530   51.28590   29.16290   95.01290  113.37630  145.97270    0.01010    0.02470    -999.25  -43.92640
 6200.00000    9.41010    9.40380   49.34210   13.43590  131.24180  298.48870  516.43400    0.00930    0.01160    -999.25 -121.37020
 6250.00000   10.36480    9.93000   49.32490   12.60720   31.05980   52.81910  191.95080    0.03860    0.01220    -999.25 -172.17790
 6300.00000    9.96190    9.34950   55.85660   13.24610   27.93600   48.26920  220.15700    0.05380    0.05520    -999.25 -178.96490
 6350.00000   10.46860   10.44030   65.64540   57.45650    3.30400    3.50990    3.91100    0.09080    0.12560    -999.25  -58.27440
 6400.00000   10.19760   10.49080   66.51700   50.12330    3.82560    4.12620    7.17540    0.10280    0.13080    -999.25  -71.21670
 6450.00000    9.99000    9.83830   53.73170   24.97270   41.94150   43.68570   46.03910    0.01530    0.04250    -999.25  -35.57870
 6500.00000    -999.25    9.18140   53.92210   20.96700   46.46090   55.22500   64.48990    -999.25    0.04510    -999.25  -72.14390
 6550.00000    -999.25    9.27330   52.41000   27.80340  768.24870  318.88160  411.59850    -999.25    0.03070    -999.25  -32.69060
 6600.00000    -999.25    8.62040   53.04830   22.14890  823.06410  474.82120  394.77290    -999.25    0.03350    -999.25  -32.01440
 6650.00000    -999.25    8.98220   52.25140   14.60310 1536.13290  710.14290  450.05590    -999.25    0.02800    -999.25  -70.98000
 6700.00000    -999.25    8.61180   50.99240   18.61600 1566.15750  798.33150  695.20670    -999.25    0.02240    -999.25  -48.70860
 6750.00000    -999.25    8.62650   50.33290   17.01170 1584.94560 1050.89540  613.69510    -999.25    0.01840    -999.25  -60.24560
 6800.00000    -999.25    8.57120   53.21980   26.44290  203.48760  194.54140  183.66660    -999.25    0.03770    -999.25  -39.22570
 6850.00000    -999.25    8.92600   54.40190   41.33340  129.39510  120.16950  112.37570    -999.25    0.04750    -999.25  -27.77570
 6900.00000    9.37020    9.78130   50.56440   17.16050  451.50920  535.96970  773.37490    0.01580    0.01900    -999.25  -17.99490
 6950.00000    8.67050    8.77440   92.16950    -999.25   82.35790  100.74940  742.58980    0.21120    0.29970    -999.25  -18.51480
 7000.00000   10.24020    9.85340   52.25300   13.09660  512.04720  239.55960  308.20460    0.00190    0.03180    -999.25  -86.47230
 7050.00000   10.70740   10.21000   49.40370   15.73360    -999.25 1388.58020 1389.11780   -0.00460    0.01120    -999.25  -59.00820
