~Version ---------------------------------------------------
VERS.      2.0 : CWLS log ASCII Standard -VERSION 2.0
WRAP.       NO : One line per depth step
CREA. 10/26/17 : LAS Creation Date
~Well ------------------------------------------------------
STRT.FT                          1100.0 : START DEPTH
STOP.FT                         10150.0 : STOP DEPTH
STEP.FT                        50.00000 : STEP LENGTH
NULL.                           -999.25 : NULL VALUE
COMP.              CHEVRON STANDARD LTD : COMPANY
WELL. CHEVRON GULF FOX CREEK 7-14-62-18 : WELL
FLD .                         FOX CREEK : FIELD
LOC .                                   : LOCATION
CTRY.                            CANADA : COUNTRY
SRVC.                      Schlumberger : SERVICE COMPANY
DATE.                       09-Dec-1976 : LOGDATE
PROV.                           Alberta : PROVINCE
UWI .                  100071406218W500 : UNIQUE WELL ID
SLAT.WGS84                     54.36034 : SURFACE LATITUDE
SLON.WGS84                    -116.5836 : SURFACE LONGITUDE
~Curve Information -----------------------------------------
DEPT    .FT    : Depth Curve
CALDED  .IN    : CALIPER FROM DENSITY LOG [ADJ. TO RESISTIVITY LOG]
CALSED  .IN    : CALIPER FROM SONIC LOG [ADJ. TO RESISTIVITY LOG]
CALWS   .IN    : CALIPER [CALSED]
CONDWS  .MMHO  : CONDUCTIVITY [1000/DRESWS]
DCORWS  .G/C3  : DENSITY CORRECTION [DRHOED]
DENWS   .G/C3  : FORMATION BULK DENSITY [CALC. FROM DPOLSWS M=2.71, F=1.00]
DPHILSED.V/V   : DENSITY POROSITY LIMESTONE [M=2.71, F=1.00] FROM DENSITY LOG [ADJ. TO RESISTIVITY LOG]
DPHISSED.V/V   : DENSITY POROSITY SANDSTONE [M=2.65, F=1.00] FROM DENSITY LOG [ADJ. TO RESISTIVITY LOG]
DPOLSWS .V/V   : DENSITY POROSITY LIMESTONE [DPHISSED CONVERTED TO LIMESTONE MATRIX, M=2.71, F=1.00, SPL. TO DPHILSED @ 9636']
DRESWS  .OHMM  : DEEP RESISTIVITY [ILDED]
DRHOED  .G/C3  : DENSITY CORRECTION FROM DENSITY LOG [ADJ. TO RESISTIVITY LOG/DPHISSED/DPHILSED]
DTED    .US/F  : DELTA TIME FROM SONIC LOG [ADJ. TO RESISTIVITY LOG]
DTWS    .US/F  : COMPRESSIONAL SONIC [DTED]
GRDED   .GAPI  : GAMMA RAY FROM DENSITY LOG [ADJ. TO RESISTIVITY LOG]
GRSED   .GAPI  : GAMMA RAY FROM SONIC LOG [ADJ. TO RESISTIVITY LOG]
GRWS    .GAPI  : GAMMA RAY [GRSED]
ILDED   .OHMM  : DEEP INDUCTION FROM RESISTIVITY LOG
ILMED   .OHMM  : MEDIUM INDUCTION FROM RESISTIVITY LOG
LL8ED   .OHMM  : 8 INCH LATEROLOG FROM RESISTIVITY LOG
MRESWS  .OHMM  : MEDIUM RESISTIVITY [ILMED]
NPHILSED.V/V   : NEUTRON POROSITY LIMESTONE FROM DENSITY LOG [ADJ. TO RESISTIVITY LOG]
NPHISSED.V/V   : NEUTRON POROSITY SANDSTONE FROM DENSITY LOG [ADJ. TO RESISTIVITY LOG]
NPOLSWS .V/V   : NEUTRON POROSITY LIMESTONE [NPHISSED MATRIX CONVERSION FOR LIMESTONE FROM SCHLUMBERGER (CNL), SPL. TO NPHILSED @ 9636']
RHOBED  .G/C3  : BULK DENSITY FROM DENSITY LOG [ADJ. TO RESISTIVITY LOG/DPHISSED/DPHILSED]
SPRED   .MV    : SPONTANEOUS POTENTIAL FROM RESISTIVITY LOG
SPWS    .MV    : SPONTANEOUS POTENTIAL [BASELINE 0 MV, SPRED]
SRESWS  .OHMM  : SHALLOW RESISTIVITY [LL8ED]
TENDED  .LBF   : TENSION FROM DENSITY LOG [ADJ. TO RESISTIVITY LOG]
TENSED  .LBF   : TENSION FROM SONIC LOG [ADJ. TO RESISTIVITY LOG]
~Params ----------------------------------------------------
PD  .                     GL : PERMANENT DATUM
EPD .FT               2939.3 : ELEVATION PERMANENT DATUM
LMF .                     KB : LOG MEASURED FROM
DAPD.FT                 14.7 : FEET ABOVE PERMANENT DATUM
EKB .FT                 2954 : KELLY BUSHING
EDF .FT                 2939 : DRILLING FLOOR
DATE.               12/09/76 : RUN DATE
RUN .                      1 : RUN NUMBER
DD  .FT                10196 : DEPTH DRILLER
DL  .FT                10201 : DEPTH LOGGER
BLI .FT                10195 : BOTTOM LOG INTERVAL
TLI .FT                 1133 : TOP LOG INTERVAL
CBD .FT                 1131 : CASING BOTTOM DRILLER
CBL .FT                 1133 : CASING BOTTOM LOGGER
BS  .IN                 8.75 : BIT SIZE
BSD .FT                10196 : BIT SIZE AT DEPTH
DFT .               GEL CHEM : DRILLING FLUID TYPE
DFD .                    8.9 : DRILLING FLUID DENSITY
DFV .                     84 : DRILLING FLUID VISCOSITY
DFPH.                   10.5 : DRILLING FLUID PH
DFL .                      9 : DRILLING FLUID LOSS
MSS .               FLOWLINE : MUD SAMPLE SOURCE
RMS .OHMM               2.18 : RESISTIVITY MUD SAMPLE
MST .DEGF                 95 : MUD SAMPLE TEMPERATURE
RMF .OHMM               2.63 : RESISTIVITY MUD FILTRATE SAMPLE
MFST.DEGF                 66 : MUD FILTRATE SAMPLE TEMPERATURE
RMC .OHMM               2.34 : RESISTIVITY MUD CAKE
MCST.DEGF                 56 : MUD CAKE SAMPLE TEMPERATURE
TCS .HRS                 6.5 : TIME CIRCULATED STOPPED
LUN .                   7691 : LOGGING UNIT NUMBER
LUL .                    WCT : LOGGING UNIT LOCATION
ENGI.                  LEGEE : RECORDING ENGINEER
WITN.             RICHARDSON : WITNESSED BY
CLNT.                A2DTECH : CLIENT CODE
ORIG.            2" 5" PRINT : ORIGIN OF DATA
UWI .       100071406218W500 : UNIQUE WELL ID
DICO. A2D Technologies, Inc. : DIGITIZING COMPANY
~Other -----------------------------------------------------
~ASCII -----------------------------------------------------
# ...
 8600.00000    -999.25    9.84650    9.84650    4.90980    -999.25    -999.25    -999.25    -999.25    -999.25  203.67400    -999.25   48.12220   48.12220    -999.25   27.63680   27.63680  203.67400  182.39270  315.31250  182.39270    -999.25    -999.25    -999.25    -999.25  -42.05180 -150.86090  315.31250    -999.25 2137.88710
 8650.00000    -999.25    9.51340    9.51340    7.78680    -999.25    -999.25    -999.25    -999.25    -999.25  129.85800    -999.25   49.08070   49.08070    -999.25   32.58360   32.58360  129.85800  104.81140  202.46040  104.81140    -999.25    -999.25    -999.25    -999.25   13.65910  -92.74560  202.46040    -999.25 2052.69470
 8700.00000    -999.25    9.04150    9.04150    3.88820    -999.25    -999.25    -999.25    -999.25    -999.25  257.18920    -999.25   50.77270   50.77270    -999.25   35.05360   35.05360  257.18920  221.02060  480.81260  221.02060    -999.25    -999.25    -999.25    -999.25   47.50770  -56.47680  480.81260    -999.25 1988.99110
 8750.00000    -999.25    9.01080    9.01080    6.86640    -999.25    -999.25    -999.25    -999.25    -999.25  145.63650    -999.25   52.85040   52.85040    -999.25   44.33770   44.33770  145.63650  161.54030  241.81320  161.54030    -999.25    -999.25    -999.25    -999.25   83.57360  -18.00660  241.81320    -999.25 1909.12560
 8800.00000    -999.25    8.98190    8.98190    2.43030    -999.25    -999.25    -999.25    -999.25    -999.25  411.52330    -999.25   50.75870   50.75870    -999.25   33.79470   33.79470  411.52330  370.76540  507.16260  370.76540    -999.25    -999.25    -999.25    -999.25   79.00550  -22.76490  507.16260    -999.25 1855.74980
 8850.00000    -999.25    8.92660    8.92660    1.10850    -999.25    -999.25    -999.25    -999.25    -999.25  902.14730    -999.25   51.13430   51.13430    -999.25   30.65580   30.65580  902.14730  957.68020 1066.18900  957.68020    -999.25    -999.25    -999.25    -999.25   68.66340  -33.96750 1066.18900    -999.25 1779.32820
 8900.00000    -999.25    8.93370    8.93370    6.33380    -999.25    -999.25    -999.25    -999.25    -999.25  157.89490    -999.25   51.96580   51.96580    -999.25   26.24170   26.24170  157.89490  174.96200  240.14120  174.96200    -999.25    -999.25    -999.25    -999.25   83.29630  -20.18960  240.14120    -999.25 1626.47310
 8950.00000    -999.25    8.82800    8.82800   40.40620    -999.25    -999.25    -999.25    -999.25    -999.25   24.74870    -999.25   58.70330   58.70330    -999.25   50.78860   50.78860   24.74870   26.45930   34.65450   26.45930    -999.25    -999.25    -999.25    -999.25   65.10240  -39.24400   34.65450    -999.25 1688.86230
 9000.00000    -999.25    9.86930    9.86930   70.29090    -999.25    -999.25    -999.25    -999.25    -999.25   14.22660    -999.25   61.21120   61.21120    -999.25   75.25280   75.25280   14.22660   15.95070   21.76010   15.95070    -999.25    -999.25    -999.25    -999.25   61.10980  -44.09150   21.76010    -999.25 1515.08260
 9050.00000    -999.25    9.16190    9.16190   82.93850    -999.25    -999.25    -999.25    -999.25    -999.25   12.05720    -999.25   64.06990   64.06990    -999.25   72.94850   72.94850   12.05720   13.43160   19.52180   13.43160    -999.25    -999.25    -999.25    -999.25   62.07220  -43.98390   19.52180    -999.25 1309.43080
 9100.00000    -999.25    9.13940    9.13940  102.04080    -999.25    -999.25    -999.25    -999.25    -999.25    9.80000    -999.25   65.15780   65.15780    -999.25   75.74330   75.74330    9.80000   10.49830   15.21130   10.49830    -999.25    -999.25    -999.25    -999.25   24.40140  -82.51530   15.21130    -999.25 1334.44880
 9150.00000    -999.25    9.01570    9.01570   67.77460    -999.25    -999.25    -999.25    -999.25    -999.25   14.75920    -999.25   64.30180   64.30180    -999.25   76.61090   76.61090   14.75920   16.48560   24.47140   16.48560    -999.25    -999.25    -999.25    -999.25   50.13620  -57.63550   24.47140    -999.25 1265.89760
 9200.00000    -999.25    9.05400    9.05400   36.66480    -999.25    -999.25    -999.25    -999.25    -999.25   27.27410    -999.25   63.98590   63.98590    -999.25   96.03230   96.03230   27.27410   33.80820   72.54820   33.80820    -999.25    -999.25    -999.25    -999.25   12.11050  -96.52160   72.54820    -999.25 1152.35020
 9250.00000    -999.25    9.35850    9.35850   96.11130    -999.25    -999.25    -999.25    -999.25    -999.25   10.40460    -999.25   64.26890   64.26890    -999.25   77.89260   77.89260   10.40460   11.27970   16.98220   11.27970    -999.25    -999.25    -999.25    -999.25   86.64620  -22.84090   16.98220    -999.25 1045.00150
 9300.00000    -999.25   10.85950   10.85950  177.25310    -999.25    -999.25    -999.25    -999.25    -999.25    5.64170    -999.25   83.12720   83.12720    -999.25  119.10840  119.10840    5.64170    5.92760    8.05850    5.92760    -999.25    -999.25    -999.25    -999.25   77.63410  -30.71620    8.05850    -999.25  889.97050
 9350.00000    -999.25   10.49410   10.49410  179.15370    -999.25    -999.25    -999.25    -999.25    -999.25    5.58180    -999.25   70.78980   70.78980    -999.25  110.19180  110.19180    5.58180    5.93300   10.03620    5.93300    -999.25    -999.25    -999.25    -999.25   66.56560  -38.52710   10.03620    -999.25  881.23320
 9400.00000    -999.25    9.06990    9.06990   69.91460    -999.25    -999.25    -999.25    -999.25    -999.25   14.30710    -999.25   63.45300   63.45300    -999.25   86.05060   86.05060   14.30710   15.40590   20.81450   15.40590    -999.25    -999.25    -999.25    -999.25   -8.32580 -110.18230   20.81450    -999.25  873.29380
 9450.00000    -999.25    9.02380    9.02380   83.25220    -999.25    -999.25    -999.25    -999.25    -999.25   12.01170    -999.25   65.76340   65.76340    -999.25  118.07090  118.07090   12.01170   14.03030   20.84590   14.03030    -999.25    -999.25    -999.25    -999.25  -61.31540 -159.91430   20.84590    -999.25  807.64520
 9500.00000    -999.25    9.00700    9.00700   92.84530    -999.25    -999.25    -999.25    -999.25    -999.25   10.77060    -999.25   65.27420   65.27420    -999.25  104.65550  104.65550   10.77060   12.12550   18.78650   12.12550    -999.25    -999.25    -999.25    -999.25  -72.12510 -167.48780   18.78650    -999.25  666.92510
 9550.00000    -999.25    9.24530    9.24530  132.37150    -999.25    -999.25    -999.25    -999.25    -999.25    7.55640    -999.25   75.07870   75.07870    -999.25  130.47010  130.47010    7.55640    8.18710   11.39340    8.18710    -999.25    -999.25    -999.25    -999.25  -61.25800 -153.38450   11.39340    -999.25  573.38370
 9600.00000    -999.25    9.18110    9.18110  103.97060    -999.25    -999.25    -999.25    -999.25    -999.25    9.61810    -999.25   72.24430   72.24430    -999.25  127.38060  127.38060    9.61810   10.46720   16.48790   10.46720    -999.25    -999.25    -999.25    -999.25  -21.15100 -110.02000   16.48790    -999.25  558.75830
 9650.00000    9.28020    9.06010    9.06010  105.83770    0.13310    2.66690    0.02520    -999.25    0.02520    9.44890    0.13310   65.82200   65.82200   89.76830  112.10750  112.10750    9.44890   10.93150   17.83730   10.93150    0.14860    -999.25    0.14860    2.66740   13.50400  -72.12880   17.83730 2632.28290  507.64090
 9700.00000    9.11800    9.01260    9.01260   82.86860    0.04780    2.73920   -0.01710    -999.25   -0.01710   12.06730    0.04780   66.66510   66.66510   98.64800  119.96770  119.96770   12.06730   13.94260   22.70690   13.94260    0.15440    -999.25    0.15440    2.72820   75.56480   -6.81040   22.70690 2440.78720  457.74010
 9750.00000    8.85520    9.01910    9.01910    0.89420    0.01850    2.57470    0.07910    -999.25    0.07910 1118.30590    0.01850   69.48220   69.48220  118.77640  161.42390  161.42390 1118.30590 1396.52390 1494.47050 1396.52390    0.13370    -999.25    0.13370    2.57180   13.27120  -66.98520 1494.47050 2450.96150  561.05390
 9800.00000    8.89560    9.00230    9.00230    2.97840    0.01340    2.53740    0.10090    -999.25    0.10090  337.14620    0.01340   80.00410   80.00410  177.89340  209.91120  209.91120  337.14620  320.69160  645.70610  320.69160    0.19640    -999.25    0.19640    2.53380  -90.88790 -171.14430  645.70610 2134.71840  451.71460
