~Version ---------------------------------------------------
VERS.      2.0 : CWLS log ASCII Standard -VERSION 2.0
WRAP.       NO : One line per depth step
CREA. 09/08/14 : LAS Creation Date
~Well ------------------------------------------------------
STRT.FT                         1550.0 : START DEPTH
STOP.FT                        12000.0 : STOP DEPTH
STEP.FT                       50.00000 : STEP LENGTH
NULL.                          -999.25 : NULL VALUE
COMP. AMOCO CANADA PETROLEUM CO., LTD. : COMPANY
WELL.  AMOCO C-2 WASKAHIGAN 7-22-63-24 : WELL
FLD .                       WASKAHIGAN : FIELD
LOC .                                  : LOCATION
CTRY.                           CANADA : COUNTRY
SRVC.                          Unknown : SERVICE COMPANY
DATE.                      14-Dec-1976 : LOGDATE
PROV.                          Alberta : PROVINCE
UWI .                 100072206324W500 : UNIQUE WELL ID
SLAT.WGS84                    54.46349 : SURFACE LATITUDE
SLON.WGS84                   -117.5411 : SURFACE LONGITUDE
~Curve Information -----------------------------------------
DEPT   .FT    : DEPTH FEET
CALD   .IN    : CALIPER FROM DENSITY LOG
CALS   .IN    : CALIPER FROM SONIC LOG
DCOR   .G/C3  : DENSITY CORRECTION FROM DENSITY LOG
DPHI_LS.V/V   : DENSITY POROSITY LIMESTONE [M=2.71 F=1.0 ASSUMED] FROM DENSITY LOG
DPHI_SS.V/V   : DENSITY POROSITY SANDSTONE [M=2.65 F=1.0 ASSUMED] FROM DENSITY LOG
DT     .US/F  : DELTA TIME FROM SONIC LOG
GRD    .GAPI  : GAMMA RAY FROM DENSITY LOG
GRS    .GAPI  : GAMMA RAY FROM SONIC LOG
GRS_R  .GAPI  : GAMMA RAY (REPEAT SECTION) FROM SONIC LOG
ILD    .OHMM  : DEEP INDUCTION LOG RESISTIVITY FROM RESISTIVITY LOG
ILM    .OHMM  : MEDIUM INDUCTION LOG RESISTIVITY FROM RESISTIVITY LOG
LL8    .OHMM  : 8 INCH LATEROLOG RESISTIVITY FROM RESISTIVITY LOG
NPHI_LS.V/V   : NEUTRON POROSITY LIMESTONE FROM DENSITY LOG
NPHI_SS.V/V   : NEUTRON POROSITY SANDSTONE FROM DENSITY LOG
RHOB   .G/C3  : BULK DENSITY FROM DENSITY LOG
SPR    .MV    : SPONTANEOUS POTENTIAL FROM RESISTIVITY LOG
~Params ----------------------------------------------------
PD  .                     GL : PERMANENT DATUM
EPD .FT               2789.5 : ELEVATION PERMANENT DATUM
LMF .                     KB : LOG MEASURED FROM
DAPD.FT                 20.5 : FEET ABOVE PERMANENT DATUM
EKB .FT               2810.0 : KELLY BUSHING
EGL .FT               2789.5 : GROUND LEVEL
DATE.               12/14/76 : RUN DATE
RUN .                      1 : RUN NUMBER
DD  .FT                12005 : DEPTH DRILLER
DL  .FT                12008 : DEPTH LOGGER
BLI .FT                12002 : BOTTOM LOG INTERVAL
TLI .FT                 1519 : TOP LOG INTERVAL
CBD .FT                 1519 : CASING BOTTOM DRILLER
CBL .FT                 1519 : CASING BOTTOM LOGGER
BS  .IN                  8.5 : BIT SIZE
BSD .FT                12005 : BIT SIZE AT DEPTH
DFT .                    GEL : DRILLING FLUID TYPE
DFD .                    9.0 : DRILLING FLUID DENSITY
DFV .                     75 : DRILLING FLUID VISCOSITY
DFPH.                    9.5 : DRILLING FLUID PH
DFL .                   12.2 : DRILLING FLUID LOSS
MSS .               FLOWLINE : MUD SAMPLE SOURCE
RMS .OHMM               2.89 : RESISTIVITY MUD SAMPLE
MST .DEGF                 44 : MUD SAMPLE TEMPERATURE
RMF .OHMM               2.32 : RESISTIVITY MUD FILTRATE SAMPLE
MFST.DEGF                 62 : MUD FILTRATE SAMPLE TEMPERATURE
TCS .HRS                   4 : TIME CIRCULATED STOPPED
LUN .                   7635 : LOGGING UNIT NUMBER
LUL .                    EDM : LOGGING UNIT LOCATION
ENGI.                 PAQUIN : RECORDING ENGINEER
WITN.       MACDONALD FARLEY : WITNESSED BY
CLNT.                A2DTECH : CLIENT CODE
ORIG.            2" 5" PRINT : ORIGIN OF DATA
UWI .       100072206324W500 : UNIQUE WELL ID
DICO. A2D Technologies, Inc. : DIGITIZING COMPANY
~Other -----------------------------------------------------
~ASCII -----------------------------------------------------
# ...
 3700.00000   10.61120    9.95260    0.03930    -999.25    0.13980   96.93900  102.20890   93.82280    -999.25    5.50340    5.24980    5.90630    -999.25    0.48130    2.40310  -23.46070
 3750.00000   11.43460    9.48320    0.08430    -999.25    0.11190   89.71220  130.13850  123.08230    -999.25    9.03930    8.25660    8.76840    -999.25    0.44490    2.48020  -26.82940
 3800.00000   10.26640    9.22540    0.04340    -999.25    0.10050   92.27440  137.10510  127.87760    -999.25    8.77560    7.89490    8.32690    -999.25    0.42030    2.47660  -26.07600
 3850.00000   10.11410    9.76570    0.05600    -999.25    0.10340   96.20700  160.69100  148.75220    -999.25    8.29690    7.46430    8.79870    -999.25    0.50130    2.50090  -20.77680
 3900.00000    9.63850    8.86030    0.06210    -999.25    0.05370   88.25040  153.79170  137.71380    -999.25   12.57200   11.75040   15.10170    -999.25    0.44410    2.59990  -19.05150
 3950.00000   10.08310    9.25150    0.09770    -999.25    0.18250   90.54550  126.98260  127.45650    -999.25   11.60810   10.96220   12.85380    -999.25    0.42710    2.32030  -18.98080
 4000.00000   10.60290    9.32140    0.21400    -999.25    0.35520   91.41980  126.39130  122.04530    -999.25   10.09010    9.49970   11.50040    -999.25    0.48100    2.10380  -20.33710
 4050.00000    9.43280    9.47940    0.21140    -999.25    0.27640   93.60230  137.82880  117.46200    -999.25    7.36720    6.88070    7.60880    -999.25    0.52870    2.21080  -21.38940
 4100.00000    9.51530    9.84870    0.13300    -999.25    0.30960   86.68140  129.82420  117.83900    -999.25    8.31730    7.58340    8.61110    -999.25    0.57530    2.15850  -22.49740
 4150.00000    9.98430    9.27620    0.22300    -999.25    0.29300   86.32380  122.08460  114.45870    -999.25    9.79380    9.13340   10.00950    -999.25    0.48140    2.15900  -23.06220
 4200.00000    9.20990    9.24160    0.14310    -999.25    0.15750   92.26340  131.06480  121.78770    -999.25    8.34310    7.54470    8.74570    -999.25    0.55110    2.31850  -22.20910
 4250.00000    9.03570    9.64910    0.14620    -999.25    0.14580   85.30090  124.03200  121.17200    -999.25    8.70600    8.33790    9.71320    -999.25    0.47650    2.38280  -21.94130
 4300.00000    9.83480   10.11110    0.15430    -999.25    0.18580   94.34120  139.27820  129.49530    -999.25    9.42950    9.13840   10.02770    -999.25    0.50630    2.34950  -22.93970
 4350.00000   10.20360    9.74920    0.16720    -999.25    0.21840   92.27590  131.98620  156.49110    -999.25    7.07260    6.78210    7.37630    -999.25    0.49690    2.28900  -25.07740
 4400.00000   10.10830    9.69920    0.16910    -999.25    0.14780   81.74660  121.30540  136.32800    -999.25   11.52200   11.25820   11.64270    -999.25    0.45820    2.36850  -26.60940
 4450.00000    8.30290    9.07240    0.08970    -999.25    0.10020   78.43410   81.15370  124.85950    -999.25   16.41280   16.05090   17.42210    -999.25    0.33920    2.46640  -31.61160
 4500.00000    9.33870    9.42640    0.11960    -999.25    0.18540   79.83780  131.84940  103.15070    -999.25   12.68180   11.99000   13.22010    -999.25    0.43710    2.35400  -28.96750
 4550.00000    9.65450    9.60420    0.08960    -999.25    0.19200   77.98900  112.35720  137.86440    -999.25   15.28830   14.86390   14.89700    -999.25    0.33160    2.34580  -24.47410
 4600.00000    9.65890    9.35640    0.21040    -999.25    0.34560   83.89690  132.77460  142.09610    -999.25   11.12710   10.37170   10.70990    -999.25    0.41840    2.02670  -26.25940
 4650.00000   11.87080    9.46990    0.09000    -999.25    0.11940   85.36540  142.54560  159.85310    -999.25   10.25180    9.46090    9.86420    -999.25    0.35670    2.46600  -27.10200
 4700.00000   11.55200    9.73690    0.07620    -999.25    0.16430   90.08810  153.23880  158.69360    -999.25    8.13140    7.66270    8.42150    -999.25    0.38240    2.41360  -24.00490
 4750.00000   11.14230    9.70250    0.14280    -999.25    0.12720   90.19080  145.95910  160.61030    -999.25    8.63010    8.43940    9.21620    -999.25    0.40240    2.43730  -20.54190
 4800.00000   12.78360    9.55040    0.14090    -999.25    0.14320   93.24610  158.95500  158.70300    -999.25    8.52250    8.19830    9.62340    -999.25    0.45080    2.39820  -23.56110
 4850.00000    8.65560    8.77260    0.01180    -999.25    0.10010   74.80360  120.27230  121.58560    -999.25   16.62420   12.65940   32.54060    -999.25    0.26080    2.51440  -21.19840
 4900.00000   11.83020    9.74580    0.19100    -999.25    0.20460   91.23190  161.34840  164.13830    -999.25   11.51830   10.77760   12.44900    -999.25    0.45760    2.30340  -19.80500
 4950.00000   10.38300    9.52080    0.25020    -999.25    0.09950   90.14940  152.38550  161.24540    -999.25   13.43510   12.81670   15.96960    -999.25    0.41880    2.46310  -16.97760
 5000.00000   10.72110    9.49000    0.25270    -999.25    0.23910   88.31440  143.09570  151.67820    -999.25   11.06980   10.50990   12.76230    -999.25    0.42680    2.27640  -20.16310
 5050.00000   10.32710    9.44550    0.23220    -999.25    0.23020   91.32540  149.32690  153.79010    -999.25    9.62360    9.23670   10.82780    -999.25    0.46770    2.29510  -24.76410
 5100.00000    9.03130    8.87030    0.22810    -999.25    0.11470   83.82630  170.45460  180.98470    -999.25   22.03680   19.76250   45.44850    -999.25    0.43470    2.49010  -28.16460
 5150.00000   10.01110    9.16770    0.25040    -999.25    0.11230   90.83370  153.37140  164.76370    -999.25   11.89330   11.59660   15.25000    -999.25    0.43690    2.43090  -34.78270
 5200.00000   10.37420    9.21140    0.18690    -999.25    0.17310   96.40910  162.77050  169.49080    -999.25   10.15630    9.58140   12.70970    -999.25    0.49050    2.36170  -45.10300
 5250.00000   10.37980    9.08080    0.17240    -999.25    0.16760   85.94280  164.02630  167.06350    -999.25   12.84210   12.09870   16.01010    -999.25    0.42140    2.36150  -55.52380
 5300.00000   10.98190    9.48220    0.11540    -999.25    0.12190   76.18320  121.08580  128.61780    -999.25   11.33910   10.95800   11.75720    -999.25    0.29090    2.43140  -63.04150
 5350.00000   12.14300    9.61420    0.12750    -999.25    0.20050   78.91780  137.55360  140.30910    -999.25    9.64780    9.31380    9.76690    -999.25    0.33640    2.37920  -66.32540
 5400.00000   11.51980    9.71560    0.09240    -999.25    0.18210   85.34140  134.10940  138.66280    -999.25    8.16130    7.56380    8.08520    -999.25    0.44060    2.44410  -66.06760
 5450.00000   11.10420    9.56280    0.22420    -999.25    0.25510   81.33350  146.79560  152.18100    -999.25    9.84100    9.59990   10.60090    -999.25    0.39290    2.22260  -62.57170
 5500.00000    8.82900    9.00200    0.13710    -999.25    0.07350   85.54630  134.97030  159.06940    -999.25    7.55330    7.25420    7.88270    -999.25    0.48890    2.51640  -61.76120
 5550.00000    9.73260    9.68330    0.05910    -999.25    0.04240   75.48240  118.88500  136.59280    -999.25   10.23990    9.95510   10.73900    -999.25    0.34310    2.56390 -146.12630
 5600.00000    9.55620    9.36100    0.16000    -999.25    0.16880   74.24900  113.68760  133.56430    -999.25    9.58210    9.21840   11.02480    -999.25    0.34750    2.38980 -142.01690
 5650.00000   11.57380    9.58820    0.19220    -999.25    0.20960   85.31890  129.19700  151.63670    -999.25    7.96170    7.68540    8.27780    -999.25    0.46840    2.28920 -134.60880
 5700.00000   13.20490    9.56860    0.15950    -999.25    0.26550   85.67810  133.70530  148.57490    -999.25    6.69870    6.44140    7.62440    -999.25    0.49230    2.19410 -107.19810
 5750.00000   11.56620    9.13080    0.15120    -999.25    0.30880   99.85710  147.39750  167.16800    -999.25    4.14460    4.03880    4.89000    -999.25    0.56450    2.22320  -35.42050
 5800.00000   10.72990    9.70410    0.11070    -999.25    0.24620   88.56020  118.07810  125.82390    -999.25    3.88710    3.62760    5.12390    -999.25    0.56120    2.23570  -34.61960
