~Version ---------------------------------------------------
VERS. 2.0 : CWLS log ASCII Standard -VERSION 2.0
WRAP.  NO : ONE LINE PER DEPTH STEP
~Well ------------------------------------------------------
STRT.F                               300.0 : START DEPTH
STOP.F                             16950.0 : STOP DEPTH
STEP.F                            50.00000 : STEP LENGTH
NULL.                              -999.25 : NULL VALUE
COMP.                        BANFF OIL LTD : COMPANY
WELL. BANFF AQUIT SIEBENS RAMR 14-21-37-11 : WELL
FLD .                                      : FIELD
LOC .                                      : LOCATION
CTRY.                               CANADA : COUNTRY
SRVC.                         Schlumberger : SERVICE COMPANY
DATE.                          21-Oct-1970 : LOGDATE
PROV.                              Alberta : PROVINCE
UWI .                     100142103711W500 : UNIQUE WELL ID
SLAT.WGS84                        52.19912 : SURFACE LATITUDE
SLON.WGS84                       -115.5164 : SURFACE LONGITUDE
~Curve Information -----------------------------------------
DEPT   .F                 : 
SPR    .MV                : SPONTANEOUS POTENTIAL FROM RESISTIVITY
ILD    .OHMM 07 120 46 00 : DEEP INDUCTION RESISTIVITY
ILM    .OHMM 07 120 44 00 : INDUCTION LOG MEDIUM RESISTIVITY
LL8    .OHMM              : LATEROLOG-8 RESISTIVITY
GRS    .GAPI              : GAMMA RAY FROM SONIC LOG
CALS   .IN                : 
DT     .US/F 60 520 00 00 : DELTA TIME FROM SONIC LOG
DPHI_LS.DEC  45 890 10 00 : DENSITY POROSITY LIMESTONE
RHOB   .G/C3 45 350 01 00 : BULK DENSITY
DRHO   .G/C3 45 356 01 00 : DENSITY CORRECTION
CALD   .IN   45 280 01 00 : CALIPER FROM DENSITY LOG
GRD    .GAPI              : GAMMA RAY FROM DENSITY LOG
SNP_LS .DEC               : SIDEWALL NEUTRON POROSITY LIMESONTE
CALN   .IN   00 000 00 01 : 7 CALIPER FROM NEUTRON
GRN    .GAPI              : GAMMA RAY NEUTRON
~Params ----------------------------------------------------
PD  .                     GL : PERMANENT DATUM
EPD .FT                 4914 : ELEVATION PERMANENT DATUM
LMF .                     KB : LOG MEASURED FROM
DAPD.FT                 18.7 : FEET ABOVE PERMANENT DATUM
EKB .FT               4932.7 : KELLY BUSHING
EGL .FT                 4914 : GROUND LEVEL
DATE.               10/21/70 : RUN DATE
RUN .                      4 : RUN NUMBER
DD  .FT                16960 : DEPTH DRILLER
DL  .FT                16960 : DEPTH LOGGER
BLI .FT                16954 : BOTTOM LOG INTERVAL
TLI .FT                16000 : TOP LOG INTERVAL
BS  .IN                8.375 : BIT SIZE
BSD .FT                16960 : BIT SIZE AT DEPTH
DFT .                    GEL : DRILLING FLUID TYPE
DFD .                   10.1 : DRILLING FLUID DENSITY
DFV .                     61 : DRILLING FLUID VISCOSITY
DFPH.                     10 : DRILLING FLUID PH
DFL .                    8.4 : DRILLING FLUID LOSS
MSS .               FLOWLINE : MUD SAMPLE SOURCE
RMS .OHMM               1.51 : RESISTIVITY MUD SAMPLE
MST .DEGF                 66 : MUD SAMPLE TEMPERATURE
RMF .OHMM               1.11 : RESISTIVITY MUD FILTRATE SAMPLE
MFST.DEGF                 70 : MUD FILTRATE SAMPLE TEMPERATURE
TCS .HRS                   4 : TIME CIRCULATED STOPPED
LUN .                   7002 : LOGGING UNIT NUMBER
LUL .                     RD : LOGGING UNIT LOCATION
ENGI.                 TALBOT : RECORDING ENGINEER
WITN.          LEMEE BRINKER : WITNESSED BY
CLNT.                A2DTECH : CLIENT CODE
ORIG.            2" 5" PRINT : ORIGIN OF DATA
UWI .       100142103711W500 : UNIQUE WELL ID
DICO. A2D Technologies, Inc. : DIGITIZING COMPANY
~Other -----------------------------------------------------
~ASCII -----------------------------------------------------
# ...
 14000.00000 -126.59160  113.61140  134.89400  181.19110   27.83760    8.62300   56.56510   -0.01830    2.75070    0.20790   10.22950   25.32150    0.00190   10.13900   31.51340
 14050.00000 -116.38260  105.12400  178.56800  161.14740   33.03870    8.63870   58.38910   -0.00240    2.72050    0.09960    8.79840   29.29110    0.00650    8.62140   33.78850
 14100.00000 -101.18430   94.55260  111.87280  140.34820   32.05360    8.61280   59.03380   -0.05360    2.79340    0.08160    9.12090   29.33750    0.00270    8.73880   34.77750
 14150.00000 -117.11960  172.39010  207.73120  279.14900   20.53250    8.60240   57.70240   -0.01490    2.73920    0.04880    8.77000   16.66630   -0.00190    8.62330   20.43620
 14200.00000 -105.27040  136.65650  229.21550  247.92440   18.41360    8.67660   57.03140   -0.03340    2.76780    0.05630    8.89980   16.21580    0.00640    8.60400   20.72610
 14250.00000 -110.79110  164.55700  238.28840  273.09090   21.80560    8.90700   57.60250   -0.01210    2.72730    0.02230    9.78010   13.78850    0.04630    8.57940   17.61290
 14300.00000  -95.43520  110.23340  121.61110  136.15760   28.96740    8.55000   58.57840   -0.01310    2.72460   -0.00350    9.44560   22.77020   -0.00480    9.44800   24.04100
 14350.00000  -77.08010   22.88520   25.26480   31.06260   49.66320    8.54780   68.12650   -0.00630    2.70490    0.08040    8.92820   45.83100    0.03350    9.13330   49.82160
 14400.00000  -89.71580   42.18260   61.78890   88.54200   48.60670    8.61490   65.07430    0.01140    2.69040    0.05180    8.65110   39.14510    0.01700    8.58780   48.48160
 14450.00000 -128.31390  515.32160 1336.99230  772.17640   18.74290    9.07680   54.39570    0.03880    2.63800    0.24990   10.89280   13.21240    0.02770   10.77210   16.02280
 14500.00000 -101.58920 1136.13750 1320.29080 1420.49070   19.11530    8.79110   52.69940    0.03970    2.63460    0.26140   10.58360   20.99340    0.04850   10.63270   22.26640
 14550.00000    0.70960   40.79390   47.61660  106.85550   44.70690    8.50550   64.15290   -0.04780    2.78270    0.23030    9.33370   23.89310    0.04880    9.23090   37.38450
 14600.00000    0.68810  208.42320  440.82100  391.27560   11.08240    8.50120   55.67780   -0.13350    2.92420    0.01960    8.83230    9.12090   -0.00600    8.73460    7.80500
 14650.00000  -40.13390  520.35160 1287.65250  996.28700   12.51060    8.58310   53.43380   -0.02890    2.75100    0.21420   11.36790    8.11310    0.04300   10.93700   10.03800
 14700.00000  -32.21280  482.50250  211.30260 1105.39770   11.62330    8.32380   54.13420   -0.11300    2.89440    0.22090    9.07840    7.14560   -0.00490    8.96640    9.40780
 14750.00000  -93.52310 1315.95850  261.18460  903.40660   17.85500    8.18970   53.11830    0.11120    2.51580    0.17590   12.69030   12.10920    0.12020   12.23710   13.56810
 14800.00000 -112.15480  367.26760 1694.95030  945.38270    9.12970    7.67610   52.39040    0.06110    2.60220    0.19690    9.75290    7.86210    0.10060    9.70390    9.08250
 14850.00000 -117.24750  193.80710 1086.90530  326.14920   10.14010    7.50150   53.82300    0.01420    2.65730    0.16300    8.47260    8.08310    0.11090    8.27930    8.59390
 14900.00000 -139.29710  109.75640 1656.07760  726.58650   14.70480    7.48050   52.04830   -0.02990    2.75350    0.17160    8.16800   10.88640    0.07090    8.05860   12.14050
 14950.00000 -201.63580   34.80260   66.02470  151.35360    8.92210    7.61200   59.32410    0.00740    2.69430    0.13380    8.29480    6.49570    0.15010    8.04910    8.57420
 15000.00000 -255.04630  151.48190  111.11170  138.46640   12.25860    9.07410   53.51470    0.15430    2.44100    0.18480    -999.25    9.28380    0.14100    -999.25   10.39280
 15050.00000 -282.09120  681.54370   64.16860  142.72680   19.44110    8.42590   53.34910    0.11110    2.51630    0.20930    -999.25   14.36280    0.07410    -999.25   16.90890
 15100.00000    -999.25 1756.21090 1428.15670 1511.23580   12.25510    8.15450   50.77160   -0.10620    2.86490    0.04840    9.54450    8.00250    0.00550    9.33770   10.36990
 15150.00000    -999.25   63.40290   29.57930  523.25050   12.50940    8.71740   60.07350    0.12670    2.46060    0.21710   11.97610    9.18480    0.11510   12.41330   12.77830
 15200.00000    -999.25 1831.82670 1364.68350  660.89000   21.16320    8.70470   56.11720    0.11060    2.53140    0.09140    9.69440   22.48210    0.02440    9.99680   26.16370
 15250.00000 -396.57260 1537.92090 1206.60300  208.52890   45.62070    8.69390   59.16500    0.16270    2.43460    0.24460    -999.25   28.56380    0.01440    -999.25   34.92520
 15300.00000 -341.09240   56.31460    2.32650    1.89390   14.79740   14.98920   65.58650    -999.25    1.40890   -0.01560    -999.25   15.27320    0.30040    -999.25   16.89810
 15350.00000 -355.46750 1911.95620  386.15740  322.22110   16.07140    8.53030   53.79800    0.00100    2.70090    0.16100   10.65390    8.90970    0.08470   10.65860   10.35730
 15400.00000 -175.48950  251.89420  275.28460  419.49440    8.40850    8.17560   51.87160   -0.05760    2.79670    0.20360   10.07070    6.20810    0.06550    9.14070    6.45660
 15450.00000    -999.25  114.92240  719.32830  354.68270    7.92720    8.16330   53.01680   -0.08660    2.86290    0.03030    9.76300    5.56660    0.03800    9.33120    8.03920
 15500.00000    -999.25   18.51080   25.16310  101.88060    9.43020    8.68410   58.49760    0.01030    2.68690    0.12790    8.93900    7.42280    0.06490    8.91000    7.65250
 15550.00000    -999.25   23.56170   34.97420  114.60780    8.78990    9.20340   51.94850   -0.03570    2.76150    0.07930    9.26830    8.69470    0.06010    9.15830    9.43020
 15600.00000    -999.25   35.04470   30.25330   47.08160   68.79160    9.52910   59.24680    0.01120    2.68570    0.25730   11.75790   53.78140    0.08380   12.13700   68.55870
 15650.00000    -999.25  186.60710  486.61020  281.10560   35.24920    9.39790   54.75280   -0.07140    2.83530    0.07080    9.03080   34.68230    0.01380    8.70250   36.93850
 15700.00000    -999.25   24.17850   22.03770   29.88320   77.24690    9.83450   64.67880    0.01920    2.67160    0.23610   11.93530   68.51580    0.09040   12.03210   71.96120
 15750.00000    -999.25   37.93410   45.54070   53.99760   68.64180   10.00690   61.08040   -0.03920    2.77770    0.05870    9.15240   52.39390    0.04360    9.30410   64.93780
 15800.00000 -174.48160   46.73150   62.70240   65.67410   57.50300    9.56860   59.17100   -0.02380    2.73070    0.03690    8.71270   51.64010    0.02320    9.15460   56.22510
 15850.00000  -37.59740   14.75890   15.88390   19.85910   95.52960    9.07920   67.71050    0.09650    2.54540    0.23480   12.39340   79.03790    0.15850   12.20760   91.60170
 15900.00000   89.83870   19.42050   16.71200   24.76860   87.84720    8.26080   67.57560    0.02370    2.66240    0.24810   11.53270   74.25290    0.10370   11.45830   84.56840
 15950.00000   45.53630   22.00500   23.28910   30.87820   80.35340    7.69310   66.97210   -0.02290    2.75530    0.24670   10.14850   67.73820    0.10450   10.06510   87.94050
 16000.00000  -24.96640   23.66620   27.58500   32.46550   83.89550    7.67370   64.02490   -0.01530    2.73060    0.04060    9.04740   68.38030    0.07080    8.60030   77.59900
 16050.00000  -90.51730   19.62330   21.43970   26.63490   86.35030    8.15980   65.55060   -0.02060    2.73660    0.23790    8.45860   79.80640    0.11760    9.48680   92.55760
 16100.00000  -71.30800   19.58580   21.85340   27.38880   99.26440    8.38160   68.60330   -0.00100    2.71130    0.20570    9.89060   90.41270    0.14670    9.37620   98.22640
 16150.00000  -95.33170  406.06620 1520.38540  580.75000   53.67780    8.54790   61.55800    0.02360    2.63910    0.03310    8.50130   50.30310    0.01950    8.50350   52.34320
 16200.00000 -117.82610  830.08070 1550.07820  732.84630   60.70570    8.46430   68.54910    0.04990    2.62200    0.06620    8.75310   58.55750    0.03540    8.49790   56.73280
