~Version ---------------------------------------------------
VERS.      2.0 : CWLS log ASCII Standard -VERSION 2.0
WRAP.       NO : One line per depth step
CREA. 11/13/17 : LAS Creation Date
~Well ------------------------------------------------------
STRT.FT                     900.0 : START DEPTH
STOP.FT                   12300.0 : STOP DEPTH
STEP.FT                  50.00000 : STEP LENGTH
NULL.                     -999.25 : NULL VALUE
COMP.        TALISMAN ENERGY INC. : COMPANY
WELL. TRIAD C&E DEBOLT 11-11-68-3 : WELL
FLD .                          WC : FIELD
LOC .                             : LOCATION
CTRY.                      CANADA : COUNTRY
SRVC.      Schlumberger of Canada : SERVICE COMPANY
DATE.                 22-Oct-1959 : LOGDATE
PROV.                     Alberta : PROVINCE
UWI .            100111106803W600 : UNIQUE WELL ID
SLAT.WGS84          54.8741972951 : SURFACE LATITUDE
SLON.WGS84        -118.3466714855 : SURFACE LONGITUDE
~Curve Information -----------------------------------------
DEPT  .FT         : Depth Curve
CALWS .IN         : CALIPER [MCALED]
CILDED.MMHO       : CONDUCTIVITY FROM RESISTIVITY LOG
CONDWS.MMHO       : CONDUCTIVITY [1000/DRESWS]
DRESWS.OHMM       : DEEP RESISTIVITY [1000/CILDED IF 1LDED<5 ,ILDED]
GRNED .UgRa-Eq/T  : GAMMA RAY  FROM GRN LOG  [ADJ. TO RESISTIVITY]
GRWS  .GAPI       : GAMMA RAY [GRNED*16.5 TO CONVERT TO GAPI]
ILDED .OHMM       : DEEP INDUCTION FROM RESISTIVITY LOG
MCALED.IN         : CALIPER FROM MICROLOG
NEUTED.CPS        : NEUTRON FROM GRN LOG [ADJ. TO RESISTIVITY]
NEUTWS.CPS        : NEUTRON [NEUTED]
SNED  .OHMM       : SHORT NORMAL FROM RESISTIVITY LOG
SPRED .MV         : SPONTANEOUS POTENTIAL FROM RESISTIVITY LOG
SPWS  .MV         : SPONTANEOUS POTENTIAL [BASELINE 0 MV,SPRED]
SRESWS.OHMM       : SHALLOW RESISTIVITY [SNED]
~Params ----------------------------------------------------
LMF .                     KB : LOG MEASURED FROM
DMF .                     KB : DRILLING MEASURED FROM
EKB .FT                 2343 : KELLY BUSHING
DATE.               10/22/59 : RUN DATE
RUN .                      2 : RUN NUMBER
DD  .FT                12312 : DEPTH DRILLER
DL  .FT                12312 : DEPTH LOGGER
BLI .FT                12304 : BOTTOM LOG INTERVAL
TLI .FT                 7822 : TOP LOG INTERVAL
BS  .IN                    9 : BIT SIZE
BSD .FT                12312 : BIT SIZE AT DEPTH
DFT .              LIME BASE : DRILLING FLUID TYPE
DFD .                     10 : DRILLING FLUID DENSITY
DFV .                    164 : DRILLING FLUID VISCOSITY
DFPH.                   12.5 : DRILLING FLUID PH
DFL .                     12 : DRILLING FLUID LOSS
RMS .OHMM               0.72 : RESISTIVITY MUD SAMPLE
MST .DEGF                 88 : MUD SAMPLE TEMPERATURE
RMF .OHMM               0.46 : RESISTIVITY MUD FILTRATE SAMPLE
MFST.DEGF                 78 : MUD FILTRATE SAMPLE TEMPERATURE
RMC .OHMM               1.49 : RESISTIVITY MUD CAKE
MCST.DEGF                 78 : MUD CAKE SAMPLE TEMPERATURE
RMB .OHMM                0.3 : RESISTIVITY MUD AT BHT
TCS .HRS                   5 : TIME CIRCULATED STOPPED
LUN .                 1573WC : LOGGING UNIT NUMBER
ENGI.              HAUSEGGER : RECORDING ENGINEER
WITN.              HENDERSON : WITNESSED BY
CLNT.                A2DTECH : CLIENT CODE
ORIG.            2" 5" PRINT : ORIGIN OF DATA
UWI .       100111106803W600 : UNIQUE WELL ID
DICO. A2D Technologies, Inc. : DIGITIZING COMPANY
~Other -----------------------------------------------------
IEL-ML-GRN LOG RAN
ALL RESISTIVITY CURVES 2" (FROM TOP TO 2477'] ON LOG IMAGE
~ASCII -----------------------------------------------------
# ...
 10700.00000    9.10560   12.41420    9.02180  110.84310    1.66630   27.49480  110.84310    9.10560  338.58320  338.58320   92.04580    -999.25    -999.25   92.04580
 10750.00000    9.49830   13.33040   13.69990   72.99300    1.99580   32.93070   72.99300    9.49830  301.09060  301.09060   39.46160    -999.25    -999.25   39.46160
 10800.00000   10.87320   54.35770   46.60090   21.49870    4.62760   76.35540   21.81810   10.87320  190.54220  190.54220   19.21140    -999.25    -999.25   19.21140
 10850.00000    8.99590   10.99560    9.38520  106.55090    0.86310   14.24110  106.55090    8.99590  346.83810  346.83810  127.43590    -999.25    -999.25  127.43590
 10900.00000   10.23100    9.62440    5.41860  184.54800    1.44760   23.88540  184.54800   10.23100  351.12300  351.12300   99.86690    -999.25    -999.25   99.86690
 10950.00000    9.06350    6.58150    4.61820  216.53620    1.09790   18.11580  216.53620    9.06350  422.38420  422.38420   89.72000    -999.25    -999.25   89.72000
 11000.00000   10.26030   21.60070   16.60150   60.23560    1.26510   20.87410   60.23560   10.26030  344.31890  344.31890   57.66920    -999.25    -999.25   57.66920
 11050.00000    9.08940   32.86560   27.77060   36.00960    3.27150   53.97980   35.60900    9.08940  267.22090  267.22090   42.47150    -999.25    -999.25   42.47150
 11100.00000    9.04900   82.82430   64.98610   15.38790    2.48420   40.98930   15.38790    9.04900  274.52240  274.52240   18.40090    -999.25    -999.25   18.40090
 11150.00000   10.38200  170.66620  167.45090    5.97190    3.88770   64.14710    5.97190   10.38200  235.59430  235.59430    7.63740    -999.25    -999.25    7.63740
 11200.00000   15.73360  544.75140  544.75140    1.83570    4.28220   70.65630    1.45610   15.73360  179.53220  179.53220    2.33050    -999.25    -999.25    2.33050
 11250.00000   15.63860  461.94780  461.94780    2.16470    4.35490   71.85580    1.80160   15.63860  183.75510  183.75510    2.70510    -999.25    -999.25    2.70510
 11300.00000   15.68130  460.65190  462.52240    2.16220    4.41060   72.77490    1.86930   15.68130  185.26500  185.26500    2.83220    -999.25    -999.25    2.83220
 11350.00000   11.17700  216.13950  216.13950    4.62660    5.51610   91.01560    4.97030   11.17700  209.88320  209.88320    6.15890    -999.25    -999.25    6.15890
 11400.00000   14.67490  387.84300  387.84300    2.57840    5.12290   84.52780    2.22960   14.67490  190.28260  190.28260    3.05830    -999.25    -999.25    3.05830
 11450.00000   10.03230  106.38830   93.88440   10.65140    4.06350   67.04860   10.65140   10.03230  232.85300  232.85300   11.56850    -999.25    -999.25   11.56850
 11500.00000   10.63400  197.74520  194.03160    5.15380    4.31560   71.20740    5.15380   10.63400  208.13330  208.13330    6.55600    -999.25    -999.25    6.55600
 11550.00000   10.66560  153.18370  150.99930    6.62340    3.69060   60.89490    6.65060   10.66560  237.80540  237.80540    7.69560    -999.25    -999.25    7.69560
 11600.00000   10.15600  168.44530  164.98380    6.06120    4.50300   74.29870    6.06120   10.15600  232.50550  232.50550    7.66270    -999.25    -999.25    7.66270
 11650.00000   10.43290  222.80910  222.80910    4.48810    4.63430   76.46590    4.48890   10.43290  232.47130  232.47130    6.48410    -999.25    -999.25    6.48410
 11700.00000   10.22280  193.32330  195.32390    5.11970    4.64190   76.59140    5.11970   10.22280  216.56930  216.56930    6.49310    -999.25    -999.25    6.49310
 11750.00000   12.04710  310.49800  310.49800    3.22060    5.93590   97.94240    3.07780   12.04710  199.25090  199.25090    4.74990    -999.25    -999.25    4.74990
 11800.00000    9.30220   23.16110   18.85810   53.06310    8.75780  144.50370   52.11690    9.30220  253.12310  253.12310   37.14630    -999.25    -999.25   37.14630
 11850.00000   11.29280   33.54290   26.77450   37.34900    1.67200   27.58800   37.34900   11.29280  295.04900  295.04900   32.87170    -999.25    -999.25   32.87170
 11900.00000   12.61200   22.35390   20.09280   49.76910    1.55850   25.71530   49.76910   12.61200  305.89410  305.89410   47.18680    -999.25    -999.25   47.18680
 11950.00000    9.16030   14.45290   12.62370   79.21610    2.22270   36.67540   79.21610    9.16030  336.75770  336.75770   44.91280    -999.25    -999.25   44.91280
 12000.00000    9.19260   30.55110   27.59090   36.24380    4.27640   70.56060   36.24380    9.19260  240.96340  240.96340   29.43690    -999.25    -999.25   29.43690
 12050.00000    9.24740   20.47150   17.12970   58.37830    3.85200   63.55800   58.37690    9.24740  239.54790  239.54790   37.29310    -999.25    -999.25   37.29310
 12100.00000    9.44410   43.64040   37.11240   26.94520    8.06170  133.01800   26.94520    9.44410  291.80650  291.80650   18.63210    -999.25    -999.25   18.63210
 12150.00000    9.89730   97.73280   97.21760   10.28620   13.57050  223.91320   10.28620    9.89730  239.67820  239.67820   12.49220    -999.25    -999.25   12.49220
 12200.00000    8.90520   34.56080   29.97150   33.36500   10.27180  169.48470   33.36500    8.90520  226.58790  226.58790   26.69250    -999.25    -999.25   26.69250
 12250.00000    9.25010   97.10290   93.43790   10.70230    5.35440   88.34760   10.70230    9.25010  293.99640  293.99640   11.53960    -999.25    -999.25   11.53960
 12300.00000    9.27120  103.28210   99.83750   10.01860   12.98810  214.30360   10.04680    9.27120  244.52150  244.52150    9.59380    -999.25    -999.25    9.59380
