~Version ---------------------------------------------------
VERS.      2.0 : CWLS log ASCII Standard -VERSION 2.0
WRAP.       NO : One line per depth step
CREA. 11/14/17 : LAS Creation Date
~Well ------------------------------------------------------
STRT.FT                           1100.0 : START DEPTH
STOP.FT                          10400.0 : STOP DEPTH
STEP.FT                         50.00000 : STEP LENGTH
NULL.                            -999.25 : NULL VALUE
COMP.               CHEVRON STANDARD LTD : COMPANY
WELL. CHEVRON GULF PASS CREEK 7-36-61-18 : WELL
FLD .                                    : FIELD
LOC .                                    : LOCATION
CTRY.                             CANADA : COUNTRY
SRVC.                       Schlumberger : SERVICE COMPANY
DATE.                        11-Jan-1976 : LOGDATE
PROV.                            Alberta : PROVINCE
UWI .                   100073606118W500 : UNIQUE WELL ID
SLAT.WGS84                      54.31663 : SURFACE LATITUDE
SLON.WGS84                      -116.558 : SURFACE LONGITUDE
~Curve Information -----------------------------------------
DEPT    .FT    : Depth Curve
CALDED  .IN    : CALIPER FROM DENSITY LOG
CALSED  .IN    : CALIPER FROM SONIC LOG [ADJ.TO GRDED]
CALWS   .IN    : CALIPER [CALSED]
CONDWS  .MMHO  : CONDUCTIVITY [1000/DRESWS]
DCORED  .G/C3  : DENSITY CORRECTION FROM DENSITY LOG
DCORWS  .G/C3  : DENSITY CORRECTION [DCORED]
DENWS   .G/C3  : FORMATION BULK DENSITY [RHOBED]
DPHILSED.V/V   : DENSITY POROSITY LIME [M=2.71, F=1.00,ADJ.TO RHOBED] FROM DENSITY LOG
DPHISSED.V/V   : DENSITY POROSITY SAND [M=2.65, F=1.00,ADJ.TO RHOBED] FROM DENSITY LOG
DPOLSWS .V/V   : DENSITY POROSITY LIME [CALC FROM DENWS, M=2.71, F=1.00]
DRESWS  .OHMM  : DEEP RESISTIVITY [ILDED]
DTED    .US/F  : DELTA-T FROM SONIC LOG [ADJ.TO GRDED]
DTWS    .US/F  : COMPRESSIONAL SONIC [DTED]
GRDED   .GAPI  : GAMMA RAY FROM DENSITY LOG
GRSED   .GAPI  : GAMMA RAY FROM SONIC LOG [ADJ.TO GRDED]
GRWS    .GAPI  : GAMMA RAY [GRSED SPL.TO GRDED @ 10379']
ILDED   .OHMM  : DEEP INDUCTION FROM RESISTIVITY LOG
ILMED   .OHMM  : MEDIUM INDUCTION FROM RESISTIVITY LOG
LL8ED   .OHMM  : LATEROLOG 8 FROM RESISTIVITY LOG
MRESWS  .OHMM  : MEDIUM RESISTIVITY [ILMED]
NPHILSED.V/V   : NEUTRON POROSITY LIME FROM DENSITY LOG [ADJ.TO RHOBED]
NPHISSED.V/V   : NEUTRON POROSITY SAND FROM DENSITY LOG [ADJ.TO RHOBED]
NPOLSWS .V/V   : NEUTRON POROSITY LIME [NPHISSED MATRIX CONVERTED TO LIME SPL.TO NPHILSED @ 6655']
RHOBED  .G/C3  : BULK DENSITY FROM DENSITY LOG
SPRED   .MV    : SPONTANEOUS POTENTIAL FROM RESISTIVITY LOG
SPWS    .MV    : SPONTANEOUS POTENTIAL [BASELINE 0 MV, SPRED]
SRESWS  .OHMM  : SHALLOW RESISTIVITY [LL8ED]
~Params ----------------------------------------------------
PD  .                     GL : PERMANENT DATUM
EPD .FT                 2874 : ELEVATION PERMANENT DATUM
LMF .                     KB : LOG MEASURED FROM
DAPD.FT                   15 : FEET ABOVE PERMANENT DATUM
EKB .FT                 2889 : KELLY BUSHING
EGL .FT                 2874 : GROUND LEVEL
DATE.               01/11/76 : RUN DATE
RUN .                      1 : RUN NUMBER
DD  .FT                10410 : DEPTH DRILLER
DL  .FT                10421 : DEPTH LOGGER
BLI .FT                10415 : BOTTOM LOG INTERVAL
TLI .FT                 1118 : TOP LOG INTERVAL
CBD .FT                 1118 : CASING BOTTOM DRILLER
CBL .FT                 1121 : CASING BOTTOM LOGGER
BS  .IN                 8.75 : BIT SIZE
BSD .FT                10410 : BIT SIZE AT DEPTH
DFT .               GEL CHEM : DRILLING FLUID TYPE
DFD .                    9.5 : DRILLING FLUID DENSITY
DFV .                    137 : DRILLING FLUID VISCOSITY
DFPH.                    9.5 : DRILLING FLUID PH
DFL .                      9 : DRILLING FLUID LOSS
MSS .               FLOWLINE : MUD SAMPLE SOURCE
RMS .OHMM               2.38 : RESISTIVITY MUD SAMPLE
MST .DEGF                 54 : MUD SAMPLE TEMPERATURE
RMF .OHMM               2.06 : RESISTIVITY MUD FILTRATE SAMPLE
MFST.DEGF                 60 : MUD FILTRATE SAMPLE TEMPERATURE
RMC .OHMM               1.88 : RESISTIVITY MUD CAKE
MCST.DEGF                 42 : MUD CAKE SAMPLE TEMPERATURE
RMB .OHMM               0.66 : RESISTIVITY MUD AT BHT
TCS .HRS                 5.5 : TIME CIRCULATED STOPPED
LUN .                   7657 : LOGGING UNIT NUMBER
ENGI.                STANDEN : RECORDING ENGINEER
WITN.                   WONG : WITNESSED BY
CLNT.                A2DTECH : CLIENT CODE
ORIG.            2" 5" PRINT : ORIGIN OF DATA
UWI .       100073606118W500 : UNIQUE WELL ID
DICO. A2D Technologies, Inc. : DIGITIZING COMPANY
~Other -----------------------------------------------------
~ASCII -----------------------------------------------------
# ...
 2400.00000    -999.25    9.79260    9.79260   69.66500    -999.25    -999.25    -999.25    -999.25    -999.25    -999.25   14.35680   87.53810   87.53810    -999.25   52.85320   52.85320   14.35680   13.27900   11.54810   13.27900    -999.25    -999.25    -999.25    -999.25 -132.85440   -9.78190   11.54810
 2450.00000    -999.25   11.09430   11.09430  229.22110    -999.25    -999.25    -999.25    -999.25    -999.25    -999.25    4.36260   98.33830   98.33830    -999.25   68.64740   68.64740    4.36260    4.02350    3.74800    4.02350    -999.25    -999.25    -999.25    -999.25 -132.73940   -9.76020    3.74800
 2500.00000    -999.25   13.13990   13.13990  491.73880    -999.25    -999.25    -999.25    -999.25    -999.25    -999.25    2.03360  126.85440  126.85440    -999.25   95.98690   95.98690    2.03360    2.19620    2.44790    2.19620    -999.25    -999.25    -999.25    -999.25 -130.93710   -8.05050    2.44790
 2550.00000    -999.25   13.05670   13.05670  192.53420    -999.25    -999.25    -999.25    -999.25    -999.25    -999.25    5.19470  101.66310  101.66310    -999.25   70.59840   70.59840    5.19470    4.90830    4.58910    4.90830    -999.25    -999.25    -999.25    -999.25 -132.26130   -9.46740    4.58910
 2600.00000    -999.25   10.64270   10.64270   83.44250    -999.25    -999.25    -999.25    -999.25    -999.25    -999.25   11.98430   93.68100   93.68100    -999.25   62.84460   62.84460   11.98430   13.57430   16.23110   13.57430    -999.25    -999.25    -999.25    -999.25 -138.79960  -16.09900   16.23110
 2650.00000    -999.25   11.11420   11.11420  164.53170    -999.25    -999.25    -999.25    -999.25    -999.25    -999.25    6.07790   90.99690   90.99690    -999.25   70.48420   70.48420    6.07790    6.61770    6.87740    6.61770    -999.25    -999.25    -999.25    -999.25 -132.14930   -9.54130    6.87740
 2700.00000    -999.25   11.01640   11.01640   78.32690    -999.25    -999.25    -999.25    -999.25    -999.25    -999.25   12.76700   86.69190   86.69190    -999.25   43.52320   43.52320   12.76700   11.87970   10.33070   11.87970    -999.25    -999.25    -999.25    -999.25 -129.04550   -6.53080   10.33070
 2750.00000    -999.25   10.56820   10.56820  194.68130    -999.25    -999.25    -999.25    -999.25    -999.25    -999.25    5.13660   90.53490   90.53490    -999.25   61.83070   61.83070    5.13660    4.97780    4.62180    4.97780    -999.25    -999.25    -999.25    -999.25 -127.48010   -5.05810    4.62180
 2800.00000   11.37480   10.46180   10.46180  184.25190    0.20930    0.20930    2.16420    -999.25    0.29400    0.31920    5.42940   95.15790   95.15790    -999.25   64.39050   64.39050    5.42940    6.15850    6.66760    6.15850    -999.25    0.36800    0.32460    2.16420 -126.86110   -4.53180    6.66760
 2850.00000   12.54660   10.22840   10.22840  209.67440    0.09320    0.09320    1.92390    -999.25    0.44080    0.45970    4.76930  106.22580  106.22580   77.43910   74.47850   74.47850    4.76930    4.46900    4.20300    4.46900    -999.25    0.47230    0.43060    1.92390 -131.56170   -9.32560    4.20300
 2900.00000   10.10770    9.75350    9.75350   43.90470    0.19170    0.19170    2.33690    -999.25    0.18390    0.21820   22.77780   83.33010   83.33010   50.51940   46.17020   46.17020   22.77780   23.43690   19.52300   23.43690    -999.25    0.31110    0.26720    2.33690 -143.97390  -21.83050   19.52300
 2950.00000    9.86440    9.68730    9.68730   57.02390    0.03120    0.03120    2.48940    -999.25    0.10040    0.12900   17.53650   68.08940   68.08940   49.67670   48.18470   48.18470   17.53650   19.72080   30.71150   19.72080    -999.25    0.24720    0.20330    2.48940 -136.42090  -14.37080   30.71150
 3000.00000    9.97920    9.98430    9.98430  161.91710    0.04180    0.04180    2.45510    -999.25    0.11900    0.14910    6.17600   86.93850   86.93850   59.37730   57.14140   57.14140    6.17600    6.80410    7.49180    6.80410    -999.25    0.34870    0.30500    2.45510 -131.78210   -9.82460    7.49180
 3050.00000    9.80460   10.08350   10.08350   77.90170    0.01500    0.01500    2.41980    -999.25    0.15000    0.16970   12.86000   72.15880   72.15880   57.50740   54.85430   54.85430   12.86000   14.29310   19.23580   14.29310    -999.25    0.25680    0.21280    2.41980 -130.08680   -8.22200   19.23580
 3100.00000    9.83480   10.36350   10.36350   66.86820   -0.01300   -0.01300    2.20420    -999.25    0.28490    0.29580   14.95480   81.28680   81.28680   48.59120   48.96840   48.96840   14.95480   15.77570   16.31220   15.77570    -999.25    0.26610    0.22210    2.20420 -133.57210  -11.80060   16.31220
 3150.00000   11.65100   10.93700   10.93700  138.99150    0.11550    0.11550    2.26060    -999.25    0.21050    0.26280    7.19950   90.49720   90.49720   67.78920   61.53180   61.53180    7.19950    8.04540    5.85900    8.04540    -999.25    0.30130    0.25730    2.26060 -124.03580   -2.35700    5.85900
 3200.00000   10.17320   10.78880   10.78880  207.78790    0.04380    0.04380    2.37230    -999.25    0.16430    0.19750    4.81260   87.41970   87.41970   67.83880   59.36030   59.36030    4.81260    5.14160    5.72290    5.14160    -999.25    0.37290    0.32960    2.37230 -131.20010   -9.61450    5.72290
 3250.00000   11.18390   10.85810   10.85810  166.90030    0.05580    0.05580    2.51470    -999.25    0.07940    0.11420    5.99160   90.05100   90.05100   69.62980   66.91600   66.91600    5.99160    6.39840    6.92450    6.39840    -999.25    0.35830    0.31480    2.51470 -123.24670   -1.75380    6.92450
 3300.00000   12.83650   11.49500   11.49500  187.92450    0.01040    0.01040    2.46430    -999.25    0.11110    0.14370    5.32340   87.99380   87.99380   68.56470   73.90590   73.90590    5.32340    5.55680    5.79110    5.55680    -999.25    0.31870    0.27490    2.46430 -125.33850   -3.93830    5.79110
 3350.00000   12.10550   10.54030   10.54030  107.87600    0.03720    0.03720    2.54380    -999.25    0.06320    0.09720    9.26990   78.57980   78.57980   62.94140   64.78790   64.78790    9.26990    9.58500   12.69570    9.58500    -999.25    0.23410    0.19030    2.54380 -127.98570   -6.67870   12.69570
 3400.00000   11.45540   10.32180   10.32180  145.31020    0.02990    0.02990    2.52140    -999.25    0.07650    0.11030    6.88370   88.93270   88.93270   72.04620   72.24150   72.24150    6.88370    7.12430    8.22970    7.12430    -999.25    0.28190    0.23790    2.52140 -128.17800   -6.96370    8.22970
 3450.00000   12.14800   11.63790   11.63790  179.41400    0.02830    0.02830    2.51790    -999.25    0.07810    0.11230    5.57370   89.83560   89.83560   89.21710   85.59380   85.59380    5.57370    5.74420    6.19210    5.74420    -999.25    0.33760    0.29380    2.51790 -127.05190   -5.93090    6.19210
 3500.00000   14.05260   11.66300   11.66300  152.19310    0.04940    0.04940    2.49940    -999.25    0.09210    0.12320    6.57060   88.89480   88.89480  101.61050   95.12450   95.12450    6.57060    6.94030    7.20130    6.94030    -999.25    0.31720    0.27330    2.49940 -131.05560  -10.02730    7.20130
 3550.00000   13.57540   11.97960   11.97960  129.53860    0.06470    0.06470    2.59970    -999.25    0.02880    0.06450    7.72270   85.67920   85.67920   99.80440   88.46270   88.46270    7.72270    8.08770    8.39870    8.08770    -999.25    0.28330    0.23930    2.59970 -128.38450   -7.44880    8.39870
 3600.00000   13.97890   12.03860   12.03860  147.26890    0.10490    0.10490    2.62300    -999.25    0.00790    0.05090    6.79030   85.97500   85.97500  100.89090  100.37300  100.37300    6.79030    7.16970    7.72030    7.16970    -999.25    0.33130    0.28750    2.62300 -129.53320   -8.69080    7.72030
 3650.00000   12.23630   11.52310   11.52310  150.34040    0.05860    0.05860    2.54940    -999.25    0.06450    0.09390    6.65160  102.78920  102.78920  173.35140  169.07010  169.07010    6.65160    7.07120    8.72020    7.07120    -999.25    0.43560    0.39350    2.54940 -127.28200   -6.53230    8.72020
