~Version ---------------------------------------------------
VERS. 2.0 : CWLS log ASCII Standard -VERSION 2.0
WRAP.  NO : ONE LINE PER DEPTH STEP
~Well ------------------------------------------------------
STRT.F                          300.0 : START DEPTH
STOP.F                         9850.0 : STOP DEPTH
STEP.F                       50.00000 : STEP LENGTH
NULL.                         -999.25 : NULL VALUE
COMP.          PACIFIC PETROLEUMS LTD : COMPANY
WELL. PACIFIC SUNRAY KAYBOB 2-2-64-19 : WELL
FLD .                                 : FIELD
LOC .                                 : LOCATION
CTRY.                          CANADA : COUNTRY
SRVC.          Schlumberger of Canada : SERVICE COMPANY
DATE.                     27-Jan-1959 : LOGDATE
PROV.                         Alberta : PROVINCE
UWI .                100020206419W500 : UNIQUE WELL ID
SLAT.WGS84                   54.50328 : SURFACE LATITUDE
SLON.WGS84                  -116.7572 : SURFACE LONGITUDE
~Curve Information -----------------------------------------
DEPT.F                 : 
NEUT.CPS  40 330 30 00 : NEUTRON
MCAL.IN   15 280 01 00 : MLT (MICROLOG) CALIPER
SN  .OHMM 01 040 16 00 : SHORT NORMAL RESISTIVITY
SPR .MV   01 010 01 00 : SPONTANEOUS POTENTIAL FROM RESISTIVITY LOG
LN  .OHMM 01 060 64 00 : LONG NORMAL RESISTIVITY
LT18.OHMM 01 070 18 00 : LATERAL 18'
GR  .GAPI 81 310 01 00 : GAMMA RAY
~Params ----------------------------------------------------
LMF .                     KB : LOG MEASURED FROM
DMF .                     KB : DRILLING MEASURED FROM
EKB .FT               2473.7 : KELLY BUSHING
DATE.               01/27/59 : RUN DATE
RUN .                      1 : RUN NUMBER
DD  .FT                 9862 : DEPTH DRILLER
DL  .FT                 9866 : DEPTH LOGGER
BLI .FT                 9865 : BOTTOM LOG INTERVAL
TLI .FT                  684 : TOP LOG INTERVAL
CBD .FT                  685 : CASING BOTTOM DRILLER
CBL .FT                  684 : CASING BOTTOM LOGGER
BS  .IN                7.875 : BIT SIZE
BSD .FT                 9862 : BIT SIZE AT DEPTH
DFT .               OIL EMUL : DRILLING FLUID TYPE
DFD .                   10.7 : DRILLING FLUID DENSITY
DFV .                    170 : DRILLING FLUID VISCOSITY
DFPH.                      9 : DRILLING FLUID PH
DFL .                    6.6 : DRILLING FLUID LOSS
RMS .OHMM                3.9 : RESISTIVITY MUD SAMPLE
MST .DEGF                 61 : MUD SAMPLE TEMPERATURE
RMF .OHMM                2.7 : RESISTIVITY MUD FILTRATE SAMPLE
MFST.DEGF                 68 : MUD FILTRATE SAMPLE TEMPERATURE
RMC .OHMM                3.5 : RESISTIVITY MUD CAKE
MCST.DEGF                 68 : MUD CAKE SAMPLE TEMPERATURE
RMB .OHMM                1.3 : RESISTIVITY MUD AT BHT
TCS .HRS                 3.5 : TIME CIRCULATED STOPPED
LUN .                   2742 : LOGGING UNIT NUMBER
LUL .                     PR : LOGGING UNIT LOCATION
ENGI.                THOMSON : RECORDING ENGINEER
WITN.                FOGARTY : WITNESSED BY
CLNT.                A2DTECH : CLIENT CODE
ORIG.            2" 5" PRINT : ORIGIN OF DATA
UWI .       100020206419W500 : UNIQUE WELL ID
DICO. A2D Technologies, Inc. : DIGITIZING COMPANY
~Other -----------------------------------------------------
~ASCII -----------------------------------------------------
  300.00000    -999.25    -999.25    -999.25    -999.25    -999.25    -999.25   23.43030
  350.00000    -999.25    -999.25    -999.25    -999.25    -999.25    -999.25   24.31900
  400.00000    -999.25    -999.25    -999.25    -999.25    -999.25    -999.25   41.25240
  450.00000    -999.25    -999.25    -999.25    -999.25    -999.25    -999.25   32.80280
  500.00000    -999.25    -999.25    -999.25    -999.25    -999.25    -999.25   31.65420
  550.00000    -999.25    -999.25    -999.25    -999.25    -999.25    -999.25   43.25770
  600.00000    -999.25    -999.25    -999.25    -999.25    -999.25    -999.25   45.04260
  650.00000    -999.25    -999.25    -999.25    -999.25    -999.25    -999.25   48.63770
  700.00000    -999.25    -999.25    2.05740 -100.42600    2.56710    -999.25   58.56090
  750.00000    -999.25    -999.25   16.81270 -108.67030   21.94490   17.33780   44.43170
  800.00000    -999.25    -999.25    2.38690 -105.26670    7.52050    7.23840   56.53780
  850.00000    -999.25    -999.25    2.16090 -101.96570    5.79430    3.47440   75.84390
  900.00000    -999.25    -999.25    1.25370 -101.20820    4.61460    1.48820   47.60880
  950.00000    -999.25    -999.25    2.05190 -101.33220    5.48410    2.77380   71.12700
 1000.00000    -999.25    -999.25    3.00860 -100.37460    5.98660    5.32590   57.68570
 1050.00000    -999.25    -999.25    4.75800  -98.97050    5.16930    7.49880   48.60490
 1100.00000    -999.25    -999.25    4.44600 -100.64860    7.22730    0.90740   58.08650
 1150.00000    -999.25    -999.25    3.06170  -97.56480    6.46910    0.12020   67.63020
 1200.00000    -999.25    -999.25    3.20830  -98.61310    4.81090    4.47470   75.38110
 1250.00000    -999.25    -999.25    8.95280 -101.75300    8.91040    2.85830   58.69190
 1300.00000    -999.25    -999.25   11.08890 -109.60010   12.64920    7.69090   60.92750
 1350.00000    -999.25    -999.25    2.33800  -99.46620    5.21450    7.93680   73.81270
 1400.00000    -999.25    -999.25    1.78690  -99.16470    4.34180    1.64020   67.75350
 1450.00000    -999.25    -999.25   10.63400 -106.80850    9.50140    6.57410  110.21620
 1500.00000    -999.25    -999.25    1.62180  -96.47650    4.05950    2.40220   67.47540
 1550.00000    -999.25    -999.25    3.50530  -99.76310    4.69620    4.20380   62.41890
 1600.00000    -999.25    -999.25    5.45050  -97.17940    8.22350    3.51790   52.52620
 1650.00000    -999.25    -999.25    2.55210  -97.84130    4.73500    4.80120   43.75100
 1700.00000    -999.25    -999.25    3.83300 -102.47500    6.10700    7.71620   56.04790
 1750.00000    -999.25    -999.25    5.21060 -103.33460    6.40090   11.51620   63.95320
 1800.00000    -999.25    -999.25    0.77300  -96.47620    3.06470    1.01170   76.38990
 1850.00000    -999.25    -999.25    5.88570  -98.35080   12.75270   10.36850   38.03380
 1900.00000    -999.25    -999.25   15.20900 -113.43870   21.52660   20.71620   46.82900
 1950.00000    -999.25    -999.25    6.15150  -99.42820    7.83330   17.57460   61.05620
 2000.00000    -999.25    -999.25    7.81330  -97.17480    8.12940    7.70330   67.42850
 2050.00000    -999.25    -999.25    4.33070  -96.88250    7.86090    2.46040   34.73450
 2100.00000    -999.25    -999.25    3.57010  -96.86010    6.09220    5.02480   60.87000
 2150.00000    -999.25    -999.25    4.92260  -97.42920    6.74570    2.47100   45.00270
 2200.00000    -999.25    -999.25   21.86260 -111.07850   29.07810    9.10880   36.65120
 2250.00000    -999.25    -999.25    4.14020  -96.81940    5.83650    5.21380   52.13220
 2300.00000    -999.25    -999.25    3.25180  -96.33870    6.45290    2.54670   67.00340
 2350.00000    -999.25    -999.25    7.38170  -96.28120    9.21050    3.11100   49.31990
 2400.00000    -999.25    -999.25    7.42970 -100.34670   13.67130    5.39040   29.67360
 2450.00000    -999.25    -999.25    5.87640  -97.15120   10.55620    3.83570   55.81570
 2500.00000    -999.25    -999.25    3.45360  -96.57390    7.01320    6.98980   39.09960
 2550.00000    -999.25    -999.25    5.90110  -95.96010    6.68070    5.67540   59.31800
 2600.00000    -999.25    -999.25   10.92360 -110.48520   12.16860    9.57520   42.95320
 2650.00000    -999.25    -999.25    5.33810  -97.29480    8.29960    7.57740   46.94500
 2700.00000    -999.25    -999.25   11.65540  -96.67890    9.27590    5.86660   48.86050
 2750.00000    -999.25    -999.25    6.59690  -96.44430    6.54310   11.15960   60.06280
 2800.00000    -999.25    -999.25    5.73350 -100.49940    8.72850    7.72510   76.90170
 2850.00000    -999.25    -999.25    5.89080 -100.22860    8.63380    9.22110   75.27110
 2900.00000    -999.25    -999.25    5.76990 -101.07720    8.13150    7.49910   84.45170
 2950.00000    -999.25    -999.25    8.99050  -99.67050   11.39100    6.25850  129.30280
 3000.00000    -999.25    -999.25   10.26670  -99.51920   15.58060    9.97950   85.79580
 3050.00000    -999.25    -999.25    6.79910 -100.77010   10.53410    8.76710  102.09260
 3100.00000    -999.25    -999.25    5.64230 -101.43460    8.00050    6.88680  105.12750
 3150.00000    -999.25    -999.25    6.44200 -102.66990    9.02470    7.42970   89.54870
 3200.00000    -999.25    -999.25    6.58670 -102.02310    9.33050    9.90520   75.53790
 3250.00000    -999.25    -999.25    7.20990 -101.28340    9.50120   11.21790   91.48640
 3300.00000    -999.25    -999.25    7.69070 -100.51360    9.52290    8.22030   92.52800
 3350.00000    -999.25    -999.25    6.43320 -100.93100    8.51660    6.54730   86.61670
 3400.00000    -999.25    -999.25    7.06530 -100.82650    9.49210    7.64610   91.39040
 3450.00000    -999.25    -999.25    6.77990 -100.96140    9.15410    8.21710   81.64880
 3500.00000    -999.25    -999.25    8.34270 -100.31840   11.45480    9.73010   82.25190
 3550.00000    -999.25    -999.25    8.85990  -99.60900   10.51110   11.74120   94.30990
 3600.00000    -999.25    -999.25    7.12240  -98.97020   10.21770    8.72410   98.34970
 3650.00000    -999.25    -999.25    6.56370  -99.06220    9.43590    9.71670   93.91170
 3700.00000    -999.25    -999.25    6.47790  -97.81350    8.41910    7.74150   95.74260
 3750.00000    -999.25    -999.25    7.85050  -95.91260    9.56360    7.92130   84.00530
 3800.00000    -999.25    -999.25    7.84720  -94.58330    9.05910    7.30930   81.47100
 3850.00000    -999.25    -999.25    9.33940  -93.93490   11.11290    8.23950   80.16360
 3900.00000    -999.25    -999.25    9.27520  -92.98480   11.00040    7.44360   90.83080
 3950.00000    -999.25    -999.25   13.35620  -91.96820   12.52720   11.66960  104.36370
 4000.00000    -999.25    -999.25   12.98990  -91.49640   15.24740    8.91010  106.25520
 4050.00000    -999.25    -999.25    7.70690  -92.70500    9.04660    8.11860   94.13060
 4100.00000    -999.25    -999.25    6.37370  -93.60880    8.06680    8.77760   91.09060
 4150.00000    -999.25    -999.25    5.66260  -94.14940    7.28290    7.19230   80.33400
 4200.00000    -999.25    -999.25    7.04330  -92.81400    8.51430    5.78970   85.88680
 4250.00000    -999.25    -999.25    5.77930  -91.81510    6.75190    6.15640   95.10350
 4300.00000    -999.25    -999.25    7.84660  -93.71290    9.51000    7.98550   87.11510
 4350.00000    -999.25    -999.25    5.98710  -91.19510    7.13260    5.96080   76.85840
 4400.00000    -999.25    -999.25    5.04220  -90.52800    5.62940    4.30250   81.70750
 4450.00000    -999.25    -999.25    5.41910  -90.42450    6.42420    4.91750   83.30070
 4500.00000    -999.25    -999.25    3.25320  -88.07860    4.12420    2.24610  113.74630
 4550.00000    -999.25    -999.25    2.27880  -88.77030    3.36420    1.68350  100.97180
 4600.00000    -999.25    -999.25    4.22730  -89.06840    5.12280    2.30630   70.49550
 4650.00000    -999.25   13.03850    5.26680  -89.88590    5.93190    3.15300   95.83280
 4700.00000    -999.25   10.75320   11.90740  -90.73620   11.65490    4.29660   93.31980
 4750.00000    -999.25   13.57450    7.30280  -89.36520    7.67920   14.18490   85.06880
