~Version ---------------------------------------------------
VERS.      2.0 : CWLS log ASCII Standard -VERSION 2.0
WRAP.       NO : One line per depth step
CREA. 07/27/17 : LAS Creation Date
~Well ------------------------------------------------------
STRT.FT                       700.0 : START DEPTH
STOP.FT                     10900.0 : STOP DEPTH
STEP.FT                    50.00000 : STEP LENGTH
NULL.                       -999.25 : NULL VALUE
COMP.   SHELL CANADA RESOURCES LTD. : COMPANY
WELL. SHELL ET AL PEERS 11-34-53-14 : WELL
FLD .                               : FIELD
LOC .                               : LOCATION
CTRY.                        CANADA : COUNTRY
SRVC.        Schlumberger of Canada : SERVICE COMPANY
DATE.                   29-Aug-1977 : LOGDATE
PROV.                       Alberta : PROVINCE
UWI .              100113405314W500 : UNIQUE WELL ID
SLAT.WGS84                 53.62396 : SURFACE LATITUDE
SLON.WGS84                -115.9841 : SURFACE LONGITUDE
~Curve Information -----------------------------------------
DEPT    .FT    : Depth Curve
CALDED  .IN    : CALIPER FROM FDC/CNL LOG
CALSED  .IN    : CALIPER FROM BHC/GR LOG
CALWS   .IN    : CALIPER [CALDED]
CONDWS  .MMHO  : CONDUCTIVITY [1000/DRESWS]
DCORED  .G/C3  : DENSITY CORRECTION FROM FDC/CNL LOG
DCORWS  .G/C3  : DENSITY CORRECTION [DCORED]
DENWS   .G/C3  : BULK DENSITY [M=2.650,2.710 F=1000] [RHOBED]
DPHILSED.V/V   : DENSITY POROSITY [M=2.710 F=1.000] FROM FDC/CNL LOG
DPHISSED.V/V   : DENSITY POROSITY [M=2.650 F=1.000] FROM FDC/CNL LOG
DPOLSWS .V/V   : DENSITY POROSITY [M=2.710 F=1.000] [CALCULATED FROM DENWS]
DRESWS  .OHMM  : DEEP RESISTIVITY [LLDED]
DTED    .US/F  : DELTA TIME FROM BHC/GR LOG
DTWS    .US/F  : DELTA TIME [DTED]
GRDED   .GAPI  : GAMMA RAY FROM FDC/CNL LOG
GRRED   .GAPI  : GAMMA RAY FROM DLL LOG
GRSED   .GAPI  : GAMMA RAY FROM BHC/GR LOG
GRWS    .GAPI  : GAMMA RAY [MERGED GRSED/GRRED at 1160.5']
LLDED   .OHMM  : LATEROLOG DEEP RESISTIVITY FROM DLL LOG
LLSED   .OHMM  : LATEROLOG SHALLOW RESISTIVITY FROM DLL LOG
MCALED  .IN    : CALIPER MICROLOG FROM PML LOG
NPHILSED.V/V   : NEUTRON POROSITY LIMESTONE FROM FDC/CNL LOG
NPHISSED.V/V   : NEUTRON POROSITY SANDSTONE FROM FDC/CNL LOG
NPOLSWS .V/V   : NEUTRON POROSITY LIMESTONE [MERGED NPHISSED CONVERTED TO LS/NPHILSED at 7316']
PROXED  .OHMM  : PROXIMITY RESISTIVITY FROM PML LOG
RHOBED  .G/C3  : BULK DENSITY FROM FDC/CNL LOG
SRESWS  .OHMM  : SHALLOW RESISTIVITY [LLSED]
~Params ----------------------------------------------------
PD  .                     GL : PERMANENT DATUM
EPD .FT               2853.7 : ELEVATION PERMANENT DATUM
LMF .                     KB : LOG MEASURED FROM
DAPD.FT                 20.6 : FEET ABOVE PERMANENT DATUM
EKB .FT               2874.3 : KELLY BUSHING
EGL .FT               2853.7 : GROUND LEVEL
DATE.               08/29/77 : RUN DATE
RUN .                      1 : RUN NUMBER
DD  .FT                10950 : DEPTH DRILLER
DL  .FT                10935 : DEPTH LOGGER
BLI .FT                10932 : BOTTOM LOG INTERVAL
TLI .FT                 1159 : TOP LOG INTERVAL
CS  .IN                9.625 : CASING SIZE
CBD .FT                 1159 : CASING BOTTOM DRILLER
CBL .FT                 1159 : CASING BOTTOM LOGGER
BS  .IN                 8.75 : BIT SIZE
BSD .FT                10950 : BIT SIZE AT DEPTH
DFT .             KCL BARITE : DRILLING FLUID TYPE
DFD .                    9.2 : DRILLING FLUID DENSITY
DFV .                     65 : DRILLING FLUID VISCOSITY
DFPH.                   10.5 : DRILLING FLUID PH
DFL .                   14.2 : DRILLING FLUID LOSS
RMS .OHMM              0.243 : RESISTIVITY MUD SAMPLE
MST .DEGF                 60 : MUD SAMPLE TEMPERATURE
RMF .OHMM              0.172 : RESISTIVITY MUD FILTRATE SAMPLE
MFST.DEGF                 74 : MUD FILTRATE SAMPLE TEMPERATURE
RMB .OHMM              0.069 : RESISTIVITY MUD AT BHT
TCS .HRS                   5 : TIME CIRCULATED STOPPED
LUN .                   7772 : LOGGING UNIT NUMBER
LUL .                    EDM : LOGGING UNIT LOCATION
ENGI.               BERNISKY : RECORDING ENGINEER
WITN.                  CRAIG : WITNESSED BY
CLNT.                A2DTECH : CLIENT CODE
ORIG.            2" 5" PRINT : ORIGIN OF DATA
UWI .       100113405314W500 : UNIQUE WELL ID
DICO. A2D Technologies, Inc. : DIGITIZING COMPANY
~Other -----------------------------------------------------
~ASCII -----------------------------------------------------
# ...
 7450.00000    8.69480    9.14250    9.14250   10.90740    0.04500    0.04500    2.70430    0.06350   -0.03240    0.00330   91.68070   55.85040   55.85040   34.89890   35.31450   31.81210   35.31450   91.68070  120.31920    -999.25    0.07170    0.10410    0.07170    -999.25    2.70430  120.31920
 7500.00000    9.76530    9.70350    9.70350    2.45250    0.01430    0.01430    2.49380    0.12830    0.10150    0.12640  407.74180   68.05070   68.05070  145.75120  144.89690  160.86830  144.89690  407.74180  347.55780    -999.25    0.18550    0.23530    0.18550    -999.25    2.49380  347.55780
 7550.00000    9.55820    9.44260    9.44260    3.19150   -0.00400   -0.00400    2.68640    0.01520   -0.02430    0.01380  313.33330   53.46070   53.46070   69.59160   64.80760   65.50240   64.80760  313.33330  269.50630    -999.25    0.03690    0.06740    0.03690    -999.25    2.68640  269.50630
 7600.00000   14.01060    9.89970    9.89970   15.47220    0.08720    0.08720    2.42820    0.17940    0.13170    0.16480   64.63190   51.42560   51.42560   22.75230   23.68210   22.62160   23.68210   64.63190   56.29740    -999.25    0.09210    0.13190    0.09210    -999.25    2.42820   56.29740
 7650.00000    8.93170    9.27930    9.27930   41.70330   -0.00530   -0.00530    2.73340   -0.01550   -0.05780   -0.01370   23.97890   56.62880   56.62880   84.65510   86.59030   83.60320   86.59030   23.97890   26.74230    -999.25    0.08590    0.12440    0.08590    -999.25    2.73340   26.74230
 7700.00000    8.84400    9.14410    9.14410   45.86800    0.01090    0.01090    2.74130   -0.02180    -999.25   -0.01830   21.80170   53.72410   53.72410   55.07510   60.78450   54.35560   60.78450   21.80170   26.74480    -999.25    0.07930    -999.25    0.07930    -999.25    2.74130   26.74480
 7750.00000    8.92430    9.21290    9.21290   54.21140    0.05030    0.05030    2.79910   -0.04930    -999.25   -0.05210   18.44630   55.49060   55.49060   42.57930   46.10820   42.58490   46.10820   18.44630   26.31360    -999.25    0.06760    -999.25    0.06760    -999.25    2.79910   26.31360
 7800.00000    8.74970    9.20350    9.20350    4.10740    0.01040    0.01040    2.69260   -0.00010    -999.25    0.01020  243.46330   52.55530   52.55530   41.49880   46.46190   42.04900   46.46190  243.46330  277.76550    -999.25    0.03260    -999.25    0.03260    -999.25    2.69260  277.76550
 7850.00000    8.79440    9.22290    9.22290    4.76760   -0.00560   -0.00560    2.70740   -0.00440    -999.25    0.00150  209.74930   50.88930   50.88930   28.98410   33.50040   28.05700   33.50040  209.74930  260.43640    -999.25    0.01180    -999.25    0.01180    -999.25    2.70740  260.43640
 7900.00000    8.77640    9.13680    9.13680    8.34330    0.03940    0.03940    2.74700   -0.02280    -999.25   -0.02160  119.85700   53.25200   53.25200   50.79810   53.39550   51.46630   53.39550  119.85700  142.50160    -999.25    0.03500    -999.25    0.03500    -999.25    2.74700  142.50160
 7950.00000    8.72710    9.16310    9.16310   17.60900    0.02420    0.02420    2.69720    0.00600    -999.25    0.00750   56.78920   56.40500   56.40500   64.12960   69.64750   62.78570   69.64750   56.78920   68.01440    -999.25    0.06690    -999.25    0.06690    -999.25    2.69720   68.01440
 8000.00000    8.90490    9.27490    9.27490   24.75190    0.00700    0.00700    2.67350    0.01940    -999.25    0.02130   40.40090   56.49990   56.49990   66.81900   64.25390   56.59570   64.25390   40.40090   46.78150    -999.25    0.08230    -999.25    0.08230    -999.25    2.67350   46.78150
 8050.00000    8.82850    9.17220    9.17220   14.25720    0.04480    0.04480    2.76270   -0.03410    -999.25   -0.03080   70.13990   54.59820   54.59820   48.24190   48.12910   46.00700   48.12910   70.13990   92.69140    -999.25    0.04390    -999.25    0.04390    -999.25    2.76270   92.69140
 8100.00000    8.69850    9.15110    9.15110    0.85250    0.03170    0.03170    2.70990   -0.00390    -999.25    0.00000 1172.98820   52.62980   52.62980   42.47180   41.46480   43.69830   41.46480 1172.98820  974.99340    9.28500    0.02990    -999.25    0.02990    0.34750    2.70990  974.99340
 8150.00000    8.80500    9.23790    9.23790    1.86190    0.01170    0.01170    2.68630    0.01540    -999.25    0.01390  537.07280   51.57490   51.57490   26.61620   23.93240   25.14760   23.93240  537.07280  437.54230    9.74700    0.01860    -999.25    0.01860    0.71710    2.68630  437.54230
 8200.00000    9.03120    9.28150    9.28150    3.07030    0.01230    0.01230    2.72010   -0.00780    -999.25   -0.00590  325.70550   52.12320   52.12320   45.68040   47.79100   44.03710   47.79100  325.70550  333.86530    9.55300    0.01880    -999.25    0.01880    0.54400    2.72010  333.86530
 8250.00000   10.41130    9.63640    9.63640    0.51360    0.22220    0.22220    2.70140    0.00640    -999.25    0.00500 1947.04090   49.46430   49.46430   22.29470   24.07660   21.64420   24.07660 1947.04090  823.19100   10.79200    0.00720    -999.25    0.00720    -999.25    2.70140  823.19100
 8300.00000   10.40650    9.65860    9.65860    2.49900    0.08990    0.08990    2.60460    0.05990    -999.25    0.06160  400.16150   51.29530   51.29530   24.96270   23.24090   20.38760   23.24090  400.16150  272.35350   11.10800    0.00650    -999.25    0.00650    -999.25    2.60460  272.35350
 8350.00000   10.44090    9.61490    9.61490    2.20890    0.17810    0.17810    2.66590    0.02630    -999.25    0.02580  452.72180   49.51640   49.51640   18.38220   19.75160   18.41400   19.75160  452.72180  255.18590   11.17250    0.00210    -999.25    0.00210    -999.25    2.66590  255.18590
 8400.00000   12.65730    9.89290    9.89290    2.89200    0.19790    0.19790    2.50780    0.12100    -999.25    0.11820  345.77880   48.10160   48.10160   23.53680   23.65180   23.71470   23.65180  345.77880  183.94780   14.00400    0.03810    -999.25    0.03810    0.91710    2.50780  183.94780
 8450.00000   11.19800   10.00180   10.00180    1.80290    0.09230    0.09230    2.67250    0.02330    -999.25    0.02190  554.64850   45.90510   45.90510   21.68560   24.14710   20.27290   24.14710  554.64850  142.94990   11.87500    0.00590    -999.25    0.00590    -999.25    2.67250  142.94990
 8500.00000   11.25090    9.67360    9.67360    3.33470    0.21050    0.21050    2.56010    0.09040    -999.25    0.08770  299.87310   48.32900   48.32900   20.53490   22.07010   17.22180   22.07010  299.87310  291.07810   12.33700    0.00600    -999.25    0.00600    9.07270    2.56010  291.07810
 8550.00000   10.62740    9.77750    9.77750   10.05210    0.24190    0.24190    2.65080    0.03120    -999.25    0.03460   99.48200   48.80780   48.80780   20.70420   19.87640   18.21880   19.87640   99.48200   69.82530   11.26800    0.04380    -999.25    0.04380    1.76450    2.65080   69.82530
 8600.00000   12.41190    9.93030    9.93030    4.29520    0.19580    0.19580    2.44760    0.15360    -999.25    0.15340  232.82010   48.80660   48.80660   19.72290   19.69640   19.96800   19.69640  232.82010  215.83300   12.83850    0.01990    -999.25    0.01990    1.12470    2.44760  215.83300
 8650.00000    9.93200    9.67200    9.67200    5.78350    0.19870    0.19870    2.71640   -0.01100    -999.25   -0.00370  172.90530   48.11960   48.11960   20.77750   17.44510   16.02750   17.44510  172.90530   87.16160   10.13400    0.01590    -999.25    0.01590    1.77590    2.71640   87.16160
 8700.00000   14.12820    9.72490    9.72490    1.21390    0.24370    0.24370    2.52230    0.11640    -999.25    0.10980  823.81900   49.43990   49.43990   24.12300   25.60800   22.60240   25.60800  823.81900  224.54890   15.48850    0.04220    -999.25    0.04220    1.88600    2.52230  224.54890
 8750.00000    9.79500    9.48990    9.48990    2.56010    0.12030    0.12030    2.79300   -0.05220    -999.25   -0.04850  390.61120   49.59830   49.59830   21.86780   23.90840   22.16290   23.90840  390.61120  308.67590    9.94900    0.04130    -999.25    0.04130    4.74940    2.79300  308.67590
