~Version ---------------------------------------------------
VERS.      2.0 : CWLS log ASCII Standard -VERSION 2.0
WRAP.       NO : One line per depth step
CREA. 09/17/14 : LAS Creation Date
~Well ------------------------------------------------------
STRT.M                        600.0 : START DEPTH
STOP.M                       4650.0 : STOP DEPTH
STEP.M                     50.00000 : STEP LENGTH
NULL.                       -999.25 : NULL VALUE
COMP.     GULF CANADA RESOURCES INC : COMPANY
WELL. GULF ET AL HANLAN 11-25-47-18 : WELL
FLD .                        HANLAN : FIELD
LOC .                               : LOCATION
CTRY.                        CANADA : COUNTRY
SRVC.                  Schlumberger : SERVICE COMPANY
DATE.                   07-Oct-1981 : LOGDATE
PROV.                       Alberta : PROVINCE
UWI .              100112504718W500 : UNIQUE WELL ID
SLAT.WGS84                 53.08538 : SURFACE LATITUDE
SLON.WGS84                -116.5027 : SURFACE LONGITUDE
~Curve Information -----------------------------------------
DEPT    .M      : DEPTH METER
CALDED  .MM     : CALIPER FROM DENSITY LOG [ADJ. TO RESISTIVITY LOG]
CALSED  .MM     : CALIPER FROM SONIC LOG [ADJ. TO RESISTIVITY LOG]
CALWS   .MM     : CALIPER [CALDED]
CONDWS  .MMHO   : CONDUCTIVITY [1000/DRESWS]
CORRED  .KG/M3  : DENSITY CORRECTION FROM DENSITY LOG [ADJ. TO RESISTIVITY LOG]
DCORWS  .KG/M3  : DENSITY CORRECTION [CORRED]
DENWS   .KG/M3  : FORMATION BULK DENSITY [CALC. FROM DPOLSWS, M=2710, F=1000]
DPHILSED.V/V    : DENSITY POROSITY LIMESTONE [M=2710, F=1000] FROM DENSITY LOG [ADJ. TO RESISTIVITY LOG]
DPHISSED.V/V    : DENSITY POROSITY SANDSTONE [M=2650, F=1000] FROM DENSITY LOG [ADJ. TO RESISTIVITY LOG]
DPOLSWS .V/V    : DENSITY POROSITY LIMESTONE [DPHISSED CONVEERTED INTO LIMESTONE MATRIX , M=2710, F=1000 & SPL. TO DPHILSED @ 3600 M]
DRESWS  .OHMM   : DEEP RESISTIVITY [ILDED SPL. TO LLDED @ 3235.5 M]
DTED    .US/M   : DELTA TIME FROM SONIC LOG [ADJ. TO RESISTIVITY LOG]
DTWS    .US/M   : COMPRESSIONAL SONIC [DTED]
GRDED   .GAPI   : GAMMA RAY FROM DENSITY LOG [ADJ. TO RESISTIVITY LOG]
GRRED   .GAPI   : GAMMA RAY FROM DLL LOG
GRSED   .GAPI   : GAMMA RAY FROM SONIC LOG [ADJ. TO RESISTIVITY LOG]
GRWS    .GAPI   : GAMMA RAY [GRSED SPL. TO GRRED @ 3219.2 M]
ILDED   .OHMM   : DEEP INDUCTION FROM DIL-SFL LOG
ILMED   .OHMM   : MEDIUM INDUCTION FROM DIL-SFL LOG
LLDED   .OHMM   : DEEP LATEROLOG FROM DLL LOG [ADJ. TO DIL-MSFL LOG]
LLSED   .OHMM   : SHALLOW LATEROLOG FROM DLL LOG [ADJ. TO DIL-MSFL LOG]
MRESWS  .OHMM   : MEDIUM RESISTIVITY [ILMED]
NPHILSED.V/V    : NEUTRON POROSITY LIMESTONE FROM DENSITY LOG [ADJ. TO RESISTIVITY LOG]
NPHISSED.V/V    : NEUTRON POROSITY SANDSTONE FROM DENSITY LOG [ADJ. TO RESISTIVITY LOG]
NPOLSWS .V/V    : NEUTRON POROSITY LIMESTONE [NPHISSED MATRIX CONVERSION FOR LIMESTONE & SPL. TO NPHILSED @ 3593.5 M]
PEFED   .B/E    : PHOTOELECTRIC FACTOR FROM DENSITY LOG [ADJ. TO RESISTIVITY LOG]
PEFWS   .B/E    : PHOTOELECTRIC FACTOR [PEFED]
RHOBED  .KG/M3  : BULK DENSITY FROM DENSITY LOG [ADJ. TO DPHISSED/DPHILSED/RESISTIVITY LOG]
SFLED   .OHMM   : SHALLOW FOCUSED FROM DIL-SFL LOG
SPRED   .MV     : SPONTANEOUS POTENTIAL FROM DIL-SFL LOG
SPWS    .MV     : SPONTANEOUS POTENTIAL [BASELINE 0 MV,SPRED]
SRESWS  .OHMM   : SHALLOW RESISTIVITY [SFLED SPL. TO LLSED @ 3235.5 M]
~Params ----------------------------------------------------
PD  .                         GL : PERMANENT DATUM
EPD .M                   1212.95 : ELEVATION PERMANENT DATUM
LMF .                         KB : LOG MEASURED FROM
DAPD.M                      9.93 : FEET ABOVE PERMANENT DATUM
DMF .                         KB : DRILLING MEASURED FROM
EKB .M                   1222.88 : KELLY BUSHING
EGL .M                   1212.95 : GROUND LEVEL
DATE.                   10/07/81 : RUN DATE
RUN .                          2 : RUN NUMBER
DD  .M                      4665 : DEPTH DRILLER
DL  .M                      4665 : DEPTH LOGGER
BLI .M                    4661.1 : BOTTOM LOG INTERVAL
TLI .M                    3235.5 : TOP LOG INTERVAL
CS  .MM                      244 : CASING SIZE
CBD .M                      3236 : CASING BOTTOM DRILLER
CBL .M                    3235.5 : CASING BOTTOM LOGGER
BS  .MM                      216 : BIT SIZE
BSD .M                      4665 : BIT SIZE AT DEPTH
DFT .                   GEL CHEM : DRILLING FLUID TYPE
DFD .                       1160 : DRILLING FLUID DENSITY
DFV .                         78 : DRILLING FLUID VISCOSITY
DFPH.                       10.5 : DRILLING FLUID PH
DFL .                          8 : DRILLING FLUID LOSS
MSS .                CIRCULATION : MUD SAMPLE SOURCE
RMS .OHMM                   0.84 : RESISTIVITY MUD SAMPLE
MST .DEGC                   23.3 : MUD SAMPLE TEMPERATURE
RMF .OHMM                   0.62 : RESISTIVITY MUD FILTRATE SAMPLE
MFST.DEGC                   23.9 : MUD FILTRATE SAMPLE TEMPERATURE
RMB .OHMM                   0.27 : RESISTIVITY MUD AT BHT
TCS .HRS                    1000 : TIME CIRCULATED STOPPED
TLAB.HRS                     830 : TIME LOGGER AT BOTTOM
LUN .                       8110 : LOGGING UNIT NUMBER
LUL .                        EDS : LOGGING UNIT LOCATION
ENGI.             BEBB LABRECQUB : RECORDING ENGINEER
WITN.                      PERRY : WITNESSED BY
CLNT.                    A2DTECH : CLIENT CODE
ORIG. 6.5"/100M 16.5"/100M PRINT : ORIGIN OF DATA
UWI .           100112504718W500 : UNIQUE WELL ID
DICO.     A2D Technologies, Inc. : DIGITIZING COMPANY
~Other -----------------------------------------------------
DIL-MSFL-DLL-CNL-FDC-BHC LOG RUN
~ASCII -----------------------------------------------------
# ...
 2800.00000  330.05260  326.96340  330.05260   92.23310   90.98660   90.98660 2560.73500    -999.25    0.05410    0.08730   10.84210  251.12700  251.12700  102.85730    -999.25   94.07310   94.07310   10.84210   10.34630    -999.25    -999.25   10.34630    -999.25    0.28010    0.23610    -999.25    -999.25 2562.70510   10.82040   24.68330   -1.67630   10.82040
 2850.00000  421.85580  339.49710  421.85580  110.05460  108.42440  108.42440 2141.80000    -999.25    0.30800    0.33230    9.08640  278.11270  278.11270   94.93750    -999.25   93.80160   93.80160    9.08640    8.53470    -999.25    -999.25    8.53470    -999.25    0.36380    0.32030    -999.25    -999.25 2138.21290    9.41940   26.93280   -3.75400    9.41940
 2900.00000  361.71440  325.03030  361.71440   93.91440  200.76490  200.76490 2401.67500    -999.25    0.15050    0.18030   10.64800  273.65950  273.65950   94.24490    -999.25   93.32580   93.32580   10.64800   11.04090    -999.25    -999.25   11.04090    -999.25    0.28820    0.24420    -999.25    -999.25 2400.24760   12.59610   28.03690   -7.06430   12.59610
 2950.00000  318.56490  335.29410  318.56490  103.32070   16.70060   16.70060 2464.54000    -999.25    0.11240    0.14350    9.67860  290.63690  290.63690   85.61490    -999.25   84.10490   84.10490    9.67860    9.96260    -999.25    -999.25    9.96260    -999.25    0.50030    0.46050    -999.25    -999.25 2457.33790   11.18390   31.66910   -7.84650   11.18390
 3000.00000  318.26220  332.25990  318.26220  117.10840   68.74890   68.74890 2585.15500    -999.25    0.03930    0.07300    8.53910  273.28830  273.28830   85.04110    -999.25   93.83730   93.83730    8.53910    8.80150    -999.25    -999.25    8.80150    -999.25    0.37610    0.33280    -999.25    -999.25 2571.63840   10.40380   35.87860   -8.05150   10.40380
 3050.00000  340.57750  355.75620  340.57750  210.00900  121.06470  121.06470 2384.35000    -999.25    0.16100    0.19040    4.76170  304.88840  304.88840   93.11220    -999.25   88.67880   88.67880    4.76170    4.89910    -999.25    -999.25    4.89910    -999.25    0.34870    0.30500    -999.25    -999.25 2368.47750    5.46130   37.70560  -10.63890    5.46130
 3100.00000  458.12120  378.90650  458.12120  177.74300  105.91180  105.91180 2158.79500    -999.25    0.29770    0.32230    5.62610  335.81690  335.81690   75.56100    -999.25   71.18810   71.18810    5.62610    4.67400    -999.25    -999.25    4.67400    -999.25    0.46550    0.42430    -999.25    -999.25 2069.53760    5.25340   31.07770  -21.68120    5.25340
 3150.00000  319.57080  316.94880  319.57080   65.20440   23.68400   23.68400 2518.66000    -999.25    0.07960    0.11190   15.33640  243.87010  243.87010   51.82150    -999.25   42.67800   42.67800   15.33640   16.16590    -999.25    -999.25   16.16590    -999.25    0.11970    0.07750    -999.25    -999.25 2514.57230   22.72590   36.37850  -20.79480   22.72590
 3200.00000  317.60540  312.70210  317.60540  117.72460   18.30460   18.30460 2596.04500    -999.25    0.03270    0.06660    8.49440  253.90620  253.90620   76.27080    -999.25   69.26550   69.26550    8.49440    8.74760    -999.25    -999.25    8.74760    -999.25    0.32110    0.27720    -999.25    -999.25 2592.41890    9.41550   49.97110  -11.61670    9.41550
 3250.00000  311.83700  268.73950  311.83700   60.62410  133.97780  133.97780 2281.55500    -999.25    0.22330    0.25060   16.49510  247.58290  247.58290   82.24390   86.31980   83.26350   86.31980   11.56860   10.08030   16.49510   13.53590   10.08030    -999.25    0.26370    0.21970    3.36390    3.36390 2283.13210   12.62210   56.62940  -10.60580   13.53590
 3300.00000  253.73130  277.61110  253.73130   39.05790  -15.94290  -15.94290 2752.13500    -999.25   -0.06190   -0.02460   25.60300  225.43890  225.43890   62.18620   63.25780   52.84270   63.25780   15.25050   17.40790   25.60300   14.68370   17.40790    -999.25    0.23390    0.19010    3.42670    3.42670 2771.40890   19.32650   71.03990   -2.47240   14.68370
 3350.00000  262.16710  271.49760  262.16710   67.41270  110.79290  110.79290 2447.71000    -999.25    0.12260    0.15340   14.83400  230.15260  230.15260   81.35910   81.98320   77.40130   81.98320   12.42230   13.18100   14.83400   14.40670   13.18100    -999.25    0.24720    0.20330    3.42040    3.42040 2460.52100   14.12580   63.79090  -22.21350   14.40670
 3400.00000  300.92260  276.77730  300.92260   66.54600   76.23180   76.23180 2108.80000    -999.25    0.32800    0.35160   15.02720  270.45090  270.45090   96.10040  110.31680   99.67470  110.31680   10.71260   15.18680   15.02720   13.36720   15.18680    -999.25    0.35390    0.31030    3.29560    3.29560 2118.83720   13.18080   27.18820  -63.12370   13.36720
 3450.00000  285.45060  262.41600  285.45060   21.93730  135.84180  135.84180 2383.36000    -999.25    0.16160    0.19100   45.58440  224.93390  224.93390  109.18440  105.18790  103.23490  105.18790   19.34090   18.26050   45.58440   39.00580   18.26050    -999.25    0.19460    0.15120    3.80150    3.80150 2342.51270   31.80760   50.15970  -34.70790   39.00580
 3500.00000  304.27110  245.40740  304.27110    9.73410  154.26340  154.26340 2427.25000    -999.25    0.13500    0.16540  102.73200  205.43960  205.43960   28.19300   30.61670   25.43680   30.61670  200.50090   84.50140  102.73200   93.76690   84.50140    -999.25    0.06160    0.02510    3.25470    3.25470 2442.05350   95.80810    8.70130  -83.18500   93.76690
 3550.00000  231.33090  236.78470  231.33090    0.24220    5.61390    5.61390 2660.89000    -999.25   -0.00660    0.02870 4128.65280  175.95180  175.95180   28.75750   26.74380   26.47100   26.74380 2004.71220 1709.43160 4128.65280 2431.05490 1709.43160    -999.25    0.02480   -0.00250    2.73360    2.73360 2652.28830 1325.65880   18.96630  -85.12860 2431.05490
 3600.00000  231.52570  225.98970  231.52570    1.48430  127.25040  127.25040 2692.04500    0.01050   -0.08800    0.01050  673.73610  152.63500  152.63500   21.19900   23.72590   20.10250   23.72590   52.43120   80.94860  673.73610  465.09630   80.94860    0.03910    -999.25    0.03910    4.59990    4.59990 2683.17140  343.32850   -6.55140 -122.85490  465.09630
 3650.00000  250.20200  238.83960  250.20200   96.72960   15.92830   15.92830 2838.76300   -0.07530    -999.25   -0.07530   10.33810  157.79230  157.79230   17.16330   20.12620   16.94540   20.12620    6.13800    3.48890   10.33810   10.76580    3.48890    0.03160    -999.25    0.03160    2.87340    2.87340 2822.03390    6.11270   74.84550  -53.66660   10.76580
 3700.00000  246.79100  259.57080  246.79100    0.30010   -3.56000   -3.56000 3023.61400   -0.18340    -999.25   -0.18340 3332.28810  161.96030  161.96030    8.93100    6.99590    8.26650    6.99590 1962.99380  422.94060 3332.28810 4024.98020  422.94060   -0.00680    -999.25   -0.00680    4.80680    4.80680 3024.20510 1422.24010   33.96800 -111.50680 4024.98020
 3750.00000  233.17530  248.31990  233.17530    4.42020   56.73970   56.73970 2829.35800   -0.06980    -999.25   -0.06980  226.23270  171.30540  171.30540   73.84210   86.37730   68.22140   86.37730   92.82830   76.92100  226.23270  191.87200   76.92100    0.02600    -999.25    0.02600    4.00990    4.00990 2824.07910  165.87140  120.73780  -48.71310  191.87200
 3800.00000  237.79660  245.64910  237.79660    3.19320  -22.85190  -22.85190 2780.79400   -0.04140    -999.25   -0.04140  313.16120  165.10650  165.10650   21.00760   22.75310   21.44640   22.75310  191.10930  292.21040  313.16120  378.63760  292.21040    0.00890    -999.25    0.00890    3.82440    3.82440 2781.44850  321.21560  138.16510  -55.26200  378.63760
 3850.00000  249.63420  245.51010  249.63420   29.22580  -24.56690  -24.56690 2766.77200   -0.03320    -999.25   -0.03320   34.21640  190.24430  190.24430   55.71840   59.47320   54.74880   59.47320   26.76930   26.16840   34.21640   34.74900   26.16840    0.05410    -999.25    0.05410    3.61040    3.61040 2758.09280   35.70450  130.41410  -78.10070   34.74900
