~Version ---------------------------------------------------
VERS.      2.0 : CWLS log ASCII Standard -VERSION 2.0
WRAP.       NO : One line per depth step
CREA. 08/12/13 : LAS Creation Date
~Well ------------------------------------------------------
STRT.M                            400.0 : START DEPTH
STOP.M                           2750.0 : STOP DEPTH
STEP.M                         50.00000 : STEP LENGTH
NULL.                           -999.25 : NULL VALUE
COMP.                MONT RESOURCES LTD : COMPANY
WELL. LINK ET AL SNIPE LAKE 16-36-69-18 : WELL
FLD .                                   : FIELD
LOC .                                   : LOCATION
CTRY.                            CANADA : COUNTRY
SRVC.                           Unknown : SERVICE COMPANY
DATE.                       27-Jan-1980 : LOGDATE
PROV.                           Alberta : PROVINCE
UWI .                  100163606918W500 : UNIQUE WELL ID
SLAT.WGS84                     55.02242 : SURFACE LATITUDE
SLON.WGS84                    -116.5976 : SURFACE LONGITUDE
~Curve Information -----------------------------------------
DEPT    .M      : Depth Curve
CALDED  .MM     : CALIPER FROM DENSITY LOG [ADJ. TO RESISTIVITY LOG]
CALSED  .MM     : CALIPER FROM SONIC LOG [ADJ. TO RESISTIVITY LOG]
CALWS   .MM     : CALIPER [CALSED]
CONDWS  .MMHO   : CONDUCTIVITY [1000/DRESWS]
DCORED  .KG/M3  : DENSITY CORRECTION FROM DENSITY LOG [ADJ. TO RESISTIVITY LOG]
DCORWS  .KG/M3  : DENSITY CORRECTION [DCORED]
DENWS   .KG/M3  : FORMATION BULK DENSITY [RHOBED]
DPHILSED.V/V    : DENSITY POROSITY LIMESTONE [M=2710,F=1000] FROM DENSITY LOG [ADJ. TO RESISTIVITY LOG]
DPHISSED.V/V    : DENSITY POROSITY SANDSTONE [M=2650,F=1000] FROM DENSITY LOG [ADJ. TO RESISTIVITY LOG]
DPOLSWS .V/V    : DENSITY POROSITY LIMESTONE [CALC FROM DENWS, M=2710,F=1000]
DRESWS  .OHMM   : DEEP RESISTIVITY [ILDED]
DTED    .US/M   : DELTA TIME FROM SONIC LOG [ADJ. TO RESISTIVITY LOG]
DTWS    .US/M   : COMPRESSIONAL  SONIC [DTED]
GRDED   .GAPI   : GAMMA RAY FROM DENSITY LOG [ADJ. TO RESISTIVITY LOG]
GRSED   .GAPI   : GAMMA RAY FROM SONIC LOG [ADJ. TO RESISTIVITY LOG]
GRWS    .GAPI   : GAMMA RAY [GRDED]
ILDED   .OHMM   : DEEP INDUCTION FROM RESISTIVITY LOG
ILMED   .OHMM   : MEDIUM INDUCTION FROM RESISTIVITY LOG
MRESWS  .OHMM   : MEDIUM RESISTIVITY [ILMED]
NPHILSED.V/V    : NEUTRON POROSITY LIMESTONE FROM DENSITY LOG [ADJ. TO RESISTIVITY LOG]
NPHISSED.V/V    : NEUTRON POROSITY SANDSTONE FROM DENSITY LOG [ADJ. TO RESISTIVITY LOG]
NPOLSWS .V/V    : NEUTRON POROSITY LIMESTONE [NPHISSED MATRIX CONVERSION FOR LIMESTONE, SPL. TO NPHILSED @1520M]
RHOBED  .KG/M3  : BULK DENSITY FROM DENSITY LOG [ADJ. TO RESISTIVITY LOG]
SFLED   .OHMM   : SPHERICALLY FOCUSED RESISTIVITY FROM RESISTIVITY LOG
SPRED   .MV     : SPONTANEOUS POTENTIAL FROM RESISTIVITY LOG
SPWS    .MV     : SPONTANEOUS POTENTIAL [BASELINE 0 MV, SPRED]
SRESWS  .OHMM   : SHALLOW RESISTIVITY [SFLED]
~Params ----------------------------------------------------
PD  .                         GL : PERMANENT DATUM
EPD .M                     889.8 : ELEVATION PERMANENT DATUM
LMF .                         KB : LOG MEASURED FROM
DAPD.M                       5.2 : FEET ABOVE PERMANENT DATUM
DMF .                         KB : DRILLING MEASURED FROM
EKB .M                       895 : KELLY BUSHING
EGL .M                     889.8 : GROUND LEVEL
DATE.                   01/27/80 : RUN DATE
RUN .                          1 : RUN NUMBER
DD  .M                      2765 : DEPTH DRILLER
DL  .M                    2766.4 : DEPTH LOGGER
BLI .M                    2765.4 : BOTTOM LOG INTERVAL
TLI .M                     371.1 : TOP LOG INTERVAL
CS  .MM                      244 : CASING SIZE
CBD .M                       370 : CASING BOTTOM DRILLER
CBL .M                     371.1 : CASING BOTTOM LOGGER
BS  .MM                      222 : BIT SIZE
BSD .M                      2765 : BIT SIZE AT DEPTH
DFT .                        GEL : DRILLING FLUID TYPE
DFD .                       1165 : DRILLING FLUID DENSITY
DFV .                         83 : DRILLING FLUID VISCOSITY
DFPH.                        9.5 : DRILLING FLUID PH
DFL .                          7 : DRILLING FLUID LOSS
MSS .                CIRCULATION : MUD SAMPLE SOURCE
RMS .OHMM                   2.22 : RESISTIVITY MUD SAMPLE
MST .DEGC                     16 : MUD SAMPLE TEMPERATURE
RMF .OHMM                   1.86 : RESISTIVITY MUD FILTRATE SAMPLE
MFST.DEGC                     20 : MUD FILTRATE SAMPLE TEMPERATURE
MFSS.                  MUD PRESS : MUD FILTRATE SAMPLE SOURCE
MCSS.                  MUD PRESS : MUD CAKE SAMPLE SOURCE
RMB .OHMM                  0.927 : RESISTIVITY MUD AT BHT
TCS .HRS                    1030 : TIME CIRCULATED STOPPED
TLAB.HRS                    1700 : TIME LOGGER AT BOTTOM
LUN .                       7802 : LOGGING UNIT NUMBER
LUL .                        EDM : LOGGING UNIT LOCATION
ENGI.                 RIVOLLIMER : RECORDING ENGINEER
WITN.                     HOMMEL : WITNESSED BY
CLNT.                    A2DTECH : CLIENT CODE
ORIG. 6.5"/100M 16.5"/100M PRINT : ORIGIN OF DATA
UWI .           100163606918W500 : UNIQUE WELL ID
DICO.     A2D Technologies, Inc. : DIGITIZING COMPANY
~Other -----------------------------------------------------
DIL-SFL-CNL-LDT-BCS LOG RAN
CALS HAVE BEEN VERIFIED FROM SMALL SECTION @1778M-1970M,2350M-2700M.
~ASCII -----------------------------------------------------
# ...
 1700.00000  239.41900  244.67050  244.67050  155.60330  -13.50680  -13.50680 2604.92700    0.06520    -999.25    0.06140    6.42660  189.23450  189.23450   34.84310   36.50570   34.84310    6.42660    7.98940    7.98940    0.11990    -999.25    0.11990 2604.92700   18.06740  -85.70260  -33.19850   18.06740
 1750.00000  235.40310  236.33440  236.33440   41.64860   41.45490   41.45490 2646.97020    0.04020    -999.25    0.03690   24.01040  175.19000  175.19000   15.56670   17.81680   15.56670   24.01040   33.74710   33.74710    0.06470    -999.25    0.06470 2646.97020  131.23150 -165.12930 -112.06460  131.23150
 1800.00000    -999.25  275.83360  275.83360  278.81560    -999.25    -999.25    -999.25    -999.25    -999.25    -999.25    3.58660    -999.25    -999.25    -999.25    -999.25    -999.25    3.58660    3.90030    3.90030    -999.25    -999.25    -999.25    -999.25    5.52730  -77.17870  -23.55340    5.52730
 1850.00000    -999.25  259.65260  259.65260   33.04080    -999.25    -999.25    -999.25    -999.25    -999.25    -999.25   30.26560    -999.25    -999.25    -999.25    -999.25    -999.25   30.26560   43.54450   43.54450    -999.25    -999.25    -999.25    -999.25   89.13810  -64.72940  -13.13180   89.13810
 1900.00000    -999.25  226.91190  226.91190   48.59040    -999.25    -999.25    -999.25    -999.25    -999.25    -999.25   20.58020    -999.25    -999.25    -999.25    -999.25    -999.25   20.58020   22.22690   22.22690    -999.25    -999.25    -999.25    -999.25   25.03910  -71.27790  -24.55730   25.03910
 1950.00000    -999.25  225.80550  225.80550   88.82020    -999.25    -999.25    -999.25    -999.25    -999.25    -999.25   11.25870    -999.25    -999.25    -999.25    -999.25    -999.25   11.25870   12.39240   12.39240    -999.25    -999.25    -999.25    -999.25   16.37730  -50.34230   -7.54890   16.37730
 2000.00000  220.16880  219.98750  219.98750   22.75690   21.55850   21.55850 2687.29610    0.16330    -999.25    0.01330   43.94280  171.71300  171.71300   13.19400   14.61050   13.19400   43.94280   49.36300   49.36300    0.17710    -999.25    0.17710 2687.29610   73.37140 -106.97110  -64.05640   73.37140
 2050.00000  220.87030  220.42520  220.42520   23.16040    2.06970    2.06970 2661.17870    0.18590    -999.25    0.02860   43.17710  169.85360  169.85360   13.12050   14.66560   13.12050   43.17710   44.83590   44.83590    0.18090    -999.25    0.18090 2661.17870  119.61060 -124.05410  -81.01810  119.61060
 2100.00000  224.27770  223.42260  223.42260   23.25810   10.27450   10.27450 2678.19530    0.17450    -999.25    0.01860   42.99570  164.81750  164.81750   10.80950   12.89310   10.80950   42.99570   62.16760   62.16760    0.17130    -999.25    0.17130 2678.19530  117.33020 -156.74730 -113.59000  117.33020
 2150.00000  223.52630  224.73160  224.73160    7.33570   11.74250   11.74250 2720.35010    0.14620    -999.25   -0.00610  136.31960  160.32160  160.32160   13.31090   16.70200   13.31090  136.31960  225.88600  225.88600    0.16480    -999.25    0.16480 2720.35010  249.24130 -153.57380 -110.29520  249.24130
 2200.00000  247.67550  231.11080  231.11080   10.62870   71.20370   71.20370 2689.26540    0.16380    -999.25    0.01210   94.08460  163.88660  163.88660   13.12390   11.55580   13.12390   94.08460  138.07710  138.07710    0.17060    -999.25    0.17060 2689.26540  236.50690 -181.16590 -137.76600  236.50690
 2250.00000  213.76120  211.87530  211.87530 1122.33450   57.82820   57.82820 2490.18240    0.28720    -999.25    0.12850    0.89100  209.23160  209.23160   30.25890   31.14130   30.25890    0.89100    1.38620    1.38620    0.39200    -999.25    0.39200 2490.18240    8.69600 -210.16310 -166.64180    8.69600
 2300.00000  224.38420  226.07490  226.07490   41.56380   37.20720   37.20720 2773.49950    0.10990    -999.25   -0.03710   24.05940  168.56960  168.56960   23.99290   26.86470   23.99290   24.05940   30.27210   30.27210    0.20960    -999.25    0.20960 2773.49950   31.43120 -110.91960  -67.27700   31.43120
 2350.00000  223.68830  224.47930  224.47930   73.20160   90.40020   90.40020 2696.86230    0.15870    -999.25    0.00770   13.66090  201.13990  201.13990   51.78310    -999.25   51.78310   13.66090   15.55680   15.55680    0.25960    -999.25    0.25960 2696.86230   15.01470  -45.75180   -1.98790   15.01470
 2400.00000    -999.25  283.98600  283.98600  300.88760    -999.25    -999.25    -999.25    -999.25    -999.25    -999.25    3.32350    -999.25    -999.25    -999.25    -999.25    -999.25    3.32350    3.48490    3.48490    -999.25    -999.25    -999.25    -999.25    3.77160  -69.47060  -31.09450    3.77160
 2450.00000    -999.25  314.00040  314.00040  264.04730    -999.25    -999.25    -999.25    -999.25    -999.25    -999.25    3.78720    -999.25    -999.25    -999.25    -999.25    -999.25    3.78720    4.02570    4.02570    -999.25    -999.25    -999.25    -999.25    4.56050  -65.10830  -33.20080    4.56050
 2500.00000    -999.25  222.73890  222.73890  115.48280    -999.25    -999.25    -999.25    -999.25    -999.25    -999.25    8.65930    -999.25    -999.25    -999.25    -999.25    -999.25    8.65930   10.01100   10.01100    -999.25    -999.25    -999.25    -999.25   10.96630  -39.02400  -13.58500   10.96630
 2550.00000    -999.25  222.03580  222.03580  134.90000    -999.25    -999.25    -999.25    -999.25    -999.25    -999.25    7.41290    -999.25    -999.25    -999.25    -999.25    -999.25    7.41290    8.20170    8.20170    -999.25    -999.25    -999.25    -999.25   10.78640  -37.02080  -18.05040   10.78640
 2600.00000    -999.25  225.06890  225.06890  179.36250    -999.25    -999.25    -999.25    -999.25    -999.25    -999.25    5.57530    -999.25    -999.25    -999.25    -999.25    -999.25    5.57530    6.09790    6.09790    -999.25    -999.25    -999.25    -999.25    7.94100  -54.97050  -42.46860    7.94100
 2650.00000    -999.25  221.89780  221.89780   49.16080    -999.25    -999.25    -999.25    -999.25    -999.25    -999.25   20.34140    -999.25    -999.25    -999.25    -999.25    -999.25   20.34140   23.12850   23.12850    -999.25    -999.25    -999.25    -999.25   29.48250  -16.17530  -10.14200   29.48250
 2700.00000    -999.25  224.10500  224.10500   54.94540    -999.25    -999.25    -999.25    -999.25    -999.25    -999.25   18.19990    -999.25    -999.25    -999.25    -999.25    -999.25   18.19990   20.98180   20.98180    -999.25    -999.25    -999.25    -999.25   23.90990  -16.37770  -14.14790   23.90990
 2750.00000  215.06230  217.13420  217.13420   22.59940   74.38330   74.38330 2748.90770   -0.02400    -999.25   -0.02280   44.24900  163.47530  163.47530   11.86310   14.84230   11.86310   44.24900   62.01770   62.01770    0.01540    -999.25    0.01540 2748.90770   94.17010 -120.70790 -118.47810   94.17010
