~Version ---------------------------------------------------
VERS.      2.0 : CWLS log ASCII Standard -VERSION 2.0
WRAP.       NO : One line per depth step
CREA. 10/05/17 : LAS Creation Date
~Well ------------------------------------------------------
STRT.FT                  900.0 : START DEPTH
STOP.FT                11100.0 : STOP DEPTH
STEP.FT               50.00000 : STEP LENGTH
NULL.                   -999.0 : NULL VALUE
COMP.     CHEVRON STANDARD LTD : COMPANY
WELL. CHEVRON CLARK 10-2-59-18 : WELL
FLD .             KAYBOB SOUTH : FIELD
LOC .                          : LOCATION
CTRY.                   CANADA : COUNTRY
SRVC.             Schlumberger : SERVICE COMPANY
DATE.              17-Jul-1968 : LOGDATE
PROV.                  Alberta : PROVINCE
UWI .         100100205918W500 : UNIQUE WELL ID
SLAT.WGS84            54.07468 : SURFACE LATITUDE
SLON.WGS84           -116.5832 : SURFACE LONGITUDE
~Curve Information -----------------------------------------
DEPT    .FT    : Depth Curve
CALDED  .IN    : CALIPER FROM DENSITY LOG
CALNED  .IN    : CALIPER FROM NEUTRON LOG [ADJ. TO RESISTIVITY LOG]
CALSED  .IN    : CALIPER FROM SONIC LOG [ADJ. TO RESISTIVITY LOG]
CALWS   .IN    : CALIPER [CALSED SPL. TO CALDED @ 10654']
CONDWS  .MMHO  : CONDUCTIVITY [1000/DRESWS]
DCORWS  .G/C3  : DENSITY CORRECTION [DRHOED]
DENWS   .G/C3  : FORMATION BULK DENSITY [RHOBED]
DPHIDLED.V/V   : DENSITY POROSITY DOLOMITE [M=2.85, F=1.00] FROM DENSITY LOG [ADJ. TO RESISTIVITY LOG]
DPHILSED.V/V   : DENSITY POROSITY LIMESTONE [M=2.71,F=1.0] FROM DENSITY LOG [ADJ. TO RESISTIVITY LOG]
DPOLSWS .V/V   : DENSITY POROSITY LIMESTONE [CALC FROM DENWS,M=2.71, F=1.00]
DRESWS  .OHMM  : DEEP RESISTIVITY [ILDED]
DRHOED  .G/C3  : BULK DENSITY CORRECTION FROM DENSITY LOG [ADJ. TO RESISTIVITY LOG]
DTED    .US/F  : DELTA-T FROM SONIC LOG [ADJ. TO RESISTIVITY LOG]
DTWS    .US/F  : COMPRESSIONAL SONIC [DTED]
GRSED   .GAPI  : GAMMA RAY FROM SONIC LOG [ADJ. TO RESISTIVITY LOG]
GRWS    .GAPI  : GAMMA RAY [GRSED]
ILDED   .OHMM  : DEEP INDUCTION RESISTIVITY FROM RESISTIVITY LOG
ILMED   .OHMM  : MEDIUM INDUCTION RESISTIVITY FROM RESISTIVITY LOG
LL8ED   .OHMM  : LATEROLOG-8 RESISTIVITY FROM RESISTIVITY LOG
MRESWS  .OHMM  : MEDIUM RESISTIVITY [ILMED]
NPOLSWS .V/V   : NEUTRON POROSITY [SNPLSED]
RHOBED  .G/C3  : BULK DENSITY FROM DENSITY LOG
SNPLSED .V/V   : SIDEWALL NEUTRON POROSITY LIMESONTE FROM SNP LOG [ADJ. TO RESISTIVITY LOG]
SPRED   .MV    : SPONTANEOUS POTENTIAL FROM RESISTIVITY LOG
SPWS    .MV    : SPONTANEOUS POTENTIAL [BASELINE 0 MV,SPRED]
SRESWS  .OHMM  : SHALLOW RESISTIVITY [LL8ED]
~Params ----------------------------------------------------
PD  .                     GL : PERMANENT DATUM
EPD .FT                 3126 : ELEVATION PERMANENT DATUM
LMF .                     KB : LOG MEASURED FROM
DAPD.FT                   14 : FEET ABOVE PERMANENT DATUM
EKB .FT                 3140 : KELLY BUSHING
EDF .FT                 3126 : DRILLING FLOOR
DATE.               08/13/68 : RUN DATE
RUN .                      2 : RUN NUMBER
DD  .FT                11108 : DEPTH DRILLER
DL  .FT                11107 : DEPTH LOGGER
BLI .FT                11102 : BOTTOM LOG INTERVAL
TLI .FT                10629 : TOP LOG INTERVAL
CBD .FT                10630 : CASING BOTTOM DRILLER
CBL .FT                10629 : CASING BOTTOM LOGGER
BS  .IN                 6.25 : BIT SIZE
BSD .FT                11108 : BIT SIZE AT DEPTH
DFT .                    GEL : DRILLING FLUID TYPE
DFD .                    9.7 : DRILLING FLUID DENSITY
DFV .                     87 : DRILLING FLUID VISCOSITY
RMS .OHMM               1.52 : RESISTIVITY MUD SAMPLE
MST .DEGF                 70 : MUD SAMPLE TEMPERATURE
RMF .OHMM               1.25 : RESISTIVITY MUD FILTRATE SAMPLE
MFST.DEGF                 75 : MUD FILTRATE SAMPLE TEMPERATURE
RMC .OHMM               1.55 : RESISTIVITY MUD CAKE
MCST.DEGF                 70 : MUD CAKE SAMPLE TEMPERATURE
TCS .HRS                 1.5 : TIME CIRCULATED STOPPED
LUN .                   3702 : LOGGING UNIT NUMBER
LUL .                     DC : LOGGING UNIT LOCATION
ENGI.                   BIGG : RECORDING ENGINEER
WITN.         HOVDEBO GHAZAR : WITNESSED BY
CLNT.                A2DTECH : CLIENT CODE
ORIG.            2" 5" PRINT : ORIGIN OF DATA
UWI .       100100205918W500 : UNIQUE WELL ID
DICO. A2D Technologies, Inc. : DIGITIZING COMPANY
~Other -----------------------------------------------------
DIL-LAT/FDC/SNP/BCS LOG RAN
MATRIX VALUE NOT MENTION
~ASCII -----------------------------------------------------
# ...
 6300.00000     -999.0     -999.0   11.38130   11.38130   71.13340     -999.0     -999.0     -999.0     -999.0     -999.0   14.05810     -999.0   75.27780   75.27780   71.37150   71.37150   14.05810   13.42800   12.36390   13.42800     -999.0     -999.0     -999.0 -125.58150   -6.65300   12.36390
 6350.00000     -999.0     -999.0   11.42020   11.42020   46.64810     -999.0     -999.0     -999.0     -999.0     -999.0   21.43710     -999.0   77.70220   77.70220   46.88460   46.88460   21.43710   20.87720   20.90210   20.87720     -999.0     -999.0     -999.0 -140.18330  -21.08210   20.90210
 6400.00000     -999.0     -999.0   12.35500   12.35500   45.63830     -999.0     -999.0     -999.0     -999.0     -999.0   21.91140     -999.0   79.16790   79.16790   39.09900   39.09900   21.91140   21.12610   20.00200   21.12610     -999.0     -999.0     -999.0 -146.51230  -27.23940   20.00200
 6450.00000     -999.0     -999.0   13.72710   13.72710  124.09740     -999.0     -999.0     -999.0     -999.0     -999.0    8.07160     -999.0   85.13090   85.13090   65.68840   65.68840    8.07160    6.86280    6.19510    6.86280     -999.0     -999.0     -999.0 -125.40360   -5.95790    6.19510
 6500.00000     -999.0     -999.0   11.66590   11.66590  108.81980     -999.0     -999.0     -999.0     -999.0     -999.0    9.18950     -999.0   85.95110   85.95110   58.99540   58.99540    9.18950   10.30090   10.75020   10.30090     -999.0     -999.0     -999.0 -124.91980   -5.30250   10.75020
 6550.00000     -999.0     -999.0   11.72310   11.72310   89.32400     -999.0     -999.0     -999.0     -999.0     -999.0   11.19520     -999.0   75.75920   75.75920   70.97940   70.97940   11.19520   11.24750    9.11890   11.24750     -999.0     -999.0     -999.0 -124.44560   -4.65660    9.11890
 6600.00000     -999.0     -999.0   11.11860   11.11860   77.92050     -999.0     -999.0     -999.0     -999.0     -999.0   12.83360     -999.0   73.55840   73.55840   39.68010   39.68010   12.83360   12.28890   11.69690   12.28890     -999.0     -999.0     -999.0 -136.17120  -16.20940   11.69690
 6650.00000     -999.0     -999.0   11.14370   11.14370   81.62800     -999.0     -999.0     -999.0     -999.0     -999.0   12.25070     -999.0   81.43470   81.43470   65.07000   65.07000   12.25070   12.80120   11.53180   12.80120     -999.0     -999.0     -999.0 -123.76660   -4.18390   11.53180
 6700.00000     -999.0     -999.0   10.93280   10.93280   67.64290     -999.0     -999.0     -999.0     -999.0     -999.0   14.79260     -999.0   71.38550   71.38550   61.61150   61.61150   14.79260   18.56740   16.15480   18.56740     -999.0     -999.0     -999.0 -123.37510   -5.33910   16.15480
 6750.00000     -999.0     -999.0   11.13430   11.13430   78.59840     -999.0     -999.0     -999.0     -999.0     -999.0   12.72290     -999.0   67.81830   67.81830   44.54750   44.54750   12.72290   14.62380   14.45990   14.62380     -999.0     -999.0     -999.0 -131.63120  -15.13180   14.45990
 6800.00000     -999.0     -999.0   12.52380   12.52380   84.99500     -999.0     -999.0     -999.0     -999.0     -999.0   11.76540     -999.0   78.24830   78.24830   68.59030   68.59030   11.76540   12.45770   11.80460   12.45770     -999.0     -999.0     -999.0 -117.61970   -2.65700   11.80460
 6850.00000     -999.0     -999.0   10.48200   10.48200   65.76870     -999.0     -999.0     -999.0     -999.0     -999.0   15.20480     -999.0   64.51140   64.51140   35.15600   35.15600   15.20480   21.52330   22.41810   21.52330     -999.0     -999.0     -999.0 -124.10080  -10.68480   22.41810
 6900.00000     -999.0     -999.0   11.06580   11.06580  104.80200     -999.0     -999.0     -999.0     -999.0     -999.0    9.54180     -999.0   76.15910   76.15910   73.19470   73.19470    9.54180   10.65500    9.79020   10.65500     -999.0     -999.0     -999.0 -113.47340   -1.59400    9.79020
 6950.00000     -999.0     -999.0   11.27850   11.27850   71.92990     -999.0     -999.0     -999.0     -999.0     -999.0   13.90340     -999.0   71.75210   71.75210   40.56210   40.56210   13.90340   13.61910   12.70220   13.61910     -999.0     -999.0     -999.0 -125.24850  -14.91580   12.70220
 7000.00000     -999.0     -999.0   10.72740   10.72740   59.74390     -999.0     -999.0     -999.0     -999.0     -999.0   16.73810     -999.0   65.28080   65.28080   57.86870   57.86870   16.73810   19.26390   23.78190   19.26390     -999.0     -999.0     -999.0 -115.46450   -6.66840   23.78190
 7050.00000     -999.0     -999.0   10.84950   10.84950   44.32030     -999.0     -999.0     -999.0     -999.0     -999.0   22.56300     -999.0   78.22570   78.22570   48.75920   48.75920   22.56300   23.70620   27.48120   23.70620     -999.0     -999.0     -999.0 -125.22640  -17.96700   27.48120
 7100.00000     -999.0     -999.0   10.55540   10.55540   26.52100     -999.0     -999.0     -999.0     -999.0     -999.0   37.70590     -999.0   66.62650   66.62650   54.22600   54.22600   37.70590   31.33510   33.39880   31.33510     -999.0     -999.0     -999.0 -122.97630  -17.26360   33.39880
 7150.00000     -999.0     -999.0   14.61490   14.61490   58.84530     -999.0     -999.0     -999.0     -999.0     -999.0   16.99370     -999.0   81.14480   81.14480   81.56420   81.56420   16.99370   13.48000   15.88780   13.48000     -999.0     -999.0     -999.0 -110.16630   -5.99020   15.88780
 7200.00000     -999.0     -999.0   10.89770   10.89770   34.81810     -999.0     -999.0     -999.0     -999.0     -999.0   28.72070     -999.0   73.95410   73.95410   64.27660   64.27660   28.72070   25.49030   27.99200   25.49030     -999.0     -999.0     -999.0 -107.58520   -4.95580   27.99200
 7250.00000     -999.0     -999.0   10.80650   10.80650   47.56450     -999.0     -999.0     -999.0     -999.0     -999.0   21.02410     -999.0   78.47290   78.47290   80.15870   80.15870   21.02410   20.24120   24.29560   20.24120     -999.0     -999.0     -999.0 -110.06990   -8.84160   24.29560
 7300.00000     -999.0     -999.0   10.58110   10.58110   32.35970     -999.0     -999.0     -999.0     -999.0     -999.0   30.90260     -999.0   71.52040   71.52040   64.32640   64.32640   30.90260   32.43370   40.67130   32.43370     -999.0     -999.0     -999.0 -107.85030   -7.91890   40.67130
 7350.00000     -999.0     -999.0   11.47340   11.47340  111.07290     -999.0     -999.0     -999.0     -999.0     -999.0    9.00310     -999.0   81.64550   81.64550   63.44870   63.44870    9.00310    8.27060    9.45240    8.27060     -999.0     -999.0     -999.0 -105.30050   -6.67470    9.45240
 7400.00000     -999.0     -999.0   14.41210   14.41210  107.50720     -999.0     -999.0     -999.0     -999.0     -999.0    9.30170     -999.0   86.30980   86.30980   91.54450   91.54450    9.30170    7.84320   11.36190    7.84320     -999.0     -999.0     -999.0 -107.17010   -9.84120   11.36190
 7450.00000     -999.0     -999.0    9.48330    9.48330    6.14710     -999.0     -999.0     -999.0     -999.0     -999.0  162.70670     -999.0   57.94500   57.94500   27.46170   27.46170  162.70670 1489.18100  450.60080 1489.18100     -999.0     -999.0     -999.0 -128.95380  -32.93050  450.60080
 7500.00000     -999.0     -999.0    9.65380    9.65380    6.76010     -999.0     -999.0     -999.0     -999.0     -999.0  147.92670     -999.0   58.54490   58.54490   29.57660   29.57660  147.92670  549.75270  289.01990  549.75270     -999.0     -999.0     -999.0 -116.62780  -21.90140  289.01990
 7550.00000     -999.0     -999.0   10.17200   10.17200   27.02030     -999.0     -999.0     -999.0     -999.0     -999.0   37.00920     -999.0   61.97120   61.97120   75.03640   75.03640   37.00920   34.26020   33.38660   34.26020     -999.0     -999.0     -999.0 -125.43290  -32.00350   33.38660
 7600.00000     -999.0     -999.0   10.00980   10.00980   37.06240     -999.0     -999.0     -999.0     -999.0     -999.0   26.98150     -999.0   61.09150   61.09150   73.35080   73.35080   26.98150   29.67490   38.02270   29.67490     -999.0     -999.0     -999.0 -125.04730  -32.92340   38.02270
