~Version ---------------------------------------------------
VERS.      2.0 : CWLS log ASCII Standard -VERSION 2.0
WRAP.       NO : One line per depth step
CREA. 07/26/13 : LAS Creation Date
~Well ------------------------------------------------------
STRT.M                         300.0 : START DEPTH
STOP.M                        3650.0 : STOP DEPTH
STEP.M                      50.00000 : STEP LENGTH
NULL.                        -999.25 : NULL VALUE
COMP.        PANCONTINENTAL OIL LTD. : COMPANY
WELL. PANCON ET AL SIMONN 6-21-64-25 : WELL
FLD .                                : FIELD
LOC .                                : LOCATION
CTRY.                         CANADA : COUNTRY
SRVC.                   Schlumberger : SERVICE COMPANY
DATE.                    13-Sep-1990 : LOGDATE
PROV.                        Alberta : PROVINCE
UWI .               100062106425W500 : UNIQUE WELL ID
SLAT.WGS84                  54.55006 : SURFACE LATITUDE
SLON.WGS84                 -117.7232 : SURFACE LONGITUDE
~Curve Information -----------------------------------------
DEPT    .M      : DEPTH METER
C1ED    .MM     : CALIPER FROM DENSITY LOG [ADJ. TO RESISTIVITY LOG]
C2ED    .MM     : CALIPER FROM DENSITY LOG [ADJ. TO RESISTIVITY LOG]
CALWS   .MM     : CALIPER [HDED]
CIDPED  .MMHO   : CONDUCTIVITY FROM RESISTIVITY LOG
CONDWS  .MMHO   : CONDUCTIVITY [1000/DRESWS]
DCORWS  .KG/M3  : DENSITY CORRECTION [DRHOED]
DENWS   .KG/M3  : FORMATION BULK DENSITY [RHOBED]
DPHILSED.V/V    : DENSITY POROSITY LIMESTONE  [M=2710,F=1000]  FROM DENSITY LOG [ADJ. TO RESISTIVITY LOG]
DPHISSED.V/V    : DENSITY POROSITY SANDSTONE [M=2650,F= 1000] FROM DENSITY LOG [ADJ. TO RESISTIVITY LOG]
DPOLSWS .V/V    : DENSITY POROSITY LIMESTONE [CAL. FROM DENWS, M=2710,F=1000]
DRESWS  .OHMM   : DEEP RESISTIVITY [IDPHED]
DRHOED  .KG/M3  : DENSITY CORRECTION FROM DENSITY LOG [ADJ. TO RESISTIVITY LOG]
DTED    .US/M   : DELTA T FROM SONIC LOG
DTWS    .US/M   : COMPRESSIONAL SONIC [DTED]
GRDED   .GAPI   : GAMMA RAY FROM DENSITY LOG [ADJ. TO RESISTIVITY LOG]
GRMED   .GAPI   : GAMMA RAY FROM MICROLOG [ADJ. TO RESISTIVITY LOG]
GRSED   .GAPI   : GAMMA RAY FROM SONIC LOG
GRWS    .GAPI   : GAMMA RAY [GRSED]
HDED    .MM     : CALIPER FROM SONIC LOG
IDPHED  .OHMM   : DEEP PHASOR INDUCTION RESISTIVITY FROM RESISTIVITY LOG
IMPHED  .OHMM   : MEDIUM PHASOR INDUCTION RESISTIVITY FROM RESISTIVITY LOG
MCALED  .MM     : CALIPER FROM MICROLOG [ADJ. TO RESISTIVITY LOG]
MRESWS  .OHMM   : MEDIUM RESISTIVITY [IMPHED]
NPHILSED.V/V    : NEUTRON POROSITY LIMESTONE FROM DENSITY LOG [ADJ. TO RESISTIVITY LOG]
NPHISSED.V/V    : NEUTRON POROSITY SANDSTONE FROM DENSITY LOG [ADJ. TO RESISTIVITY LOG]
NPOLSWS .V/V    : NEUTRON POROSITY LIMESTONE [NPHISSED MATRIX CONVERSION FOR LIMESTONE, SPL TO NPHILSED @ 2400.1M]
RHOBED  .KG/M3  : BULK DENSITY FROM DENSITY LOG  [ADJ. TO RESISTIVITY LOG]
SFLUED  .OHMM   : SPHERICALLY FOCUSED RESISTIVITY FROM RESISTIVITY LOG
SPRED   .MV     : SPONTANEOUS POTENTIAL FROM RESISTIVITY LOG
SPWS    .MV     : SPONTANEOUS POTENTIAL [BASELINE 0 MV, SPRED]
SRESWS  .OHMM   : SHALLOW RESISTIVITY [SFLUED]
TENDED  .N      : TENSION FROM DENSITY LOG [ADJ. TO RESISTIVITY LOG]
TENMED  .N      : TENTION FROM MICROLOG [ADJ. TO RESISTIVITY LOG]
TENSED  .N      : TENSION FROM SONIC LOG
~Params ----------------------------------------------------
PD  .                         GL : PERMANENT DATUM
EPD .M                     842.7 : ELEVATION PERMANENT DATUM
LMF .                         KB : LOG MEASURED FROM
DAPD.M                       6.4 : FEET ABOVE PERMANENT DATUM
DMF .                         KB : DRILLING MEASURED FROM
EKB .M                     849.1 : KELLY BUSHING
EDF .M                     848.8 : DRILLING FLOOR
EGL .M                     842.7 : GROUND LEVEL
DATE.                   09/13/90 : RUN DATE
RUN .                          1 : RUN NUMBER
DD  .M                      3707 : DEPTH DRILLER
DL  .M                    3692.5 : DEPTH LOGGER
BLI .M                    3989.5 : BOTTOM LOG INTERVAL
TLI .M                     469.7 : TOP LOG INTERVAL
CS  .MM                    244.5 : CASING SIZE
CBD .M                       470 : CASING BOTTOM DRILLER
CBL .M                     469.7 : CASING BOTTOM LOGGER
BS  .MM                      222 : BIT SIZE
BSD .M                      3707 : BIT SIZE AT DEPTH
DFT .                   GEL CHEM : DRILLING FLUID TYPE
DFD .                       1115 : DRILLING FLUID DENSITY
DFV .                         68 : DRILLING FLUID VISCOSITY
DFPH.                        9.5 : DRILLING FLUID PH
DFL .                        8.2 : DRILLING FLUID LOSS
MSS .                   FLOWLINE : MUD SAMPLE SOURCE
RMS .OHMM                   2.54 : RESISTIVITY MUD SAMPLE
MST .DEGC                     14 : MUD SAMPLE TEMPERATURE
RMF .OHMM                   2.41 : RESISTIVITY MUD FILTRATE SAMPLE
MFST.DEGC                     15 : MUD FILTRATE SAMPLE TEMPERATURE
RMC .OHMM                   2.41 : RESISTIVITY MUD CAKE
MCST.DEGC                     16 : MUD CAKE SAMPLE TEMPERATURE
MFSS.                   MEASURED : MUD FILTRATE SAMPLE SOURCE
MCSS.                   MEASURED : MUD CAKE SAMPLE SOURCE
RMB .OHMM                  0.857 : RESISTIVITY MUD AT BHT
TCS .HRS                    1930 : TIME CIRCULATED STOPPED
TLAB.HRS                    1405 : TIME LOGGER AT BOTTOM
LUN .                       8416 : LOGGING UNIT NUMBER
LUL .                   EDMONTON : LOGGING UNIT LOCATION
ENGI.          CRCKFORD BAZANSKY : RECORDING ENGINEER
WITN.                     MILLER : WITNESSED BY
CLNT.                    A2DTECH : CLIENT CODE
ORIG. 6.5"/100M 16.5"/100M PRINT : ORIGIN OF DATA
UWI .           100062106425W500 : UNIQUE WELL ID
DICO.     A2D Technologies, Inc. : DIGITIZING COMPANY
~Other -----------------------------------------------------
PI-SFL & BHC RUN IN COMBO & CNFD& ML LOG RAN
RHOB FROM SMALL SCALE SECTION
~ASCII -----------------------------------------------------
  300.00000    -999.25    -999.25    -999.25    -999.25    -999.25    -999.25    -999.25    -999.25    -999.25    -999.25    -999.25    -999.25    -999.25    -999.25    -999.25    -999.25    -999.25    -999.25    -999.25    -999.25    -999.25    -999.25    -999.25    -999.25    -999.25    -999.25    -999.25    -999.25    -999.25    -999.25    -999.25    -999.25    -999.25    -999.25
  350.00000    -999.25    -999.25    -999.25    -999.25    -999.25    -999.25    -999.25    -999.25    -999.25    -999.25    -999.25    -999.25    -999.25    -999.25    -999.25    -999.25    -999.25    -999.25    -999.25    -999.25    -999.25    -999.25    -999.25    -999.25    -999.25    -999.25    -999.25    -999.25    -999.25    -999.25    -999.25    -999.25    -999.25    -999.25
  400.00000    -999.25    -999.25    -999.25    -999.25    -999.25    -999.25    -999.25    -999.25    -999.25    -999.25    -999.25    -999.25    -999.25    -999.25    -999.25    -999.25    -999.25    -999.25    -999.25    -999.25    -999.25    -999.25    -999.25    -999.25    -999.25    -999.25    -999.25    -999.25    -999.25    -999.25    -999.25    -999.25    -999.25    -999.25
  450.00000    -999.25    -999.25    -999.25    -999.25    -999.25    -999.25    -999.25    -999.25    -999.25    -999.25    -999.25    -999.25    -999.25    -999.25    -999.25    -999.25   38.85850   38.85850    -999.25    -999.25    -999.25    -999.25    -999.25    -999.25    -999.25    -999.25    -999.25    -999.25    -999.25    -999.25    -999.25    -999.25    -999.25    -999.25
  500.00000  224.73690  343.22560  247.29600  209.74870  209.43720    -999.25    -999.25    -999.25    -999.25    -999.25    4.77470    -999.25  343.27760  343.27760   68.09890    -999.25   72.43180   72.43180  247.29600    4.77470    4.53220    -999.25    4.53220    -999.25    -999.25    -999.25    -999.25    4.98050 -119.88160   -3.15730    4.98050 7515.46530    -999.25 6733.59030
  550.00000  246.42040  365.31090  265.77580  203.33370  197.44120    -999.25    -999.25    -999.25    -999.25    -999.25    5.06480    -999.25  327.44410  327.44410   69.95450    -999.25   70.14480   70.14480  265.77580    5.06480    4.37480    -999.25    4.37480    -999.25    -999.25    -999.25    -999.25    5.27180 -118.94290   -2.08870    5.27180 7946.25340    -999.25 6933.04540
  600.00000  250.49070  335.33510  265.36940  137.44960  135.84190    -999.25    -999.25    -999.25    -999.25    -999.25    7.36150    -999.25  305.29860  305.29860   93.53440    -999.25   89.63000   89.63000  265.36940    7.36150    6.43120    -999.25    6.43120    -999.25    -999.25    -999.25    -999.25    5.54740 -120.38950   -3.40550    5.54740 8762.43650    -999.25 7190.87550
  650.00000  248.97190  342.90420  300.73160  188.32250  195.78280    -999.25    -999.25    -999.25    -999.25    -999.25    5.10770    -999.25  363.86140  363.86140   77.49950    -999.25   75.06950   75.06950  300.73160    5.10770    4.33820    -999.25    4.33820    -999.25    -999.25    -999.25    -999.25    3.71940 -119.57850  -11.39630    3.71940 8786.54690    -999.25 7561.77780
  700.00000  255.69130  307.91140  249.85050   88.99960   85.89740    -999.25    -999.25    -999.25    -999.25    -999.25   11.64180    -999.25  311.05170  311.05170   49.48980    -999.25   46.24750   46.24750  249.85050   11.64180   10.45000    -999.25   10.45000    -999.25    -999.25    -999.25    -999.25    8.34050 -119.50100  -12.93570    8.34050 8576.57270    -999.25 7727.21440
  750.00000  257.44360  369.85380  273.66100  233.11830  234.69220    -999.25    -999.25    -999.25    -999.25    -999.25    4.26090    -999.25  360.24250  360.24250   58.44010    -999.25   62.07730   62.07730  273.66100    4.26090    3.71230    -999.25    3.71230    -999.25    -999.25    -999.25    -999.25    3.08110 -110.69550   -5.74720    3.08110 8921.21000    -999.25 7729.80030
  800.00000  284.00210  258.02280  268.04460  220.19440  216.14140    -999.25    -999.25    -999.25    -999.25    -999.25    4.62660    -999.25  338.43010  338.43010   70.78590    -999.25   64.54620   64.54620  268.04460    4.62660    3.89290    -999.25    3.89290    -999.25    -999.25    -999.25    -999.25    3.33760 -110.88460   -7.55340    3.33760 8977.62890    -999.25 7742.05960
  850.00000  332.26450  239.25260  247.58420  161.69630  162.53560    -999.25    -999.25    -999.25    -999.25    -999.25    6.15250    -999.25  295.42830  295.42830   59.36640    -999.25   55.07190   55.07190  247.58420    6.15250    5.49600    -999.25    5.49600    -999.25    -999.25    -999.25    -999.25    5.42290 -108.39250   -6.67820    5.42290 9612.44240    -999.25 8259.09770
  900.00000  296.94500  260.32080  272.02150  234.48790  239.87140    -999.25    -999.25    -999.25    -999.25    -999.25    4.16890    -999.25  343.36340  343.36340   63.64600    -999.25   49.52680   49.52680  272.02150    4.16890    3.68890    -999.25    3.68890    -999.25    -999.25    -999.25    -999.25    3.64560 -106.36690   -6.26970    3.64560 9901.83010    -999.25 8456.19920
  950.00000  398.13810  341.94480  356.99430  228.15490  226.65460    -999.25    -999.25    -999.25    -999.25    -999.25    4.41200    -999.25  432.43900  432.43900   50.45220    -999.25   48.03520   48.03520  356.99430    4.41200    3.44890    -999.25    3.44890    -999.25    -999.25    -999.25    -999.25    2.96640 -105.99490   -7.51470    2.96640 9703.02440    -999.25 8740.75680
 1000.00000  253.98150  312.71180  279.11570   96.25200   96.55590    -999.25    -999.25    -999.25    -999.25    -999.25   10.35670    -999.25  296.16650  296.16650   51.92190    -999.25   48.30450   48.30450  279.11570   10.35670    9.86780    -999.25    9.86780    -999.25    -999.25    -999.25    -999.25    9.34320 -107.22760  -10.36440    9.34320 10056.37990    -999.25 8902.63280
 1050.00000  257.99950  270.95800  269.18020  223.69950  220.30310    -999.25    -999.25    -999.25    -999.25    -999.25    4.53920    -999.25  312.52030  312.52030   61.73690    -999.25   57.18880   57.18880  269.18020    4.53920    4.13110    -999.25    4.13110    -999.25    -999.25    -999.25    -999.25    4.42730 -102.82520   -3.91750    4.42730 10697.32230    -999.25 9471.27830
 1100.00000  227.22410  345.85610  247.18050  118.25900  116.48220    -999.25    -999.25    -999.25    -999.25    -999.25    8.58500    -999.25  298.50770  298.50770   91.66950    -999.25   94.61570   94.61570  247.18050    8.58500    8.03360    -999.25    8.03360    -999.25    -999.25    -999.25    -999.25    8.24040 -107.33670   -4.62690    8.24040 10642.17870    -999.25 9442.80570
 1150.00000  228.63760  344.97970  259.06630  102.73470  101.44870    -999.25 2074.70000    -999.25    -999.25    0.37150    9.85720    -999.25  293.73750  293.73750   86.05770    -999.25   86.51150   86.51150  259.06630    9.85720    9.12080    -999.25    9.12080    -999.25    -999.25    -999.25 2074.70000   10.31270 -104.80720   -2.89670   10.31270 10768.36230    -999.25 9747.02150
 1200.00000  226.45690  345.11890  256.06630  107.61700  104.57410   26.42110 2277.70000    -999.25    0.20590    0.25280    9.56260   26.42110  280.31880  280.31880   86.31700    -999.25   78.73530   78.73530  256.06630    9.56260    8.79480    -999.25    8.79480    -999.25    0.37300    0.32970 2277.70000    8.47050 -105.35030   -4.23920    8.47050 10853.28710    -999.25 9717.79980
 1250.00000  232.94200  303.88380  258.67650  126.63130  126.80700   59.52630 2272.60000    -999.25    0.23770    0.25580    7.88600   59.52630  309.38790  309.38790   97.76130    -999.25   93.44130   93.44130  258.67650    7.88600    7.41190    -999.25    7.41190    -999.25    0.40130    0.35840 2272.60000    7.51410 -102.11170   -2.19760    7.51410 11032.86430    -999.25 10123.41020
 1300.00000  217.82410  262.78710  236.75480   62.08390   61.41410   40.31580 2577.30000    -999.25    0.05020    0.07760   16.28290   40.31580  256.99660  256.99660   78.12970    -999.25   82.74710   82.74710  236.75480   16.28290   16.57520    -999.25   16.57520    -999.25    0.25620    0.21230 2577.30000   19.03940 -104.66640   -6.77180   19.03940 11327.74410    -999.25 10103.27540
