~Version ---------------------------------------------------
VERS. 2.0 : CWLS log ASCII Standard -VERSION 2.0
WRAP.  NO : ONE LINE PER DEPTH STEP
~Well ------------------------------------------------------
STRT.M                               380.5 : START DEPTH
STOP.M                              2549.3 : STOP DEPTH
STEP.M                             0.20000 : STEP LENGTH
NULL.                              -999.25 : NULL VALUE
COMP.                DEVON ARL CORPORATION : COMPANY
WELL. DEVON ARL ETAL 7D GVILLEE 7-25-76-23 : WELL
FLD .                                      : FIELD
LOC .                                      : LOCATION
CTRY.                               CANADA : COUNTRY
SRVC.                         Schlumberger : SERVICE COMPANY
DATE.                          06-Mar-2003 : LOGDATE
PROV.                              Alberta : PROVINCE
UWI .                     100072507623W500 : UNIQUE WELL ID
SLAT.WGS84                        55.61368 : SURFACE LATITUDE
SLON.WGS84                       -117.4224 : SURFACE LONGITUDE
~Curve Information -----------------------------------------
DEPT    .M    0   1   0  0 : 1 MEASURED DEPTH
GRS     .GAPI 60 310 01 00 : GAMMA RAY FROM SONIC LOG
HDS     .MM   60 280 00 00 : HOLE DIAMETER FROM SONIC
DT      .US/M 60 500 00 00 : DELTA-T (INTERVAL TRANSIT TIME)
HCALS   .MM   60 280 50 00 : HRCC CALIPER CALIBRATED FROM SONIC LOG
TENS    .N    60 635 00 00 : TENSION FROM SONIC LOG
GRR     .GAPI 06 310 01 00 : GAMMA RAY FROM RESISTIVITY LOG
RXOZ    .OHMM 06 270 04 00 : INVADED FORMATION RESISTIVITY FILTERED AT 18 INCHES
TENR    .N    06 635 00 00 : TENSION FROM RESISTIVITY LOG
SPR     .MV   06 010 01 00 : SPONTANEOUS POTENTIAL FROM RESISTIVITY LOG
AHF30   .OHMM 06 120 30 00 : ARRAY INDUCTION FOUR FOOT RESISTIVITY A30
AHF20   .OHMM 06 120 20 00 : ARRAY INDUCTION FOUR FOOT RESISTIVITY A20
AHF60   .OHMM 06 120 60 00 : ARRAY INDUCTION FOUR FOOT RESISTIVITY A60
GRD     .GAPI 45 310 01 00 : GAMMA RAY FROM DENSITY LOG
NPOR_SAN.DEC  42 890 03 00 : ENHANCED THERMAL NEUTRON POROSITY (SANDSTONE)
HDD     .MM   45 280 60 00 : HOLE DIAMETER
HCALD   .MM   45 280 60 00 : HRCC CALIPER CALIBRATED FROM DENSITY LOG
DPHI_SAN.DEC  45 890 12 00 : DENSITY POROSITY (MATRIX SANDSTONE)
HDRA    .K/M3 45 356 01 00 : HRDD SPINE AND RIBS DENSITY CORRECTION
PEFZ    .B/E  45 358 01 00 : HRDD STANDARD RESOLUTION FORMATION PHOTOELECTRIC FACTOR
TEND    .N    45 635 00 00 : TENSION FROM DENSITY LOG
NPOR_LS .DEC  42 890 01 00 : NEUTRON POROSITY LIMESTONE
DPHI_LS .DEC  45 890 10 00 : DENSITY POROSITY LIMESTONE
RHOZ    .K/M3 45 350 01 00 : HRDD STANDARD RESOLUTION FORMATION DENSITY
~Params ----------------------------------------------------
PD  .                                  GL : PERMANENT DATUM
EPD .M                              551.9 : ELEVATION PERMANENT DATUM
LMF .                                  KB : LOG MEASURED FROM
DAPD.M                                4.7 : FEET ABOVE PERMANENT DATUM
DMF .                                  KB : DRILLING MEASURED FROM
EKB .M                              556.6 : KELLY BUSHING
EDF .M                              556.3 : DRILLING FLOOR
EGL .M                              551.9 : GROUND LEVEL
DATE.                            03/06/03 : RUN DATE
RUN .                                   1 : RUN NUMBER
DD  .M                               2545 : DEPTH DRILLER
DL  .M                               2544 : DEPTH LOGGER
BLI .M                             2538.3 : BOTTOM LOG INTERVAL
TLI .M                                421 : TOP LOG INTERVAL
CS  .MM                             219.1 : CASING SIZE
CBD .M                                421 : CASING BOTTOM DRILLER
CBL .M                              420.5 : CASING BOTTOM LOGGER
BS  .MM                               200 : BIT SIZE
BSD .M                               2545 : BIT SIZE AT DEPTH
DFT .                            GEL CHEM : DRILLING FLUID TYPE
DFD .                                1050 : DRILLING FLUID DENSITY
DFV .                                  83 : DRILLING FLUID VISCOSITY
DFPH.                                10.5 : DRILLING FLUID PH
DFL .                                   7 : DRILLING FLUID LOSS
MSS .                            FLOWLINE : MUD SAMPLE SOURCE
RMS .OHMM                            1.27 : RESISTIVITY MUD SAMPLE
MST .DEGC                              17 : MUD SAMPLE TEMPERATURE
RMF .OHMM                            0.98 : RESISTIVITY MUD FILTRATE SAMPLE
MFST.DEGC                              18 : MUD FILTRATE SAMPLE TEMPERATURE
RMC .OHMM                            1.55 : RESISTIVITY MUD CAKE
MCST.DEGC                              18 : MUD CAKE SAMPLE TEMPERATURE
MFSS.                            MEASURED : MUD FILTRATE SAMPLE SOURCE
MCSS.                             MEAURED : MUD CAKE SAMPLE SOURCE
RMB .OHMM                           0.566 : RESISTIVITY MUD AT BHT
TCS .HRS                              640 : TIME CIRCULATED STOPPED
TLAB.HRS                             1645 : TIME LOGGER AT BOTTOM
LUN .                                2133 : LOGGING UNIT NUMBER
LUL .                      GRANDE PRAIRIE : LOGGING UNIT LOCATION
ENGI.                            STIRLING : RECORDING ENGINEER
WITN.                              MCLEAY : WITNESSED BY
CLNT.                             A2DTECH : CLIENT CODE
ORIG. 6.5"/100M 16.5"/100M 33"/100M PRINT : ORIGIN OF DATA
UWI .                    100072507623W500 : UNIQUE WELL ID
DICO.              A2D Technologies, Inc. : DIGITIZING COMPANY
~Other -----------------------------------------------------
~ASCII -----------------------------------------------------
# ...
 1970.50000   10.34230  207.68710  162.64250  207.16990 18178.23050   10.07600  217.58410 18178.48240 -127.85740  192.81250  169.32060  212.12590   10.20000    -999.25  207.30680  206.76100    -999.25   -9.52360    5.14970 18166.40620    0.01560    0.01650 2673.55520
 1970.70000    9.85740  207.75050  161.10870  207.41660 18179.22660    9.24690  334.26820 18180.89060 -127.68590  251.69760  209.79260  288.72380    9.62340    -999.25  207.30630  206.85970    -999.25  -10.99240    5.10110 18166.25000    0.00820    0.00580 2686.68700
 1970.90000    8.91380  207.81390  160.41980  207.20950 18180.38870    8.73780  729.75340 18207.78910 -127.48120  339.94190  267.49740  403.10460    8.76670    -999.25  207.30580  206.95830    -999.25   -7.45720    5.03240 18166.02540    0.00540    0.00050 2705.19750
 1971.10000    9.22480  207.87730  160.26840  207.03720 18183.45700    9.50890  988.72600 18181.27930 -127.18640  459.12440  367.08420  567.59280    9.23950    -999.25  207.30950  206.97930    -999.25   -3.29700    5.00710 18107.68160    0.00790   -0.00130 2713.94510
 1971.30000   10.24350  207.83420  160.37700  206.94450 18190.69920   10.68450 1169.45910 18102.73050 -127.03490  517.89930  405.16320  696.88120   10.24940    -999.25  207.31830  206.97000    -999.25   -5.54520    5.00740 18120.73050    0.00710   -0.00200 2711.69530
 1971.50000   11.29090  207.79990  160.64100  207.23940 18204.37110   11.61400  817.12300 18195.16990 -127.10920  536.01950  395.13520  717.94560   11.27700    -999.25  207.32710  206.96070    -999.25   -7.14520    5.00780 18248.84570    0.00870   -0.00810 2710.88400
 1971.70000   11.90480  207.51670  160.56270  206.91370 18218.04490   11.97370  579.87930 18184.08980 -127.15220  525.81200  388.85290  683.87900   12.02170    -999.25  207.33590  206.95140    -999.25   -3.81180    4.98890 18170.36910    0.00830   -0.01500 2739.29740
 1971.90000   11.56170  207.86900  160.50120  207.27290 18231.71680   11.03160  547.54580 18210.76170 -127.13680  514.13930  386.22520  647.05750   11.43030    -999.25  207.34470  206.94210    -999.25   -0.25110    4.88150 18238.32230    0.00830   -0.01440 2742.71900
 1972.10000   10.28010  207.95070  160.51430  207.35820 18182.40430    9.85670  751.77500 18247.47660 -127.43240  510.34800  393.30260  615.10060   10.06780    -999.25  207.35350  206.93280    -999.25    1.24730    4.86610 18203.44730    0.00890   -0.00890 2731.44140
 1972.30000    9.64140  207.86810  161.31730  207.27550 18186.64450    9.76580  653.77850 18228.97850 -127.92700  482.67950  393.64930  586.72330    9.40780    -999.25  207.36230  206.92350    -999.25    0.38470    4.92960 18170.62300    0.01140   -0.00030 2714.13720
 1972.50000   10.13450  207.78160  161.92930  207.18890 18187.47270   10.64070  568.86370 18200.13670 -128.11920  431.13310  358.36180  555.65970   10.10420    -999.25  207.37110  206.91420    -999.25   -2.58610    5.02900 18165.52150    0.01320    0.01070 2696.83330
 1972.70000   11.15470  207.79390  162.39140  207.20030 18189.67970   11.52540  430.54820 18103.80860 -128.28610  395.08270  340.45870  496.33400   11.09050    -999.25  207.37990  206.90490    -999.25   -5.58770    5.11700 18135.09570    0.01350    0.01780 2679.97850
 1972.90000   11.68830  207.42010  162.46280  206.82690 18187.81250   11.67800  297.75630 18203.14060 -128.49110  369.67680  305.20760  472.65660   11.77510    -999.25  207.38860  206.89560    -999.25  -10.75630    5.12640 18106.68160    0.01310    0.01390 2679.94040
 1973.10000   11.08200  207.33300  161.95630  206.74050 18187.56840   11.17510  360.15920 18185.29100 -128.41940  395.36090  319.42650  486.51030   11.31940    -999.25  207.39740  206.88630    -999.25   -9.97780    5.08990 18166.22660    0.01270    0.00230 2695.08940
 1973.30000   10.83020  207.52550  162.01340  206.93270 18092.45310   11.21550  559.23470 18118.16800 -128.37270  457.39830  348.02030  629.34030   10.85610    -999.25  207.40620  206.87700    -999.25   -6.02060    4.98430 18112.86910    0.01150   -0.00460 2713.88940
 1973.50000   11.71070  207.57730  162.19620  206.97980 18019.49410   12.52860  719.69530 17997.26560 -128.55400  531.41270  386.09080  764.97410   11.89430    -999.25  207.41500  206.86760    -999.25   -2.44990    4.88380 17990.88870    0.00960   -0.00270 2719.82420
 1973.70000   13.25740  207.78490  162.17420  207.19250 18041.88480   13.66640  852.13450 17976.75000 -128.77360  642.12040  457.27550  904.37520   13.46920    -999.25  207.42380  206.85840    -999.25   -2.04950    4.94070 17995.41210    0.01070   -0.00110 2707.26710
 1973.90000   13.35540  207.47900  162.03730  206.88650 18098.61330   13.25750  861.03290 17995.16020 -128.88110  702.62680  478.84040  995.79440   13.34880    -999.25  207.43260  206.84900    -999.25   -0.19970    5.01210 18043.15430    0.01240   -0.00140 2710.29930
 1974.10000   12.43020  207.48180  162.04100  206.88940 18097.01760   11.91840  733.10860 18061.95700 -128.66110  655.34670  453.23050  904.62250   12.24220    -999.25  207.44140  206.83970    -999.25    0.48450    4.98510 18078.53120    0.01330   -0.00180 2712.38260
 1974.30000   11.18570  207.60760  162.41200  207.01330 18077.74800   11.56550  504.75750 18061.68550 -128.51500  576.57960  411.25450  777.51310   11.12870    -999.25  207.47990  206.83040    -999.25    0.39140    4.94320 18090.41600    0.01660    0.00090 2710.65280
 1974.50000   12.22600  207.70630  163.35220  207.11270 18058.47850   13.96280  485.56440 18150.57230 -128.32320  520.27420  385.70420  720.67140   12.70130    -999.25  207.53850  206.82410    -999.25   -1.27770    4.98270 18080.38480    0.01850    0.00530 2704.16970
 1974.70000   15.25120  207.94600  163.29830  207.35340 18039.21090   16.05020  516.38240 18065.94340 -128.34400  552.45320  410.53000  755.77980   15.46220    -999.25  207.59710  206.85560    -999.25   -2.07210    5.02050 18117.64450    0.01200    0.00770 2691.59080
 1974.90000   15.66230  207.93600  162.70610  207.34340 18019.94140   14.91320  779.90070 18061.69730 -128.95660  635.29010  466.73100  845.22880   15.55870    -999.25  207.65570  206.88710    -999.25   -3.02610    5.03020 18083.18950    0.00800    0.00200 2700.01440
 1975.10000   13.17260  207.86160  162.34590  207.26900 18012.01950   12.27930  824.01850 18042.97660 -129.58080  758.03330  543.71690 1039.22500   12.75280    -999.25  207.71430  206.91850    -999.25   -1.91990    5.01760 18092.66800    0.00670   -0.00380 2712.80980
 1975.30000   10.92060  207.78730  162.08910  207.19470 18013.56250   10.65700 1034.39990 18000.44340 -130.04620  895.28940  634.38890 1259.85160   11.09290    -999.25  207.77290  206.95000    -999.25   -0.06310    4.98780 18024.76760    0.00530   -0.00660 2719.08180
 1975.50000   10.73940  207.40730  161.67840  206.81080 18019.38670   11.23340 1664.54430 18068.24610 -130.34230 1032.95860  699.16660 1474.12570   10.91610    -999.25  207.82630  206.98150    -999.25   -0.97560    4.89460 17994.38670    0.00730   -0.00500 2718.89530
 1975.70000   11.47980  207.65650  161.54180  207.05860 18047.38480   12.07340 1958.30830 18088.71680 -130.63850 1045.06570  697.34610 1441.72720   11.70850    -999.25  207.85380  207.01300    -999.25   -1.66500    4.83360 18019.91410    0.00960   -0.00110 2714.09840
 1975.90000   12.71350  208.11060  161.86070  207.50690 18075.38090   13.55750 1686.58830 18094.77150 -130.85140  787.51240  597.58490 1009.92500   12.85180    -999.25  207.88130  207.04440    -999.25    1.79040    4.82800 18084.60740    0.01010   -0.00220 2707.91650
 1976.10000   13.91440  208.07940  162.45860  207.48610 18103.37890   14.77830  605.93150 18126.54300 -131.17050  545.28800  428.40310  676.57780   13.89730    -999.25  207.90880  207.07590    -999.25    6.56950    4.85190 18102.25000    0.01090   -0.00700 2708.45780
 1976.30000   14.52030  207.88160  162.94060  207.28820 18131.37700   15.00610  523.07220 18154.88670 -131.09050  442.79660  371.74980  512.50030   14.51650    -999.25  207.93640  207.10740    -999.25    7.37050    4.86200 18150.04300    0.01230   -0.01410 2727.34810
