~Version ---------------------------------------------------
VERS. 2.0 : CWLS log ASCII Standard -VERSION 2.0
WRAP.  NO : ONE LINE PER DEPTH STEP
~Well ------------------------------------------------------
STRT.F                                   347.3 : START DEPTH
STOP.F                                  9458.8 : STOP DEPTH
STEP.F                                 0.50000 : STEP LENGTH
NULL.                                  -999.25 : NULL VALUE
COMP. THE BRITISH AMERICAN OIL COMPANY LIMITED : COMPANY
WELL.              B.A. GOOSE RIVER 4-32-66-18 : WELL
FLD .                                          : FIELD
LOC .                                          : LOCATION
CTRY.                                   CANADA : COUNTRY
SRVC.                             Schlumberger : SERVICE COMPANY
DATE.                              02-Dec-1964 : LOGDATE
PROV.                                  Alberta : PROVINCE
UWI .                         100043206618W500 : UNIQUE WELL ID
SLAT.WGS84                            54.75185 : SURFACE LATITUDE
SLON.WGS84                           -116.6939 : SURFACE LONGITUDE
~Curve Information -----------------------------------------
DEPT.F    0   1   0  0 : 1 MEASURED DEPTH
GRN .GAPI 35 310 01 00 : GAMMA RAY FROM GRN LOG
NEUT.NAPI 35 330 01 00 : NEUTRON
GR  .GAPI 30 310 00 00 : GAMMA RAY
CILD.MMHO 05 110 46 00 : INDUCTION DEEP CONDUCTIVITY
ILD .OHMM 05 120 46 00 : INDUCTION DEEP RESISTIVITY
SN  .OHMM 05 040 16 00 : SHORT NORMAL RESISTIVITY
SPR .MV   05 010 01 00 : SPONTANEOUS POTENTIAL FROM RESISTIVITY LOG
GRS .GAPI 60 310 01 00 : GAMMA RAY FROM SONIC LOG
DT  .US/F 60 500 00 00 : DELTA-T (INTERVAL TRANSIT TIME)
CALS.IN   60 280 50 00 : CALIPER FROM SONIC LOG
DT_1.US/F 60 500 31 00 : DELTA-T (INTERVAL TRANSIT TIME)
~Params ----------------------------------------------------
PD  .                     GL : PERMANENT DATUM
EPD .FT                 2485 : ELEVATION PERMANENT DATUM
LMF .                     KB : LOG MEASURED FROM
DAPD.FT                   15 : FEET ABOVE PERMANENT DATUM
EKB .FT                 2500 : KELLY BUSHING
EGL .FT                 2485 : GROUND LEVEL
DATE.               12/02/64 : RUN DATE
RUN .                      1 : RUN NUMBER
DD  .FT                 9461 : DEPTH DRILLER
DL  .FT                 9460 : DEPTH LOGGER
BLI .FT                 9459 : BOTTOM LOG INTERVAL
TLI .FT                  781 : TOP LOG INTERVAL
CBD .FT                  784 : CASING BOTTOM DRILLER
CBL .FT                  781 : CASING BOTTOM LOGGER
BS  .IN                7.625 : BIT SIZE
BSD .FT                 9461 : BIT SIZE AT DEPTH
DFT .               GEL CHEM : DRILLING FLUID TYPE
DFD .                    9.8 : DRILLING FLUID DENSITY
DFV .                     95 : DRILLING FLUID VISCOSITY
DFPH.                    9.5 : DRILLING FLUID PH
DFL .                    7.4 : DRILLING FLUID LOSS
RMS .OHMM               2.38 : RESISTIVITY MUD SAMPLE
MST .DEGF                 64 : MUD SAMPLE TEMPERATURE
RMF .OHMM                2.1 : RESISTIVITY MUD FILTRATE SAMPLE
MFST.DEGF                 66 : MUD FILTRATE SAMPLE TEMPERATURE
RMC .OHMM               2.32 : RESISTIVITY MUD CAKE
MCST.DEGF                 66 : MUD CAKE SAMPLE TEMPERATURE
RMB .OHMM               0.84 : RESISTIVITY MUD AT BHT
TCS .HRS                   6 : TIME CIRCULATED STOPPED
LUN .                   3534 : LOGGING UNIT NUMBER
LUL .                    V V : LOGGING UNIT LOCATION
ENGI.               CHENOSKY : RECORDING ENGINEER
WITN.                  WEISS : WITNESSED BY
CLNT.                A2DTECH : CLIENT CODE
ORIG.            2" 5" PRINT : ORIGIN OF DATA
UWI .       100043206618W500 : UNIQUE WELL ID
DICO. A2D Technologies, Inc. : DIGITIZING COMPANY
~Other -----------------------------------------------------
~ASCII -----------------------------------------------------
# ...
 3671.80000    -999.25    -999.25    -999.25  202.20090    4.74410    5.12800  -41.31640   81.44680   82.73120   11.28450    -999.25
 3672.30000    -999.25    -999.25    -999.25  201.92750    4.78770    5.20390  -41.14940   82.15400   87.70460   10.79170    -999.25
 3672.80000    -999.25    -999.25    -999.25  203.13220    4.83140    5.20390  -40.95010   83.85350   90.61200   11.19060    -999.25
 3673.30000    -999.25    -999.25    -999.25  201.52830    4.87500    5.20390  -41.18070   87.57720   92.98520   11.69420    -999.25
 3673.80000    -999.25    -999.25    -999.25  199.24630    4.91860    5.20390  -41.33480   84.43570   95.92710   11.38590    -999.25
 3674.30000    -999.25    -999.25    -999.25  197.32480    4.96230    5.22600  -41.19170   84.34700   96.54410   11.55060    -999.25
 3674.80000    -999.25    -999.25    -999.25  195.58230    5.00590    5.28650  -41.27720   86.85560   96.69720   11.58330    -999.25
 3675.30000    -999.25    -999.25    -999.25  195.55200    5.04960    5.34710  -41.29310   89.31410   95.35030   11.21720    -999.25
 3675.80000    -999.25    -999.25    -999.25  196.55440    5.09320    5.40770  -41.30290   85.96670   96.00380   11.29590    -999.25
 3676.30000    -999.25    -999.25    -999.25  197.69010    5.13680    5.46830  -41.30290   87.52000   97.84930   11.68270    -999.25
 3676.80000    -999.25    -999.25    -999.25  198.62700    5.18050    5.50310  -41.30290   89.35140   95.62220   11.30410    -999.25
 3677.30000    -999.25    -999.25    -999.25  198.88670    5.22410    5.50310  -41.25360   84.96760   94.59440   11.09700    -999.25
 3677.80000    -999.25    -999.25    -999.25  199.71920    5.19150    5.44410  -41.20170   85.17930   94.56470   10.91900    -999.25
 3678.30000    -999.25    -999.25    -999.25  201.32110    5.06430    5.28880  -41.24730   82.67860   98.80220   10.99320    -999.25
 3678.80000    -999.25    -999.25    -999.25  204.09620    4.89790    5.15430  -41.29800   80.90540   94.30410   10.53450    -999.25
 3679.30000    -999.25    -999.25    -999.25  208.41620    4.73160    5.02130  -41.34870   82.30110   97.85910   10.83520    -999.25
 3679.80000    -999.25    -999.25    -999.25  213.79290    4.56520    4.88830  -41.39940   83.86120   99.27870   10.57130    -999.25
 3680.30000    -999.25    -999.25    -999.25  220.24330    4.56170    4.75520  -41.45010   81.69440  102.02560   10.67060    -999.25
 3680.80000    -999.25    -999.25    -999.25  227.95860    4.52300    4.62220  -41.50090   78.35220  101.97070   11.01680    -999.25
 3681.30000    -999.25    -999.25    -999.25  235.13800    4.35910    4.48920  -41.55160   82.75100  105.31680   10.22870    -999.25
 3681.80000    -999.25    -999.25    -999.25  240.26400    4.19520    4.35620  -41.60230   82.81970  108.77100    9.62030    -999.25
 3682.30000    -999.25    -999.25    -999.25  244.09600    4.03130    4.22310  -41.65300   82.35540  106.64130   10.83570    -999.25
 3682.80000    -999.25    -999.25    -999.25  246.12060    3.94470    4.09010  -41.70370   83.31180  105.04510   11.69510    -999.25
 3683.30000    -999.25    -999.25    -999.25  247.65930    3.92360    4.06230  -41.75450   84.08590  102.13180   11.67350    -999.25
 3683.80000    -999.25    -999.25    -999.25  249.33380    3.90240    4.05240  -41.80520   91.67030   98.37740   11.64120    -999.25
 3684.30000    -999.25    -999.25    -999.25  251.17920    3.88130    4.04250  -41.85590  100.84340   96.31960   11.79540    -999.25
 3684.80000    -999.25    -999.25    -999.25  253.18520    3.86010    4.03260  -41.90660   99.47030   94.41560   11.84080    -999.25
 3685.30000    -999.25    -999.25    -999.25  255.19120    3.83890    4.02270  -41.95730   93.59170   96.84860   11.32180    -999.25
 3685.80000    -999.25    -999.25    -999.25  256.75270    3.81780    4.01280  -42.00810   89.96920   95.73940   11.54110    -999.25
 3686.30000    -999.25    -999.25    -999.25  257.96150    3.79660    4.00280  -42.05880   89.78890   97.14290   11.80160    -999.25
 3686.80000    -999.25    -999.25    -999.25  259.32340    3.77540    3.99290  -42.10950   87.08530   99.67450   11.48850    -999.25
 3687.30000    -999.25    -999.25    -999.25  262.89560    3.75430    3.98300  -42.16020   85.24670   99.44180   12.10580    -999.25
 3687.80000    -999.25    -999.25    -999.25  267.17760    3.73310    3.97310  -42.21090   85.11330  100.52040   12.39460    -999.25
 3688.30000    -999.25    -999.25    -999.25  272.16510    3.72360    3.96320  -42.26170   85.13860   99.13300   12.22720    -999.25
 3688.80000    -999.25    -999.25    -999.25  275.22200    3.72150    3.95330  -42.31240   86.04010   98.86610   12.51540    -999.25
 3689.30000    -999.25    -999.25    -999.25  277.48480    3.71940    3.94340  -42.36310   88.32860  100.87000   12.45320    -999.25
 3689.80000    -999.25    -999.25    -999.25  277.78500    3.71730    3.93340  -42.41380   87.79880  100.80460   12.01930    -999.25
 3690.30000    -999.25    -999.25    -999.25  276.84960    3.71520    3.92350  -42.46450   86.69650   99.36950   11.61100    -999.25
 3690.80000    -999.25    -999.25    -999.25  275.40910    3.71310    3.91360  -42.45490   86.20380  100.45000   12.08780    -999.25
 3691.30000    -999.25    -999.25    -999.25  274.15470    3.71100    3.93410  -42.40850   90.86770  103.47130   11.86670    -999.25
 3691.80000    -999.25    -999.25    -999.25  271.28490    3.70890    3.98360  -42.36220   88.53500  104.50970   12.13880    -999.25
 3692.30000    -999.25    -999.25    -999.25  267.91170    3.70680    4.03310  -42.31580   85.02270  104.84730   11.68070    -999.25
 3692.80000    -999.25    -999.25    -999.25  263.58480    3.73180    4.08250  -42.26950   85.04600  102.55170   12.10700    -999.25
 3693.30000    -999.25    -999.25    -999.25  256.11650    3.78890    4.13200  -42.22320   89.21800  102.01410   12.70520    -999.25
 3693.80000    -999.25    -999.25    -999.25  251.47990    3.84610    4.18150  -42.17680   83.99070   98.89240   12.35170    -999.25
 3694.30000    -999.25    -999.25    -999.25  242.09040    3.90320    4.23090  -42.13050   88.83970   94.77730   11.87320    -999.25
 3694.80000    -999.25    -999.25    -999.25  238.06440    3.96030    4.28040  -42.08410   92.30180   94.02640   11.22360    -999.25
 3695.30000    -999.25    -999.25    -999.25  234.97420    4.01740    4.32990  -42.06970   91.77110   95.02710   10.97410    -999.25
 3695.80000    -999.25    -999.25    -999.25  233.82440    4.07450    4.37940  -42.08080   91.76010   93.27420   11.58160    -999.25
 3696.30000    -999.25    -999.25    -999.25  232.61860    4.13170    4.42880  -42.09190   95.23240   92.98190   12.11020    -999.25
 3696.80000    -999.25    -999.25    -999.25  232.87470    4.18880    4.47830  -42.10290   93.85410   96.71490   12.40880    -999.25
 3697.30000    -999.25    -999.25    -999.25  230.89090    4.24590    4.52780  -42.11400   87.02750   96.87060   12.47860    -999.25
 3697.80000    -999.25    -999.25    -999.25  226.00140    4.28080    4.57240  -42.12510   90.43450   97.53240   12.03720    -999.25
 3698.30000    -999.25    -999.25    -999.25  219.60890    4.30700    4.61700  -42.13620   89.65670   97.76850   11.54950    -999.25
 3698.80000    -999.25    -999.25    -999.25  214.97510    4.33320    4.66170  -42.14730   89.08470   95.37160   11.09710    -999.25
 3699.30000    -999.25    -999.25    -999.25  214.39130    4.35940    4.70630  -42.15840   89.25130   97.94020   10.89460    -999.25
 3699.80000    -999.25    -999.25    -999.25  217.57940    4.38560    4.75090  -42.16950   88.64770   97.24000   11.24820    -999.25
 3700.30000    -999.25    -999.25    -999.25  218.87790    4.41180    4.79550  -42.18050   87.94180   93.76800   11.71910    -999.25
 3700.80000    -999.25    -999.25    -999.25  219.21270    4.43800    4.84020  -42.19160   84.75660   94.70960   11.98330    -999.25
 3701.30000    -999.25    -999.25    -999.25  217.11610    4.46370    4.87570  -42.20270   81.49170   95.59580   12.03460    -999.25
 3701.80000    -999.25    -999.25    -999.25  215.99710    4.41220    4.85400  -42.21380   78.20110   92.54060   11.56110    -999.25
