~Version ---------------------------------------------------
VERS.      2.0 : CWLS log ASCII Standard -VERSION 2.0
WRAP.       NO : One line per depth step
CREA. 11/20/17 : LAS Creation Date
~Well ------------------------------------------------------
STRT.FT                      1000.0 : START DEPTH
STOP.FT                      9200.0 : STOP DEPTH
STEP.FT                    50.00000 : STEP LENGTH
NULL.                       -999.25 : NULL VALUE
COMP. AMOCO CANADA PETROLEUM CO LTD : COMPANY
WELL.    AMOCO HB SAKWA 11-26-62-14 : WELL
FLD .                               : FIELD
LOC .                               : LOCATION
CTRY.                        CANADA : COUNTRY
SRVC.                       Unknown : SERVICE COMPANY
DATE.                   15-Jan-1977 : LOGDATE
PROV.                       Alberta : PROVINCE
UWI .              100112606214W500 : UNIQUE WELL ID
SLAT.WGS84                 54.39502 : SURFACE LATITUDE
SLON.WGS84                 -115.993 : SURFACE LONGITUDE
~Curve Information -----------------------------------------
DEPT    .FT    : Depth Curve
CALDED  .IN    : CALIPER FROM DENSITY LOG [ADJ. TO RESISTIVITY LOG]
CALSED  .IN    : CALIPER FROM SONIC LOG [ADJ. TO RESISTIVITY LOG]
CALWS   .IN    : CALIPER [CALDED]
CONDWS  .MMHO  : CONDUCTIVITY [1000/DRESWS]
DCORWS  .G/C3  : DENSITY CORRECTION [DRHOED]
DENWS   .G/C3  : FORMATION BULK DENSITY [CALC. FROM DPOLSWS,M=2.71, F=1.00]
DPHILSED.V/V   : DENSITY POROSITY LIMESTONE [M=2.71, F=1.00] FROM DENSITY LOG [ADJ. TO RESISTIVITY LOG/NPHILS/NPHISS]
DPHISSED.V/V   : DENSITY POROSITY SANDSTONE [M=2.65, F=1.00] FROM DENSITY LOG [ADJ. TO RESISTIVITY LOG/NPHILSED/NPHISSED]
DPOLSWS .V/V   : DENSITY POROSITY LIMESTONE [DPHISSED CONVERTED TO LIMESTONE MATRIX,M=2.71, F=1.00,SPL. TO DPHILSED @ 5507']
DRESWS  .OHMM  : DEEP RESISTIVITY [ILDED]
DRHOED  .G/C3  : DENSITY CORRECTION FROM DENSITY LOG [ADJ. TO RESISTIVITY LOG/NPHILSED/NPHISSED/DPHILSED/DPHISSED]
DTED    .US/F  : DELTA-T FROM SONIC LOG [ADJ. TO RESISTIVITY LOG]
DTWS    .US/F  : COMPRESSIONAL SONIC [DTED]
GRDED   .GAPI  : GAMMA RAY FROM DENSITY LOG [ADJ. TO RESISTIVITY LOG]
GRSED   .GAPI  : GAMMA RAY FROM SONIC LOG [ADJ. TO RESISTIVITY LOG]
GRWS    .GAPI  : GAMMA RAY [GRSED SPL. TO GRDED @ 1007']
ILDED   .OHMM  : DEEP INDUCTION RESISTIVITY FROM RESISTIVITY LOG
ILMED   .OHMM  : MEDIUM INDUCTION RESISTIVITY FROM RESISTIVITY LOG
LL8ED   .OHMM  : LATEROLOG 8 FROM RESISTIVITY LOG
MRESWS  .OHMM  : MEDIUM RESISTIVITY [ILMED]
NPHILSED.V/V   : NEUTRON POROSITY LIMESTONE FROM DENSITY LOG [ADJ. TO RESISTIVITY LOG]
NPHISSED.V/V   : NEUTRON POROSITY SANDSTONE FROM DENSITY LOG [ADJ. TO RESISTIVITY LOG]
NPOLSWS .V/V   : NEUTRON POROSITY LIMESTONE [NPHISSED MATRIX CONVERSION FOR LIMESTONE, SPL. TO NPHILSED @5597']
RHOBED  .G/C3  : BULK DENSITY FROM DENSITY LOG [ADJ. TO RESISTIVITY LOG/NPHILSED/NPHISSED/DPHILSED/DPHISSED]
SPRED   .MV    : SPONTANEOUS POTENTIAL FROM RESISTIVITY LOG
SPWS    .MV    : SPONTANEOUS POTENTIAL [BASELINE 0 MV,SPRED]
SRESWS  .OHMM  : SHALLOW RESISTIVITY [LL8ED]
~Params ----------------------------------------------------
PD  .                     GL : PERMANENT DATUM
EPD .FT                 2835 : ELEVATION PERMANENT DATUM
LMF .                     KB : LOG MEASURED FROM
DAPD.FT                 14.6 : FEET ABOVE PERMANENT DATUM
EKB .FT               2849.6 : KELLY BUSHING
EGL .FT               2835.0 : GROUND LEVEL
DATE.               01/15/77 : RUN DATE
RUN .                      1 : RUN NUMBER
DD  .FT                 9200 : DEPTH DRILLER
DL  .FT                 9205 : DEPTH LOGGER
BLI .FT                 9204 : BOTTOM LOG INTERVAL
TLI .FT                 1012 : TOP LOG INTERVAL
CBD .FT                 1015 : CASING BOTTOM DRILLER
CBL .FT                 1012 : CASING BOTTOM LOGGER
BS  .IN                 8.25 : BIT SIZE
BSD .FT                 9200 : BIT SIZE AT DEPTH
DFT .                    GEL : DRILLING FLUID TYPE
DFD .                    9.1 : DRILLING FLUID DENSITY
DFV .                    105 : DRILLING FLUID VISCOSITY
DFPH.                    9.5 : DRILLING FLUID PH
RMS .OHMM               3.85 : RESISTIVITY MUD SAMPLE
MST .DEGF                 48 : MUD SAMPLE TEMPERATURE
RMF .OHMM               3.25 : RESISTIVITY MUD FILTRATE SAMPLE
MFST.DEGF                 62 : MUD FILTRATE SAMPLE TEMPERATURE
TCS .HRS                   8 : TIME CIRCULATED STOPPED
LUN .                   7802 : LOGGING UNIT NUMBER
LUL .                    EDM : LOGGING UNIT LOCATION
ENGI.                   PIHM : RECORDING ENGINEER
WITN.            PHILLIPCHUK : WITNESSED BY
CLNT.                A2DTECH : CLIENT CODE
ORIG.            2" 5" PRINT : ORIGIN OF DATA
UWI .       100112606214W500 : UNIQUE WELL ID
DICO. A2D Technologies, Inc. : DIGITIZING COMPANY
~Other -----------------------------------------------------
DIL-CNFD-BHC LOG RUN.
RHOB & DRHO VERIFYED FROM 2" OF SCALE
~ASCII -----------------------------------------------------
 1000.00000    -999.25    -999.25    -999.25    -999.25    -999.25    -999.25    -999.25    -999.25    -999.25    -999.25    -999.25    -999.25    -999.25    -999.25   63.60250   63.60250    -999.25    -999.25    -999.25    -999.25    -999.25    -999.25    -999.25    -999.25    -999.25    -999.25    -999.25
 1050.00000   11.94370    9.85140   11.94370  210.19650    0.21530    1.93460    -999.25    0.43360    0.45350    4.75960    0.21530  124.46970  124.46970   74.89330   89.55560   74.89330    4.75960    3.81620    3.98680    3.81620    -999.25    0.45230    0.41070    1.93810 -186.60260   -2.43100    3.98680
 1100.00000   10.84830   10.00670   10.84830  262.68090    0.16420    2.01230    -999.25    0.38650    0.40800    3.80690    0.16420  117.63600  117.63600   74.13510   83.77570   74.13510    3.80690    3.22580    3.57480    3.22580    -999.25    0.44200    0.40010    2.03890 -188.37830   -1.80970    3.57480
 1150.00000   10.69310    9.58340   10.69310  199.38990    0.07270    2.23370    -999.25    0.25230    0.27850    5.01530    0.07270  109.09530  109.09530   80.36150   94.63310   80.36150    5.01530    4.61850    5.05370    4.61850    -999.25    0.40430    0.36150    2.25860 -191.95230   -2.99870    5.05370
 1200.00000    8.79020    9.91000    8.79020  359.19540    0.14140    1.94990    -999.25    0.42430    0.44450    2.78400    0.14140  134.90850  134.90850   85.07600  104.80100   85.07600    2.78400    2.50190    3.18630    2.50190    -999.25    0.52960    0.49130    2.02250 -194.07980   -3.91750    3.18630
 1250.00000    9.33630    9.67540    9.33630  198.23180    0.17030    2.10220    -999.25    0.33200    0.35540    5.04460    0.17030  109.19720  109.19720   87.19430  107.25830   87.19430    5.04460    4.41250    4.56230    4.41250    -999.25    0.42800    0.38570    2.14290 -194.21380   -4.06720    4.56230
 1300.00000    9.37890    9.62950    9.37890  138.92090    0.13180    2.25840    -999.25    0.23730    0.26410    7.19970    0.13180  105.66180  105.66180  103.72640  128.73180  103.72640    7.19970    6.77470    7.91580    6.77470    -999.25    0.37050    0.32710    2.27670 -194.50130   -4.37040    7.91580
 1350.00000   10.16400    9.68040   10.16400  313.79440    0.13390    1.87500    -999.25    0.46970    0.48830    3.18680    0.13390  135.16530  135.16530   80.18280  107.12760   80.18280    3.18680    2.81110    3.18520    2.81110    -999.25    0.51690    0.47790    1.82550 -192.74520   -3.03370    3.18520
 1400.00000    9.80690   10.05830    9.80690  313.39120    0.15540    1.98640    -999.25    0.40220    0.42320    3.19090    0.15540  112.68220  112.68220   81.24790  101.20320   81.24790    3.19090    2.77970    3.19950    2.77970    -999.25    0.45410    0.41250    2.01810 -190.86970   -1.71940    3.19950
 1450.00000   10.80570   10.04710   10.80570  246.41470    0.14750    2.00040    -999.25    0.39370    0.41500    4.05820    0.14750  111.01710  111.01710   87.91940   96.31910   87.91940    4.05820    3.28430    4.17190    3.28430    -999.25    0.45240    0.41080    2.02270 -189.91000   -1.32100    4.17190
 1500.00000   10.28040   10.09010   10.28040  246.68820    0.15710    2.15750    -999.25    0.29850    0.32310    4.05370    0.15710  109.20480  109.20480   85.70970  107.17270   85.70970    4.05370    3.60510    3.63930    3.60510    -999.25    0.42880    0.38660    2.17360 -189.71120   -2.03310    3.63930
 1550.00000    9.22870   10.63990    9.22870  333.46720    0.13090    2.13030    -999.25    0.31500    0.33900    3.00070    0.13090  118.21990  118.21990   84.60730  109.41470   84.60730    3.00070    2.53030    3.15310    2.53030    -999.25    0.51240    0.47330    2.17990 -187.93340   -1.55410    3.15310
 1600.00000   11.61410   10.41460   11.61410  285.63270    0.16770    2.00470    -999.25    0.39110    0.41250    3.50100    0.16770  113.55440  113.55440  100.77820  121.96670  100.77820    3.50100    3.29490    3.89300    3.29490    -999.25    0.48160    0.44100    2.01250 -186.77620   -1.25050    3.89300
 1650.00000    9.81320    9.62830    9.81320  249.44500    0.23680    2.13420    -999.25    0.31260    0.33670    4.00890    0.23680  105.55780  105.55780   80.77750   98.15760   80.77750    4.00890    3.54060    3.68530    3.54060    -999.25    0.38340    0.34020    2.16190 -186.85890   -1.99320    3.68530
 1700.00000   10.42050    9.43760   10.42050  323.50940    0.17850    2.12650    -999.25    0.31730    0.34130    3.09110    0.17850  109.24280  109.24280   89.47150  104.32280   89.47150    3.09110    2.87380    3.40260    2.87380    -999.25    0.41880    0.37630    2.14950 -186.87580   -2.67010    3.40260
 1750.00000   13.02750    9.99740   13.02750  371.51240    0.05120    2.10020    -999.25    0.33320    0.35660    2.69170    0.05120  122.11390  122.11390   89.80540  103.96780   89.80540    2.69170    2.42670    2.83060    2.42670    -999.25    0.47970    0.43900    2.12460 -185.88580   -2.34010    2.83060
 1800.00000    8.75180    9.42720    8.75180   53.04570    0.08620    2.18190    -999.25    0.28370    0.30880   18.90380    0.08620  102.61700  102.61700   51.38150   63.23540   51.38150   18.90380   15.31590   13.61580   15.31590    -999.25    0.35640    0.31290    2.20250 -199.87550  -16.98660   13.61580
 1850.00000   12.03280    9.89960   12.03280  219.89140    0.05640    2.31040    -999.25    0.20580    0.23370    4.54770    0.05640  114.53310  114.53310   71.48740   94.18270   71.48740    4.54770    3.95950    3.92220    3.95950    -999.25    0.38750    0.34440    2.31830 -186.11910   -3.89340    3.92220
 1900.00000   11.56540    9.23600   11.56540  222.05440    0.05700    2.23440    -999.25    0.25190    0.27810    4.50340    0.05700  102.24880  102.24880   80.62710   88.57790   80.62710    4.50340    4.00860    4.57790    4.00860    -999.25    0.38270    0.33950    2.24700 -183.40390   -1.83820    4.57790
 1950.00000    9.18030    9.25550    9.18030  138.86000    0.09500    2.23300    -999.25    0.25270    0.27900    7.20150    0.09500  104.07290  104.07290   55.46050   72.13140   55.46050    7.20150    6.23070    7.43400    6.23070    -999.25    0.38280    0.33960    2.25510 -192.65150  -11.66850    7.43400
 2000.00000    9.86490    9.65740    9.86490  219.53900    0.08240    2.25250    -999.25    0.24090    0.26750    4.55500    0.08240  113.21280  113.21280   79.24350   95.09320   79.24350    4.55500    3.87890    4.04980    3.87890    -999.25    0.42180    0.37940    2.27880 -182.14260   -1.67090    4.04980
 2050.00000    9.26870    9.48590    9.26870   76.95900    0.05680    2.45650    -999.25    0.11730    0.14830   12.99750    0.05680   80.38800   80.38800   56.14540   67.98370   56.14540   12.99750   12.44290   19.01910   12.44290    -999.25    0.27170    0.22770    2.45800 -185.08140   -5.11850   19.01910
 2100.00000    9.92500    9.61740    9.92500  261.00800    0.08610    2.33420    -999.25    0.19140    0.21980    3.83130    0.08610  110.15900  110.15900   77.94140   95.86810   77.94140    3.83130    3.42180    3.92230    3.42180    -999.25    0.45230    0.41070    2.35890 -182.14110   -2.69200    3.92230
 2150.00000   10.65040    9.66770   10.65040  245.08000    0.05370    2.26850    -999.25    0.23120    0.25820    4.08030    0.05370  100.36240  100.36240   71.41270   83.72090   71.41270    4.08030    3.67980    4.06170    3.67980    -999.25    0.39580    0.35280    2.30030 -182.73340   -3.81330    4.06170
 2200.00000   10.32410    9.63140   10.32410  214.96130    0.05340    2.29050    -999.25    0.21780    0.24530    4.65200    0.05340  101.71230  101.71230   64.36600   79.17310   64.36600    4.65200    4.15200    4.39830    4.15200    -999.25    0.37190    0.32850    2.29570 -183.11870   -5.23310    4.39830
 2250.00000    9.38170    9.21040    9.38170  175.02100    0.07700    2.24540    -999.25    0.24520    0.27170    5.71360    0.07700  101.23210  101.23210   69.03340   84.95220   69.03340    5.71360    5.33780    6.60930    5.33780    -999.25    0.34690    0.30320    2.26330 -187.68140  -11.32130    6.60930
