~Version ---------------------------------------------------
VERS.      2.0 : CWLS log ASCII Standard -VERSION 2.0
WRAP.       NO : One line per depth step
CREA. 08/31/17 : LAS Creation Date
~Well ------------------------------------------------------
STRT.FT                             1100.0 : START DEPTH
STOP.FT                            11500.0 : STOP DEPTH
STEP.FT                           50.00000 : STEP LENGTH
NULL.                              -999.25 : NULL VALUE
COMP.              MURPHY OIL COMPANY LTD. : COMPANY
WELL. MURPHY ASHLAND WOLF CREEK 11-5-53-15 : WELL
FLD .                                      : FIELD
LOC .                                      : LOCATION
CTRY.                               CANADA : COUNTRY
SRVC.               Schlumberger of Canada : SERVICE COMPANY
DATE.                          08-Dec-1976 : LOGDATE
PROV.                              Alberta : PROVINCE
UWI .                     100110505315W500 : UNIQUE WELL ID
SLAT.WGS84                        53.55101 : SURFACE LATITUDE
SLON.WGS84                        -116.179 : SURFACE LONGITUDE
~Curve Information -----------------------------------------
DEPT    .FT    : Depth Curve
CALDED  .IN    : CALIPER FROM CNL-FDC LOG [ADJ. TO GRSED]
CALSED  .IN    : CALIPER FROM SONIC LOG
CALWS   .IN    : CALIPER [CALDED]
CILDED  .MMHO  : DEEP INDUCTION CONDUCTIVITY FROM RESISTIVITY LOG
CONDWS  .MMHO  : CONDUCTIVITY [1000/DRESWS]
DCORWS  .G/C3  : DENSITY CORRECTION [DRHOED]
DENWS   .G/C3  : FORMATION BULK DENSITY [RHOBED]
DPHILSED.V/V   : DENSITY POROSITY LIME [M=2.71, F=1.00] FROM CNL-FDC LOG [ADJ. TO GRSED]
DPHISSED.V/V   : DENSITY POROSITY SAND [M=2.65, F=1.00] FROM CNL-FDC LOG [ADJ. TO GRSED]
DPOLSWS .V/V   : DENSITY POROSITY LIME [CALCULATED FROM DENWS, M=2.71, F=1.00]
DRESWS  .OHMM  : DEEP RESISTIVITY [ILDED]
DRHOED  .G/C3  : BULK DENSITY CORRECTION FROM DENSITY LOG [ADJ. TO DPHISSED/DPHILSED/GRSED]
DTED    .US/F  : DELTA-T (INTERVAL TRANSIT TIME) FROM SONIC LOG
DTWS    .US/F  : COMPRESSIONAL SONIC [DTED]
GRDED   .GAPI  : GAMMA RAY FROM DENSITY LOG [ADJ. TO GRSED]
GRSED   .GAPI  : GAMMA RAY FROM SONIC LOG
GRWS    .GAPI  : GAMMA RAY [GRSED]
ILDED   .OHMM  : DEEP INDUCTION FROM RESISTIVITY LOG
ILMED   .OHMM  : MEDIUM INDUCTION FROM RESISTIVITY LOG
LL8ED   .OHMM  : LATEROLOG 8 FROM RESISTIVITY LOG
MRESWS  .OHMM  : MEDIUM RESISTIVITY [ILMED]
NPHILSED.V/V   : NEUTRON POROSITY LIME FROM CNL-FDC LOG [ADJ. TO GRSED]
NPHISSED.V/V   : NEUTRON POROSITY SAND FROM CNL-FDC LOG [ADJ. TO GRSED]
NPOLSWS .V/V   : NEUTRON POROSITY LIME [NPHISSED MATRIX CONVERTED TO LIMESTONE & SPL. TO NPHILSED @ 8000']
RHOBED  .G/C3  : BULK DENSITY FROM DENSITY LOG [ADJ. TO DPHISSED/DPHILSED/GRSED]
SPRED   .MV    : SPONTANEOUS POTENTIAL FROM RESISTIVITY LOG
SPWS    .MV    : SPONTANEOUS POTENTIAL [BASELINE 0 MV, SPRED]
SRESWS  .OHMM  : SHALLOW RESISTIVITY [LL8ED]
~Params ----------------------------------------------------
PD  .                     GL : PERMANENT DATUM
EPD .FT               2966.3 : ELEVATION PERMANENT DATUM
LMF .                     KB : LOG MEASURED FROM
DAPD.FT                 15.4 : FEET ABOVE PERMANENT DATUM
EKB .FT               2981.7 : KELLY BUSHING
EGL .FT               2966.3 : GROUND LEVEL
DATE.               12/08/76 : RUN DATE
RUN .                      1 : RUN NUMBER
DD  .FT                11560 : DEPTH DRILLER
DL  .FT                11554 : DEPTH LOGGER
BLI .FT                11548 : BOTTOM LOG INTERVAL
TLI .FT                 1160 : TOP LOG INTERVAL
CBD .FT                 1160 : CASING BOTTOM DRILLER
CBL .FT                 1160 : CASING BOTTOM LOGGER
BS  .IN                 8.75 : BIT SIZE
BSD .FT                11560 : BIT SIZE AT DEPTH
DFT .               GEL CHEM : DRILLING FLUID TYPE
DFD .                    9.1 : DRILLING FLUID DENSITY
DFV .                    290 : DRILLING FLUID VISCOSITY
DFPH.                     11 : DRILLING FLUID PH
DFL .                    5.8 : DRILLING FLUID LOSS
MSS .               FLOWLINE : MUD SAMPLE SOURCE
RMS .OHMM               1.67 : RESISTIVITY MUD SAMPLE
MST .DEGF                 37 : MUD SAMPLE TEMPERATURE
RMF .OHMM                1.3 : RESISTIVITY MUD FILTRATE SAMPLE
MFST.DEGF                 55 : MUD FILTRATE SAMPLE TEMPERATURE
TCS .HRS                 2.5 : TIME CIRCULATED STOPPED
LUN .                   7730 : LOGGING UNIT NUMBER
LUL .                    EDM : LOGGING UNIT LOCATION
ENGI.        MCDONALD KARAKI : RECORDING ENGINEER
WITN.            ABEL WORKUM : WITNESSED BY
CLNT.                A2DTECH : CLIENT CODE
ORIG.            2" 5" PRINT : ORIGIN OF DATA
UWI .       100110505315W500 : UNIQUE WELL ID
DICO. A2D Technologies, Inc. : DIGITIZING COMPANY
~Other -----------------------------------------------------
~ASCII -----------------------------------------------------
# ...
 2350.00000   11.35990    9.21020   11.35990  150.35360  150.46870    0.24820    2.04620    -999.25    -999.25    0.38820    6.64590    0.24820   86.32880   86.32880   79.42830   83.78730   83.78730    6.64590    -999.25    5.96760    -999.25    -999.25    -999.25    -999.25    2.04620    6.20170   -4.74300    5.96760
 2400.00000   10.01740    8.88300   10.01740  232.37530  233.49930    0.16580    1.86480    -999.25    -999.25    0.49420    4.28410    0.16580   98.57980   98.57980   81.14880   85.45720   85.45720    4.28410    -999.25    4.90290    -999.25    -999.25    -999.25    -999.25    1.86480    8.29980   -5.26330    4.90290
 2450.00000   10.78180    9.19850   10.78180  170.83110  170.77380    0.22420    1.93670    -999.25    -999.25    0.45230    5.85570    0.22420   91.75330   91.75330   87.00370  103.17720  103.17720    5.85570    -999.25    6.13150    -999.25    -999.25    -999.25    -999.25    1.93670    5.57590  -10.06510    6.13150
 2500.00000   10.68810    8.89760   10.68810  188.42880  188.64010    0.21240    2.02090    -999.25    -999.25    0.40300    5.30110    0.21240   88.85420   88.85420   75.97460   88.64560   88.64560    5.30110    -999.25    5.46320    -999.25    -999.25    -999.25    -999.25    2.02090   12.05970   -5.49170    5.46320
 2550.00000   12.27910    9.11500   12.27910  181.51700  181.53060    0.17060    2.02750    -999.25    -999.25    0.39920    5.51110    0.17060   91.04190   91.04190   86.08310   86.62520   86.62520    5.51110    -999.25    5.75150    -999.25    -999.25    -999.25    -999.25    2.02750   12.58020   -6.32270    5.75150
 2600.00000    9.10550    8.99830    9.10550   99.64430   98.91390    0.04310    2.50220    -999.25    -999.25    0.12150   10.10980    0.04310   77.46810   77.46810   65.36500   63.08630   63.08630   10.10980    -999.25   10.39130    -999.25    -999.25    -999.25    -999.25    2.50220   13.05910   -6.69190   10.39130
 2650.00000    9.97030    9.53320    9.97030  229.57810  229.39930    0.08060    2.42300    -999.25    -999.25    0.16790    4.36140    0.08060   94.49000   94.49000  101.15950  111.24950  111.24950    4.36140    -999.25    4.34300    -999.25    -999.25    -999.25    -999.25    2.42300   18.31110   -6.19200    4.34300
 2700.00000   10.84110    9.59770   10.84110  178.16360  184.66200    0.16670    1.99350    -999.25    -999.25    0.41900    5.41530    0.16670  131.89050  131.89050   80.04810   82.99540   82.99540    5.41530    -999.25    6.93150    -999.25    -999.25    -999.25    -999.25    1.99350   23.13620   -4.28180    6.93150
 2750.00000   13.07750    9.32780   13.07750  188.98920  189.00730    0.04540    2.31770    -999.25    -999.25    0.22940    5.29080    0.04540   90.01870   90.01870   87.10770   86.24210   86.24210    5.29080    -999.25    5.03360    -999.25    -999.25    -999.25    -999.25    2.31770   37.53160   -1.40710    5.03360
 2800.00000   13.04670    9.14430   13.04670  213.40940  213.65130    0.05380    2.16090    -999.25    -999.25    0.32110    4.68170    0.05380   92.31320   92.31320   83.55640   98.55980   98.55980    4.68170    -999.25    4.45270    -999.25    -999.25    -999.25    -999.25    2.16090   24.15830   -6.21950    4.45270
 2850.00000   11.91600    9.09650   11.91600  125.80640  125.28500    0.16410    2.29770    -999.25    -999.25    0.24110    7.98180    0.16410   78.81000   78.81000   80.35880   82.64260   82.64260    7.98180    -999.25    7.56280    -999.25    -999.25    -999.25    -999.25    2.29770   24.76570   -2.74830    7.56280
 2900.00000    9.48530    9.00630    9.48530   74.48710   72.80880    0.05930    2.44590    -999.25    -999.25    0.15450   13.73540    0.05930   75.14900   75.14900   56.61300   59.71690   59.71690   13.73540    -999.25   12.56110    -999.25    -999.25    -999.25    -999.25    2.44590   14.97180  -10.78930   12.56110
 2950.00000   10.44410    8.96740   10.44410  138.53060  138.52140    0.17850    2.18520    -999.25    -999.25    0.30690    7.21910    0.17850   84.75560   84.75560   93.84810  108.15020  108.15020    7.21910    -999.25    6.82820    -999.25    -999.25    -999.25    -999.25    2.18520   22.69340   -2.39870    6.82820
 3000.00000    9.01000    8.90330    9.01000   53.53930   48.56440    0.04670    2.46070    -999.25    -999.25    0.14580   20.59120    0.04670   65.06450   65.06450   52.12630   52.18580   52.18580   20.59120    -999.25   23.63160    -999.25    -999.25    -999.25    -999.25    2.46070   19.30680   -6.53030   23.63160
 3050.00000   10.18330    9.16320   10.18330  196.39490  196.44840    0.18420    1.86790    -999.25    -999.25    0.49250    5.09150    0.18420   87.81970   87.81970   88.73030   95.53110   95.53110    5.09150    -999.25    4.87650    -999.25    -999.25    -999.25    -999.25    1.86790   22.16260   -4.41570    4.87650
 3100.00000   10.59610    9.07590   10.59610  129.64870  129.60590    0.06340    2.46920    -999.25    -999.25    0.14080    7.71570    0.06340   78.39020   78.39020   71.86420   78.68710   78.68710    7.71570    -999.25    7.68720    -999.25    -999.25    -999.25    -999.25    2.46920   19.12680   -7.78220    7.68720
 3150.00000   13.83690    9.23790   13.83690  182.83830  182.90550    0.07680    2.21690    -999.25    -999.25    0.28840    5.47240    0.07680   96.28050   96.28050  107.51710  111.13760  111.13760    5.47240    -999.25    6.00130    -999.25    -999.25    -999.25    -999.25    2.21690   23.36060   -2.69030    6.00130
 3200.00000   12.55590    9.14420   12.55590   88.12420   87.51360    0.23500    2.29960    -999.25    -999.25    0.24000   11.42680    0.23500   79.67520   79.67520  104.58130  118.22950  118.22950   11.42680    -999.25   11.05660    -999.25    -999.25    -999.25    -999.25    2.29960   19.20650   -5.97770   11.05660
 3250.00000   11.39200    9.14550   11.39200  156.41350  154.09750    0.11810    2.26060    -999.25    -999.25    0.26280    6.48940    0.11810   85.31190   85.31190   92.09380  102.29390  102.29390    6.48940    -999.25    6.02400    -999.25    -999.25    -999.25    -999.25    2.26060   19.71920   -4.60250    6.02400
 3300.00000   11.96060    9.21480   11.96060  211.37820  211.42930    0.21460    2.17920    -999.25    -999.25    0.31050    4.73050    0.21460   87.31390   87.31390  103.14350  116.60970  116.60970    4.73050    -999.25    4.81310    -999.25    -999.25    -999.25    -999.25    2.17920   19.77020   -4.28250    4.81310
 3350.00000    9.12880    8.93040    9.12880  118.57310  118.31800    0.11380    2.34450    -999.25    -999.25    0.21370    8.45180    0.11380   76.49270   76.49270   70.08920   82.23500   82.23500    8.45180    -999.25    7.99100    -999.25    -999.25    -999.25    -999.25    2.34450   14.08130  -10.64260    7.99100
 3400.00000    9.38370    8.87800    9.38370   55.15280   52.88720    0.05480    2.43850    -999.25    -999.25    0.15880   18.91240    0.05480   76.83920   76.83920   93.00730  106.76530  106.76530   18.91240    -999.25   20.66640    -999.25    -999.25    -999.25    -999.25    2.43850   15.28230   -9.82030   20.66640
 3450.00000   11.12760    9.31220   11.12760  165.83490  165.81270    0.02280    2.22380    -999.25    -999.25    0.28430    6.03090    0.02280   86.24760   86.24760   95.93120  101.96270  101.96270    6.03090    -999.25    5.07110    -999.25    -999.25    -999.25    -999.25    2.22380   17.40840   -7.50850    5.07110
 3500.00000   11.98350    9.58560   11.98350  213.23710  213.31060    0.15030    2.00780    -999.25    -999.25    0.41060    4.68800    0.15030   90.31760   90.31760   85.72960  108.38280  108.38280    4.68800    -999.25    4.94640    -999.25    -999.25    -999.25    -999.25    2.00780   21.71220   -3.01980    4.94640
 3550.00000   11.52630    9.34970   11.52630  298.03810  297.91520    0.09190    1.88020    -999.25    -999.25    0.48530    3.35710    0.09190   88.20610   88.20610   95.06070  105.41830  105.41830    3.35710    -999.25    3.49130    -999.25    -999.25    -999.25    -999.25    1.88020   16.71410   -6.82930    3.49130
