~Version ---------------------------------------------------
VERS.      2.0 : CWLS log ASCII Standard -VERSION 2.0
WRAP.       NO : One line per depth step
CREA. 12/13/17 : LAS Creation Date
~Well ------------------------------------------------------
STRT.FT                   900.0 : START DEPTH
STOP.FT                  9200.0 : STOP DEPTH
STEP.FT                50.00000 : STEP LENGTH
NULL.                   -999.25 : NULL VALUE
COMP.     TEXACO CANADA LIMITED : COMPANY
WELL. TEXACO SUNSET 16-17-69-19 : WELL
FLD .                           : FIELD
LOC .                           : LOCATION
CTRY.                    CANADA : COUNTRY
SRVC.                   Unknown : SERVICE COMPANY
DATE.               16-Oct-1970 : LOGDATE
PROV.                   Alberta : PROVINCE
UWI .          100161706919W500 : UNIQUE WELL ID
SLAT.WGS84               54.979 : SURFACE LATITUDE
SLON.WGS84            -116.8515 : SURFACE LONGITUDE
~Curve Information -----------------------------------------
DEPT  .FT    : Depth Curve
ACED  .US/F  : DELTA TIME FROM SONIC LOG [ADJ. TO RESISTIVITY LOG]
CALSED.IN    : CALIPER FROM SONIC LOG [ADJ. TO RESISTIVITY LOG]
CALWS .IN    : CALIPER [MCALED SPL. TO CALSED @ 4782']
CONDWS.MMHO  : CONDUCTIVITY [1000/DRESWS]
DRESWS.OHMM  : DEEP RESISTIVITY [ILDED]
DTWS  .US/F  : COMPRESSIONAL SONIC [ACED]
GRSED .GAPI  : GAMMA RAY FROM SONIC LOG [ADJ. TO RESISTIVITY LOG]
GRWS  .GAPI  : GAMMA RAY [GRSED]
ILDED .OHMM  : DEEP INDUCTION RESISTIVITY FROM RESISTIVITY LOG
ILMED .OHMM  : MEDIUM INDUCTION RESISTIVITY FROM RESISTIVITY LOG
MCALED.IN    : MICRO CALIPER FROM ML LOG
MRESWS.OHMM  : MEDIUM RESISTIVITY [ILMED]
SFLED .OHMM  : SPHERICALLY FOCUSED RESISTIVITY FROM RESISTIVITY LOG
SPRED .MV    : SPONTANEOUS POTENTIAL FROM RESISTIVITY LOG
SPWS  .MV    : SPONTANEOUS POTENTIAL [BASELINE 0 MV, SPRED]
SRESWS.OHMM  : SHALLOW RESISTIVITY [SFLED]
~Params ----------------------------------------------------
PD  .                     GL : PERMANENT DATUM
EPD .FT               2413.8 : ELEVATION PERMANENT DATUM
LMF .                     KB : LOG MEASURED FROM
DAPD.FT                    2 : FEET ABOVE PERMANENT DATUM
DMF .                     KB : DRILLING MEASURED FROM
EKB .FT                 2428 : KELLY BUSHING
EGL .FT               2413.8 : GROUND LEVEL
DATE.               10/16/70 : RUN DATE
RUN .                      1 : RUN NUMBER
DD  .FT                 9205 : DEPTH DRILLER
DL  .FT                 9205 : DEPTH LOGGER
BLI .FT                 9204 : BOTTOM LOG INTERVAL
TLI .FT                  929 : TOP LOG INTERVAL
CS  .IN                8.625 : CASING SIZE
CBD .FT                  929 : CASING BOTTOM DRILLER
CBL .FT                  929 : CASING BOTTOM LOGGER
BS  .IN                7.875 : BIT SIZE
BSD .FT                 9205 : BIT SIZE AT DEPTH
DFT .                MUD GEL : DRILLING FLUID TYPE
DFD .                    9.4 : DRILLING FLUID DENSITY
DFV .                     75 : DRILLING FLUID VISCOSITY
DFPH.                    9.5 : DRILLING FLUID PH
DFL .                    8.4 : DRILLING FLUID LOSS
MSS .                   CIRC : MUD SAMPLE SOURCE
RMS .OHMM                0.9 : RESISTIVITY MUD SAMPLE
MST .DEGF                 65 : MUD SAMPLE TEMPERATURE
RMF .OHMM                0.8 : RESISTIVITY MUD FILTRATE SAMPLE
MFST.DEGF                 65 : MUD FILTRATE SAMPLE TEMPERATURE
RMC .OHMM                1.4 : RESISTIVITY MUD CAKE
MCST.DEGF                 65 : MUD CAKE SAMPLE TEMPERATURE
MFSS.                   MEAS : MUD FILTRATE SAMPLE SOURCE
MCSS.                   MEAS : MUD CAKE SAMPLE SOURCE
RMB .OHMM                0.3 : RESISTIVITY MUD AT BHT
TCS .HRS                   3 : TIME CIRCULATED STOPPED
LUN .                   6090 : LOGGING UNIT NUMBER
LUL .                    V V : LOGGING UNIT LOCATION
ENGI.                 OFFORD : RECORDING ENGINEER
WITN.        PATTERSON IRVIN : WITNESSED BY
CLNT.                A2DTECH : CLIENT CODE
ORIG.            2" 5" PRINT : ORIGIN OF DATA
UWI .       100161706919W500 : UNIQUE WELL ID
DICO. A2D Technologies, Inc. : DIGITIZING COMPANY
~Other -----------------------------------------------------
~ASCII -----------------------------------------------------
# ...
 5200.00000   54.87230    8.12700    8.12700  169.06150    5.94800   54.87230   26.97270   26.97270    5.94800   10.64770    7.43390   10.64770   66.13620 -192.70690  -86.12420   66.13620
 5250.00000   64.43620    8.04990    8.04990  203.88610    4.90470   64.43620   24.59690   24.59690    4.90470   11.37740    7.31520   11.37740   49.24640 -218.78120 -112.25650   49.24640
 5300.00000   49.97390    8.20340    8.20340   13.14520   76.07360   49.97390   34.01770   34.01770   76.07360  105.05030    8.17050  105.05030  184.65260 -147.16630  -40.69970  184.65260
 5350.00000   58.92270    8.40660    8.40660  154.08080    6.49010   58.92270   29.07330   29.07330    6.49010   11.62980    7.54910   11.62980   32.65290 -198.52240  -92.11420   32.65290
 5400.00000   53.47670    7.99180    7.99180   41.99690   23.81130   53.47670   34.51450   34.51450   23.81130   39.39920    7.63310   39.39920   62.29300 -137.28750  -31.31320   62.29300
 5450.00000   56.92650    8.17680    8.17680   34.09120   29.41990   56.92650   68.18310   68.18310   29.41990   27.66490    7.89920   27.66490   41.51150 -120.30830  -17.98680   41.51150
 5500.00000   52.34030    8.00500    8.00500   23.69120   42.20970   52.34030   27.19310   27.19310   42.20970   47.74610    7.58740   47.74610   92.08120 -178.71830  -80.02570   92.08120
 5550.00000   60.18580    8.36660    8.36660  346.30840    2.88760   60.18580   26.77580   26.77580    2.88760    4.42410    7.74040    4.42410   31.58420 -184.54410  -89.48040   31.58420
 5600.00000   55.56380    8.37250    8.37250   52.42740   19.07400   55.56380   46.80220   46.80220   19.07400   25.07740    7.74030   25.07740   31.57310 -130.30940  -38.89850   31.57310
 5650.00000   53.47660    8.56660    8.56660   40.67370   24.58590   53.47660   36.54120   36.54120   24.58590   31.62640    7.98440   31.62640   95.65940 -114.73010  -26.94810   95.65940
 5700.00000   53.82510    8.14970    8.14970   59.86240   16.82390   53.82510   29.00420   29.00420   16.82390   32.24310    7.89900   32.24310   75.13350 -109.55500  -25.42580   75.13350
 5750.00000   58.33110    8.41080    8.41080  110.95950    9.01230   58.33110   25.07190   25.07190    9.01230   14.83240    7.67560   14.83240   69.08110 -170.00270  -89.50240   69.08110
 5800.00000   56.48140    8.00490    8.00490   62.65430   15.96060   56.48140   21.11330   21.11330   15.96060   27.24620    7.55410   27.24620  114.75400 -176.60730  -99.73590  114.75400
 5850.00000   58.01430    8.52040    8.52040   60.62590   16.49460   58.01430   25.12320   25.12320   16.49460   31.80240    7.91150   31.80240  103.58380 -171.95540  -98.73680  103.58380
 5900.00000   70.47460    9.64160    9.64160  268.68720    3.72180   70.47460   95.98680   95.98680    3.72180    4.44220    8.94430    4.44220    6.09050  -90.34680  -20.75710    6.09050
 5950.00000   95.76850   10.00670   10.00670  156.48070    6.39270   95.76850   90.47460   90.47460    6.39270    7.12290    8.43760    7.12290    7.93890  -71.37040   -5.43350    7.93890
 6000.00000  237.73410    9.12430    9.12430   65.98090   15.15590  237.73410   72.59330   72.59330   15.15590   16.52450    7.80140   16.52450   20.80560 -105.20560  -42.89760   20.80560
 6050.00000   57.08420    9.02810    9.02810   37.15400   26.91500   57.08420   61.38410   61.38410   26.91500   31.40440    7.86230   31.40440   33.72650  -61.75860   -2.17530   33.72650
 6100.00000   52.07470    9.08980    9.08980   13.96330   71.61630   52.07470   29.98090   29.98090   71.61630  102.41470    8.72560  102.41470   92.52770  -82.18250  -23.24440   92.52770
 6150.00000   58.87410    8.08850    8.08850   39.30250   25.44370   58.87410   61.17260   61.17260   25.44370   33.58910    7.44020   33.58910   31.49760  -78.91710  -20.62000   31.49760
 6200.00000   54.74380    8.00520    8.00520   33.97610   29.44170   54.74380   53.91340   53.91340   29.44170   31.15760    7.63520   31.15760   32.83160  -72.20120  -14.54940   32.83160
 6250.00000   54.98630    7.33440    7.33440   30.71030   32.56240   54.98630   38.97750   38.97750   32.56240   37.87590    7.36280   37.87590   35.15960  -97.49030  -40.47950   35.15960
 6300.00000   54.68810    7.41110    7.41110   30.27760   33.02770   54.68810   47.30550   47.30550   33.02770   40.49460    7.45030   40.49460   36.19740  -86.12770  -29.75790   36.19740
 6350.00000   51.87730    7.61430    7.61430   12.55090   79.67560   51.87730   35.22210   35.22210   79.67560   85.79510    7.31570   85.79510  111.69410 -103.37040  -47.64580  111.69410
 6400.00000   59.26430    7.62410    7.62410   37.98860   26.32370   59.26430   53.08740   53.08740   26.32370   30.67580    7.73400   30.67580   34.53030  -81.12590  -26.04230   34.53030
 6450.00000   53.10870    7.58720    7.58720   16.76640   59.66380   53.10870   41.02910   41.02910   59.66380   70.57660    7.34780   70.57660   86.93720  -95.90440  -41.46610   86.93720
 6500.00000   60.91010    8.41910    8.41910   43.55420   22.95990   60.91010   67.89890   67.89890   22.95990   27.92920    7.78740   27.92920   25.01400  -96.54160  -42.74430   25.01400
 6550.00000   50.82180    8.46630    8.46630   15.45100   64.72070   50.82180   46.00220   46.00220   64.72070   91.24450    7.85780   91.24450  169.07610 -107.90330  -54.74700  169.07610
 6600.00000   51.00950    8.37910    8.37910   12.47980   80.12940   51.00950   28.59890   28.59890   80.12940   86.57580    7.62750   86.57580  209.74790 -120.22890  -67.71780  209.74790
 6650.00000   51.26940    8.45380    8.45380   18.45830   54.17620   51.26940   24.85020   24.85020   54.17620   56.77670    8.32120   56.77670   95.95650 -147.77370  -95.90360   95.95650
 6700.00000   48.56680    8.41200    8.41200    8.92620  112.03980   48.56680   26.79740   26.79740  112.03980  125.74890    7.95400  125.74890  158.51650 -108.59740  -57.37260  158.51650
 6750.00000   49.88640    8.29850    8.29850    9.12310  109.61160   49.88640   25.15180   25.15180  109.61160   95.17610    8.00580   95.17610  161.81280 -128.58440  -78.00060  161.81280
 6800.00000   48.11060    8.13330    8.13330    7.85900  127.24260   48.11060   26.72450   26.72450  127.24260  120.41650    7.84200  120.41650  148.62130 -125.37130  -75.42850  148.62130
 6850.00000   48.40890    8.29100    8.29100   14.57220   68.62360   48.40890   27.42540   27.42540   68.62360   85.70930    8.21010   85.70930  103.45740 -137.72780  -88.43020  103.45740
 6900.00000   53.70130    8.65360    8.65360   25.49110   39.22940   53.70130   20.53160   20.53160   39.22940   66.41990    8.67190   66.41990  142.78130 -176.21680 -127.56020  142.78130
 6950.00000   52.30270    8.03990    8.03990   33.55920   29.79840   52.30270   20.16700   20.16700   29.79840   42.66890    8.02120   42.66890  125.11750 -159.03750 -111.02620  125.11750
 7000.00000   48.46770    8.26370    8.26370   18.36470   54.45220   48.46770   19.66190   19.66190   54.45220   72.69470    8.51440   72.69470  139.12590 -154.44160 -107.07130  139.12590
 7050.00000   48.97450    8.37900    8.37900    8.75180  114.26230   48.97450   22.88060   22.88060  114.26230   99.05790    9.51460   99.05790  164.94630 -132.42740  -85.69810  164.94630
 7100.00000   49.82100    8.34200    8.34200   15.24280   65.60480   49.82100   22.16390   22.16390   65.60480   73.89520    8.48370   73.89520   84.84030 -127.75590  -81.67180   84.84030
 7150.00000   49.22050    8.28730    8.28730    8.11300  123.25970   49.22050   21.14310   21.14310  123.25970  108.02270    8.65890  108.02270  285.05370 -116.16110  -70.71800  285.05370
 7200.00000   50.05870    8.37030    8.37030   11.48530   87.14180   50.05870   24.60460   24.60460   87.14180   81.18340    8.74190   81.18340  127.60600 -137.01050  -92.21270  127.60600
 7250.00000   45.15380    8.65100    8.65100    6.31580  158.33430   45.15380   18.07200   18.07200  158.33430  115.61030   10.02590  115.61030  690.80240 -160.37160 -116.21480  690.80240
 7300.00000   47.54770    8.21400    8.21400   15.04970   66.44630   47.54770   25.65390   25.65390   66.44630  106.74250    8.05040  106.74250  610.59270 -191.43050 -147.91470  610.59270
