~Version ---------------------------------------------------
VERS. 2.0 : CWLS log ASCII Standard -VERSION 2.0
WRAP.  NO : ONE LINE PER DEPTH STEP
~Well ------------------------------------------------------
STRT.F                                   347.3 : START DEPTH
STOP.F                                  9458.8 : STOP DEPTH
STEP.F                                 0.50000 : STEP LENGTH
NULL.                                  -999.25 : NULL VALUE
COMP. THE BRITISH AMERICAN OIL COMPANY LIMITED : COMPANY
WELL.              B.A. GOOSE RIVER 4-32-66-18 : WELL
FLD .                                          : FIELD
LOC .                                          : LOCATION
CTRY.                                   CANADA : COUNTRY
SRVC.                             Schlumberger : SERVICE COMPANY
DATE.                              02-Dec-1964 : LOGDATE
PROV.                                  Alberta : PROVINCE
UWI .                         100043206618W500 : UNIQUE WELL ID
SLAT.WGS84                            54.75185 : SURFACE LATITUDE
SLON.WGS84                           -116.6939 : SURFACE LONGITUDE
~Curve Information -----------------------------------------
DEPT.F    0   1   0  0 : 1 MEASURED DEPTH
GRN .GAPI 35 310 01 00 : GAMMA RAY FROM GRN LOG
NEUT.NAPI 35 330 01 00 : NEUTRON
GR  .GAPI 30 310 00 00 : GAMMA RAY
CILD.MMHO 05 110 46 00 : INDUCTION DEEP CONDUCTIVITY
ILD .OHMM 05 120 46 00 : INDUCTION DEEP RESISTIVITY
SN  .OHMM 05 040 16 00 : SHORT NORMAL RESISTIVITY
SPR .MV   05 010 01 00 : SPONTANEOUS POTENTIAL FROM RESISTIVITY LOG
GRS .GAPI 60 310 01 00 : GAMMA RAY FROM SONIC LOG
DT  .US/F 60 500 00 00 : DELTA-T (INTERVAL TRANSIT TIME)
CALS.IN   60 280 50 00 : CALIPER FROM SONIC LOG
DT_1.US/F 60 500 31 00 : DELTA-T (INTERVAL TRANSIT TIME)
~Params ----------------------------------------------------
PD  .                     GL : PERMANENT DATUM
EPD .FT                 2485 : ELEVATION PERMANENT DATUM
LMF .                     KB : LOG MEASURED FROM
DAPD.FT                   15 : FEET ABOVE PERMANENT DATUM
EKB .FT                 2500 : KELLY BUSHING
EGL .FT                 2485 : GROUND LEVEL
DATE.               12/02/64 : RUN DATE
RUN .                      1 : RUN NUMBER
DD  .FT                 9461 : DEPTH DRILLER
DL  .FT                 9460 : DEPTH LOGGER
BLI .FT                 9459 : BOTTOM LOG INTERVAL
TLI .FT                  781 : TOP LOG INTERVAL
CBD .FT                  784 : CASING BOTTOM DRILLER
CBL .FT                  781 : CASING BOTTOM LOGGER
BS  .IN                7.625 : BIT SIZE
BSD .FT                 9461 : BIT SIZE AT DEPTH
DFT .               GEL CHEM : DRILLING FLUID TYPE
DFD .                    9.8 : DRILLING FLUID DENSITY
DFV .                     95 : DRILLING FLUID VISCOSITY
DFPH.                    9.5 : DRILLING FLUID PH
DFL .                    7.4 : DRILLING FLUID LOSS
RMS .OHMM               2.38 : RESISTIVITY MUD SAMPLE
MST .DEGF                 64 : MUD SAMPLE TEMPERATURE
RMF .OHMM                2.1 : RESISTIVITY MUD FILTRATE SAMPLE
MFST.DEGF                 66 : MUD FILTRATE SAMPLE TEMPERATURE
RMC .OHMM               2.32 : RESISTIVITY MUD CAKE
MCST.DEGF                 66 : MUD CAKE SAMPLE TEMPERATURE
RMB .OHMM               0.84 : RESISTIVITY MUD AT BHT
TCS .HRS                   6 : TIME CIRCULATED STOPPED
LUN .                   3534 : LOGGING UNIT NUMBER
LUL .                    V V : LOGGING UNIT LOCATION
ENGI.               CHENOSKY : RECORDING ENGINEER
WITN.                  WEISS : WITNESSED BY
CLNT.                A2DTECH : CLIENT CODE
ORIG.            2" 5" PRINT : ORIGIN OF DATA
UWI .       100043206618W500 : UNIQUE WELL ID
DICO. A2D Technologies, Inc. : DIGITIZING COMPANY
~Other -----------------------------------------------------
~ASCII -----------------------------------------------------
# ...
 5379.80000    -999.25    -999.25    -999.25  189.01120    4.87980    9.71800  -68.59910   85.06210   69.56820   10.60860    -999.25
 5380.30000    -999.25    -999.25    -999.25  195.76650    4.69970   10.17170  -70.75260   81.70190   69.71810   10.61550    -999.25
 5380.80000    -999.25    -999.25    -999.25  204.14060    4.51970   10.88180  -73.33810   81.89980   69.86100   10.60950    -999.25
 5381.30000    -999.25    -999.25    -999.25  212.19900    4.33960   11.66880  -75.96160   86.79610   69.95300   10.61080    -999.25
 5381.80000    -999.25    -999.25    -999.25  219.42920    4.19370   12.32300  -78.41250   82.89170   70.04510   10.62040    -999.25
 5382.30000    -999.25    -999.25    -999.25  225.64800    4.10720   12.89570  -81.00840   80.36960   70.01840   10.61170    -999.25
 5382.80000    -999.25    -999.25    -999.25  230.25090    4.00470   13.30540  -83.34350   83.76280   69.97160   10.59260    -999.25
 5383.30000    -999.25    -999.25    -999.25  234.27420    3.90930   13.49880  -84.94220   81.53860   69.92490   10.45680    -999.25
 5383.80000    -999.25    -999.25    -999.25  237.29480    3.81370   13.59690  -86.16880   77.83480   69.91840   10.18180    -999.25
 5384.30000    -999.25    -999.25    -999.25  240.89730    3.78920   13.57170  -87.34160   77.29700   69.91840   10.18560    -999.25
 5384.80000    -999.25    -999.25    -999.25  244.01070    3.71740   13.50170  -87.82120   79.18720   70.03020   10.24030    -999.25
 5385.30000    -999.25    -999.25    -999.25  245.87480    3.69520   13.43410  -88.27330   80.46490   70.18520   10.22750    -999.25
 5385.80000    -999.25    -999.25    -999.25  247.62710    3.69220   13.27720  -88.47680   76.17900   70.34000   10.24840    -999.25
 5386.30000    -999.25    -999.25    -999.25  250.65080    3.64470   13.16800  -88.29420   77.29070   70.48450   10.27160    -999.25
 5386.80000    -999.25    -999.25    -999.25  253.07320    3.59230   13.02650  -88.11770   79.27100   70.62900   10.27210    -999.25
 5387.30000    -999.25    -999.25    -999.25  255.11220    3.58910   12.86560  -88.07830   81.11230   70.77350   10.27010    -999.25
 5387.80000    -999.25    -999.25    -999.25  256.41100    3.58590   12.64780  -87.73680   79.87630   70.85370   10.28080    -999.25
 5388.30000    -999.25    -999.25    -999.25  256.67450    3.58310   12.24790  -87.36720   80.56230   70.90320   10.29640    -999.25
 5388.80000    -999.25    -999.25    -999.25  255.83340    3.58220   11.77830  -86.98780   79.81080   70.93580   10.30470    -999.25
 5389.30000    -999.25    -999.25    -999.25  252.39560    3.61360   11.38960  -86.36540   76.54540   70.94660   10.28140    -999.25
 5389.80000    -999.25    -999.25    -999.25  248.18160    3.69070   10.90010  -85.33820   74.22140   70.94370   10.06140    -999.25
 5390.30000    -999.25    -999.25    -999.25  244.71510    3.79440   10.53790  -84.07830   73.53520   70.97010   10.25390    -999.25
 5390.80000    -999.25    -999.25    -999.25  238.50590    3.92230   10.35810  -82.16090   72.32280   71.05230   10.13920    -999.25
 5391.30000    -999.25    -999.25    -999.25  231.68550    4.03450   10.23560  -81.16840   71.47690   71.08180   10.35490    -999.25
 5391.80000    -999.25    -999.25    -999.25  225.26450    4.15090   10.14780  -79.44240   71.17250   71.08180   10.49070    -999.25
 5392.30000    -999.25    -999.25    -999.25  217.92150    4.26960   10.05990  -78.92790   72.89290   70.96800   10.57330    -999.25
 5392.80000    -999.25    -999.25    -999.25  212.06450    4.53200    9.97210  -78.34930   74.18450   70.79380   10.60640    -999.25
 5393.30000    -999.25    -999.25    -999.25  207.10470    4.71470    9.90750  -77.67100   76.64800   70.58700   10.63210    -999.25
 5393.80000    -999.25    -999.25    -999.25  202.26700    4.74710    9.80680  -77.00470   77.47690   70.27850   10.67890    -999.25
 5394.30000    -999.25    -999.25    -999.25  198.97890    4.77950    9.67990  -76.43650   77.76650   69.96990   10.67610    -999.25
 5394.80000    -999.25    -999.25    -999.25  196.63360    4.81190    9.58350  -75.97230   81.45220   69.89960   10.66430    -999.25
 5395.30000    -999.25    -999.25    -999.25  194.27620    4.84430    9.47650  -75.30680   81.60950   69.83530   10.64570    -999.25
 5395.80000    -999.25    -999.25    -999.25  192.47060    4.86690    9.48420  -74.75380   78.22390   69.77100   10.69290    -999.25
 5396.30000    -999.25    -999.25    -999.25  190.71420    4.92680    9.55230  -74.21970   74.61380   69.78930   10.71440    -999.25
 5396.80000    -999.25    -999.25    -999.25  188.93900    4.88910    9.65900  -73.56670   75.49160   69.84110   10.70940    -999.25
 5397.30000    -999.25    -999.25    -999.25  185.68940    5.03340    9.76580  -73.16940   81.04570   69.89290   10.71560    -999.25
 5397.80000    -999.25    -999.25    -999.25  183.37500    5.09240    9.84850  -72.94230   86.49120   69.94460   10.72180    -999.25
 5398.30000    -999.25    -999.25    -999.25  180.48420    5.14550    9.91320  -72.78610   87.65450   69.96660   10.72800    -999.25
 5398.80000    -999.25    -999.25    -999.25  178.21200    5.19850    9.95060  -72.84610   85.46860   69.78200   10.73420    -999.25
 5399.30000    -999.25    -999.25    -999.25  176.67980    5.23130    9.90080  -72.92850   84.50550   69.67740   10.74040    -999.25
 5399.80000    -999.25    -999.25    -999.25  175.65850    5.24050    9.88880  -72.91860   84.22120   69.70170   10.74660    -999.25
 5400.30000    -999.25    -999.25    -999.25  175.14870    5.24970    9.87580  -72.92160   83.65320   69.83230   10.74990    -999.25
 5400.80000    -999.25    -999.25    -999.25  175.51700    5.25890    9.85710  -73.03800   78.18310   69.91550   10.75610    -999.25
 5401.30000    -999.25    -999.25    -999.25  175.90700    5.24600    9.85550  -72.83750   76.27970   69.92320   10.76520    -999.25
 5401.80000    -999.25    -999.25    -999.25  176.55290    5.20210    9.87690  -72.50030   73.36720   69.72740   10.77440    -999.25
 5402.30000    -999.25    -999.25    -999.25  177.54850    5.15810    9.86240  -72.23860   77.69920   69.80590   10.78350    -999.25
 5402.80000    -999.25    -999.25    -999.25  178.70080    5.11410    9.80720  -72.02800   79.35280   70.09660   10.79440    -999.25
 5403.30000    -999.25    -999.25    -999.25  179.74870    5.07020    9.73670  -71.89540   77.55060   70.10040   10.80570    -999.25
 5403.80000    -999.25    -999.25    -999.25  180.88320    5.02620    9.72640  -71.90420   74.84540   70.04470   10.81710    -999.25
 5404.30000    -999.25    -999.25    -999.25  182.77280    4.98220    9.65860  -71.82030   76.60300   70.14020   10.82840    -999.25
 5404.80000    -999.25    -999.25    -999.25  185.03140    4.93830    9.57850  -71.83080   75.47770   70.22850   10.83970    -999.25
 5405.30000    -999.25    -999.25    -999.25  187.40200    4.89430    9.50540  -71.88580   73.66400   70.49880   10.85110    -999.25
 5405.80000    -999.25    -999.25    -999.25  191.11260    4.84450    9.52300  -71.68410   71.74000   71.06980   10.86240    -999.25
 5406.30000    -999.25    -999.25    -999.25  198.30140    4.69170    9.54650  -72.50670   72.95140   71.26040   10.87370    -999.25
 5406.80000    -999.25    -999.25    -999.25  205.07820    4.49290    9.59580  -73.07660   76.40790   71.60450   10.88510    -999.25
 5407.30000    -999.25    -999.25    -999.25  212.45940    4.29400    9.67740  -73.84690   77.08670   71.06400   10.89640    -999.25
 5407.80000    -999.25    -999.25    -999.25  220.68710    4.09520    9.80880  -74.83340   84.78940   70.31560   10.89210    -999.25
 5408.30000    -999.25    -999.25    -999.25  230.75850    3.89630    9.94610  -76.20890   81.68800   71.06580   10.86810    -999.25
 5408.80000    -999.25    -999.25    -999.25  241.37070    3.69880   10.15000  -77.51040   78.73360   71.22540   10.84410    -999.25
 5409.30000    -999.25    -999.25    -999.25  252.67660    3.63040   10.38590  -79.27670   82.23610   71.11770   10.82250    -999.25
 5409.80000    -999.25    -999.25    -999.25  264.88090    3.45110   10.83480  -81.48830   86.50840   73.65810   10.83720    -999.25
