~Version ---------------------------------------------------
VERS. 2.0 : CWLS log ASCII Standard -VERSION 2.0
WRAP.  NO : ONE LINE PER DEPTH STEP
~Well ------------------------------------------------------
STRT.F                                   347.3 : START DEPTH
STOP.F                                  9458.8 : STOP DEPTH
STEP.F                                 0.50000 : STEP LENGTH
NULL.                                  -999.25 : NULL VALUE
COMP. THE BRITISH AMERICAN OIL COMPANY LIMITED : COMPANY
WELL.              B.A. GOOSE RIVER 4-32-66-18 : WELL
FLD .                                          : FIELD
LOC .                                          : LOCATION
CTRY.                                   CANADA : COUNTRY
SRVC.                             Schlumberger : SERVICE COMPANY
DATE.                              02-Dec-1964 : LOGDATE
PROV.                                  Alberta : PROVINCE
UWI .                         100043206618W500 : UNIQUE WELL ID
SLAT.WGS84                            54.75185 : SURFACE LATITUDE
SLON.WGS84                           -116.6939 : SURFACE LONGITUDE
~Curve Information -----------------------------------------
DEPT.F    0   1   0  0 : 1 MEASURED DEPTH
GRN .GAPI 35 310 01 00 : GAMMA RAY FROM GRN LOG
NEUT.NAPI 35 330 01 00 : NEUTRON
GR  .GAPI 30 310 00 00 : GAMMA RAY
CILD.MMHO 05 110 46 00 : INDUCTION DEEP CONDUCTIVITY
ILD .OHMM 05 120 46 00 : INDUCTION DEEP RESISTIVITY
SN  .OHMM 05 040 16 00 : SHORT NORMAL RESISTIVITY
SPR .MV   05 010 01 00 : SPONTANEOUS POTENTIAL FROM RESISTIVITY LOG
GRS .GAPI 60 310 01 00 : GAMMA RAY FROM SONIC LOG
DT  .US/F 60 500 00 00 : DELTA-T (INTERVAL TRANSIT TIME)
CALS.IN   60 280 50 00 : CALIPER FROM SONIC LOG
DT_1.US/F 60 500 31 00 : DELTA-T (INTERVAL TRANSIT TIME)
~Params ----------------------------------------------------
PD  .                     GL : PERMANENT DATUM
EPD .FT                 2485 : ELEVATION PERMANENT DATUM
LMF .                     KB : LOG MEASURED FROM
DAPD.FT                   15 : FEET ABOVE PERMANENT DATUM
EKB .FT                 2500 : KELLY BUSHING
EGL .FT                 2485 : GROUND LEVEL
DATE.               12/02/64 : RUN DATE
RUN .                      1 : RUN NUMBER
DD  .FT                 9461 : DEPTH DRILLER
DL  .FT                 9460 : DEPTH LOGGER
BLI .FT                 9459 : BOTTOM LOG INTERVAL
TLI .FT                  781 : TOP LOG INTERVAL
CBD .FT                  784 : CASING BOTTOM DRILLER
CBL .FT                  781 : CASING BOTTOM LOGGER
BS  .IN                7.625 : BIT SIZE
BSD .FT                 9461 : BIT SIZE AT DEPTH
DFT .               GEL CHEM : DRILLING FLUID TYPE
DFD .                    9.8 : DRILLING FLUID DENSITY
DFV .                     95 : DRILLING FLUID VISCOSITY
DFPH.                    9.5 : DRILLING FLUID PH
DFL .                    7.4 : DRILLING FLUID LOSS
RMS .OHMM               2.38 : RESISTIVITY MUD SAMPLE
MST .DEGF                 64 : MUD SAMPLE TEMPERATURE
RMF .OHMM                2.1 : RESISTIVITY MUD FILTRATE SAMPLE
MFST.DEGF                 66 : MUD FILTRATE SAMPLE TEMPERATURE
RMC .OHMM               2.32 : RESISTIVITY MUD CAKE
MCST.DEGF                 66 : MUD CAKE SAMPLE TEMPERATURE
RMB .OHMM               0.84 : RESISTIVITY MUD AT BHT
TCS .HRS                   6 : TIME CIRCULATED STOPPED
LUN .                   3534 : LOGGING UNIT NUMBER
LUL .                    V V : LOGGING UNIT LOCATION
ENGI.               CHENOSKY : RECORDING ENGINEER
WITN.                  WEISS : WITNESSED BY
CLNT.                A2DTECH : CLIENT CODE
ORIG.            2" 5" PRINT : ORIGIN OF DATA
UWI .       100043206618W500 : UNIQUE WELL ID
DICO. A2D Technologies, Inc. : DIGITIZING COMPANY
~Other -----------------------------------------------------
~ASCII -----------------------------------------------------
# ...
 4830.80000    -999.25    -999.25    -999.25  166.30220    5.56990    7.44410  -39.02870   85.65040   80.96610   10.06620    -999.25
 4831.30000    -999.25    -999.25    -999.25  166.56420    5.55490    7.45920  -38.99400   86.87310   81.14280   10.05740    -999.25
 4831.80000    -999.25    -999.25    -999.25  167.16060    5.54990    7.42440  -38.99100   82.36780   81.06290   10.04870    -999.25
 4832.30000    -999.25    -999.25    -999.25  167.85170    5.56750    7.35840  -39.13480   75.82070   81.06970   10.04200    -999.25
 4832.80000    -999.25    -999.25    -999.25  169.09510    5.59780    7.31530  -39.17310   73.17760   81.10410   10.04030    -999.25
 4833.30000    -999.25    -999.25    -999.25  169.97860    5.62810    7.28480  -39.17890   75.87580   81.21670   10.03860    -999.25
 4833.80000    -999.25    -999.25    -999.25  170.01160    5.65850    7.24960  -39.17190   75.87930   81.32920   10.03690    -999.25
 4834.30000    -999.25    -999.25    -999.25  168.90870    5.68880    7.25070  -39.05540   77.34090   81.40400   10.03510    -999.25
 4834.80000    -999.25    -999.25    -999.25  166.86050    5.71910    7.26610  -39.16650   79.97590   81.70640   10.03340    -999.25
 4835.30000    -999.25    -999.25    -999.25  163.78090    5.76820    7.38870  -39.06270   83.43290   82.12860   10.03170    -999.25
 4835.80000    -999.25    -999.25    -999.25  160.87420    5.92300    7.58330  -39.06110   81.95030   82.02710   10.03000    -999.25
 4836.30000    -999.25    -999.25    -999.25  156.35100    6.07970    7.80910  -39.11630   80.80080   81.39140   10.02930    -999.25
 4836.80000    -999.25    -999.25    -999.25  151.61730    6.29960    8.05740  -39.29210   80.49110   80.73370   10.03060    -999.25
 4837.30000    -999.25    -999.25    -999.25  146.83490    6.52420    8.25320  -39.53950   82.39630   81.82440   10.03190    -999.25
 4837.80000    -999.25    -999.25    -999.25  142.32570    6.67150    8.47480  -39.79330   79.74140   81.55180   10.03330    -999.25
 4838.30000    -999.25    -999.25    -999.25  139.36390    6.79990    8.72020  -40.16960   77.44700   81.31460   10.03140    -999.25
 4838.80000    -999.25    -999.25    -999.25  137.57130    6.89890    8.85750  -40.27680   76.38640   81.01710   10.02090    -999.25
 4839.30000    -999.25    -999.25    -999.25  136.13930    6.96780    8.91810  -40.54530   76.68780   80.42300   10.01050    -999.25
 4839.80000    -999.25    -999.25    -999.25  134.85850    7.03240    9.10490  -40.82760   76.53530   79.90110    9.99090    -999.25
 4840.30000    -999.25    -999.25    -999.25  134.77370    7.02430    8.95630  -40.84680   73.37610   79.63930    9.96520    -999.25
 4840.80000    -999.25    -999.25    -999.25  136.14020    6.92650    9.02080  -40.92810   71.85550   79.71450    9.93700    -999.25
 4841.30000    -999.25    -999.25    -999.25  137.98070    6.83690    9.04820  -41.16730   76.86120   79.83340    9.94840    -999.25
 4841.80000    -999.25    -999.25    -999.25  139.60960    6.74430    8.99170  -41.96570   79.39890   79.15080    9.95400    -999.25
 4842.30000    -999.25    -999.25    -999.25  141.21170    6.65800    8.80890  -41.98200   77.58040   79.06310    9.96390    -999.25
 4842.80000    -999.25    -999.25    -999.25  142.43110    6.60480    8.52240  -41.49270   77.25840   79.90320    9.97180    -999.25
 4843.30000    -999.25    -999.25    -999.25  143.95810    6.50690    8.33340  -40.88810   77.07700   80.88710    9.94850    -999.25
 4843.80000    -999.25    -999.25    -999.25  146.02560    6.40310    8.15130  -40.29390   75.57480   81.57920    9.97880    -999.25
 4844.30000    -999.25    -999.25    -999.25  148.74960    6.24240    7.96680  -39.87940   78.85730   82.58820   10.05220    -999.25
 4844.80000    -999.25    -999.25    -999.25  153.41500    5.98690    7.79180  -39.70450   85.89050   84.18840   10.11640    -999.25
 4845.30000    -999.25    -999.25    -999.25  161.55800    5.53300    7.57900  -39.62430   93.95030   85.70510   10.16670    -999.25
 4845.80000    -999.25    -999.25    -999.25  172.16650    5.23620    7.27580  -39.73350   94.38430   85.96980   10.18760    -999.25
 4846.30000    -999.25    -999.25    -999.25  185.28680    4.91770    6.96140  -39.81040   92.32990   86.18640   10.21160    -999.25
 4846.80000    -999.25    -999.25    -999.25  194.60960    4.80470    6.58370  -40.21470   93.00990   86.14320   10.25560    -999.25
 4847.30000    -999.25    -999.25    -999.25  193.60310    4.79490    6.28630  -41.03170   93.26820   85.53300   10.29630    -999.25
 4847.80000    -999.25    -999.25    -999.25  189.75290    4.95920    5.99410  -42.02150   92.79510   85.69390   10.35770    -999.25
 4848.30000    -999.25    -999.25    -999.25  185.26900    5.10150    5.92850  -43.19660   92.70420   88.65640   10.42120    -999.25
 4848.80000    -999.25    -999.25    -999.25  183.45870    5.20420    5.92850  -43.92020   90.28570   96.70920   10.47240    -999.25
 4849.30000    -999.25    -999.25    -999.25  182.26770    5.30690    6.08930  -44.10010   84.83860  102.28480   10.54840    -999.25
 4849.80000    -999.25    -999.25    -999.25  177.26790    5.61400    6.42260  -44.24580   79.71070   94.33530   10.72270    -999.25
 4850.30000    -999.25    -999.25    -999.25  163.37440    6.18100    6.79520  -43.14000   74.81890   90.63370   11.21610    -999.25
 4850.80000    -999.25    -999.25    -999.25  146.35910    6.74790    7.16780  -42.28350   70.67690   88.64720   11.06480    -999.25
 4851.30000    -999.25    -999.25    -999.25  136.69440    6.84480    7.28760  -41.79790   70.93110   84.73440   10.60200    -999.25
 4851.80000    -999.25    -999.25    -999.25  138.60470    6.60660    7.10780  -41.53770   76.11630   73.28820   10.45710    -999.25
 4852.30000    -999.25    -999.25    -999.25  149.18570    6.00320    6.60680  -41.27660   77.84100   68.83980   10.45970    -999.25
 4852.80000    -999.25    -999.25    -999.25  168.28500    5.39990    6.05950  -41.23120   78.39730   74.16790   10.49200    -999.25
 4853.30000    -999.25    -999.25    -999.25  194.35290    4.79650    5.51220  -41.45710   76.97260   76.25560   10.51490    -999.25
 4853.80000    -999.25    -999.25    -999.25  223.41200    4.19320    4.96500  -42.73720   75.74150   77.25850   10.54290    -999.25
 4854.30000    -999.25    -999.25    -999.25  248.93480    3.58990    4.41770  -43.37510   77.91960   81.13560   10.52660    -999.25
 4854.80000    -999.25    -999.25    -999.25  281.64970    3.01290    3.92500  -43.85800   83.13940   84.62620   10.53870    -999.25
 4855.30000    -999.25    -999.25    -999.25  316.70480    2.52350    3.55930  -43.86760   79.89020   90.31780   10.61600    -999.25
 4855.80000    -999.25    -999.25    -999.25  354.54020    2.11240    3.16200  -43.84550   75.11850  102.61710   10.79450    -999.25
 4856.30000    -999.25    -999.25    -999.25  399.02610    1.78630    2.86900  -44.14770   79.34390  103.64290   10.94970    -999.25
 4856.80000    -999.25    -999.25    -999.25  438.80030    1.55990    2.67480  -44.22040   78.34790  105.31960   11.62340    -999.25
 4857.30000    -999.25    -999.25    -999.25  478.43920    1.37740    2.47130  -44.46420   74.69780  111.52260   12.20730    -999.25
 4857.80000    -999.25    -999.25    -999.25  509.76650    1.23890    2.28850  -44.91080   75.22110  110.46070   11.63530    -999.25
 4858.30000    -999.25    -999.25    -999.25  536.33220    1.17140    2.16250  -44.80050   73.25000  105.61230   12.12910    -999.25
 4858.80000    -999.25    -999.25    -999.25  553.85020    1.16700    2.11780  -44.24360   71.24080  102.66870   12.37060    -999.25
 4859.30000    -999.25    -999.25    -999.25  567.98220    1.12870    2.07160  -43.80590   70.57960  112.14480   11.41270    -999.25
 4859.80000    -999.25    -999.25    -999.25  582.37710    1.11440    1.98960  -43.34060   72.98850  122.03000   11.73270    -999.25
 4860.30000    -999.25    -999.25    -999.25  588.18070    1.10370    1.94880  -42.66630   74.86620  123.90140   12.58240    -999.25
 4860.80000    -999.25    -999.25    -999.25  582.89670    1.11030    1.95620  -42.05840   73.26100  134.40750   13.32810    -999.25
