~Version ---------------------------------------------------
VERS.      2.0 : CWLS log ASCII Standard -VERSION 2.0
WRAP.       NO : One line per depth step
CREA. 12/12/17 : LAS Creation Date
~Well ------------------------------------------------------
STRT.FT                        650.0 : START DEPTH
STOP.FT                      10550.0 : STOP DEPTH
STEP.FT                     50.00000 : STEP LENGTH
NULL.                        -999.25 : NULL VALUE
COMP.    STANOLIND OIL & GAS COMPANY : COMPANY
WELL. STANOLIND TONY CREEK CROWN A-1 : WELL
FLD .                                : FIELD
LOC .                                : LOCATION
CTRY.                         CANADA : COUNTRY
SRVC.                          Welex : SERVICE COMPANY
DATE.                    12-Jun-1983 : LOGDATE
PROV.                        Alberta : PROVINCE
UWI .               100103206321W500 : UNIQUE WELL ID
SLAT.WGS84                  54.49604 : SURFACE LATITUDE
SLON.WGS84                 -117.1351 : SURFACE LONGITUDE
~Curve Information -----------------------------------------
DEPT    .FT     : Depth Curve
CALDED  .IN     : CALIPER FROM CND LOG
CALWS   .IN     : CALIPER [MCALED]
CILDED  .MMHO   : CONDUCTIVITY FROM RESISTIVITY LOG
CONDWS  .MMHO   : CONDUCTIVITY [1000/DRESWS]
CORRED  .G/C3   : DENSITY CORRECTION FROM CND LOG
DCORWS  .G/C3   : DENSITY CORRECTION [CORRED]
DENWS   .G/C3   : FORMATION DENSITY [RHOBED]
DPHIDMED.V/V    : DENSITY POROSITY DOLOMITE [ASSUMED MD=2.83,FD=1.00] FROM CND LOG
DPHISSED.V/V    : DENSITY POROSITY SANDSTONE[ASSUMED M=2.65, F=1.00] FROM CND LOG
DPOLSWS .V/V    : DENSITY POROSITY 9LIMESTONE [CALCULATED FROM DENWS, M=2.71, F=1.00]
DRESWS  .OHMM   : DEEP RESISTIVITY [ILDED SPLICED TO LNED AT 6680' AND 4040']
GRDED   .GAPI   : GAMMA RAY FROM DENSITY LOG
GRED    .UR/HR  : CASED HOLE GAMMA RAY FROM GR LOG [DSH TO SPRED]
GRNED   .UR/HR  : CASED HOLE GAMMA RAY FROM GRN LOG [DSH TO SPRED]
GRWS    .GAPI   : GAMMA RAY [GRDED SPLICED TO GRED*10.4 AT 6023' & 4760', GRNED*10.4 (GRNED*10.4 RESCALED FROM 0-120 TO 0-200)AT 3400']
ILDED   .OHMM   : INDUCTION LOG DEEP RESISTIVITY FROM IEL/GUARD LOG
ILMED   .OHMM   : INDUCTION LOG MEDIUM RESISTIVITY FROM IEL/GUARD LOG
LNED    .OHMM   : 64 INCH LONG NORMAL RESISTIVITY FROM EL
LT18ED  .OHMM   : LATERAL 18'8" FROM EL
MCALED  .IN     : MLT [MICROLOG] CALIPER FROM MICROLOG
MRESWS  .OHMM   : MEDIUM RESISTIVITY [ILMED]
NEUTED  .CU     : NEUTRON FROM NEUTRON LOG [DSH TO SPRED]
NEUTWS  .CU     : NEUTRON [NEUTED]
NPHIDMED.V/V    : NEUTRON POROSITY DOLOMITE FROM CND LOG
NPHISSED.V/V    : NEUTRON POROSITY SANDSTONE FROM CND LOG
NPOLSWS .V/V    : NEUTRON POROSITY LIMESTONE [NPHISSED CONVERTED TO LIMESTONE]
RHOBED  .G/C3   : FORMATION DENSITY FROM CND LOG
SGUARDED.OHMM   : SHORT RESISTIVITY GUARD FROM IEL/GUARD LOG
SNED    .OHMM   : 16 INCH SHORT NORMAL RESISTIVITY FROM EL
SPR1ED  .MV     : SPONTANEOUS POTENTIAL FROM IEL/GUARD LOG
SPRED   .MV     : SPONTANEOUS POTENTIAL FROM ES LOG
SPWS    .MV     : SPONTANEOUS POTENTIAL [BASELINE 0 MV] [SPRED]
SRESWS  .OHMM   : SHALLOW RESISTIVITY [SNED SPLICED TO SNED AT 2036 M AND 4030']
TENDED  .LBF    : TENSION FROM CND LOG
TENRED  .LBF    : TENSION FROM IEL/GUARD LOG
~Params ----------------------------------------------------
PD  .                         GL : PERMANENT DATUM
LMF .                         KB : LOG MEASURED FROM
DAPD.M                       5.2 : FEET ABOVE PERMANENT DATUM
DMF .                         KB : DRILLING MEASURED FROM
EKB .M                    770.53 : KELLY BUSHING
EGL .M                    765.33 : GROUND LEVEL
DATE.                   06/12/83 : RUN DATE
RUN .                          1 : RUN NUMBER
DD  .M                      2060 : DEPTH DRILLER
DL  .M                    2039.2 : DEPTH LOGGER
BLI .M                    2038.6 : BOTTOM LOG INTERVAL
TLI .M                    1227.3 : TOP LOG INTERVAL
CS  .MM                      178 : CASING SIZE
CBD .M                    1226.5 : CASING BOTTOM DRILLER
CBL .M                    1227.3 : CASING BOTTOM LOGGER
BS  .MM                      159 : BIT SIZE
BSD .M                      2060 : BIT SIZE AT DEPTH
DFT .              WATER AND OIL : DRILLING FLUID TYPE
DFD .                       1065 : DRILLING FLUID DENSITY
DFV .                        115 : DRILLING FLUID VISCOSITY
DFPH.                         12 : DRILLING FLUID PH
DFL .                         19 : DRILLING FLUID LOSS
MSS .                       CIRC : MUD SAMPLE SOURCE
RMS .OHMM                   1.72 : RESISTIVITY MUD SAMPLE
MST .DEGC                     24 : MUD SAMPLE TEMPERATURE
RMF .OHMM                    1.6 : RESISTIVITY MUD FILTRATE SAMPLE
MFST.DEGC                     23 : MUD FILTRATE SAMPLE TEMPERATURE
RMC .OHMM                    1.9 : RESISTIVITY MUD CAKE
MCST.DEGC                     23 : MUD CAKE SAMPLE TEMPERATURE
MFSS.                       MEAS : MUD FILTRATE SAMPLE SOURCE
MCSS.                       MEAS : MUD CAKE SAMPLE SOURCE
RMB .OHMM                    1.4 : RESISTIVITY MUD AT BHT
TCS .HRS                       4 : TIME CIRCULATED STOPPED
ENGI.                   PETERSON : RECORDING ENGINEER
WITN.                     NUGENT : WITNESSED BY
CLNT.                    A2DTECH : CLIENT CODE
ORIG. 6.5"/100M 16.5"/100M PRINT : ORIGIN OF DATA
UWI .           100103206321W500 : UNIQUE WELL ID
DICO.     A2D Technologies, Inc. : DIGITIZING COMPANY
~Other -----------------------------------------------------
LNED, SNED, LT18ED ARE FROM THE LINEAR SCALE OF 2" & 5" LOG
~ASCII -----------------------------------------------------
# ...
 3800.00000    -999.25    9.32760    -999.25   58.02650    -999.25    -999.25    -999.25    -999.25    -999.25    -999.25   17.23350   57.07300    7.31610    4.08170   76.08740    -999.25    -999.25   17.23350   10.28870    9.32760    -999.25  432.71190  432.71190    -999.25    0.44150    0.37550    -999.25    -999.25   23.95500    -999.25  -74.10520  -21.19560   23.95500    -999.25    -999.25
 3850.00000    -999.25   12.48510    -999.25   71.83390    -999.25    -999.25    -999.25    -999.25    -999.25    -999.25   13.92100   74.77850    9.43040    7.81090   98.07620    -999.25    -999.25   13.92100   15.09950   12.48510    -999.25  144.66600  144.66600    -999.25    0.65430    0.60640    -999.25    -999.25   13.61950    -999.25  -58.88110   -6.16330   13.61950    -999.25    -999.25
 3900.00000    -999.25   10.44870    -999.25   60.53120    -999.25    -999.25    -999.25    -999.25    -999.25    -999.25   16.52040   80.31800    9.27880    -999.25   96.49950    -999.25    -999.25   16.52040   14.28430   10.44870    -999.25    -999.25    -999.25    -999.25    0.50420    0.44160    -999.25    -999.25   18.20670    -999.25  -56.15580   -3.62980   18.20670    -999.25    -999.25
 3950.00000    -999.25   14.13140    -999.25   77.53740    -999.25    -999.25    -999.25    -999.25    -999.25    -999.25   12.89700   71.28480    8.53100    -999.25   88.72240    -999.25    -999.25   12.89700   10.83210   14.13140    -999.25    -999.25    -999.25    -999.25    0.59260    0.53790    -999.25    -999.25   12.49480    -999.25  -57.01230   -4.67820   12.49480    -999.25    -999.25
 4000.00000    -999.25   11.91920    -999.25   95.19820    -999.25    -999.25    -999.25    -999.25    -999.25    -999.25   10.50440   73.77820    9.26970    -999.25   96.40490    -999.25    -999.25   10.50440   11.85170   11.91920    -999.25    -999.25    -999.25    -999.25    -999.25    -999.25    -999.25    -999.25   10.66370    -999.25  -56.83640   -4.69410   10.66370    -999.25    -999.25
 4050.00000   13.28150   13.15940    -999.25  136.70910    0.01620    0.01620    1.50980    -999.25    -999.25    0.70190    7.31480   97.85980    9.86640    -999.25  102.61060    7.31480    5.53540    9.44140    9.97010   13.15940    5.53540    -999.25    -999.25    -999.25    -999.25    -999.25    1.50980    6.19970   10.39890  -29.74310  -56.51810   -4.56760    6.19970 5606.00060 5009.09290
 4100.00000   17.04300   14.69550    -999.25  121.83530    0.14770    0.14770    2.15560    -999.25    -999.25    0.32420    8.20780  113.26170    9.91420    -999.25  113.26170    8.20780    7.42210   10.21290   11.44630   14.69550    7.42210    -999.25    -999.25    -999.25    -999.25    -999.25    2.15560    8.75390   11.07390  -29.91160  -56.24650   -4.48780    8.75390 5638.95320 4910.20350
 4150.00000   14.09650   14.16240    -999.25  125.16270    0.18170    0.18170    2.25620    -999.25    -999.25    0.26540    7.98960  132.70310    9.91080    -999.25  132.70310    7.98960    6.63840    9.53210    9.18700   14.16240    6.63840    -999.25    -999.25    -999.25    -999.25    -999.25    2.25620    8.33060   10.28770  -29.83460  -55.20520   -3.63830    8.33060 5643.74280 5079.51900
 4200.00000   14.87930   14.44320    -999.25  101.92430    0.18540    0.18540    2.18320    -999.25    -999.25    0.30810    9.81120  110.81170   10.87030    -999.25  110.81170    9.81120    9.46060   11.45520   10.77530   14.44320    9.46060    -999.25    -999.25    -999.25    -999.25    -999.25    2.18320   10.65480   13.26390  -30.27460  -54.32430   -2.94930   10.65480 5644.61600 5077.85610
 4250.00000   15.84440   14.91700    -999.25  107.93310    0.21960    0.21960    2.17800    -999.25    -999.25    0.31110    9.26500  106.06150   10.90400    -999.25  106.06150    9.26500    8.83260   11.38710    9.99970   14.91700    8.83260    -999.25    -999.25    -999.25    -999.25    -999.25    2.17800    9.86640   12.33370  -30.54910  -54.39520   -3.21200    9.86640 5731.24040 5100.61850
 4300.00000   14.21850   13.23070    -999.25   91.29750    0.21220    0.21220    2.33190    -999.25    0.32230    0.22110   10.95320  127.37380   12.80980    -999.25  127.37380   10.95320   12.29820   14.42270   11.33340   13.23070   12.29820    -999.25    -999.25    -999.25    0.54230    0.48280    2.33190   12.88370   15.85980  -30.89310  -54.07140   -3.08000   12.88370 5754.83550 5184.53410
 4350.00000   13.50340   13.06990    -999.25  109.17630    0.20300    0.20300    2.28740    -999.25    0.37840    0.24710    9.15950  109.17900   10.25000    -999.25  109.17900    9.15950    9.46300   11.48900   10.74450   13.06990    9.46300    -999.25    -999.25    -999.25    0.55500    0.49660    2.28740   10.81450   12.78660  -32.15720  -54.31310   -3.51350   10.81450 5811.91160 5167.82170
 4400.00000   12.39050   11.60000    -999.25   76.23230    0.23780    0.23780    2.43690    -999.25    0.30160    0.15970   13.11780  100.87600    9.13850    -999.25  100.87600   13.11780   14.58470   15.69290   14.60870   11.60000   14.58470    -999.25    -999.25    -999.25    0.48530    0.42140    2.43690   14.11230   20.46910  -31.68970  -52.61850   -2.01070   14.11230 5801.61230 5217.31500
 4450.00000   14.33250   13.15670    -999.25  127.36260    0.21370    0.21370    2.19510    -999.25    0.43500    0.30110    7.85160  105.17810    9.79580    -999.25  105.17810    7.85160    7.51530   10.91420   10.84380   13.15670    7.51530    -999.25    -999.25    -999.25    0.57200    0.51530    2.19510    8.71760   10.88320  -32.33490  -54.59240   -4.17650    8.71760 5833.13770 5232.64900
 4500.00000   11.03650   11.72800    -999.25   95.72770    0.06850    0.06850    2.19370    -999.25    0.43200    0.30190   10.44630  123.61740   10.97220    -999.25  123.61740   10.44630   11.04930   10.67870   18.64990   11.72800   11.04930    -999.25    -999.25    -999.25    0.52230    0.46110    2.19370   15.11160   16.62980  -32.90460  -53.68780   -3.46370   15.11160 5943.32200 5280.28710
 4550.00000   12.07890   12.01610    -999.25  139.88170    0.15350    0.15350    2.28840    -999.25    0.37120    0.24650    7.14890   89.33090    8.70830    -999.25   89.33090    7.14890    7.43630    8.01480   10.67630   12.01610    7.43630    -999.25    -999.25    -999.25    0.49880    0.43580    2.28840    7.42970    9.38560  -31.84630  -55.71320   -5.68090    7.42970 6001.11500 5256.96450
 4600.00000   11.42610   11.05720    -999.25  154.49030    0.14420    0.14420    2.15430    -999.25    0.45200    0.32500    6.47290  103.97890    9.93690    -999.25  103.97890    6.47290    6.62230    6.59110    7.76300   11.05720    6.62230    -999.25    -999.25    -999.25    0.56080    0.50300    2.15430    7.08710    8.33330  -32.22580  -53.70490   -3.86440    7.08710 5962.19860 5268.61540
 4650.00000    9.18190   10.25980    -999.25   99.27330    0.11080    0.11080    2.28250    -999.25    0.36950    0.25000   10.07320   98.95650    9.51310    -999.25   98.95650   10.07320   10.87550   12.35360    9.95620   10.25980   10.87550    -999.25    -999.25    -999.25    0.51600    0.45430    2.28250   13.42550   13.34150  -33.01200  -53.63530   -3.98660   13.42550 6000.51070 5303.17810
 4700.00000   10.46140   11.71430    -999.25  124.15110    0.19370    0.19370    2.26020    -999.25    0.38310    0.26300    8.05470  101.74310    8.59470    -999.25  101.74310    8.05470    8.96630    8.10100    7.74120   11.71430    8.96630    -999.25    -999.25    -999.25    0.52970    0.46910    2.26020    9.23260   10.58830  -32.70940  -53.52060   -4.06380    9.23260 6219.66380 5349.95690
 4750.00000   10.14580   10.84940    -999.25  130.55510    0.19900    0.19900    2.00880    -999.25    -999.25    0.41010    7.65960   98.90210   10.10570    -999.25   98.90210    7.65960    7.93600    8.33650    9.46460   10.84940    7.93600    -999.25    -999.25    -999.25    -999.25    -999.25    2.00880    8.32230   10.06850  -32.06330  -51.73490   -2.46990    8.32230 6179.57590 5425.34410
 4800.00000   10.68240   12.54090  211.02550  198.29470    -999.25    -999.25    -999.25    -999.25    -999.25    -999.25    5.04300    -999.25   10.00300    -999.25  104.03120    5.04300    -999.25    5.19400    6.40330   12.54090    -999.25    -999.25    -999.25    -999.25    -999.25    -999.25    -999.25    5.37720    6.49990  -32.42740  -52.30750   -3.23430    5.37720 6227.36040    -999.25
