~Version ---------------------------------------------------
VERS.      2.0 : CWLS log ASCII Standard -VERSION 2.0
WRAP.       NO : One line per depth step
CREA. 08/31/17 : LAS Creation Date
~Well ------------------------------------------------------
STRT.FT                          1500.0 : START DEPTH
STOP.FT                         11900.0 : STOP DEPTH
STEP.FT                        50.00000 : STEP LENGTH
NULL.                           -999.25 : NULL VALUE
COMP.  AMOCO CANADA PETROLEUM CO., LTD. : COMPANY
WELL. AMOCO HB FINA FIR S-I  7-26-59-20 : WELL
FLD .                                   : FIELD
LOC .                                   : LOCATION
CTRY.                            CANADA : COUNTRY
SRVC.            Schlumberger of Canada : SERVICE COMPANY
DATE.                       07-Jan-1978 : LOGDATE
PROV.                           Alberta : PROVINCE
UWI .                  100072605920W500 : UNIQUE WELL ID
SLAT.WGS84                     54.12779 : SURFACE LATITUDE
SLON.WGS84                    -116.8825 : SURFACE LONGITUDE
~Curve Information -----------------------------------------
DEPT    .FT    : Depth Curve
CALDED  .IN    : CALIPER FROM CNFD LOG
CALSED  .IN    : CALIPER FROM BCS LOG [ADJ. TO GRDED]
CALWS   .IN    : CALIPER [CALSED]
CONDWS  .MMHO  : CONDUCTIVITY [1000/DRESWS]
DCORED  .G/C3  : DENSITY CORRECTION FROM CNFD LOG
DCORWS  .G/C3  : DENSITY CORRECTION [DCORED]
DENWS   .G/C3  : FORMATION BULK DENSITY [RHOBED]
DPHILSED.V/V   : DENSITY POROSITY LIMESTONE [M=2.71, F=1.0] FROM CNFD LOG [ADJ. TO RHOBED]
DPHISSED.V/V   : DENSITY POROSITY SANDSTONE [M=2.65, F=1.0] FROM CNFD LOG [ADJ. TO RHOBED]
DPOLSWS .V/V   : DENSITY POROSITY LIMESTONE [CALCULATED FROM DENWS, M=2.71, F=1.0]
DRESWS  .OHMM  : DEEP RESISTIVITY [ILDED]
DTED    .US/F  : ACOUSTIC TRANSIT TIME SLOWNESS, DELTA T FROM BCS LOG [ADJ. TO GRDED]
DTWS    .US/F  : COMPRESSIONAL SONIC [DTED]
GRDED   .GAPI  : GAMMA RAY FROM CNFD LOG
GRSED   .GAPI  : GAMMA RAY FROM BCS LOG [ADJ. TO GRDED]
GRWS    .GAPI  : GAMMA RAY [GRSED]
ILDED   .OHMM  : DEEP INDUCTION FROM DILL LOG
ILMED   .OHMM  : MEDIUM INDUCTION FROM DILL LOG
LL8ED   .OHMM  : LATEROLOG RESISTIVITY FROM DILL LOG
MRESWS  .OHMM  : MEDIUM RESISTIVITY [ILMED]
NPHILSED.V/V   : NEUTRON POROSITY LIMESTONE FROM CNFD LOG [ADJ. TO RHOBED]
NPHISSED.V/V   : NEUTRON POROSITY SANDSTONE FROM CNFD LOG [ADJ. TO RHOBED]
NPOLSWS .V/V   : NEUTRON POROSITY LIMESTONE [NPHISSED CONVERTED TO LIMESTONE MATRIX, SPL. TO NPHILSED @ 2468.27M]
RHOBED  .G/C3  : HRDD HIGH RESOLUTION FORMATION DENSITY FROM CNFD LOG
SPRED   .MV    : SPONTANEOUS POTENTIAL FROM DILL LOG
SRESWS  .OHMM  : SHALLOW RESISTIVITY [LL8ED]
~Params ----------------------------------------------------
PD  .                     GL : PERMANENT DATUM
EPD .FT              3289.04 : ELEVATION PERMANENT DATUM
LMF .                     KB : LOG MEASURED FROM
DAPD.FT                 21.2 : FEET ABOVE PERMANENT DATUM
EKB .FT              3310.24 : KELLY BUSHING
EGL .FT              3289.04 : GROUND LEVEL
DATE.               01/07/78 : RUN DATE
RUN .                      1 : RUN NUMBER
DD  .FT                11910 : DEPTH DRILLER
DL  .FT                11919 : DEPTH LOGGER
BLI .FT                11913 : BOTTOM LOG INTERVAL
TLI .FT                 1534 : TOP LOG INTERVAL
CBD .FT                 1534 : CASING BOTTOM DRILLER
CBL .FT                 1534 : CASING BOTTOM LOGGER
BS  .IN                 8.75 : BIT SIZE
BSD .FT                11910 : BIT SIZE AT DEPTH
DFT .                    GEL : DRILLING FLUID TYPE
DFD .                    9.5 : DRILLING FLUID DENSITY
DFV .                    105 : DRILLING FLUID VISCOSITY
DFPH.                    9.5 : DRILLING FLUID PH
DFL .                    9.0 : DRILLING FLUID LOSS
MSS .               FLOWLINE : MUD SAMPLE SOURCE
RMS .OHMM               1.78 : RESISTIVITY MUD SAMPLE
MST .DEGF                 85 : MUD SAMPLE TEMPERATURE
RMF .OHMM               1.74 : RESISTIVITY MUD FILTRATE SAMPLE
MFST.DEGF                 54 : MUD FILTRATE SAMPLE TEMPERATURE
TCS .HRS                   5 : TIME CIRCULATED STOPPED
LUN .                   7730 : LOGGING UNIT NUMBER
LUL .                    EDM : LOGGING UNIT LOCATION
ENGI.   ACKERMAN STEENBERGEN : RECORDING ENGINEER
CLNT.                A2DTECH : CLIENT CODE
ORIG.            2" 5" PRINT : ORIGIN OF DATA
UWI .       100072605920W500 : UNIQUE WELL ID
DICO. A2D Technologies, Inc. : DIGITIZING COMPANY
~Other -----------------------------------------------------
~ASCII -----------------------------------------------------
# ...
 8250.00000   10.49000    9.73820    9.73820   37.60630    0.26110    0.26110    2.45780    0.16650    -999.25    0.14750   26.59130   61.83170   61.83170   96.23390  142.13120  142.13120   28.54280   28.54280   36.57310   28.54280    0.14090    -999.25    0.14090    2.45780 -117.56070   36.57310
 8300.00000    8.33750    8.93060    8.93060   32.84770    0.14700    0.14700    2.64460    0.03960    -999.25    0.03820   30.50520   51.43840   51.43840   22.67450   23.79560   23.79560   35.57390   35.57390   40.82740   35.57390    0.10280    -999.25    0.10280    2.64460 -126.87610   40.82740
 8350.00000    8.42700    9.19230    9.19230   32.62090    0.05710    0.05710    2.76010   -0.02720    -999.25   -0.02930   30.65520   55.17950   55.17950   72.63420   91.38560   91.38560   34.32520   34.32520   40.81150   34.32520    0.09340    -999.25    0.09340    2.76010 -111.48350   40.81150
 8400.00000   10.50870    9.92060    9.92060    3.49690    0.24120    0.24120    2.36400    0.20240    -999.25    0.20230  286.59820   52.58510   52.58510   30.29020   38.38590   38.38590  211.42130  211.42130  355.68780  211.42130    0.05430    -999.25    0.05430    2.36400 -160.08380  355.68780
 8450.00000   10.54480    9.45560    9.45560   62.83220    0.25970    0.25970    2.52050    0.10770    -999.25    0.11080   15.91540   55.71780   55.71780   35.36270   50.57120   50.57120   15.56040   15.56040   22.52960   15.56040    0.07680    -999.25    0.07680    2.52050 -148.19920   22.52960
 8500.00000    8.61940    9.28890    9.28890   26.00350    0.06700    0.06700    2.67060   -0.04210    -999.25    0.02300   38.45640   52.16560   52.16560   42.74130   53.53570   53.53570   48.77070   48.77070   80.88090   48.77070    0.03810    -999.25    0.03810    2.67060 -120.94810   80.88090
 8550.00000    8.67620    9.51070    9.51070   43.93340    0.02870    0.02870    2.71500   -0.00320    -999.25   -0.00290   22.76670   54.97490   54.97490   48.84460   64.21220   64.21220   27.71710   27.71710   45.67720   27.71710    0.06930    -999.25    0.06930    2.71500 -123.34530   45.67720
 8600.00000    8.77170    9.55480    9.55480    2.24230    0.09170    0.09170    2.73530   -0.01970    -999.25   -0.01480  445.96680   49.38670   49.38670    8.63850   10.53920   10.53920 1310.60170 1310.60170 1376.90470 1310.60170    0.01320    -999.25    0.01320    2.73530 -188.03950 1376.90470
 8650.00000    9.65720    9.48190    9.48190   56.64920    0.21800    0.21800    2.57020    0.08860    -999.25    0.08180   17.68510   50.56090   50.56090   12.90840   17.41560   17.41560   26.13070   26.13070  182.04940   26.13070    0.01290    -999.25    0.01290    2.57020 -192.04240  182.04940
 8700.00000    9.64670    8.81570    8.81570   11.35190    0.24800    0.24800    2.61550    0.05310    -999.25    0.05530   88.09130   50.34650   50.34650   21.76730   28.93850   28.93850  104.54020  104.54020  229.82150  104.54020    0.00830    -999.25    0.00830    2.61550 -136.32270  229.82150
 8750.00000    8.54060    9.15260    9.15260   74.68200    0.03520    0.03520    2.63820    0.04000    -999.25    0.04200   13.39010   56.62630   56.62630   88.27170  100.75350  100.75350   14.75550   14.75550   18.76000   14.75550    0.12360    -999.25    0.12360    2.63820  -92.60780   18.76000
 8800.00000    8.65060    9.38280    9.38280   37.65630    0.02400    0.02400    2.62220    0.05140    -999.25    0.05130   26.56380   56.93600   56.93600   74.79030   92.74590   92.74590   34.65450   34.65450   91.75870   34.65450    0.07400    -999.25    0.07400    2.62220 -103.89350   91.75870
 8850.00000    9.26330    9.98230    9.98230   49.04920    0.01770    0.01770    2.68740    0.00950    -999.25    0.01320   20.38770   56.44630   56.44630   57.06930   80.26190   80.26190   24.00110   24.00110   30.33780   24.00110    0.06020    -999.25    0.06020    2.68740  -68.62790   30.33780
 8900.00000    9.11270    9.65210    9.65210   44.08750    0.00930    0.00930    2.62940    0.04290    -999.25    0.04710   22.68810   56.72470   56.72470   53.05070   75.94330   75.94330   26.36190   26.36190   38.89970   26.36190    0.08740    -999.25    0.08740    2.62940  -61.58680   38.89970
 8950.00000    8.66360    9.45600    9.45600   17.61140    0.03390    0.03390    2.69570    0.00330    -999.25    0.00840   56.78140   55.07740   55.07740   28.38720   42.45870   42.45870   61.88200   61.88200   62.31540   61.88200    0.06090    -999.25    0.06090    2.69570  -72.38120   62.31540
 9000.00000    8.44070    9.24850    9.24850    6.34320    0.02230    0.02230    2.71000    0.02010    -999.25    0.00000  157.64960   52.38760   52.38760   32.53850   41.64430   41.64430  384.89620  384.89620  223.75130  384.89620    0.02620    -999.25    0.02620    2.71000  -80.29580  223.75130
 9050.00000    8.46400    9.21510    9.21510    8.87230    0.05710    0.05710    2.70740   -0.00510    -999.25    0.00150  112.71090   53.13710   53.13710   35.11790   50.06910   50.06910  183.50610  183.50610  144.16910  183.50610    0.04100    -999.25    0.04100    2.70740  -76.97920  144.16910
 9100.00000    8.48180    9.19030    9.19030   16.14790    0.03050    0.03050    2.67330    0.01170    -999.25    0.02150   61.92740   54.49250   54.49250   35.17630   46.52210   46.52210   79.82720   79.82720   88.54160   79.82720    0.05230    -999.25    0.05230    2.67330  -76.40540   88.54160
 9150.00000    8.40980    9.16720    9.16720    3.28400    0.02170    0.02170    2.69040    0.00860    -999.25    0.01140  304.50710   51.69370   51.69370   25.86510   31.62890   31.62890 1275.43000 1275.43000  370.52950 1275.43000    0.03030    -999.25    0.03030    2.69040  -96.96790  370.52950
 9200.00000    8.43680    9.18380    9.18380   18.07150    0.02240    0.02240    2.68020    0.01370    -999.25    0.01740   55.33590   54.59310   54.59310   49.99210   59.43530   59.43530   67.43010   67.43010   84.64850   67.43010    0.05230    -999.25    0.05230    2.68020  -76.98700   84.64850
 9250.00000    8.42600    9.10800    9.10800   11.07090    0.01820    0.01820    2.63800    0.04490    -999.25    0.04210   90.32730   54.36720   54.36720   40.78830   62.41290   62.41290  120.32640  120.32640  168.60870  120.32640    0.04240    -999.25    0.04240    2.63800  -77.94200  168.60870
 9300.00000    8.37830    9.17500    9.17500   16.94100    0.01280    0.01280    2.62020    0.05500    -999.25    0.05250   59.86480   57.76040   57.76040   93.93550  108.51170  108.51170   98.27540   98.27540  124.19400   98.27540    0.10490    -999.25    0.10490    2.62020  -95.36970  124.19400
 9350.00000    9.59020    9.39230    9.39230    0.69340    0.24630    0.24630    2.59480    0.06230    -999.25    0.06740 1442.18080   48.09790   48.09790   13.14750   16.99190   16.99190 1301.74610 1301.74610 1240.14290 1301.74610    0.00690    -999.25    0.00690    2.59480 -143.92730 1240.14290
 9400.00000    9.54500    9.48920    9.48920    0.68680    0.21910    0.21910    2.65400    0.03140    -999.25    0.03280 1456.05930   48.42810   48.42810   16.03190   18.79390   18.79390 1289.81080 1289.81080 1252.48130 1289.81080    0.00880    -999.25    0.00880    2.65400 -175.97150 1252.48130
 9450.00000   10.05910    9.63370    9.63370    0.67410    0.23410    0.23410    2.47950    0.13380    -999.25    0.13480 1483.45100   49.45700   49.45700   15.49750   21.06460   21.06460 1315.83280 1315.83280  843.51560 1315.83280    0.00760    -999.25    0.00760    2.47950 -179.98880  843.51560
 9500.00000   10.37320    9.51180    9.51180    2.79260    0.25680    0.25680    2.41410    0.17190    -999.25    0.17300  358.08670   49.67750   49.67750   12.79410   13.77300   13.77300  221.64380  221.64380  195.24900  221.64380    0.00600    -999.25    0.00600    2.41410 -176.05270  195.24900
 9550.00000   10.25350    9.50100    9.50100    1.13210    0.25800    0.25800    2.59190    0.06850    -999.25    0.06900  883.37350   49.36920   49.36920   11.99680   15.21930   15.21930  398.53740  398.53740  296.34550  398.53740    0.01040    -999.25    0.01040    2.59190 -171.41780  296.34550
