~Version ---------------------------------------------------
VERS.      2.0 : CWLS log ASCII Standard -VERSION 2.0
WRAP.       NO : One line per depth step
CREA. 05/28/14 : LAS Creation Date
~Well ------------------------------------------------------
STRT.FT                               300.0 : START DEPTH
STOP.FT                              8350.0 : STOP DEPTH
STEP.FT                            50.00000 : STEP LENGTH
NULL.                               -999.25 : NULL VALUE
COMP. CANADA CITIES SERVICE PETROLEUM CORP. : COMPANY
WELL.          CITIES SERVICE KEYSTONE 8-15 : WELL
FLD .                                       : FIELD
LOC .                                       : LOCATION
CTRY.                                CANADA : COUNTRY
SRVC.                               Unknown : SERVICE COMPANY
DATE.                           07-May-1956 : LOGDATE
PROV.                               Alberta : PROVINCE
UWI .                      100081504804W500 : UNIQUE WELL ID
SLAT.WGS84                         53.13956 : SURFACE LATITUDE
SLON.WGS84                         -114.492 : SURFACE LONGITUDE
~Curve Information -----------------------------------------
DEPT  .FT            : DEPTH FEET
CALM  .IN            : CALIPER FROM MICROLATEROLOG
GRN   .UR/HR         : GAMMA RAY FROM McCULLOUGH GRN RADIATION LOG
GRN_1 .UG_RA-EQ/TON  : GAMMA RAY FROM SLB GRN-RADIATION LOG
GRN_2 .GAPI          : GAMMA RAY FROM GRN LOG
LAT9  .OHMM          : LATERAL 9' FROM HLB EL LOG
LN    .OHMM          : LONG NORMAL RESISTIVITY FROM SLB EL LOG
LT16  .OHMM          : 16 INCH LATERAL  FROM HLB EL LOG
LT18  .OHMM          : 18 INCH LATERAL  FROM SLB EL LOG
MCAL  .IN            : CALIPER CONTACT TOOL FROM HLB EL LOG
MLL   .OHMM          : MICRO FOCUSED LATEROLOG RESISTIVITY  FROM MICROLATEROLOG
NEUT  .NAPI          : NEUTRON FROM McCULLOUGH GRN RADIATION LOG
NEUT_1.NAPI          : NEUTRON FROM SLB GRN-RADIATION LOG
NEUT_2.NAPI          : NEUTRON FROM GRN LOG
SN    .OHMM          : SHORT NORMAL RESISTIVITY FROM SLB EL LOG
SN_1  .OHMM          : SHORT NORMAL 18 INCH FROM HLB EL LOG
SPR   .MV            : SPONTANEOUS POTENTIAL FROM SLB EL LOG
SPR_1 .MV            : SPONTANEOUS POTENTIAL FROM HLB EL LOG
~Params ----------------------------------------------------
LMF .                     KB : LOG MEASURED FROM
DMF .                     KB : DRILLING MEASURED FROM
EKB .FT                 2813 : KELLY BUSHING
DATE.               05/07/56 : RUN DATE
RUN .                      1 : RUN NUMBER
DD  .FT                 8499 : DEPTH DRILLER
DL  .FT                 8499 : DEPTH LOGGER
BLI .FT                 8498 : BOTTOM LOG INTERVAL
TLI .FT                  610 : TOP LOG INTERVAL
CBL .FT                  610 : CASING BOTTOM LOGGER
BS  .IN                    9 : BIT SIZE
BSD .FT                 8499 : BIT SIZE AT DEPTH
DFT .              LIME BASE : DRILLING FLUID TYPE
DFD .                   11.1 : DRILLING FLUID DENSITY
DFV .                     98 : DRILLING FLUID VISCOSITY
DFPH.                     13 : DRILLING FLUID PH
DFL .                     48 : DRILLING FLUID LOSS
RMS .OHMM               0.72 : RESISTIVITY MUD SAMPLE
MST .DEGF                 85 : MUD SAMPLE TEMPERATURE
RMB .OHMM               0.39 : RESISTIVITY MUD AT BHT
TCS .HRS                 2.5 : TIME CIRCULATED STOPPED
LUN .                   2786 : LOGGING UNIT NUMBER
LUL .                    EDM : LOGGING UNIT LOCATION
ENGI.                 TAYLOR : RECORDING ENGINEER
WITN.              ARMSTRONG : WITNESSED BY
CLNT.                A2DTECH : CLIENT CODE
ORIG.            2" 5" PRINT : ORIGIN OF DATA
UWI .       100081504804W500 : UNIQUE WELL ID
DICO. A2D Technologies, Inc. : DIGITIZING COMPANY
~Other -----------------------------------------------------
~ASCII -----------------------------------------------------
  300.00000    -999.25    6.72100    -999.25    -999.25    -999.25    -999.25    -999.25    -999.25    -999.25    -999.25   86.72590    -999.25    -999.25    -999.25    -999.25    -999.25    -999.25
  350.00000    -999.25    6.14330    -999.25    -999.25    -999.25    -999.25    -999.25    -999.25    -999.25    -999.25  115.93790    -999.25    -999.25    -999.25    -999.25    -999.25    -999.25
  400.00000    -999.25    7.38780    -999.25    -999.25    -999.25    -999.25    -999.25    -999.25    -999.25    -999.25   95.94480    -999.25    -999.25    -999.25    -999.25    -999.25    -999.25
  450.00000    -999.25    5.81340    -999.25    -999.25    -999.25    -999.25    -999.25    -999.25    -999.25    -999.25  200.16330    -999.25    -999.25    -999.25    -999.25    -999.25    -999.25
  500.00000    -999.25    4.88370    -999.25   19.45790    -999.25    -999.25    -999.25    -999.25    -999.25    -999.25  124.05370    -999.25  185.91180    -999.25    -999.25    -999.25    -999.25
  550.00000    -999.25    6.63960    -999.25   19.10620    -999.25    -999.25    -999.25    -999.25    -999.25    -999.25  179.07580    -999.25  175.33770    -999.25    -999.25    -999.25    -999.25
  600.00000    -999.25    5.09700    -999.25   16.71720    -999.25    -999.25    -999.25    -999.25    -999.25    -999.25  130.05290    -999.25  132.48550    -999.25    -999.25    -999.25    -999.25
  650.00000    -999.25    9.83390    -999.25   58.60180   12.10510    8.46710    6.96160   38.26690    -999.25    -999.25  282.96480    -999.25  107.25780    6.23210    5.79180  -61.46980  -38.82640
  700.00000    -999.25   11.19600    -999.25   54.90790    6.61580    9.44550    6.05130    9.90910    -999.25    -999.25  351.36040    -999.25  212.46140    5.84720    5.21210  -60.50850  -38.86980
  750.00000    -999.25    9.13930    -999.25   50.25210   24.62890   18.75580    1.26280    7.60030    -999.25    -999.25  388.66960    -999.25  420.47230    9.62370    9.21270  -58.45640  -33.41010
  800.00000    -999.25    9.43260    -999.25   49.33970    2.93540   10.34670    0.72090    3.94950    -999.25    -999.25  309.10770    -999.25  218.06520    6.99970    6.42110  -55.02010  -27.10980
  850.00000    -999.25   10.11900    -999.25   44.89150    6.64330    9.13240    7.75190   11.46670    -999.25    -999.25  323.11430    -999.25  190.44100    5.17320    4.18320  -51.97720  -28.26920
  900.00000    -999.25    9.57900    -999.25   62.99560    7.36720    6.38070    6.97460   10.10380    -999.25    -999.25  213.77970    -999.25  129.02120    4.69670    3.42780  -49.33180  -28.90990
  950.00000    -999.25    6.05320    -999.25   21.55430    9.28950   12.62720    6.06920    8.45460    -999.25    -999.25  466.63210    -999.25  281.11100   10.02590   10.39890  -52.06010  -40.02840
 1000.00000    -999.25   10.02470    -999.25   53.14950    6.63460    7.99450    5.46090    8.94920    -999.25    -999.25  294.81060    -999.25  212.60580    4.56650    4.33210  -47.72900  -31.40210
 1050.00000    -999.25    9.89060    -999.25   56.53830    2.86880    9.63780    2.99090    5.92420    -999.25    -999.25  459.18230    -999.25  330.83380    6.59220    5.29590  -51.27470  -28.85880
 1100.00000    -999.25   10.00780    -999.25   57.04240    3.85670    7.22430    4.42270    5.26190    -999.25    -999.25  290.88300    -999.25  195.25600    4.74010    3.50370  -49.44640  -34.89690
 1150.00000    -999.25    8.29820    -999.25   48.82650    8.28710    8.67590    7.65610   10.04390    -999.25    -999.25  494.65140    -999.25  431.99010    6.42040    6.08680  -54.73010  -33.64000
 1200.00000    -999.25    8.06390    -999.25   44.59090    8.03740    9.03950    9.78090   14.22110    -999.25    -999.25  423.03120    -999.25  280.67870    6.48110    6.07890  -53.06270  -29.64800
 1250.00000    -999.25   11.16460    -999.25   44.70370    7.39740    7.57020    6.89520    8.84420    -999.25    -999.25  393.33740    -999.25  279.04330    5.15100    3.43990  -52.04870  -31.63640
 1300.00000    -999.25    9.17970    -999.25   41.96820    8.12130    7.97590    8.47810   10.29240    -999.25    -999.25  467.24250    -999.25  366.30790    7.06780    6.33980  -51.67330  -27.97950
 1350.00000    -999.25    9.65530    -999.25   51.34840    4.45150    6.18610    4.61100    6.64710    -999.25    -999.25  384.36080    -999.25  266.13250    4.30590    3.02150  -48.19030  -30.53380
 1400.00000    -999.25    9.91790    -999.25   51.31810   13.38770    6.44190   18.14670   13.17410    -999.25    -999.25  348.68240    -999.25  221.92540    5.19560    4.12620  -48.40850  -32.41640
 1450.00000    -999.25   10.71800    -999.25   64.35990    5.08560    7.50130    5.36760    8.60330    -999.25    -999.25  403.95600    -999.25  278.37560    5.80720    4.21300  -50.31310  -29.00830
 1500.00000    -999.25    8.88590    -999.25   41.80710    9.32720    8.96910    9.19370   12.03520    -999.25    -999.25  419.83310    -999.25  327.55080    7.27020    5.56850  -52.07660  -30.85650
 1550.00000    -999.25    9.91840    -999.25   54.54710    6.61140    8.37060    3.75150    6.64250    -999.25    -999.25  448.66900    -999.25  296.03200    5.48870    4.42370  -51.58260  -29.93360
 1600.00000    -999.25   11.03670    -999.25   54.60820    5.87040    7.78920    0.67290    3.86120    -999.25    -999.25  358.40210    -999.25  220.66360    4.96350    3.70020  -46.97420  -26.48250
 1650.00000    -999.25   11.29190    -999.25   62.27900    8.08770    6.52720    8.44370   12.13360    -999.25    -999.25  294.54800    -999.25  194.75680    3.88770    2.53440  -50.00800  -29.70370
 1700.00000    -999.25   10.12280    -999.25   49.62500    7.97590    6.44570    6.07180    8.04870    -999.25    -999.25  291.66610    -999.25  326.62660    4.79600    3.90990  -46.28690  -27.66310
 1750.00000    -999.25    8.88320    -999.25   48.56660    5.60870    8.50080    4.34130    7.06130    -999.25    -999.25  357.58710    -999.25  220.60200    5.51150    3.90440  -45.59680  -24.62360
 1800.00000    -999.25   10.19840    -999.25   50.16480    5.82410    8.35260    0.97980    4.20350    -999.25    -999.25  398.17060    -999.25  238.88670    4.42980    3.21350  -44.31700  -25.91200
 1850.00000    -999.25   10.27450    -999.25   57.25430    5.14140    6.97810    6.68110   10.70400    -999.25    -999.25  357.83380    -999.25  206.92270    3.74610    3.11510  -44.34620  -27.14850
 1900.00000    -999.25    8.21620    -999.25   46.90820    3.78240    5.77130    4.24980    7.52320    -999.25    -999.25  429.18440    -999.25  259.24280    5.19520    4.31100  -44.79170  -27.34090
 1950.00000    -999.25   10.40050    -999.25   43.59650    5.22750    6.53520    4.17360    6.59310    -999.25    -999.25  407.24820    -999.25  264.91890    4.94130    3.65800  -43.89050  -25.22230
 2000.00000    -999.25    8.86840    -999.25   53.27580    4.65610    7.60520    5.45380    8.95320    -999.25    -999.25  391.19640    -999.25  203.74870    5.58070    5.77520  -41.46420  -27.50110
 2050.00000    -999.25   11.09520    -999.25   72.79840    6.75070    8.27260    1.41260    5.99330    -999.25    -999.25  301.00080    -999.25  277.49480    8.30050    7.85920  -46.20580  -31.60630
 2100.00000    -999.25   10.21360    -999.25   55.22290    4.92850    7.71350    5.30670    9.13650    -999.25    -999.25  325.43140    -999.25  287.76600    4.60320    3.65380  -44.80190  -30.09880
 2150.00000    -999.25    9.16880    -999.25   48.63340    4.85170    5.36180    5.23510    6.84470    -999.25    -999.25  349.76370    -999.25  236.70810    4.67280    3.20940  -46.75190  -30.90170
 2200.00000    -999.25   12.32960    -999.25   70.84580    6.05150    8.87070    0.36420    2.15140    -999.25    -999.25  276.53960    -999.25  175.77420    5.16560    4.02400  -43.60350  -25.76000
 2250.00000    -999.25    8.69760    -999.25   51.29040   11.93380   16.05400    9.95910   13.41410    -999.25    -999.25  479.84500    -999.25  412.10170   14.70380   16.35160  -52.80120  -33.54660
 2300.00000    -999.25   10.16660    -999.25   55.24100    4.93490    5.57500    5.02680    8.69920    9.34620    -999.25  231.05330    -999.25  151.11670    4.18250    2.64460  -45.62580  -27.22610
