~Version ---------------------------------------------------
VERS.      2.0 : CWLS log ASCII Standard -VERSION 2.0
WRAP.       NO : One line per depth step
CREA. 11/14/17 : LAS Creation Date
~Well ------------------------------------------------------
STRT.FT                                 1000.0 : START DEPTH
STOP.FT                                10050.0 : STOP DEPTH
STEP.FT                               50.00000 : STEP LENGTH
NULL.                                  -999.25 : NULL VALUE
COMP. THE BRITISH AMERICAN OIL COMPANY LIMITED : COMPANY
WELL.    B.A. FRONTIER LITTLE SMOKY 10-2-67-21 : WELL
FLD .                                          : FIELD
LOC .                                          : LOCATION
CTRY.                                   CANADA : COUNTRY
SRVC.                             Schlumberger : SERVICE COMPANY
DATE.                              21-Mar-1966 : LOGDATE
PROV.                                  Alberta : PROVINCE
UWI .                         100100206721W500 : UNIQUE WELL ID
SLAT.WGS84                            54.77228 : SURFACE LATITUDE
SLON.WGS84                           -117.0858 : SURFACE LONGITUDE
~Curve Information -----------------------------------------
DEPT  .FT    : Depth Curve
CALSED.IN    : CALIPER FROM SONIC LOG
CALWS .IN    : CALIPER [CALSED]
CILDED.MMHO  : CONDUCTIVITY FROM RESISTIVITY LOG
CONDWS.MMHO  : CONDUCTIVITY [1000/DRESWS]
DRESWS.OHMM  : DEEP RESISTIVITY [1000/CILDED, IF ILDED<1, ILDED]
DTED  .US/F  : DELTA-T FROM SONIC LOG
DTWS  .US/F  : COMPRESSISONAL SONIC [DTED]
GRSED .GAPI  : GAMMA RAY FROM SONIC LOG
GRWS  .GAPI  : GAMMA RAY [GRSED]
ILDED .OHMM  : DEEP INDUCTION FROM RESISTIVITY LOG
MCALED.IN    : MLT MICROLOG CALIPER FROM ML-C LOG
SNED  .OHMM  : SHORT NORMAL FROM RESISTIVITY LOG
SPRED .MV    : SPONTANEOUS POTENTIAL FROM RESISTIVITY LOG
SPWS  .MV    : SPONTANEOUS POTENTIAL [BASELINE 0 MV, SPRED]
SRESWS.OHMM  : SHALLOW RESISTIVITY [SNED]
~Params ----------------------------------------------------
PD  .                     GL : PERMANENT DATUM
EPD .FT                 2440 : ELEVATION PERMANENT DATUM
LMF .                     KB : LOG MEASURED FROM
DAPD.FT                   13 : FEET ABOVE PERMANENT DATUM
EKB .FT                 2453 : KELLY BUSHING
EGL .FT                 2440 : GROUND LEVEL
DATE.               03/21/66 : RUN DATE
RUN .                      1 : RUN NUMBER
DD  .FT                10080 : DEPTH DRILLER
DL  .FT                10081 : DEPTH LOGGER
BLI .FT                10080 : BOTTOM LOG INTERVAL
TLI .FT                 1022 : TOP LOG INTERVAL
CBD .FT                 1020 : CASING BOTTOM DRILLER
CBL .FT                 1022 : CASING BOTTOM LOGGER
BS  .IN                 8.75 : BIT SIZE
BSD .FT                10080 : BIT SIZE AT DEPTH
DFT .            CAUSTIC GEL : DRILLING FLUID TYPE
DFD .                    9.7 : DRILLING FLUID DENSITY
DFV .                     85 : DRILLING FLUID VISCOSITY
DFPH.                     10 : DRILLING FLUID PH
DFL .                      8 : DRILLING FLUID LOSS
RMS .OHMM               2.06 : RESISTIVITY MUD SAMPLE
MST .DEGF                 67 : MUD SAMPLE TEMPERATURE
RMF .OHMM               1.74 : RESISTIVITY MUD FILTRATE SAMPLE
MFST.DEGF                 67 : MUD FILTRATE SAMPLE TEMPERATURE
RMC .OHMM                2.3 : RESISTIVITY MUD CAKE
MCST.DEGF                 67 : MUD CAKE SAMPLE TEMPERATURE
RMB .OHMM               0.68 : RESISTIVITY MUD AT BHT
TCS .HRS                 4.5 : TIME CIRCULATED STOPPED
LUN .                   3534 : LOGGING UNIT NUMBER
LUL .                    WCT : LOGGING UNIT LOCATION
ENGI.               THOMPSON : RECORDING ENGINEER
WITN.              SCHOMAKER : WITNESSED BY
CLNT.                A2DTECH : CLIENT CODE
ORIG.            2" 5" PRINT : ORIGIN OF DATA
UWI .       100100206721W500 : UNIQUE WELL ID
DICO. A2D Technologies, Inc. : DIGITIZING COMPANY
~Other -----------------------------------------------------
~ASCII -----------------------------------------------------
# ...
 3300.00000   10.55870   10.55870  158.30700  158.33310    6.31580   98.34200   98.34200  106.42100  106.42100    6.31580    -999.25    8.00880  -87.30260   -3.90150    8.00880
 3350.00000   10.72200   10.72200  172.34340  172.33360    5.80270  104.07310  104.07310   99.03170   99.03170    5.80270    -999.25    7.37160  -86.55220   -3.51260    7.37160
 3400.00000    9.78910    9.78910  144.80530  144.80370    6.90590  104.39070  104.39070  117.39290  117.39290    6.90590    -999.25   10.71530  -86.74830   -4.06790   10.71530
 3450.00000    9.69240    9.69240  148.32990  148.29970    6.74310  106.04650  106.04650  110.47040  110.47040    6.74310    -999.25    9.90470  -86.61430   -4.29550    9.90470
 3500.00000    9.18850    9.18850  126.78820  126.79250    7.88690   80.52620   80.52620   93.36200   93.36200    7.88690    -999.25   12.50640  -87.32390   -5.36430   12.50640
 3550.00000   10.52540   10.52540  139.81980  139.80730    7.15270   40.24340   40.24340   79.06600   79.06600    7.15270    -999.25    9.42700  -88.24240   -6.64200    9.42700
 3600.00000    9.26900    9.26900  177.32260  177.33330    5.63910   95.92970   95.92970   90.45790   90.45790    5.63910    -999.25    6.10140  -86.49180   -5.25290    6.10140
 3650.00000   10.04010   10.04010  217.65990  217.55210    4.59660  104.18060  104.18060   94.48050   94.48050    4.59660    -999.25    6.35730  -85.21410   -4.33440    6.35730
 3700.00000   10.40690   10.40690  203.08760  203.14060    4.92270   82.84570   82.84570   93.96530   93.96530    4.92270    -999.25    5.52620  -84.18620   -3.66810    5.52620
 3750.00000    9.82720    9.82720  154.20690  154.14260    6.48750   77.19120   77.19120   89.40550   89.40550    6.48750    -999.25    7.65860  -83.52430   -3.27540    7.65860
 3800.00000    9.89670    9.89670  185.67760  185.67000    5.38590   98.14250   98.14250  100.41860  100.41860    5.38590    -999.25    6.51100  -83.96450   -3.95280    6.51100
 3850.00000   10.09610   10.09610  134.93630  134.88540    7.41370   83.44860   83.44860   82.66010   82.66010    7.41370    -999.25    7.91470  -84.09580   -4.32280    7.91470
 3900.00000    9.35920    9.35920  173.82720  173.81930    5.75310   89.00540   89.00540   95.42770   95.42770    5.75310    -999.25    6.74290  -82.81060   -3.27480    6.74290
 3950.00000    9.00870    9.00870  216.24780  216.27230    4.62380   96.80990   96.80990  101.41120  101.41120    4.62380    -999.25    4.98100  -83.23470   -3.93760    4.98100
 4000.00000    8.19780    8.19780  451.76470  451.54880    2.21460  108.18010  108.18010  117.93870  117.93870    2.21460    -999.25    2.64650  -81.37810   -2.31810    2.64650
 4050.00000    8.50030    8.50030  421.99740  369.33080    2.70760  106.42780  106.42780   91.25310   91.25310    2.70760    -999.25    2.03240  -81.51120   -2.68840    2.03240
 4100.00000    9.80810    9.80810  364.01800  363.86130    2.74830  109.19550  109.19550   92.29310   92.29310    2.74830    -999.25    2.49800  -81.72880   -3.14470    2.49800
 4150.00000   10.71160   10.71160  249.30730  249.35790    4.01030  113.37630  113.37630   85.81160   85.81160    4.01030    -999.25    4.48160  -80.58220   -2.07610    4.48160
 4200.00000   10.42360   10.42360  287.68970  287.73670    3.47540  102.25580  102.25580   95.42480   95.42480    3.47540    -999.25    3.80010  -81.14050   -2.63440    3.80010
 4250.00000    9.48750    9.48750  138.50330  131.12000    7.62660   67.64180   67.64180  127.09920  127.09920    7.62660    -999.25   10.17920  -82.77410   -4.26800   10.17920
 4300.00000   10.91260   10.91260  218.92950  218.98130    4.56660   93.74910   93.74910   78.01100   78.01100    4.56660    -999.25    5.09550  -83.73280   -5.22670    5.09550
 4350.00000    9.14490    9.14490  572.49180  572.70490    1.74610   51.70510   51.70510   83.88710   83.88710    1.74610    -999.25    2.41660  -83.99070   -5.48460    2.41660
 4400.00000    8.04530    8.04530  129.48110  130.51930    7.66170   76.59330   76.59330   35.24370   35.24370    7.66170    -999.25   23.17280 -131.97830  -53.47220   23.17280
 4450.00000    9.14320    9.14320  132.23940  132.23320    7.56240   82.64120   82.64120   78.44130   78.44130    7.56240    -999.25    9.85150  -85.42440   -6.91830    9.85150
 4500.00000    8.49160    8.49160   92.06870   90.64620   11.03190   68.30300   68.30300   38.85980   38.85980   11.03190    -999.25   38.73930 -114.66970  -36.16360   38.73930
 4550.00000    7.86790    7.86790  146.50910  146.50080    6.82590   77.45160   77.45160   25.31220   25.31220    6.82590    -999.25   21.73430 -133.36370  -54.85760   21.73430
 4600.00000    9.41160    9.41160  154.39190  154.38290    6.47740   73.16740   73.16740   94.18520   94.18520    6.47740    -999.25   10.89520  -84.19180   -5.68570   10.89520
 4650.00000    9.52300    9.52300  203.97290  203.97340    4.90260   81.33980   81.33980   84.94360   84.94360    4.90260    -999.25    6.70000  -81.63180   -3.12570    6.70000
 4700.00000    9.69090    9.69090  153.78380  157.76350    6.33860   81.36280   81.36280   54.28290   54.28290    6.33860    -999.25    9.30330  -93.88040  -15.37430    9.30330
 4750.00000    9.63490    9.63490  185.79040  186.01540    5.37590   81.03290   81.03290   72.37640   72.37640    5.37590    -999.25    8.30360  -91.16560  -10.11240    8.30360
 4800.00000    8.27670    8.27670  144.97760  144.96120    6.89840   80.08320   80.08320   44.27430   44.27430    6.89840    -999.25   21.23660 -143.83610  -58.43270   21.23660
 4850.00000    9.60840    9.60840  135.71760  117.80370    8.48870   74.57090   74.57090   69.84940   69.84940    8.48870    -999.25   11.59150  -91.78610   -2.00400   11.59150
 4900.00000    9.68260    9.68260  156.05310  156.05010    6.40820   79.45080   79.45080   74.91010   74.91010    6.40820    -999.25    8.23180  -90.44180   -1.14700    8.23180
 4950.00000    9.69330    9.69330  147.71110  147.71490    6.76980   78.36760   78.36760   78.34150   78.34150    6.76980    -999.25    9.99230  -95.24700   -6.71320    9.99230
 5000.00000    9.04490    9.04490  119.20710  119.21650    8.38810   61.98170   61.98170   53.29520   53.29520    8.38810    -999.25   19.93980 -126.99940  -39.22170   19.93980
 5050.00000    9.83320    9.83320  142.32690  142.32850    7.02600   84.17320   84.17320   80.89290   80.89290    7.02600    -999.25    8.57650  -90.81260   -3.79090    8.57650
 5100.00000    9.81720    9.81720  123.25610  123.24230    8.11410   80.96270   80.96270   84.54240   84.54240    8.11410    -999.25   10.11170  -89.33820   -3.07750   10.11170
 5150.00000   11.28040   11.28040  154.37130  154.38530    6.47730   67.53710   67.53710   77.90820   77.90820    6.47730    -999.25    5.99790  -89.06860   -2.52160    5.99790
 5200.00000    8.03530    8.03530  124.28770  124.30850    8.04450   80.78470   80.78470   46.61610   46.61610    8.04450    -999.25   20.34910 -138.44540  -51.47810   20.34910
 5250.00000    9.76910    9.76910  107.24860  102.46740    9.75920   77.72620   77.72620   48.18240   48.18240    9.75920    -999.25   16.58890 -117.75080  -30.36600   16.58890
 5300.00000   10.52790   10.52790   95.47440  101.01420    9.89960   91.11590   91.11590   90.64880   90.64880    9.89960    -999.25   11.18650  -89.33220   -1.52980   11.18650
 5350.00000   12.44640   12.44640  105.50790  100.41670    9.95850   78.10980   78.10980   77.59070   77.59070    9.95850    -999.25   12.02490  -89.83250   -2.82120   12.02490
 5400.00000   13.43970   13.43970  312.44020  312.76390    3.19730  107.35620  107.35620   72.69110   72.69110    3.19730    -999.25    2.92250  -85.46410   -1.95280    2.92250
 5450.00000   15.00280   15.00280  285.43480  289.68710    3.45200  133.73600  133.73600   81.12740   81.12740    3.45200    -999.25    3.58530  -81.89340   -1.90520    3.58530
 5500.00000   14.97010   14.97010  394.30350  407.19930    2.45580  114.94310  114.94310   84.04820   84.04820    2.45580    -999.25    2.77280  -80.31390   -2.76650    2.77280
 5550.00000    9.55110    9.55110   64.05230   61.27790   16.31910  105.05910  105.05910  132.34260  132.34260   16.31910    -999.25   27.34410  -79.61040   -2.06300   27.34410
