~Version ---------------------------------------------------
VERS.      2.0 : CWLS log ASCII Standard -VERSION 2.0
WRAP.       NO : One line per depth step
CREA. 10/24/17 : LAS Creation Date
~Well ------------------------------------------------------
STRT.FT                        1200.0 : START DEPTH
STOP.FT                       11700.0 : STOP DEPTH
STEP.FT                      50.00000 : STEP LENGTH
NULL.                         -999.25 : NULL VALUE
COMP.            MOBIL OIL CANADA LTD : COMPANY
WELL. MOBIL ICG MARSH HEAD 11-3-60-20 : WELL
FLD .                                 : FIELD
LOC .                                 : LOCATION
CTRY.                          CANADA : COUNTRY
SRVC.                    Schlumberger : SERVICE COMPANY
DATE.                     05-Jan-1976 : LOGDATE
PROV.                         Alberta : PROVINCE
UWI .                100110306020W500 : UNIQUE WELL ID
SLAT.WGS84                   54.15991 : SURFACE LATITUDE
SLON.WGS84                  -116.9171 : SURFACE LONGITUDE
~Curve Information -----------------------------------------
DEPT    .FT    : Depth Curve
CALDED  .IN    : CALIPER FROM DENSITY LOG [ADJ. TO RESISTIVITY LOG]
CALSED  .IN    : CALIPER FROM SONIC LOG [ADJ. TO RESISTIVITY LOG]
CALWS   .IN    : CALIPER [CALDED SPL. TO CALSED FROM 2516'-2535']
CONDWS  .MMHO  : CONDUCTIVITY [1000/DRESWS]
DCORWS  .G/C3  : DENSITY CORRECTION [DRHOED]
DENWS   .G/C3  : FORMATION BULK DENSITY [RHOBED]
DPHILSED.V/V   : DENSITY POROSITY LIMESTONE  FROM DENSITY LOG [ADJ. TO RESISTIVITY LOG]
DPOLSWS .V/V   : DENSITY POROSITY LIMESTONE [CALC FROM DENWS,M=2.71, F=1.00]
DRESWS  .OHMM  : DEEP RESISTIVITY [ILDED]
DRHOED  .G/C3  : DENSITY CORRECTION FROM DENSITY LOG [ADJ. TO RESISTIVITY LOG]
DTED    .US/F  : DELTA TIME FROM SONIC LOG [ADJ. TO RESISTIVITY LOG]
DTWS    .US/F  : COMPRESSIONAL SONIC [DTED]
GRDED   .GAPI  : GAMMA RAY FROM DENSITY LOG [ADJ. TO RESISTIVITY LOG]
GRSED   .GAPI  : GAMMA RAY FROM SONIC LOG [ADJ. TO RESISTIVITY LOG]
GRWS    .GAPI  : GAMMA RAY [GRDED SPL. TO GRSED FROM 2507'-2550']
ILDED   .OHMM  : DEEP INDUCTION RESISTIVITY FROM RESISTIVITY LOG
ILMED   .OHMM  : MEDIUM INDUCTION RESISTIVITY FROM RESISTIVITY LOG
LL8ED   .OHMM  : 8 INCH LATEROLOG RESISTIVITY FROM RESISTIVITY LOG
MRESWS  .OHMM  : MEDIUM RESISTIVITY [ILMED]
NPHILSED.V/V   : NEUTRON POROSITY LIMESTONE FROM DENSITY LOG [ADJ. TO RESISTIVITY LOG]
NPOLSWS .V/V   : NEUTRON POROSITY LIMESTONE [NPHILSED]
RHOBED  .G/C3  : BULK DENSITY FROM DENSITY LOG [ADJ. TO RESISTIVITY LOG]
SPRED   .MV    : SPONTANEOUS POTENTIAL FROM RESISTIVITY LOG
SPWS    .MV    : SPONTANEOUS POTENTIAL [BASELINE 0 MV, SPRED]
SRESWS  .OHMM  : SHALLOW RESISTIVITY [LL8ED]
~Params ----------------------------------------------------
PD  .                     GL : PERMANENT DATUM
EPD .FT               3132.5 : ELEVATION PERMANENT DATUM
LMF .                     KB : LOG MEASURED FROM
DAPD.FT                 14.5 : FEET ABOVE PERMANENT DATUM
EKB .FT                 3147 : KELLY BUSHING
EGL .FT               3132.5 : GROUND LEVEL
DATE.               01/05/76 : RUN DATE
RUN .                      1 : RUN NUMBER
DD  .FT                11725 : DEPTH DRILLER
DL  .FT                11730 : DEPTH LOGGER
BLI .FT                11724 : BOTTOM LOG INTERVAL
TLI .FT                 1203 : TOP LOG INTERVAL
CBD .FT                 1203 : CASING BOTTOM DRILLER
CBL .FT                 1203 : CASING BOTTOM LOGGER
BS  .IN                 8.75 : BIT SIZE
BSD .FT                11725 : BIT SIZE AT DEPTH
DFT .                    GEL : DRILLING FLUID TYPE
DFD .                    9.6 : DRILLING FLUID DENSITY
DFV .                    110 : DRILLING FLUID VISCOSITY
DFPH.                   10.5 : DRILLING FLUID PH
DFL .                    9.8 : DRILLING FLUID LOSS
MSS .               FLOWLINE : MUD SAMPLE SOURCE
RMS .OHMM               2.42 : RESISTIVITY MUD SAMPLE
MST .DEGF                 74 : MUD SAMPLE TEMPERATURE
RMF .OHMM               1.63 : RESISTIVITY MUD FILTRATE SAMPLE
MFST.DEGF                 74 : MUD FILTRATE SAMPLE TEMPERATURE
RMB .OHMM               0.67 : RESISTIVITY MUD AT BHT
TCS .HRS                   3 : TIME CIRCULATED STOPPED
LUN .                   7658 : LOGGING UNIT NUMBER
LUL .                     RD : LOGGING UNIT LOCATION
ENGI.              DODSWORTH : RECORDING ENGINEER
WITN.   OLINYK LINDENSCHMIDT : WITNESSED BY
CLNT.                A2DTECH : CLIENT CODE
ORIG.            2" 5" PRINT : ORIGIN OF DATA
UWI .       100110306020W500 : UNIQUE WELL ID
DICO. A2D Technologies, Inc. : DIGITIZING COMPANY
~Other -----------------------------------------------------
DIL-LL-CNFD-BHC LOG RUN
CNFD DATA MISSING AROUND 25256' (MAY BE DUE TO LOG SPLICING)
~ASCII -----------------------------------------------------
# ...
 8200.00000   11.15090    9.00830   11.15090   11.52920    0.21660    2.45250    0.14950    0.15060   86.73600    0.21660   52.11110   52.11110   50.41270   55.11320   50.41270   86.73600   96.10850  529.47330   96.10850    0.02830    0.02830    2.45250 -129.14640  -60.23450  529.47330
 8250.00000   12.61060    9.31590   12.61060   38.90910    0.17800    1.92400    0.45020    0.45960   25.70090    0.17800   60.50640   60.50640   32.33620   32.27820   32.33620   25.70090   27.27530   21.69120   27.27530    0.12820    0.12820    1.92400 -158.34360  -91.19780   21.69120
 8300.00000   11.86260    9.29380   11.86260   20.80150    0.26280    2.39100    0.18170    0.18650   48.07360    0.26280   53.30570   53.30570   62.99610   60.30680   62.99610   48.07360   56.47110  119.36650   56.47110    0.06940    0.06940    2.39100 -123.19660  -57.80810  119.36650
 8350.00000    9.89720    9.02320    9.89720   22.04450    0.01780    2.68240    0.02340    0.01610   45.36280    0.01780   52.51660   52.51660   43.59330   46.32740   43.59330   45.36280   51.03190  116.28680   51.03190    0.02350    0.02350    2.68240 -114.35350  -50.73990  116.28680
 8400.00000   10.37080    9.49920   10.37080    4.32380   -0.01040    2.84480   -0.08180   -0.07880  231.27810   -0.01040   52.08940   52.08940    9.20240   10.49890    9.20240  231.27810  198.94080 1526.82250  198.94080   -0.00970   -0.00970    2.84480 -178.62400 -116.77650 1526.82250
 8450.00000    9.64950    8.69800    9.64950   26.90580    0.17680    2.43830    0.15570    0.15890   37.16670    0.17680   53.18080   53.18080   22.08740   18.80780   22.08740   37.16670   48.48690   96.46750   48.48690    0.05390    0.05390    2.43830 -172.08370 -112.00230   96.46750
 8500.00000   14.00170    9.57690   14.00170    7.24710    0.20820    2.20380    0.30040    0.29600  137.98690    0.20820   49.77390   49.77390   18.22160   19.41380   18.22160  137.98690  117.73230 1500.23540  117.73230    0.01470    0.01470    2.20380 -123.13430  -64.81900 1500.23540
 8550.00000    9.42360    9.05010    9.42360   56.90360    0.01030    2.68560    0.01450    0.01430   17.57600    0.01030   55.83800   55.83800   64.45200   59.08410   64.45200   17.57600   18.44320   27.92580   18.44320    0.09300    0.09300    2.68560  -66.89300  -13.33440   27.92580
 8600.00000    9.78790    9.15340    9.78790   36.99050    0.00820    2.64470    0.03630    0.03820   27.03400    0.00820   56.29580   56.29580   83.09150   67.41010   83.09150   27.03400   34.24740   61.71780   34.24740    0.05960    0.05960    2.64470  -50.94080   -3.20320   61.71780
 8650.00000   10.21880    9.41770   10.21880   34.63790   -0.00440    2.62920    0.04670    0.04730   28.87010   -0.00440   56.49090   56.49090   70.64450   57.80950   70.64450   28.87010   34.15590   56.67370   34.15590    0.05110    0.05110    2.62920  -45.03190   -3.08640   56.67370
 8700.00000   11.82260    9.44180   11.82260   16.23010    0.13790    2.61200    0.05830    0.05730   61.61400    0.13790   52.70840   52.70840   29.99120   26.94510   29.99120   61.61400   63.38610  195.62100   63.38610    0.01410    0.01410    2.61200  -63.99410  -27.21630  195.62100
 8750.00000   10.19590    9.46270   10.19590   16.20130    0.01280    2.58390    0.07360    0.07370   61.72340    0.01280   52.19350   52.19350   31.51100   31.90100   31.51100   61.72340   65.08840  119.68010   65.08840    0.00430    0.00430    2.58390  -68.08410  -36.21900  119.68010
 8800.00000    9.44200    8.79320    9.44200   22.65720    0.00070    2.63170    0.04530    0.04580   44.13670    0.00070   55.15200   55.15200   45.41930   44.36550   45.41930   44.13670   45.09280   76.53090   45.09280    0.03020    0.03020    2.63170  -36.92610   -9.94900   76.53090
 8850.00000    9.47280    9.17500    9.47280   14.71250   -0.00410    2.63410    0.04310    0.04440   67.96940   -0.00410   53.57800   53.57800   38.46960   38.63010   38.46960   67.96940   70.99990  128.69930   70.99990    0.02010    0.02010    2.63410  -44.38170  -22.34180  128.69930
 8900.00000    9.51310    9.14660    9.51310   19.50090   -0.00780    2.63010    0.04590    0.04670   51.27970   -0.00780   54.30620   54.30620   44.25860   35.81510   44.25860   51.27970   54.81310   93.43670   54.81310    0.02240    0.02240    2.63010  -36.62380  -19.49660   93.43670
 8950.00000    9.33810    8.97770    9.33810    9.39260   -0.00220    2.62660    0.04910    0.04880  106.46640   -0.00220   51.73220   51.73220   29.74760   29.46300   29.74760  106.46640  137.40730  651.81960  137.40730    0.00750    0.00750    2.62660  -55.20870  -42.99410  651.81960
 9000.00000    9.49510    9.06550    9.49510   22.23380    0.00700    2.65330    0.03280    0.03320   44.97650    0.00700   55.15190   55.15190   51.19470   50.19950   51.19470   44.97650   47.88510   84.48100   47.88510    0.02870    0.02870    2.65330  -27.40750  -20.10560   84.48100
 9050.00000    9.48100    8.91450    9.48100   17.56750    0.00270    2.63460    0.04300    0.04410   56.92670    0.00270   54.90880   54.90880   47.99000   49.16020   47.99000   56.92670   59.21970  127.31830   59.21970    0.02310    0.02310    2.63460  -13.14560  -10.73170  127.31830
 9100.00000    9.63230    9.48710    9.63230    9.95550   -0.00570    2.59730    0.06720    0.06590  100.44680   -0.00570   55.70740   55.70740   28.04050   29.09840   28.04050  100.44680  105.46530 1472.49350  105.46530    0.01810    0.01810    2.59730  -13.76110  -16.28440 1472.49350
 9150.00000   10.00630    9.30210   10.00630    8.93940    0.00140    2.60050    0.06470    0.06400  111.86480    0.00140   50.87200   50.87200   34.08230   31.78810   34.08230  111.86480  126.99420  379.16450  126.99420    0.02760    0.02760    2.60050  -33.40290  -37.07040  379.16450
 9200.00000   10.93070    9.40490   10.93070    5.86690    0.17750    2.49470    0.12460    0.12590  170.44640    0.17750   49.16040   49.16040   17.27390   18.12810   17.27390  170.44640  184.94520 1474.65100  184.94520    0.01260    0.01260    2.49470  -76.57300  -79.17140 1474.65100
 9250.00000   11.84750    9.30150   11.84750    5.76840    0.21910    2.39550    0.18610    0.18390  173.35840    0.21910   48.59390   48.59390   17.08000   16.73080   17.08000  173.35840  169.37700 1194.58840  169.37700    0.00870    0.00870    2.39550  -80.45760  -81.98690 1194.58840
 9300.00000   12.26630    9.27980   12.26630    5.53690    0.15410    2.40610    0.18030    0.17770  180.65450    0.15410   49.89310   49.89310   15.81070   12.94450   15.81070  180.65450   91.80140  282.99350   91.80140    0.01450    0.01450    2.40610  -93.28400  -93.74960  282.99350
 9350.00000   12.37140    9.38350   12.37140    5.76320    0.21930    2.39140    0.19160    0.18630  173.51430    0.21930   50.06300   50.06300   17.07380   16.66570   17.07380  173.51430  141.50800  825.40250  141.50800    0.02550    0.02550    2.39140  -78.07670  -77.46780  825.40250
 9400.00000   10.95790    9.17850   10.95790    9.61530    0.13750    2.53240    0.10360    0.10390  104.00060    0.13750   50.14390   50.14390   16.73360   14.20000   16.73360  104.00060  115.26100  597.46610  115.26100    0.01590    0.01590    2.53240  -72.05100  -70.37300  597.46610
 9450.00000    9.44190    8.80770    9.44190   22.70600    0.01590    2.64650    0.03510    0.03710   44.04120    0.01590   49.69320   49.69320    9.93680   10.97300    9.93680   44.04120   40.90490  154.65910   40.90490    0.01270    0.01270    2.64650  -93.10910  -90.36210  154.65910
 9500.00000   11.06960    9.33270   11.06960    6.83510    0.21850    2.34050    0.21860    0.21610  146.30270    0.21850   50.23390   50.23390   13.44730   15.66310   13.44730  146.30270  141.66130  801.05520  141.66130    0.01220    0.01220    2.34050  -78.84250  -75.02640  801.05520
 9550.00000   10.82010    9.36410   10.82010    9.36010    0.18530    2.50760    0.11900    0.11840  106.86630    0.18530   49.90400   49.90400   16.20340   15.63730   16.20340  106.86630  100.60060  247.31670  100.60060    0.00510    0.00510    2.50760  -73.04210  -68.16220  247.31670
