~Version ---------------------------------------------------
VERS.      2.0 : CWLS log ASCII Standard -VERSION 2.0
WRAP.       NO : One line per depth step
CREA. 07/24/13 : LAS Creation Date
~Well ------------------------------------------------------
STRT.FT                        300.0 : START DEPTH
STOP.FT                      12850.0 : STOP DEPTH
STEP.FT                     50.00000 : STEP LENGTH
NULL.                        -999.25 : NULL VALUE
COMP.  WESTERN DECALTA PETROLEUM LTD : COMPANY
WELL. DECALTA ET AL BRAZR 6-31-47-13 : WELL
FLD .                  BRAZEAU RIVER : FIELD
LOC .                                : LOCATION
CTRY.                         CANADA : COUNTRY
SRVC.                   Schlumberger : SERVICE COMPANY
DATE.                    15-Mar-1978 : LOGDATE
PROV.                        Alberta : PROVINCE
UWI .               100063104713W500 : UNIQUE WELL ID
SLAT.WGS84                  53.09535 : SURFACE LATITUDE
SLON.WGS84                 -115.8946 : SURFACE LONGITUDE
~Curve Information -----------------------------------------
DEPT   .FT    : DEPTH FEET
CALD   .IN    : CALIPER FROM DENSITY LOG
CALS   .IN    : DENSITY POROSITY LIMESTONE [M=2.71, F=1.0] FROM DENSITY LOG
DPHI_LS.DEC   : DENSITY POROSITY LIMESTONE [M=2.71, F=1.0] FROM DENSITY LOG
DPHI_SS.DEC   : DENSITY POROSITY SANDSTONE [M=2.65, F=1.0] FROM DENSITY LOG
DRHO   .G/C3  : DENSITY CORRECTION FROM DENSITY LOG
DT     .US/F  : DELTA TIME FROM SONIC LOG
GRD    .GAPI  : GAMMA RAY FROM DENSITY LOG
GRS    .GAPI  : GAMMA RAY FROM SONIC LOG
ILD    .OHMM  : DEEP INDUCTION RESISTIVITY FROM RESISTIVITY LOG
ILM    .OHMM  : MEDIUM INDUCTION RESISTIVITY FROM RESISTIVITY LOG
LL8    .OHMM  : 8 INCH LATEROLOG RESISTIVITY FROM RESISTIVITY LOG
NPHI_LS.DEC   : NEUTRON POROSITY LIMESTONE FROM DENSITY LOG
NPHI_SS.DEC   : NEUTRON POROSITY SANDSTONE FROM DENSITY LOG
RHOB   .G/C3  : BULK DENSITY FROM DENSITY LOG
SPR    .MV    : SPONTANEOUS POTENTIAL FROM RESISTIVITY LOG
~Params ----------------------------------------------------
PD  .                     GL : PERMANENT DATUM
EPD .FT                 3420 : ELEVATION PERMANENT DATUM
LMF .                     KB : LOG MEASURED FROM
DAPD.FT                   27 : FEET ABOVE PERMANENT DATUM
DMF .                     KB : DRILLING MEASURED FROM
EGL .FT                 3420 : GROUND LEVEL
DATE.               03/15/78 : RUN DATE
RUN .                      2 : RUN NUMBER
DD  .FT                12857 : DEPTH DRILLER
DL  .FT                12856 : DEPTH LOGGER
BLI .FT                12850 : BOTTOM LOG INTERVAL
TLI .FT                10390 : TOP LOG INTERVAL
CS  .IN                9.625 : CASING SIZE
CBD .FT                10395 : CASING BOTTOM DRILLER
CBL .FT                10390 : CASING BOTTOM LOGGER
BS  .IN                6.125 : BIT SIZE
BSD .FT                12857 : BIT SIZE AT DEPTH
DFT .                    GEL : DRILLING FLUID TYPE
DFD .                   10.3 : DRILLING FLUID DENSITY
DFV .                     44 : DRILLING FLUID VISCOSITY
DFPH.                   11.5 : DRILLING FLUID PH
DFL .                    8.8 : DRILLING FLUID LOSS
MSS .               FLOWLINE : MUD SAMPLE SOURCE
RMS .OHMM               0.89 : RESISTIVITY MUD SAMPLE
MST .DEGF                 62 : MUD SAMPLE TEMPERATURE
TCS .HRS                 2.5 : TIME CIRCULATED STOPPED
LUN .                   7687 : LOGGING UNIT NUMBER
LUL .                    EDA : LOGGING UNIT LOCATION
ENGI.               BERNISKY : RECORDING ENGINEER
WITN.                  COWAN : WITNESSED BY
CLNT.                A2DTECH : CLIENT CODE
ORIG.            2" 5" PRINT : ORIGIN OF DATA
UWI .       100063104713W500 : UNIQUE WELL ID
DICO. A2D Technologies, Inc. : DIGITIZING COMPANY
~Other -----------------------------------------------------
~ASCII -----------------------------------------------------
# ...
 11750.00000   13.00370    9.13670    0.20470    -999.25    0.24640   78.42660   98.04270   84.47920    3.80530    3.53870    4.95210    0.28650    -999.25    2.41790 -177.18520
 11800.00000   10.40590    6.82720    0.14340    -999.25    0.19140   76.25940   94.56380   87.86790    3.74090    3.41940    5.10140    0.22770    -999.25    2.41830 -139.79000
 11850.00000   13.53530    8.00020    0.12750    -999.25    0.24750   78.58130   95.29440   84.29730    3.43650    3.31640    4.94940    0.27650    -999.25    2.51680 -175.60050
 11900.00000    9.36880    7.29860    0.03030    -999.25    0.26350   74.09500   87.00960   80.23910    3.87300    3.47640    5.52370    0.18570    -999.25    2.66980 -151.02740
 11950.00000    7.97550    6.85940   -0.02430    -999.25    0.05460   69.30100   87.55900   76.89080    5.40230    5.05130    7.83990    0.15250    -999.25    2.73320 -161.37080
 12000.00000    7.43520    6.52360   -0.01760    -999.25    0.08990   69.60710   82.94200   71.96390    4.83860    4.32480    6.89440    0.15330    -999.25    2.71440 -257.89610
 12050.00000   11.17050    7.17270    0.08760    -999.25    0.24720   80.01360  105.65630   96.20610    3.89050    3.61030    5.47490    0.21810    -999.25    2.52730 -278.74300
 12100.00000    7.70600    6.38820   -0.04430    -999.25    0.09800   72.34770   93.24230   84.29200    4.77310    4.20410    7.45050    0.16890    -999.25    2.74240 -291.21590
 12150.00000    8.21910    6.64310   -0.03410    -999.25    0.07620   73.89010   84.20850   80.35060    3.92940    3.80180    5.76660    0.16590    -999.25    2.74150 -211.70260
 12200.00000    8.51530    6.55800    0.09860    -999.25    0.00480   86.99260  134.95620  193.97220   19.25370   22.49850   43.46270    0.22900    -999.25    2.52970 -393.67400
 12250.00000    9.70340    6.20060    0.15210    -999.25    0.18400   78.78290  108.20140   92.28730   30.69950   30.25670   63.89520    0.15380    -999.25    2.46790 -308.42640
 12300.00000   10.77970    7.40540    0.21600    -999.25    0.24780   85.72470   87.79050   93.06480    5.68270    5.03660    8.84960    0.21020    -999.25    2.34450 -313.92400
 12350.00000   12.28170    8.01940    0.35050    -999.25    0.21100   87.43030   86.07040   76.85440    2.72460    2.86840    4.43780    0.30320    -999.25    2.12080 -319.62230
 12400.00000    8.56770    6.98570   -0.00890    -999.25    0.04710   55.25710   32.05930   31.81640   19.39440   21.12330   38.79020    0.05140    -999.25    2.75490 -321.61980
 12450.00000    8.22520    6.64810    0.00260    -999.25    0.04220   61.98090   63.41540   57.97120    6.92860    7.77790   12.77610    0.10270    -999.25    2.72610 -292.88870
 12500.00000    8.55090    6.77900   -0.01140    -999.25    0.05360   51.31020   20.02420   15.34710   70.07470   78.08930  402.41740    0.01300    -999.25    2.71960 -304.22150
 12550.00000    7.14460    6.52330   -0.05090    -999.25    0.05700   60.59770   65.10700   60.01390   14.86080   14.29900   23.63280    0.09670    -999.25    2.80600 -302.39270
 12600.00000    7.12370    6.49220    0.00760    -999.25    0.00570   56.18480   48.69520   43.06210   28.02660   38.76460   54.04690    0.06210    -999.25    2.68780 -252.89740
 12650.00000    7.62790    6.53090   -0.03140    -999.25    0.01630   53.48360   38.62820   33.45380   55.22360   84.62310  136.00940    0.02640    -999.25    2.73140 -174.39540
 12700.00000    7.57950    6.58020   -0.01660    -999.25    0.07030   49.59280   16.90560   11.47410 1676.51040 1616.46550 1413.69230    0.00840    -999.25    2.76490   -0.27010
 12750.00000    8.54270    6.45580    0.07480    -999.25    0.28360   49.97090   14.21410   11.15500 1560.43840 1384.32400 1470.22130    0.00930    -999.25    2.60840 -136.87400
 12800.00000    6.52700    6.84540   -0.03510    -999.25    0.05000   52.18850   33.25950   29.40300 1453.15610 1635.18190  941.44290    0.01520    -999.25    2.75010 -219.41960
 12850.00000    6.05130    8.30790   -0.03170    -999.25    0.03830   51.50180   26.08700   16.40500    -999.25 1896.82200 1518.65940    -999.25    -999.25    2.74350 -254.00690
