~Version ---------------------------------------------------
VERS.      2.0 : CWLS log ASCII Standard -VERSION 2.0
WRAP.       NO : One line per depth step
CREA. 09/16/14 : LAS Creation Date
~Well ------------------------------------------------------
STRT.FT                      1000.0 : START DEPTH
STOP.FT                      9200.0 : STOP DEPTH
STEP.FT                    50.00000 : STEP LENGTH
NULL.                       -999.25 : NULL VALUE
COMP. AMOCO CANADA PETROLEUM CO LTD : COMPANY
WELL.    AMOCO HB SAKWA 11-26-62-14 : WELL
FLD .                               : FIELD
LOC .                               : LOCATION
CTRY.                        CANADA : COUNTRY
SRVC.                       Unknown : SERVICE COMPANY
DATE.                   15-Jan-1977 : LOGDATE
PROV.                       Alberta : PROVINCE
UWI .              100112606214W500 : UNIQUE WELL ID
SLAT.WGS84                 54.39502 : SURFACE LATITUDE
SLON.WGS84                 -115.993 : SURFACE LONGITUDE
~Curve Information -----------------------------------------
DEPT   .FT    : Depth Curve
CALD   .IN    : CALIPER FROM DENSITY LOG
CALS   .IN    : CALIPER FROM SONIC LOG
DPHI_LS.DEC   : DENSITY POROSITY LIMESTONE [M=2.71,F=1.0] FROM DENSITY LOG
DPHI_SS.DEC   : DENSITY POROSITY SANDSTONE [M=2.65,F=1.0] FROM DENSITY LOG
DRHO   .G/C3  : DENSITY CORRECTION FROM DENSITY LOG
DT     .US/F  : DELTA-T FROM SONIC LOG
GRD    .GAPI  : GAMMA RAY FROM DENSITY LOG
GRS    .GAPI  : GAMMA RAY FROM SONIC LOG
ILD    .OHMM  : DEEP INDUCTION RESISTIVITY FROM RESISTIVITY LOG
ILM    .OHMM  : MEDIUM INDUCTION RESISTIVITY FROM RESISTIVITY LOG
LL8    .OHMM  : LATEROLOG 8 FROM RESISTIVITY LOG
NPHI_LS.DEC   : NEUTRON POROSITY LIMESTONE FROM DENSITY LOG
NPHI_SS.DEC   : NEUTRON POROSITY SANDSTONE FROM DENSITY LOG
RHOB   .G/C3  : BULK DENSITY FROM DENSITY LOG
SPR    .MV    : SPONTANEOUS POTENTIAL FROM RESISTIVITY LOG
~Params ----------------------------------------------------
PD  .                     GL : PERMANENT DATUM
EPD .FT                 2835 : ELEVATION PERMANENT DATUM
LMF .                     KB : LOG MEASURED FROM
DAPD.FT                 14.6 : FEET ABOVE PERMANENT DATUM
EKB .FT               2849.6 : KELLY BUSHING
EGL .FT               2835.0 : GROUND LEVEL
DATE.               01/15/77 : RUN DATE
RUN .                      1 : RUN NUMBER
DD  .FT                 9200 : DEPTH DRILLER
DL  .FT                 9205 : DEPTH LOGGER
BLI .FT                 9204 : BOTTOM LOG INTERVAL
TLI .FT                 1012 : TOP LOG INTERVAL
CBD .FT                 1015 : CASING BOTTOM DRILLER
CBL .FT                 1012 : CASING BOTTOM LOGGER
BS  .IN                 8.25 : BIT SIZE
BSD .FT                 9200 : BIT SIZE AT DEPTH
DFT .                    GEL : DRILLING FLUID TYPE
DFD .                    9.1 : DRILLING FLUID DENSITY
DFV .                    105 : DRILLING FLUID VISCOSITY
DFPH.                    9.5 : DRILLING FLUID PH
RMS .OHMM               3.85 : RESISTIVITY MUD SAMPLE
MST .DEGF                 48 : MUD SAMPLE TEMPERATURE
RMF .OHMM               3.25 : RESISTIVITY MUD FILTRATE SAMPLE
MFST.DEGF                 62 : MUD FILTRATE SAMPLE TEMPERATURE
TCS .HRS                   8 : TIME CIRCULATED STOPPED
LUN .                   7802 : LOGGING UNIT NUMBER
LUL .                    EDM : LOGGING UNIT LOCATION
ENGI.                   PIHM : RECORDING ENGINEER
WITN.            PHILLIPCHUK : WITNESSED BY
CLNT.                A2DTECH : CLIENT CODE
ORIG.            2" 5" PRINT : ORIGIN OF DATA
UWI .       100112606214W500 : UNIQUE WELL ID
DICO. A2D Technologies, Inc. : DIGITIZING COMPANY
~Other -----------------------------------------------------
~ASCII -----------------------------------------------------
# ...
 7900.00000   15.42350   13.38870    0.13560    -999.25    0.21280   75.89080   67.42260   83.22590    6.29840    6.12450    7.56010    0.24020    -999.25    2.48000 -101.29080
 7950.00000    9.68450   10.27070    0.06820    -999.25    0.03650   73.59340   91.36440  111.19450   14.28190   13.74560   16.43070    0.19360    -999.25    2.58400  -85.78810
 8000.00000    9.47910   10.06250    0.05350    -999.25    0.07920   57.81020   63.90930   65.17190   15.22150   15.38140   25.52690    0.11570    -999.25    2.63110  -85.63780
 8050.00000   12.18960   12.38970    0.10530    -999.25    0.16510   75.29760   59.94050   96.41930    8.75170    8.37150   10.90810    0.16300    -999.25    2.52730  -93.51730
 8100.00000   15.66010   12.53100    0.24810    -999.25    0.13310   75.12740   79.03030   79.41500    4.71420    4.46050    5.85210    0.33660    -999.25    2.29250  -95.28980
 8150.00000   11.31460   10.08950    0.18380    -999.25    0.13840   64.95860   74.94090   81.88020    8.52100    8.02960   12.49210    0.13450    -999.25    2.39520  -85.18430
 8200.00000   10.28840   10.41670    0.07710    -999.25    0.22900   72.15790   84.02340  106.97850    7.57150    7.30810    8.95800    0.18680    -999.25    2.57800  -91.35260
 8250.00000   10.19570   10.11370    0.04750    -999.25    0.13410   66.78940   85.58060   98.69710    8.54160    8.13760   10.85110    0.15280    -999.25    2.67860  -82.53280
 8300.00000    9.40920   10.12500    0.04260    -999.25    0.01070   66.78660   69.62980   95.91730   12.69010   11.98130   16.57920    0.11780    -999.25    2.61930  -77.60770
 8350.00000   13.65610   12.05570    0.09790    -999.25    0.20620   77.02810   95.38170  113.50210    5.26210    5.08250    6.59060    0.27230    -999.25    2.55640 -105.13370
 8400.00000   11.41630   11.61890    0.06340    -999.25    0.20080   78.37530  102.97880  121.11160    6.88210    6.61170    8.98010    0.20790    -999.25    2.62150  -91.55140
 8450.00000   11.87830   10.53140    0.04290    -999.25    0.11410   77.82240  102.73850  129.25140    5.65890    5.43110    7.38760    0.21260    -999.25    2.64840  -95.46960
 8500.00000   12.49240   10.39720    0.08020    -999.25    0.15270   73.84740   88.87820  103.96660    4.79060    4.57480    6.49960    0.23380    -999.25    2.60780  -98.34670
 8550.00000   12.86290   10.55920    0.09070    -999.25    0.14060   79.54220  117.65790  129.26860    4.35980    4.22950    5.76420    0.25770    -999.25    2.58920 -103.72880
 8600.00000   11.07600   10.36010    0.04150    -999.25    0.19980   86.32830  104.40670  151.27580    4.47990    4.29040    6.14910    0.22700    -999.25    2.65050  -94.05800
 8650.00000    8.91510    9.82540    0.07970    -999.25   -0.00530   58.82220   87.21600   57.99220   51.39490   47.00060   67.97650    0.13450    -999.25    2.57500  -58.34710
 8700.00000    8.87990    9.75360    -999.25    -999.25    0.00830   63.57810   46.53160   94.54880   41.97840   40.67020   62.76190    0.07160    -999.25    2.65590  -60.78430
 8750.00000   10.68870   11.56770    0.06570    -999.25    0.14280   77.80590  105.24750  110.87160    5.83220    5.96740    7.68360    0.18710    -999.25    2.59880  -82.70640
 8800.00000    8.98690    9.81850    0.02470    -999.25    0.02240   57.61930   55.60270   54.01530   48.82150   43.57410   62.48920    0.08020    -999.25    2.66810  -59.36610
 8850.00000    9.87670   10.53410    0.03180    -999.25    0.20070   72.41390   83.25590   79.45870    5.73430    5.47060    7.28420    0.18180    -999.25    2.65470  -77.29620
 8900.00000    8.85820    9.78940    0.03360    -999.25    0.01020   54.88550   24.40030   42.91500  235.49190  219.45070  765.60970    0.00970    -999.25    2.65340  -58.07770
 8950.00000    8.87280    9.92320   -0.00570    -999.25    0.01570   50.52370   14.37250   15.84600 1635.81850 1373.41600 1337.63320    0.01800    -999.25    2.71750  -57.46490
 9000.00000    8.86490    9.93730    0.03360    -999.25    0.00480   50.01450   30.39150   30.95130 1598.15190  986.17000  838.78930    0.00910    -999.25    2.65510  -60.41140
 9050.00000    8.75680    9.88470    0.02620    -999.25    0.00820   50.12920   19.81860   16.36800 1624.69130  841.08800  630.95790    0.00930    -999.25    2.65490  -81.54410
 9100.00000    8.77840    9.85940    0.02190    -999.25    0.02660   50.90000   23.74630   23.98940 1635.75110  826.90880  977.27690    0.01260    -999.25    2.68110  -65.97640
 9150.00000    8.68660    9.82260    0.03820    -999.25    0.01130   50.95910   21.58540   22.01710 1694.06850 1377.05360  813.21900    0.00650    -999.25    2.63190  -77.43570
 9200.00000    8.74430    -999.25   -0.00080    -999.25    0.03030    -999.25   26.09100    -999.25    -999.25    -999.25    -999.25    0.00590    -999.25    2.70060    -999.25
