~Version ---------------------------------------------------
VERS.      2.0 : CWLS log ASCII Standard -VERSION 2.0
WRAP.       NO : One line per depth step
CREA. 12/14/17 : LAS Creation Date
~Well ------------------------------------------------------
STRT.FT                     1150.0 : START DEPTH
STOP.FT                    10050.0 : STOP DEPTH
STEP.FT                   50.00000 : STEP LENGTH
NULL.                      -999.25 : NULL VALUE
COMP.     HOME OIL COMPANY LIMITED : COMPANY
WELL. HOME HB CHIP LAKE 8-33-55-12 : WELL
FLD .                              : FIELD
LOC .                              : LOCATION
CTRY.                       CANADA : COUNTRY
SRVC.                      Unknown : SERVICE COMPANY
DATE.                  04-Jan-1962 : LOGDATE
PROV.                      Alberta : PROVINCE
UWI .             100083305512W500 : UNIQUE WELL ID
SLAT.WGS84                53.79379 : SURFACE LATITUDE
SLON.WGS84               -115.7126 : SURFACE LONGITUDE
~Curve Information -----------------------------------------
DEPT  .FT    : Depth Curve
CALWS .IN    : CALIPER [MCALED]
CILDED.MMHO  : DEEP INDUCTION CONDUCTIVITY FROM IEL LOG [ADJ. TO ILDED]
CONDWS.MMHO  : DEEP CONDUCTIVITY [CILDED]
DRESWS.OHMM  : DEEP RESISTIVITY [1000/CILDED]
DTED  .US/F  : DELTA-T (3' SPACING & 3' PICKUP SPAN) FROM SONIC LOG [ADJ. TO IEL LOG]
DTWS  .US/F  : COMPRESSIONAL SONIC [DTED]
GRSED .GAPI  : GAMMA RAY FROM SONIC LOG [ADJ. TO IEL LOG]
GRWS  .GAPI  : GAMMA RAY [GRSED]
ILDED .OHMM  : DEEP INDUCTION RESISTIVITY FROM IEL LOG
MCALED.IN    : MICRO CALIPER FROM ML LOG
SNED  .OHMM  : 16 INCH  SHORT NORMAL FROM IEL LOG
SPRED .MV    : SPONTANEOUS POTENTIAL FROM IEL LOG
SPWS  .MV    : SPONTANEOUS POTENTIAL [BASELINE 0 MV,SPRED]
SRESWS.OHMM  : SHALLOW RESISTIVITY [SNED]
~Params ----------------------------------------------------
PD  .                    CBF : PERMANENT DATUM
EPD .FT               2849.9 : ELEVATION PERMANENT DATUM
LMF .                     KB : LOG MEASURED FROM
DAPD.FT                 13.4 : FEET ABOVE PERMANENT DATUM
EKB .FT               2863.3 : KELLY BUSHING
EGL .FT               2849.9 : GROUND LEVEL
DATE.               01/04/62 : RUN DATE
RUN .                      2 : RUN NUMBER
DD  .FT                10056 : DEPTH DRILLER
DL  .FT                10055 : DEPTH LOGGER
BLI .FT                10055 : BOTTOM LOG INTERVAL
TLI .FT                 6100 : TOP LOG INTERVAL
CBD .FT                 1152 : CASING BOTTOM DRILLER
BS  .IN                 8.75 : BIT SIZE
BSD .FT                10056 : BIT SIZE AT DEPTH
DFT .                 UNICAL : DRILLING FLUID TYPE
DFD .                    9.7 : DRILLING FLUID DENSITY
DFV .                    135 : DRILLING FLUID VISCOSITY
DFPH.                    9.0 : DRILLING FLUID PH
DFL .                    5.0 : DRILLING FLUID LOSS
RMS .OHMM                2.2 : RESISTIVITY MUD SAMPLE
MST .DEGF                 53 : MUD SAMPLE TEMPERATURE
RMF .OHMM                1.3 : RESISTIVITY MUD FILTRATE SAMPLE
MFST.DEGF                 50 : MUD FILTRATE SAMPLE TEMPERATURE
RMC .OHMM                2.7 : RESISTIVITY MUD CAKE
MCST.DEGF                 50 : MUD CAKE SAMPLE TEMPERATURE
RMB .OHMM               0.72 : RESISTIVITY MUD AT BHT
TCS .HRS                 2.5 : TIME CIRCULATED STOPPED
LUN .                   1576 : LOGGING UNIT NUMBER
LUL .                     DV : LOGGING UNIT LOCATION
ENGI.                NORQUAY : RECORDING ENGINEER
WITN.                  SCOTT : WITNESSED BY
CLNT.                A2DTECH : CLIENT CODE
ORIG.            2" 5" PRINT : ORIGIN OF DATA
UWI .       100083305512W500 : UNIQUE WELL ID
DICO. A2D Technologies, Inc. : DIGITIZING COMPANY
~Other -----------------------------------------------------
~ASCII -----------------------------------------------------
 1150.00000    -999.25    -999.25    -999.25    -999.25    -999.25    -999.25   57.07020   57.07020    -999.25    -999.25    -999.25    -999.25    -999.25    -999.25
 1200.00000   11.81260   84.67750   84.67750   11.80950   97.03530   97.03530   60.41230   60.41230   12.42760   11.81260   13.46180  -43.33980  -12.31830   13.46180
 1250.00000   10.89210   95.30240   95.30240   10.49290   81.55150   81.55150   58.55150   58.55150   10.76960   10.89210   11.32180  -39.14320   -8.12170   11.32180
 1300.00000   10.51900  230.78440  230.78440    4.33300  104.50590  104.50590   82.63330   82.63330    3.98740   10.51900    4.91590  -36.09110   -5.06960    4.91590
 1350.00000    9.07430   81.65410   81.65410   12.24680   94.25150   94.25150   60.23660   60.23660   12.83510    9.07430   13.34700  -48.16650  -17.14500   13.34700
 1400.00000   13.06910  193.61630  193.61630    5.16490  110.52580  110.52580   77.44350   77.44350    4.94090   13.06910    5.82500  -38.81440   -7.79290    5.82500
 1450.00000    9.48930  162.06430  162.06430    6.17040   97.90860   97.90860   82.19260   82.19260    6.36420    9.48930    6.93880  -37.86570   -6.84420    6.93880
 1500.00000   11.60690  183.41350  183.41350    5.45220  114.90170  114.90170   74.60440   74.60440    5.44700   11.60690    6.13120  -37.14270   -6.12120    6.13120
 1550.00000    9.11130  134.52410  134.52410    7.43360  116.00200  116.00200   74.29090   74.29090    7.52550    9.11130    9.62900  -47.41270  -16.39120    9.62900
 1600.00000    9.85350  129.84740  129.84740    7.70130   94.32630   94.32630   68.72220   68.72220    7.67760    9.85350    8.18930  -38.91300   -7.89150    8.18930
 1650.00000   10.19830  212.01860  212.01860    4.71660  110.86740  110.86740   74.00710   74.00710    4.58230   10.19830    5.20590  -39.13890   -8.11740    5.20590
 1700.00000   10.82120  258.01950  258.01950    3.87570  123.61270  123.61270   83.55540   83.55540    3.61590   10.82120    4.98740  -39.10030   -8.07880    4.98740
 1750.00000    9.56820  170.05060  170.05060    5.88060  112.04670  112.04670   72.18510   72.18510    5.87470    9.56820    7.00310  -38.22380   -7.20230    7.00310
 1800.00000    9.76290  160.20330  160.20330    6.24210  108.92550  108.92550   64.58790   64.58790    6.53750    9.76290    7.15400  -37.13010   -6.10860    7.15400
 1850.00000   11.85820  213.72880  213.72880    4.67880  115.00060  115.00060   81.27900   81.27900    4.49780   11.85820    5.45570  -36.32360   -5.30210    5.45570
 1900.00000    9.24140   86.81850   86.81850   11.51830   84.83650   84.83650   56.81730   56.81730   11.30950    9.24140   12.17480  -42.45280  -11.43130   12.17480
 1950.00000    9.78800  215.44060  215.44060    4.64170  103.96100  103.96100   88.12480   88.12480    4.55400    9.78800    6.64780  -37.98870   -6.96720    6.64780
 2000.00000    9.94940  135.63640  135.63640    7.37270  125.27970  125.27970   54.64370   54.64370    7.99330    9.94940   13.03040  -38.33720   -7.31570   13.03040
 2050.00000   11.25850  226.94360  226.94360    4.40640  111.81140  111.81140   74.37000   74.37000    4.27720   11.25850    4.85830  -36.18550   -5.16400    4.85830
 2100.00000   10.73630  234.71000  234.71000    4.26060  119.64550  119.64550   82.28490   82.28490    3.97550   10.73630    4.87590  -36.31920   -5.29770    4.87590
 2150.00000   10.36680  181.99580  181.99580    5.49460   93.72400   93.72400   76.61520   76.61520    5.39060   10.36680    6.65120  -37.52480   -6.50330    6.65120
 2200.00000   10.26460  271.58650  271.58650    3.68210  127.67860  127.67860   90.12990   90.12990    3.32910   10.26460    5.04430  -39.02610   -8.00460    5.04430
 2250.00000    9.46010   46.38150   46.38150   21.56030   99.70970   99.70970   57.44150   57.44150   24.80080    9.46010   31.85720  -49.49820  -18.47670   31.85720
 2300.00000   10.72050  323.63400  323.63400    3.08990  139.27310  139.27310   80.96470   80.96470    2.70750   10.72050    3.59940  -37.48710   -6.46560    3.59940
 2350.00000   12.05660  325.82280  325.82280    3.06920  133.16490  133.16490   94.44690   94.44690    2.74170   12.05660    3.99260  -36.61880   -5.59730    3.99260
 2400.00000   11.01010  167.47890  167.47890    5.97090  129.17800  129.17800   90.73770   90.73770    5.91970   11.01010    7.56010  -37.69090   -6.66940    7.56010
 2450.00000   12.63140  204.56590  204.56590    4.88840  111.13040  111.13040   70.19590   70.19590    4.97520   12.63140    5.62290  -36.18810   -5.16660    5.62290
 2500.00000    9.89030  258.01530  258.01530    3.87570  112.85880  112.85880   89.07320   89.07320    3.84270    9.89030    4.48090  -35.92990   -4.90840    4.48090
 2550.00000   11.84280  272.91610  272.91610    3.66410  127.05710  127.05710   83.43880   83.43880    3.36210   11.84280    4.28590  -35.76480   -4.74380    4.28590
 2600.00000    9.66340  221.85870  221.85870    4.50740  113.97250  113.97250   75.94810   75.94810    4.22760    9.66340    4.73890  -35.74800   -4.75260    4.73890
 2650.00000   11.04880  217.05110  217.05110    4.60720  122.46050  122.46050   65.41050   65.41050    4.48960   11.04880    5.42940  -39.31390   -8.34390    5.42940
 2700.00000    8.66210  121.97370  121.97370    8.19850   87.86290   87.86290   59.26280   59.26280    8.11770    8.66210    9.79820  -42.65480  -11.71030    9.79820
 2750.00000   10.39530  232.94370  232.94370    4.29290  117.89360  117.89360   77.91700   77.91700    4.04820   10.39530    5.04930  -41.36280  -10.44370    5.04930
 2800.00000    8.48330  150.39400  150.39400    6.64920  109.12940  109.12940   56.84550   56.84550    6.03670    8.48330    7.38360  -44.07900  -13.18530    7.38360
 2850.00000    9.07850  115.70020  115.70020    8.64300   87.80870   87.80870   76.34670   76.34670    9.14100    9.07850   10.22180  -43.89640  -13.02830   10.22180
 2900.00000    8.92340  168.15990  168.15990    5.94670   78.88640   78.88640   69.86620   69.86620    6.07970    8.92340    8.12440  -43.38940  -12.54670    8.12440
 2950.00000   10.15050  215.99080  215.99080    4.62980  119.94740  119.94740   70.96630   70.96630    4.31980   10.15050    5.71020  -43.71440  -12.89730    5.71020
 3000.00000    8.93040  131.03180  131.03180    7.63170   82.56410   82.56410   61.57870   61.57870    7.79480    8.93040   10.07550  -42.75870  -11.96700   10.07550
 3050.00000   11.07050  211.39480  211.39480    4.73050  114.58730  114.58730   78.86010   78.86010    4.46450   11.07050    5.52120  -42.64650  -11.88020    5.52120
 3100.00000    8.47150   52.68400   52.68400   18.98110   79.96600   79.96600   56.58820   56.58820   16.69370    8.47150   22.04160  -67.31550  -36.57470   22.04160
 3150.00000   10.83680  222.24580  222.24580    4.49950  112.94300  112.94300   71.27670   71.27670    4.14610   10.83680    5.29910  -43.36020  -12.64480    5.29910
 3200.00000    8.40180   87.20190   87.20190   11.46760   92.52330   92.52330   48.97720   48.97720   11.98520    8.40180   17.89390  -71.06140  -40.37160   17.89390
 3250.00000   10.12290  146.72460  146.72460    6.81550   94.09210   94.09210   67.78290   67.78290    6.60320   10.12290    8.66910  -43.32720  -12.66280    8.66910
 3300.00000   10.63590  204.45500  204.45500    4.89110   89.49970   89.49970  100.81250  100.81250    4.54400   10.63590    6.13700  -42.93370  -12.29470    6.13700
 3350.00000   10.65970  148.63910  148.63910    6.72770  107.06800  107.06800   72.91860   72.91860    6.67630   10.65970    7.76140  -42.55830  -11.94480    7.76140
 3400.00000    8.99760  182.66020  182.66020    5.47460   81.17740   81.17740   65.26930   65.26930    5.51460    8.99760    6.89070  -42.37410  -11.78600    6.89070
 3450.00000    9.05820  171.88160  171.88160    5.81800   88.97440   88.97440   60.38300   60.38300    6.11690    9.05820    8.39380  -41.91060  -11.34810    8.39380
 3500.00000    9.76830  145.01200  145.01200    6.89600   95.33120   95.33120   63.46830   63.46830    6.78560    9.76830    8.78490  -42.60270  -12.06560    8.78490
 3550.00000   10.57170  201.97150  201.97150    4.95120  117.98690  117.98690   66.06880   66.06880    4.54660   10.57170    5.94520  -40.80660  -10.29490    5.94520
