~Version ---------------------------------------------------
VERS.      2.0 : CWLS log ASCII Standard -VERSION 2.0
WRAP.       NO : One line per depth step
CREA. 12/18/17 : LAS Creation Date
~Well ------------------------------------------------------
STRT.FT                               950.0 : START DEPTH
STOP.FT                              9500.0 : STOP DEPTH
STEP.FT                            50.00000 : STEP LENGTH
NULL.                               -999.25 : NULL VALUE
COMP.                 TEXACO CANADA LIMITED : COMPANY
WELL. TEXACO AMERADA SNIPE LAKE 14-29-69-19 : WELL
FLD .                                       : FIELD
LOC .                                       : LOCATION
CTRY.                                CANADA : COUNTRY
SRVC.                Schlumberger of Canada : SERVICE COMPANY
DATE.                           13-Mar-1960 : LOGDATE
PROV.                               Alberta : PROVINCE
UWI .                      100142906919W500 : UNIQUE WELL ID
SLAT.WGS84                         55.00866 : SURFACE LATITUDE
SLON.WGS84                        -116.8632 : SURFACE LONGITUDE
~Curve Information -----------------------------------------
DEPT   .FT     : Depth Curve
CALWS  .IN     : CALIPER [MCALED]
CILDED .MMHO   : CONDUCTIVITY FROM RESISTIVITY LOG
CONDWS .MMHO   : CONDUCTIVITY [1000/DRESWS]
DRESWS .OHMM   : DEEP RESISTIVITY [1000/CILDED IF ILDED<1, ILDED]
DTED   .US/F   : DELTA-T FROM SONIC LOG
DTWS   .US/F   : COMPRESSIONAL SONIC [DTED]
GRED   .GAPI   : GAMMA RAY FROM GR-CCL LOG
GRN1ED .GAPI   : GAMMA RAY FROM GR-CCL-N LOG
GRNED  .UR/HR  : GAMMA RAY FROM GRN LOG [ADJ TO RESISTIVITY LOG]
GRWS   .GAPI   : GAMMA RAY [GRED SPL. TO GRN1ED @ 4242' @ 8497' TO GRNED*10.4]
ILDED  .OHMM   : DEEP INDUCTION RESISTIVITY FROM RESISTIVITY LOG
MCALED .IN     : MICRO CALIPER FROM ML LOG [ADJ TO RESISTIVITY LOG]
NEUT1ED.NAPI   : NEUTRON FROM GR-CCL-N LOG
NEUTED .NAPI   : NEUTRON FROM GRN LOG [ADJ TO RESISTIVITY LOG]
NEUTWS .NAPI   : NEUTRON [NEUT1ED SPL. TO NEUTED @ 4954']
SNED   .OHMM   : SHORT NORMAL RESISTIVITY FROM RESISTIVITY LOG
SPRED  .MV     : SPONTANEOUS POTENTIAL FROM RESISTIVITY LOG
SPWS   .MV     : SPONTANEOUS POTENTIAL [BASELINE 0MV, SPRED]
SRESWS .OHMM   : SHALLOW RESISTIVITY [SNED]
~Params ----------------------------------------------------
LMF .                     KB : LOG MEASURED FROM
DMF .                     KB : DRILLING MEASURED FROM
EKB .FT                 2397 : KELLY BUSHING
DATE.               03/13/60 : RUN DATE
RUN .                      1 : RUN NUMBER
DD  .FT                 9513 : DEPTH DRILLER
DL  .FT                 9508 : DEPTH LOGGER
BLI .FT                 9503 : BOTTOM LOG INTERVAL
TLI .FT                  945 : TOP LOG INTERVAL
CBD .FT                  948 : CASING BOTTOM DRILLER
CBL .FT                  945 : CASING BOTTOM LOGGER
BS  .IN                    9 : BIT SIZE
BSD .FT                 9513 : BIT SIZE AT DEPTH
DFT .                    GEL : DRILLING FLUID TYPE
DFD .                   10.6 : DRILLING FLUID DENSITY
DFV .                    110 : DRILLING FLUID VISCOSITY
DFPH.                   10.5 : DRILLING FLUID PH
DFL .                    5.2 : DRILLING FLUID LOSS
RMS .OHMM                  3 : RESISTIVITY MUD SAMPLE
MST .DEGF                 60 : MUD SAMPLE TEMPERATURE
RMF .OHMM                1.3 : RESISTIVITY MUD FILTRATE SAMPLE
MFST.DEGF                 70 : MUD FILTRATE SAMPLE TEMPERATURE
RMC .OHMM                3.1 : RESISTIVITY MUD CAKE
MCST.DEGF                 70 : MUD CAKE SAMPLE TEMPERATURE
RMB .OHMM               0.95 : RESISTIVITY MUD AT BHT
TCS .HRS                   4 : TIME CIRCULATED STOPPED
LUN .                   2742 : LOGGING UNIT NUMBER
LUL .                     VV : LOGGING UNIT LOCATION
ENGI.                    GAU : RECORDING ENGINEER
WITN.                  IRVIN : WITNESSED BY
CLNT.                A2DTECH : CLIENT CODE
ORIG.            2" 5" PRINT : ORIGIN OF DATA
UWI .       100142906919W500 : UNIQUE WELL ID
DICO. A2D Technologies, Inc. : DIGITIZING COMPANY
~Other -----------------------------------------------------
GR-CCL-N-GRN-IEL-ML-SONIC LOG
~ASCII -----------------------------------------------------
  950.00000   14.79920  333.54110  366.38090    2.72940    -999.25    -999.25    -999.25    -999.25    -999.25    -999.25    2.72940   14.79920    -999.25    -999.25    -999.25    3.76370 -172.60410  -20.73120    3.76370
 1000.00000   14.82840  287.54390  319.15230    3.13330  141.73920  141.73920    -999.25    -999.25    -999.25    -999.25    3.13330   14.82840    -999.25    -999.25    -999.25    3.62860 -183.26680  -29.12730    3.62860
 1050.00000   14.76900  302.99450  312.69540    3.19800  127.25270  127.25270    -999.25    -999.25    -999.25    -999.25    3.19800   14.76900    -999.25    -999.25    -999.25    3.67910 -192.38230  -35.86680    3.67910
 1100.00000    9.46480  196.99860  182.25560    5.48680  115.64990  115.64990    -999.25    -999.25    -999.25    -999.25    5.48680    9.46480    -999.25    -999.25    -999.25    6.20660 -191.23380  -32.32660    6.20660
 1150.00000    9.31480  158.57540  145.77900    6.85970  115.64170  115.64170    -999.25    -999.25    -999.25    -999.25    6.85970    9.31480    -999.25    -999.25    -999.25    7.43370 -196.62490  -35.34170    7.43370
 1200.00000   12.86540  327.00850  355.88460    2.80990  141.57150  141.57150    -999.25    -999.25    -999.25    -999.25    2.80990   12.86540    -999.25    -999.25    -999.25    3.52220 -172.00690   -8.33200    3.52220
 1250.00000   11.92600  405.55100  441.55960    2.26470  142.55120  142.55120    -999.25    -999.25    -999.25    -999.25    2.26470   11.92600    -999.25    -999.25    -999.25    2.99970 -173.01570   -6.96480    2.99970
 1300.00000   12.64110  315.70160  329.27230    3.03700  140.95580  140.95580    -999.25    -999.25    -999.25    -999.25    3.03700   12.64110    -999.25    -999.25    -999.25    3.58230 -175.73730   -9.91120    3.58230
 1350.00000   12.03130  279.36980  285.68980    3.50030  131.80320  131.80320   70.35140    -999.25    -999.25   70.35140    3.50030   12.03130    -999.25    -999.25    -999.25    3.97200 -174.04610   -8.69120    3.97200
 1400.00000   11.74560  339.16600  353.50680    2.82880  142.12890  142.12890   66.69250    -999.25    -999.25   66.69250    2.82880   11.74560    -999.25    -999.25    -999.25    3.40840 -173.12520   -8.23830    3.40840
 1450.00000   12.73410  321.84160  346.99330    2.88190  139.00960  139.00960  144.32700    -999.25    -999.25  144.32700    2.88190   12.73410    -999.25    -999.25    -999.25    3.49320 -174.40130   -9.43240    3.49320
 1500.00000    9.41740  225.93480  229.09510    4.36500  118.63170  118.63170    -999.25    -999.25    -999.25    -999.25    4.36500    9.41740    -999.25    -999.25    -999.25    5.48540 -187.91300  -22.76540    5.48540
 1550.00000   11.28740  332.55140  345.48280    2.89450  124.41790  124.41790    -999.25    -999.25    -999.25    -999.25    2.89450   11.28740    -999.25    -999.25    -999.25    3.37530 -182.60790  -17.28150    3.37530
 1600.00000   12.09550  317.60100  336.15710    2.97480  124.23490  124.23490    -999.25    -999.25    -999.25    -999.25    2.97480   12.09550    -999.25    -999.25    -999.25    3.28720 -184.20960  -18.70330    3.28720
 1650.00000   11.92800  225.87350  210.50420    4.75050  116.36600  116.36600    -999.25    -999.25    -999.25    -999.25    4.75050   11.92800    -999.25    -999.25    -999.25    5.14630 -173.74490   -8.05990    5.14630
 1700.00000   14.24560  197.09770  191.54890    5.22060  119.71030  119.71030    -999.25    -999.25    -999.25    -999.25    5.22060   14.24560    -999.25    -999.25    -999.25    5.86740 -177.66530  -11.80030    5.86740
 1750.00000   11.27200  240.70150  249.20260    4.01280  122.21600  122.21600    -999.25    -999.25    -999.25    -999.25    4.01280   11.27200    -999.25    -999.25    -999.25    5.14840 -179.76470  -13.72100    5.14840
 1800.00000   12.07250  238.61950  248.15130    4.02980  124.08170  124.08170    -999.25    -999.25    -999.25    -999.25    4.02980   12.07250    -999.25    -999.25    -999.25    5.44790 -169.22440   -3.00200    5.44790
 1850.00000   11.54850  199.03940  192.25590    5.20140  116.39310  116.39310    -999.25    -999.25    -999.25    -999.25    5.20140   11.54850    -999.25    -999.25    -999.25    6.94490 -174.20010   -7.89250    6.94490
 1900.00000   12.67560  218.60240  215.42440    4.64200  111.50820  111.50820    -999.25    -999.25    -999.25    -999.25    4.64200   12.67560    -999.25    -999.25    -999.25    5.78220 -182.40210  -16.03000    5.78220
 1950.00000   14.49920  176.60940  165.03280    6.05940  106.78600  106.78600    -999.25    -999.25    -999.25    -999.25    6.05940   14.49920    -999.25    -999.25    -999.25    6.82700 -182.92120  -16.48420    6.82700
 2000.00000   14.85270  194.10780  188.64370    5.30100  117.24360  117.24360    -999.25    -999.25    -999.25    -999.25    5.30100   14.85270    -999.25    -999.25    -999.25    6.34760 -182.83020  -16.32870    6.34760
 2050.00000   12.64360  183.95110  175.98820    5.68220  108.79040  108.79040    -999.25    -999.25    -999.25    -999.25    5.68220   12.64360    -999.25    -999.25    -999.25    6.26730 -180.64920  -14.08330    6.26730
 2100.00000   11.34190  182.60950  172.44350    5.79900  112.62310  112.62310    -999.25    -999.25    -999.25    -999.25    5.79900   11.34190    -999.25    -999.25    -999.25    6.24030 -181.84540  -15.21460    6.24030
 2150.00000   10.54280  197.91790  194.22000    5.14880  108.63710  108.63710    -999.25    -999.25    -999.25    -999.25    5.14880   10.54280    -999.25    -999.25    -999.25    5.92090 -184.54380  -17.84850    5.92090
 2200.00000   15.98750  150.18090  138.25900    7.23280  109.05420  109.05420    -999.25    -999.25    -999.25    -999.25    7.23280   15.98750    -999.25    -999.25    -999.25    7.73190 -185.92940  -19.16920    7.73190
 2250.00000   12.68530  191.04540  183.79990    5.44070  108.60450  108.60450    -999.25    -999.25    -999.25    -999.25    5.44070   12.68530    -999.25    -999.25    -999.25    6.16450 -183.97820  -17.15360    6.16450
 2300.00000   12.14390  188.80260  184.54270    5.41880  105.71060  105.71060    -999.25    -999.25    -999.25    -999.25    5.41880   12.14390    -999.25    -999.25    -999.25    6.24830 -179.87210  -12.98300    6.24830
 2350.00000   13.80150  177.66520  168.14350    5.94730  110.38940  110.38940    -999.25    -999.25    -999.25    -999.25    5.94730   13.80150    -999.25    -999.25    -999.25    6.55470 -185.43030  -18.47630    6.55470
 2400.00000   11.78750  220.56640  222.71710    4.49000  114.74320  114.74320    -999.25    -999.25    -999.25    -999.25    4.49000   11.78750    -999.25    -999.25    -999.25    5.59290 -186.63010  -19.61170    5.59290
 2450.00000   13.40400  227.05680  221.62630    4.51210  116.10830  116.10830    -999.25    -999.25    -999.25    -999.25    4.51210   13.40400    -999.25    -999.25    -999.25    5.52260 -186.02840  -18.94510    5.52260
 2500.00000   12.24150  182.70430  175.05780    5.71240  106.00870  106.00870    -999.25    -999.25    -999.25    -999.25    5.71240   12.24150    -999.25    -999.25    -999.25    7.62480 -183.38840  -16.24060    7.62480
 2550.00000   12.51720  201.69260  200.27640    4.99310  114.62670  114.62670    -999.25    -999.25    -999.25    -999.25    4.99310   12.51720    -999.25    -999.25    -999.25    6.54830 -185.49080  -18.27860    6.54830
 2600.00000   10.59740  191.96850  185.10290    5.40240  117.65780  117.65780    -999.25    -999.25    -999.25    -999.25    5.40240   10.59740    -999.25    -999.25    -999.25    7.58650 -184.37310  -17.09600    7.58650
 2650.00000   11.44910  180.75070  170.23020    5.87440  107.04850  107.04850    -999.25    -999.25    -999.25    -999.25    5.87440   11.44910    -999.25    -999.25    -999.25    7.46080 -182.21700  -14.87540    7.46080
 2700.00000   13.32400  241.06190  244.88800    4.08350  112.01570  112.01570    -999.25    -999.25    -999.25    -999.25    4.08350   13.32400    -999.25    -999.25    -999.25    4.92140 -181.07910  -13.67260    4.92140
 2750.00000   10.89950  180.11380  174.44090    5.73260  100.48530  100.48530    -999.25    -999.25    -999.25    -999.25    5.73260   10.89950    -999.25    -999.25    -999.25    6.68490 -180.87570  -13.40480    6.68490
