~Version ---------------------------------------------------
VERS.      2.0 : CWLS log ASCII Standard -VERSION 2.0
WRAP.       NO : One line per depth step
CREA. 08/16/13 : LAS Creation Date
~Well ------------------------------------------------------
STRT.M                        400.0 : START DEPTH
STOP.M                       2850.0 : STOP DEPTH
STEP.M                     50.00000 : STEP LENGTH
NULL.                       -999.25 : NULL VALUE
COMP.        DOME PETROLEUM LIMITED : COMPANY
WELL. DOME ET AL MEEKWAP 9-29-65-15 : WELL
FLD .                               : FIELD
LOC .                               : LOCATION
CTRY.                        CANADA : COUNTRY
SRVC.                       Unknown : SERVICE COMPANY
DATE.                   31-Mar-1984 : LOGDATE
PROV.                       Alberta : PROVINCE
UWI .              100092906515W500 : UNIQUE WELL ID
SLAT.WGS84                 54.65763 : SURFACE LATITUDE
SLON.WGS84                -116.2239 : SURFACE LONGITUDE
~Curve Information -----------------------------------------
DEPT   .M      : DEPTH METER
CALD   .MM     : CALIPER FROM DENSITY LOG
CALS   .MM     : CALIPER FROM SONIC LOG
DPHI_LS.DEC    : DENSITY POROSITY LIMESTONE [M=2710,F=1000] FROM DENSITY LOG
DPHI_SS.DEC    : DENSITY POROSITY SANDSTONE [M=2650,F=1000] FROM DENSITY LOG
DRHO   .KG/M3  : DENSITY CORRECTION FROM DENSITY LOG
DT     .US/M   : DELTA TIME FROM SONIC LOG
GRD    .GAPI   : GAMMA RAY FROM DENSITY LOG
GRR    .GAPI   : GAMMA RAY FROM RESISTIVITY LOG
ILD    .OHMM   : DEEP INDUCTION RESISTIVITY FROM RESISTIVITY LOG
ILM    .OHMM   : MEDIUM INDUCTION RESISTIVITY FROM RESISTIVITY LOG
NPHI_LS.DEC    : NEUTRON POROSITY LIMESTONE FROM DENSITY LOG
NPHI_SS.DEC    : NEUTRON POROSITY SANDSTONE FROM DENSITY LOG
RHOB   .KG/M3  : BULK DENSITY FROM DENSITY LOG
SFLU   .OHMM   : SPHERICALLY FOCUSED LOG RESISTIVITY FROM RESISTIVITY LOG
SPR    .MV     : SPONTANEOUS POTENTIAL FROM RESISTIVITY LOG
TEND   .KG     : TENSION FROM DENSITY LOG
TENR   .KG     : TENSION FROM RESISTIVITY LOG
~Params ----------------------------------------------------
PD  .                         GL : PERMANENT DATUM
EPD .M                    939.22 : ELEVATION PERMANENT DATUM
LMF .                         KB : LOG MEASURED FROM
DAPD.M                      6.78 : FEET ABOVE PERMANENT DATUM
DMF .                         KB : DRILLING MEASURED FROM
EKB .M                       946 : KELLY BUSHING
EDF .M                     945.7 : DRILLING FLOOR
EGL .M                    939.22 : GROUND LEVEL
DATE.                   03/31/84 : RUN DATE
RUN .                          1 : RUN NUMBER
DD  .M                      2890 : DEPTH DRILLER
DL  .M                      2889 : DEPTH LOGGER
BLI .M                      2890 : BOTTOM LOG INTERVAL
TLI .M                       423 : TOP LOG INTERVAL
CS  .MM                      244 : CASING SIZE
CBD .M                       423 : CASING BOTTOM DRILLER
CBL .M                       423 : CASING BOTTOM LOGGER
BS  .MM                      222 : BIT SIZE
BSD .M                      2890 : BIT SIZE AT DEPTH
DFT .                   GEL CHEM : DRILLING FLUID TYPE
DFD .                       1100 : DRILLING FLUID DENSITY
DFV .                         80 : DRILLING FLUID VISCOSITY
DFPH.                       10.5 : DRILLING FLUID PH
DFL .                        8.5 : DRILLING FLUID LOSS
MSS .                   FLOWLINE : MUD SAMPLE SOURCE
RMS .OHMM                   1.67 : RESISTIVITY MUD SAMPLE
MST .DEGC                     19 : MUD SAMPLE TEMPERATURE
RMF .OHMM                   1.43 : RESISTIVITY MUD FILTRATE SAMPLE
MFST.DEGC                     21 : MUD FILTRATE SAMPLE TEMPERATURE
RMC .OHMM                  0.481 : RESISTIVITY MUD CAKE
MCST.DEGC                    105 : MUD CAKE SAMPLE TEMPERATURE
MFSS.                      PRESS : MUD FILTRATE SAMPLE SOURCE
MCSS.                      PRESS : MUD CAKE SAMPLE SOURCE
RMB .OHMM                  0.536 : RESISTIVITY MUD AT BHT
TCS .HRS                    1300 : TIME CIRCULATED STOPPED
TLAB.HRS                    1800 : TIME LOGGER AT BOTTOM
LUN .                       8163 : LOGGING UNIT NUMBER
LUL .                        EDM : LOGGING UNIT LOCATION
ENGI.                     SMILEY : RECORDING ENGINEER
WITN.                       BOYD : WITNESSED BY
CLNT.                    A2DTECH : CLIENT CODE
ORIG. 6.5"/100M 16.5"/100M PRINT : ORIGIN OF DATA
UWI .           100092906515W500 : UNIQUE WELL ID
DICO.     A2D Technologies, Inc. : DIGITIZING COMPANY
~Other -----------------------------------------------------
~ASCII -----------------------------------------------------
  400.00000    -999.25    -999.25    -999.25    -999.25    -999.25    -999.25    -999.25   38.11470    -999.25    -999.25    -999.25    -999.25    -999.25    -999.25    -999.25    -999.25    -999.25
  450.00000  251.79820  261.19340    -999.25    0.43070  129.61100  380.48450   82.89740   81.50240    3.26510    2.86410    -999.25    0.44200 1977.17240    2.60760  -69.89970  528.33440  615.70390
  500.00000  264.32350  258.73740    -999.25    0.17040   86.10120  310.22200   70.27660   68.19170    5.64070    5.12910    -999.25    0.25620 2337.28490    4.81790  -70.94170  580.49850  625.58310
  550.00000  337.26600  256.18220    -999.25    0.29520   53.15820  403.14160   69.64890   65.00910    3.05720    2.78610    -999.25    0.50580 2160.98070    2.78010  -69.63630  575.00180  648.30940
  600.00000  226.35520  247.66290    -999.25    0.28020   81.79770  379.98040   67.01750   69.71370    3.76030    3.42280    -999.25    0.50950 2208.51100    3.29500  -69.12240  587.09280  672.48100
  650.00000  285.80180  233.76040    -999.25    0.42020  129.32570  351.18450   50.71990   55.48510    3.18370    3.13690    -999.25    0.40250 2033.16800    3.88840  -67.63470  627.78010  707.25330
  700.00000  289.41810  236.22420    -999.25    0.22900   57.07760  352.72830   46.81090   52.53730    7.31630    6.49900    -999.25    0.34170 2268.69920    7.11480  -75.87370  649.42330  711.41220
  750.00000  322.57250  253.34940    -999.25    0.13810   57.26400  326.52810   53.26670   51.00910    3.69450    3.36600    -999.25    0.33360 2403.25830    3.23160  -65.73540  673.74410  781.52670
  800.00000  258.47500  239.85340    -999.25    0.20160   29.96580  351.50370   61.56180   65.30390    4.89760    4.76360    -999.25    0.35570 2318.15330    5.36690  -70.63240  700.61380  802.90000
  850.00000  312.52260  283.70250    -999.25    0.29880   21.08670  377.91890   86.55700   78.50650    5.90910    5.08850    -999.25    0.48340 2148.44650    5.36020  -71.89800  714.91510  813.63960
  900.00000  293.42080  265.57750    -999.25    0.14600   58.33020  352.49630  132.32970  149.54070    5.37820    5.04580    -999.25    0.41580 2421.46070    5.98530  -70.10670  735.12950  812.57190
  950.00000  292.36910  269.62680    -999.25    0.15800   80.42140  322.29740  102.32290   98.13350    5.77440    5.00110    -999.25    0.42380 2388.72800    5.13500  -71.77720  760.92380  825.67330
 1000.00000  343.02730  294.38760    -999.25    0.11650   69.78610  314.93760  106.71150   98.45860    6.97990    6.62290    -999.25    0.33220 2457.16800    6.26700  -72.14730  779.83860  865.15890
 1050.00000  289.55950  280.83360    -999.25    0.13700   76.84210  292.58260   97.10540  101.99390    8.20940    7.30090    -999.25    0.36300 2418.79880    7.58520  -71.37430  815.09360  872.40800
 1100.00000  259.89490  256.18590    -999.25    0.14450   87.20180  333.12140  116.64610  109.91980    5.55320    5.31850    -999.25    0.41710 2411.86280    5.74920  -66.47790  804.88240  893.51580
 1150.00000  254.33750  237.74560    -999.25    0.11990   78.34250  337.11660  127.19510  113.63960    6.22080    6.04940    -999.25    0.41100 2458.12920    7.28870  -65.53430  837.84230  916.85640
 1200.00000  305.21220  254.27740    -999.25    0.18660   91.90100  310.89940   97.35860  105.10530    4.86230    4.79080    -999.25    0.40750 2344.83520    5.11660  -64.03400  841.29570  941.77980
 1250.00000  337.21170  264.35980    -999.25    0.13990  154.66690  292.42300   87.74470  101.00110    4.24750    4.15730    -999.25    0.38730 2399.20950    5.38920  -59.76190  858.36040  972.02320
 1300.00000  286.34790  259.11980    -999.25    0.23630  121.55450  354.64020  128.46910  118.88200    2.48290    2.40760    -999.25    0.40620 2263.27200    2.94830  -55.48880  890.52880  965.44420
 1350.00000  380.45000  274.61570    -999.25    0.17400  120.06550  294.04230  100.19650   99.09970    4.99450    4.87670    -999.25    0.29050 2361.92140    5.15720  -57.37800  937.49380 1018.40480
 1400.00000  253.62460  244.79760    -999.25    0.15350   40.25960  261.52390   52.08380   53.46180   10.01530   12.97910    -999.25    0.26200 2395.60300   19.01750  -99.10780  949.61790 1039.25680
 1450.00000  316.46010  296.77080    -999.25    0.15060   16.56480  272.16460   54.67710   48.15900    6.01460    6.18600    -999.25    0.28590 2401.86300    6.96970  -76.72950  982.31460 1075.29440
 1500.00000  256.17860  253.76000    -999.25    0.06630   87.24410  271.07870   93.69210   82.88150    6.34090    6.55710    -999.25    0.35150 2539.99070    8.91130  -64.18220 1003.75010 1067.83740
 1550.00000  262.89170  258.49450    -999.25    0.03670   37.54200  266.26680   84.46850   86.28670    5.81910    6.46050    -999.25    0.30780 2586.98100    6.84870  -51.84000 1050.80910 1089.82130
 1600.00000  282.93790  288.45550    -999.25    0.05500  100.95820  278.33630   86.59490   90.47800    5.77310    6.24090    -999.25    0.33800 2539.94430    6.42700  -52.76840 1090.51180 1136.99560
 1650.00000  337.56730  317.28570    -999.25    0.26350  249.97970  288.09440   85.03110   86.59300    5.33250    5.02620    -999.25    0.43670 2221.17290    6.27150  -52.09410 1080.93910 1146.41580
 1700.00000  238.59280  227.47580    0.04430    -999.25   53.19790  195.14230   69.48260   64.53110  238.10970  351.47200    0.10130    -999.25 2637.67550 1353.70290  -77.10810 1102.24110 1154.96080
 1750.00000  282.44460  255.73810    0.05880    -999.25  106.52150  166.38560   22.18480   21.17520  194.16900  238.01070    0.01450    -999.25 2622.47390 1978.43430  -75.65070 1137.92820 1214.15580
 1800.00000  249.58020  244.89720    0.08000    -999.25    3.42280  176.96060   12.35000   12.02990   33.46790   35.18680    0.05220    -999.25 2572.90720  102.02560 -136.93910 1118.82500 1225.86230
 1850.00000  272.80060  269.15970    0.04320    -999.25    9.56140  204.93170   84.10790   71.80350    7.23290    7.46450    0.08500    -999.25 2635.67530    8.45580  -61.37630 1175.17580 1239.82920
 1900.00000  288.02710  268.98540    0.03190    -999.25   -4.58640  183.37620   27.09080   27.35360   52.87680   59.64880    0.01700    -999.25 2659.25290  186.51600  -89.33520 1189.39490 1264.36340
 1950.00000  297.06320  269.22870    0.00660    -999.25   33.23760  177.01610   28.25570   24.19040   67.58140   63.86020    0.01610    -999.25 2710.89940  124.99050  -62.02330 1232.89340 1295.55430
 2000.00000  234.24490  234.18310    0.02990    -999.25    5.85730  178.07970   26.49030   27.41390   60.39570   58.73430    0.01840    -999.25 2667.12840  127.13080  -42.74310 1248.34410 1299.46060
 2050.00000  260.78070  262.24970    0.01080    -999.25   -2.32990  163.12170   13.72110   14.82690  310.01320  277.63960    0.00020    -999.25 2700.42360 1838.37600  -22.87310 1265.25350 1325.28650
 2100.00000  266.52860  249.05320   -0.00120    -999.25   11.34420  162.18930   13.68150   13.34910  287.61560  328.86620    0.00140    -999.25 2711.42850 1915.82690  -82.71220 1310.82170 1362.68440
 2150.00000  294.75570  285.10220    0.07760    -999.25  113.76520  165.10990   11.55790   12.30910  123.01630  178.65400    0.01190    -999.25 2571.59300 2043.91220 -204.30970 1304.59910 1374.05590
 2200.00000  245.80900  246.44900    0.01670    -999.25   -1.59040  161.86210   11.92130   11.41600  124.13210   98.92200    0.00370    -999.25 2683.41210  149.00790  -48.28530 1334.64010 1409.35610
 2250.00000  242.48350  235.17680   -0.01150    -999.25   93.74880  158.44500   14.57480   14.56190  126.62590  247.40610    0.00470    -999.25 2727.81690  746.67480 -191.18390 1341.25160 1420.32810
 2300.00000  250.19550  231.29570   -0.02140    -999.25  199.07390  162.02860   23.80290   25.66530   84.96880   91.94850    0.07380    -999.25 2722.91090  189.84330 -229.96920 1395.07040 1468.17330
 2350.00000  288.85000  255.91530    0.00940    -999.25   20.54390  181.72970   44.51540   40.54280   33.21960   34.44290    0.02610    -999.25 2693.81640   47.39210 -116.54270 1403.45760 1460.81270
 2400.00000  231.77130  229.05780    0.01080    -999.25   20.36620  199.93830   50.52870   41.83830   13.81750   14.95880    0.08950    -999.25 2700.87920   17.93250   54.00210 1426.85010 1503.52140
