~Version ---------------------------------------------------
VERS.      2.0 : CWLS log ASCII Standard -VERSION 2.0
WRAP.       NO : One line per depth step
CREA. 11/13/17 : LAS Creation Date
~Well ------------------------------------------------------
STRT.FT                       1150.0 : START DEPTH
STOP.FT                      10450.0 : STOP DEPTH
STEP.FT                     50.00000 : STEP LENGTH
NULL.                        -999.25 : NULL VALUE
COMP.            GULF OIL CANADA LTD : COMPANY
WELL. NUMAC ET AL KAYBOBS 6-13-60-18 : WELL
FLD .                             WC : FIELD
LOC .                                : LOCATION
CTRY.                         CANADA : COUNTRY
SRVC.                   Schlumberger : SERVICE COMPANY
DATE.                    01-Mar-1977 : LOGDATE
PROV.                        Alberta : PROVINCE
UWI .               100061306018W500 : UNIQUE WELL ID
SLAT.WGS84                  54.18721 : SURFACE LATITUDE
SLON.WGS84                 -116.5675 : SURFACE LONGITUDE
~Curve Information -----------------------------------------
DEPT    .FT    : Depth Curve
CALDED  .IN    : CALIPER FROM CNFD LOG
CALSED  .IN    : CALIPER FROM BCS LOG [ADJ.TO GRDED]
CALWS   .IN    : CALIPER [CALSED SPL. TO CALDED @ 10498']
CONDWS  .MMHO  : CONDUCTIVITY [1000/DRESWS]
DCORED  .G/C3  : DENSITY CORRECTION FROM CNFD LOG
DCORWS  .G/C3  : DENSITY CORRECTION [DCORED]
DENWS   .G/C3  : FORMATION BULK DENSITY [RHOBED]
DPHILSED.V/V   : DENSITY POROSITY LIMESTONE [M=2.71, F=1.0] FROM CNFD LOG [ADJ.TO RHOBED]
DPHISSED.V/V   : DENSITY POROSITY SANDSTONE [M=2.65, F=1.0] FROM CNFD LOG [ADJ.TO RHOBED]
DPOWS   .V/V   : DENSITY POROSITY LIMESTONE [CALCULATED FROM DENWS, M=2.71, F=1.0]
DRESWS  .OHMM  : DEEP RESISTIVITY [ILDED]
DTED    .US/F  : DELTA-T FROM BCS LOG [ADJ.TO GRDED]
DTWS    .US/F  : COMPRESSIONAL SONIC [DTED]
GRDED   .GAPI  : GAMMA RAY FROM CNFD LOG
GRSED   .GAPI  : GAMMA RAY FROM BCS LOG [ADJ.TO GRDED]
GRWS    .GAPI  : GAMMA RAY [GRSED]
ILDED   .OHMM  : DEEP INDUCTION FROM DIL-LAT LOG
ILMED   .OHMM  : MEDIUM INDUCTION FROM DIL-LAT LOG
LL8ED   .OHMM  : LATEROLOG 8 FROM DIL-LAT LOG
MRESWS  .OHMM  : MEDIUM RESISTIVITY [ILMED]
NPHILSED.V/V   : NEUTRON POROSITY LIMESTONE FROM CNFD LOG [ADJ.TO RHOBED]
NPHISSED.V/V   : NEUTRON POROSITY SANDSTONE FROM CNFD LOG [ADJ.TO RHOBED]
NPOWS   .V/V   : NEUTRON POROSITY LIMESTONE [NPHISSED CONVERTED TO LIMESTONE MATRIX & SPL. TO NPHILSED @ 6970']
RHOBED  .G/C3  : FORMATION BULK DENSITY FROM CNFD LOG
SPRED   .MV    : SPONTANEOUS POTENTIAL FROM DIL-LAT LOG
SPWS    .MV    : SPONTANEOUS POTENTIAL [BASELINE 0 MV, SPRED]
SRESWS  .OHMM  : SHALLOW RESISTIVITY [LL8ED]
~Params ----------------------------------------------------
PD  .                     GL : PERMANENT DATUM
EPD .FT               2750.3 : ELEVATION PERMANENT DATUM
LMF .                     KB : LOG MEASURED FROM
DAPD.FT                 15.7 : FEET ABOVE PERMANENT DATUM
EKB .FT                 2766 : KELLY BUSHING
EGL .FT               2750.3 : GROUND LEVEL
DATE.               03/01/77 : RUN DATE
RUN .                      1 : RUN NUMBER
DD  .FT                10500 : DEPTH DRILLER
DL  .FT                10488 : DEPTH LOGGER
BLI .FT                10494 : BOTTOM LOG INTERVAL
TLI .FT                 1099 : TOP LOG INTERVAL
CBD .FT                 1099 : CASING BOTTOM DRILLER
CBL .FT                 1100 : CASING BOTTOM LOGGER
BS  .IN                 8.75 : BIT SIZE
BSD .FT                10500 : BIT SIZE AT DEPTH
DFT .                    GEL : DRILLING FLUID TYPE
DFD .                    9.1 : DRILLING FLUID DENSITY
DFV .                    115 : DRILLING FLUID VISCOSITY
DFPH.                   10.5 : DRILLING FLUID PH
DFL .                    8.8 : DRILLING FLUID LOSS
MSS .               FLOWLINE : MUD SAMPLE SOURCE
RMS .OHMM                2.6 : RESISTIVITY MUD SAMPLE
MST .DEGF                 60 : MUD SAMPLE TEMPERATURE
RMF .OHMM               2.46 : RESISTIVITY MUD FILTRATE SAMPLE
MFST.DEGF                 59 : MUD FILTRATE SAMPLE TEMPERATURE
RMB .OHMM               0.86 : RESISTIVITY MUD AT BHT
TCS .HRS                   4 : TIME CIRCULATED STOPPED
LUN .                   7669 : LOGGING UNIT NUMBER
LUL .                    EDM : LOGGING UNIT LOCATION
ENGI.                LANGTON : RECORDING ENGINEER
WITN.      ROCKNEY CHOQUETTE : WITNESSED BY
CLNT.                A2DTECH : CLIENT CODE
ORIG.            2" 5" PRINT : ORIGIN OF DATA
UWI .       100061306018W500 : UNIQUE WELL ID
DICO. A2D Technologies, Inc. : DIGITIZING COMPANY
~Other -----------------------------------------------------
~ASCII -----------------------------------------------------
# ...
 6350.00000   10.01310    9.54030    9.54030   76.66120    0.25490    0.25490    2.47120    -999.25    0.11890    0.13960   13.04440   74.07770   74.07770   91.08810   81.97910   81.97910   13.04440   13.78840   14.63980   13.78840    -999.25    0.27020    0.22620    2.47120  -65.14740   -2.12830   14.63980
 6400.00000    9.48590    9.46130    9.46130   11.30810    0.06200    0.06200    2.64910    -999.25    0.00820    0.03560   88.43250   59.93080   59.93080   41.28410   42.16620   42.16620   88.43250  131.14620  214.13620  131.14620    -999.25    0.12210    0.07980    2.64910  -78.80910  -16.16960  214.13620
 6450.00000    9.76900    9.73550    9.73550   60.45550    0.24120    0.24120    2.57730    -999.25    0.04090    0.07760   16.54110   70.48760   70.48760   99.21070  101.29320  101.29320   16.54110   19.21100   21.20170   19.21100    -999.25    0.23860    0.19480    2.57730  -64.56410   -2.30670   21.20170
 6500.00000    8.48920    8.74720    8.74720   87.05490    0.03840    0.03840    2.50610    -999.25    0.10070    0.11920   11.48700   72.55570   72.55570   36.42670   32.26160   32.26160   11.48700   12.86570   15.84120   12.86570    -999.25    0.15370    0.11110    2.50610 -108.32500  -46.65840   15.84120
 6550.00000    9.19370    9.05230    9.05230   45.60210    0.19780    0.19780    2.44880    -999.25    0.11500    0.15270   21.92880   72.80820   72.80820   71.25530   69.70510   69.70510   21.92880   24.01100   31.40740   24.01100    -999.25    0.25370    0.20980    2.44880  -69.05170   -8.00790   31.40740
 6600.00000   10.34830    9.22600    9.22600   76.12490    0.17840    0.17840    2.48600    -999.25    0.10850    0.13100   13.13630   77.03330   77.03330  101.65130  104.77550  104.77550   13.13630   15.83010   19.80670   15.83010    -999.25    0.27770    0.23370    2.48600  -62.72590   -2.30900   19.80670
 6650.00000   14.35950    9.69020    9.69020  218.58880    0.11230    0.11230    2.46440    -999.25    0.12160    0.14360    4.57480   89.57650   89.57650  121.91680  126.73290  126.73290    4.57480    4.96480    6.66190    4.96480    -999.25    0.42140    0.37900    2.46440  -65.13280   -5.33870    6.66190
 6700.00000    -999.25   10.83070   10.83070  166.82240    0.16280    0.16280    2.50530    -999.25    0.09290    0.11970    5.99440   82.94460   82.94460  101.60560   99.77980   99.77980    5.99440    6.49780    7.41590    6.49780    -999.25    0.35260    0.30900    2.50530  -63.82760   -4.66040    7.41590
 6750.00000    9.79340    9.19020    9.19020   21.62370    0.00310    0.00310    2.48410    -999.25    0.10930    0.13210   46.24560   92.50420   92.50420  234.93100  253.79550  253.79550   46.24560   57.38710  119.51560   57.38710    -999.25    0.35530    0.31170    2.48410  -66.03100   -7.48660  119.51560
 6800.00000    8.59540    8.76110    8.76110    0.60050    0.03220    0.03220    2.61260    -999.25    0.01890    0.05700 1665.16030   58.00580   58.00580   83.17820   85.32470   85.32470 1665.16030 1355.16330 1477.11330 1355.16330    -999.25    0.09150    0.05080    2.61260 -108.94460  -48.43810 1477.11330
 6850.00000    9.12750    9.13770    9.13770    0.62630    0.01210    0.01210    2.47370    -999.25    0.10940    0.13820 1596.61900   73.18710   73.18710  300.00000  299.97920  299.97920 1596.61900  886.56340 1429.94300  886.56340    -999.25    0.25690    0.21300    2.47370 -119.17090  -55.69600 1429.94300
 6900.00000    8.86660    8.95430    8.95430   46.18890    0.04660    0.04660    2.69770    -999.25   -0.01140    0.00720   21.65020   61.53670   61.53670   81.52960   82.41830   82.41830   21.65020   27.76500   36.88860   27.76500    -999.25    0.12580    0.08350    2.69770  -81.07220  -14.64830   36.88860
 6950.00000    8.98140    9.08840    9.08840   39.84460    0.01110    0.01110    2.65950   -0.00710   -0.00570    0.02950   25.09750   60.46980   60.46980   90.62620   91.76710   91.76710   25.09750   30.55390   32.24990   30.55390    0.11180    0.10930    0.06740    2.65950  -76.26730   -6.87490   32.24990
 7000.00000    8.31040    8.11520    8.11520  545.16710    0.04770    0.04770    2.45060    0.08990    0.13150    0.15170    1.83430   67.18210   67.18210   37.82130   39.18970   39.18970    1.83430    2.96310   15.65280    2.96310    0.25640    0.25380    0.25640    2.45060 -178.65510 -110.31290   15.65280
 7050.00000   10.16470    9.45280    9.45280   45.72910    0.24160    0.24160    2.68740   -0.03200    -999.25    0.01320   21.86790   52.58120   52.58120   47.24180   46.32120   46.32120   21.86790   39.30910   45.72390   39.30910    0.12350    -999.25    0.12350    2.68740 -120.51760  -54.01280   45.72390
 7100.00000   10.07780    9.01360    9.01360   18.15910    0.07350    0.07350    2.63700    0.00750    -999.25    0.04270   55.06870   52.29270   52.29270   52.99390   46.06230   46.06230   55.06870   69.33810  144.17310   69.33810    0.03140    -999.25    0.03140    2.63700 -107.49400  -42.83880  144.17310
 7150.00000    8.91550    9.16650    9.16650   11.65420    0.00000    0.00000    2.66840    0.02720    -999.25    0.02430   85.80600   51.03150   51.03150   40.17500   39.85600   39.85600   85.80600  122.80090  185.24690  122.80090    0.02730    -999.25    0.02730    2.66840  -79.61190  -16.79410  185.24690
 7200.00000    8.59280    8.95020    8.95020    8.39250    0.00730    0.00730    2.68450    0.02110    -999.25    0.01490  119.15390   50.71800   50.71800    8.26610   10.48770   10.48770  119.15390  162.88290  322.35270  162.88290    0.01080    -999.25    0.01080    2.68450 -148.29280  -87.32450  322.35270
 7250.00000    8.91490    9.08030    9.08030   23.59800   -0.00060   -0.00060    2.70720   -0.00830    -999.25    0.00160   42.37650   51.38160   51.38160   10.67220   10.87870   10.87870   42.37650   63.01850  283.32480   63.01850    0.01750    -999.25    0.01750    2.70720 -161.58170 -102.45080  283.32480
 7300.00000    9.28710    9.31960    9.31960  263.36580    0.00850    0.00850    2.65780    0.02510    -999.25    0.03050    3.79700   63.92450   63.92450   77.06480   73.26440   73.26440    3.79700    4.32520    6.32590    4.32520    0.14650    -999.25    0.14650    2.65780  -87.43990  -30.14650    6.32590
 7350.00000    8.89250    8.91630    8.91630   32.79240    0.01480    0.01480    2.70630   -0.00720    -999.25    0.00220   30.49490   57.35070   57.35070   89.35370   88.59570   88.59570   30.49490   43.70140   79.63300   43.70140    0.06790    -999.25    0.06790    2.70630  -60.98180   -5.53790   79.63300
 7400.00000    8.95790    8.95120    8.95120  138.72510    0.00910    0.00910    2.71640   -0.00920    -999.25   -0.00370    7.20850   59.82600   59.82600   58.88290   62.62340   62.62340    7.20850    7.80070   11.14690    7.80070    0.13000    -999.25    0.13000    2.71640  -81.26250  -26.72520   11.14690
 7450.00000    8.83630    8.98180    8.98180    5.08840    0.11680    0.11680    2.74820   -0.04740    -999.25   -0.02230  196.52730   50.53510   50.53510   24.99550   25.87020   25.87020  196.52730  869.90340  725.96810  869.90340    0.01750    -999.25    0.01750    2.74820  -64.52920   -9.95350  725.96810
 7500.00000    8.82730    9.20180    9.20180   25.58080    0.03400    0.03400    2.76540   -0.04660    -999.25   -0.03240   39.09180   54.84380   54.84380   42.69220   41.74970   41.74970   39.09180   42.32050   61.54240   42.32050    0.04440    -999.25    0.04440    2.76540  -73.96130  -18.73640   61.54240
 7550.00000    8.68230    9.02790    9.02790   13.65010   -0.00280   -0.00280    2.71430   -0.00310    -999.25   -0.00250   73.25930   52.72360   52.72360   26.57820   27.37940   27.37940   73.25930   91.20160  109.70290   91.20160    0.01880    -999.25    0.01880    2.71430 -101.40270  -45.52870  109.70290
 7600.00000    8.86540    9.18940    9.18940   14.03600    0.08920    0.08920    2.72030   -0.00700    -999.25   -0.00600   71.24540   52.55680   52.55680   28.87750   25.92870   25.92870   71.24540  106.96710  219.74690  106.96710    0.02930    -999.25    0.02930    2.72030  -72.67820  -16.15080  219.74690
