~Version ---------------------------------------------------
VERS.      2.0 : CWLS log ASCII Standard -VERSION 2.0
WRAP.       NO : One line per depth step
CREA. 12/21/17 : LAS Creation Date
~Well ------------------------------------------------------
STRT.FT                         1250.0 : START DEPTH
STOP.FT                        12650.0 : STOP DEPTH
STEP.FT                       50.00000 : STEP LENGTH
NULL.                          -999.25 : NULL VALUE
COMP. AMOCO CANADA PETROLEUM CO., LTD. : COMPANY
WELL. AMOCO A-1 DEEP VALLEY 6-32-61-23 : WELL
FLD .                                  : FIELD
LOC .                                  : LOCATION
CTRY.                           CANADA : COUNTRY
SRVC.           Schlumberger of Canada : SERVICE COMPANY
DATE.                      06-Sep-1970 : LOGDATE
PROV.                          Alberta : PROVINCE
UWI .                 100063206123W500 : UNIQUE WELL ID
SLAT.WGS84                    54.31655 : SURFACE LATITUDE
SLON.WGS84                   -117.4164 : SURFACE LONGITUDE
~Curve Information -----------------------------------------
DEPT    .FT    : Depth Curve
CALDED  .IN    : CALIPER FROM DENSITY LOG [ADJ. TO RESISTIVITY LOG]
CALNED  .IN    : CALIPER FROM SNP LOG [ADJ. TO RESISTIVITY LOG]
CALSED  .IN    : CALIPER FROM SONIC LOG
CALWS   .IN    : CALIPER [CALSED]
CONDWS  .MMHO  : CONDUCTIVITY [1000/DRESWS]
CORRED  .G/C3  : DENSITY CORRECTION FROM DENSITY LOG [ADJ. TO RESISTIVITY LOG]
DCORWS  .G/C3  : DENSITY CORRECTION [CORRED]
DENWS   .G/C3  : FORMATION BULK DENSITY [RHOBED]
DPHILSED.V/V   : DENSITY POROSITY LIMESTONE [M=2.71, F=1.00] FROM DENSITY LOG [ADJ. TO RESISTIVITY LOG]
DPOLSWS .V/V   : DENSITY POROSITY LIMESTONE [CALC FROM DENWS,M=2.71, F=1.00]
DRESWS  .OHMM  : DEEP RESISTIVITY [ILDED]
DTED    .US/F  : DELTA-T FROM SONIC LOG [ADJ. TO RESISTIVITY LOG]
DTWS    .US/F  : COMPRESSIONAL SONIC [DTED]
GRDED   .GAPI  : GAMMA RAY FROM DENSITY LOG [ADJ. TO RESISTIVITY LOG]
GRNED   .GAPI  : GAMMA RAY FROM SNP LOG [ADJ. TO RESISTIVITY LOG]
GRSED   .GAPI  : GAMMA RAY FROM SONIC LOG
GRWS    .GAPI  : GAMMA RAY [GRSED SPL. TO GRDED @ 1502'& SPL. TO GRNED @ 12657']
ILDED   .OHMM  : DEEP INDUCTION RESISTIVITY FROM RESISTIVITY LOG
ILMED   .OHMM  : MEDIUM INDUCTION FROM RESISTIVITY LOG
LL8ED   .OHMM  : LATEROLOG 8 FROM RESISTIVITY LOG
MRESWS  .OHMM  : MEDIUM RESISTIVITY [ILMED]
NPHILSED.V/V   : NEUTRON POROSITY LIMESTONE FROM SNP LOG [ADJ. TO RESISTIVITY LOG]
NPOLSWS .V/V   : NEUTRON POROSITY LIMESTONE [NPHILSED]
RHOBED  .G/C3  : BULK DENSITY FROM DENSITY LOG [ADJ. TO RESISTIVITY LOG]
SPRED   .MV    : SPONTANEOUS POTENTIAL FROM RESISTIVITY LOG
SPWS    .MV    : SPONTANEOUS POTENTIAL [BASELINE 0 MV,SPRED]
SRESWS  .OHMM  : SHALLOW RESISTIVITY [LLBED]
~Params ----------------------------------------------------
PD  .                     GL : PERMANENT DATUM
EPD .FT                 3450 : ELEVATION PERMANENT DATUM
LMF .                     KB : LOG MEASURED FROM
DAPD.FT                   14 : FEET ABOVE PERMANENT DATUM
EKB .FT                 3464 : KELLY BUSHING
EGL .FT                 3450 : GROUND LEVEL
DATE.               11/06/70 : RUN DATE
RUN .                      1 : RUN NUMBER
DD  .FT                12700 : DEPTH DRILLER
DL  .FT                12697 : DEPTH LOGGER
BLI .FT                12691 : BOTTOM LOG INTERVAL
TLI .FT                 1513 : TOP LOG INTERVAL
CBD .FT                 1514 : CASING BOTTOM DRILLER
CBL .FT                 1513 : CASING BOTTOM LOGGER
BS  .IN                 8.75 : BIT SIZE
BSD .FT                12700 : BIT SIZE AT DEPTH
DFT .                    GEL : DRILLING FLUID TYPE
DFD .                    9.1 : DRILLING FLUID DENSITY
DFV .                     85 : DRILLING FLUID VISCOSITY
DFPH.                    8.5 : DRILLING FLUID PH
DFL .                   11.8 : DRILLING FLUID LOSS
MSS .               MEASURED : MUD SAMPLE SOURCE
RMS .OHMM               2.56 : RESISTIVITY MUD SAMPLE
MST .DEGF                 59 : MUD SAMPLE TEMPERATURE
RMF .OHMM               2.14 : RESISTIVITY MUD FILTRATE SAMPLE
MFST.DEGF                 58 : MUD FILTRATE SAMPLE TEMPERATURE
RMC .OHMM               2.35 : RESISTIVITY MUD CAKE
MCST.DEGF                 62 : MUD CAKE SAMPLE TEMPERATURE
TCS .HRS                 500 : TIME CIRCULATED STOPPED
TLAB.HRS                  30 : TIME LOGGER AT BOTTOM
LUN .                   7501 : LOGGING UNIT NUMBER
LUL .                    EDM : LOGGING UNIT LOCATION
ENGI.                HAYWOOD : RECORDING ENGINEER
WITN.                   DION : WITNESSED BY
CLNT.                A2DTECH : CLIENT CODE
ORIG.            2" 5" PRINT : ORIGIN OF DATA
UWI .       100063206123W500 : UNIQUE WELL ID
DICO. A2D Technologies, Inc. : DIGITIZING COMPANY
~Other -----------------------------------------------------
DIL-LAT,FDC-SNP-BCS LOG RAN
~ASCII -----------------------------------------------------
# ...
 5150.00000    -999.25    -999.25   11.31580   11.31580  107.09730    -999.25    -999.25    -999.25    -999.25    -999.25    9.33730   80.72770   80.72770    -999.25    -999.25   90.84420   90.84420    9.33730    9.15160    9.78840    9.15160    -999.25    -999.25    -999.25  -83.19000   -9.84790    9.78840
 5200.00000    -999.25    -999.25   11.34360   11.34360   78.43690    -999.25    -999.25    -999.25    -999.25    -999.25   12.74910   73.17370   73.17370    -999.25    -999.25   68.44480   68.44480   12.74910   13.73870   15.27520   13.73870    -999.25    -999.25    -999.25  -85.13550  -10.42710   15.27520
 5250.00000    -999.25    -999.25   12.64240   12.64240  119.79490    -999.25    -999.25    -999.25    -999.25    -999.25    8.34760   81.83350   81.83350    -999.25    -999.25   95.39820   95.39820    8.34760    8.62330    9.21920    8.62330    -999.25    -999.25    -999.25  -82.23080   -6.15640    9.21920
 5300.00000    -999.25    -999.25   12.61100   12.61100  123.58650    -999.25    -999.25    -999.25    -999.25    -999.25    8.09150   83.74140   83.74140    -999.25    -999.25   96.63310   96.63310    8.09150    8.46300    9.11000    8.46300    -999.25    -999.25    -999.25  -88.85240  -11.60190    9.11000
 5350.00000    -999.25    -999.25   12.22090   12.22090  159.10140    -999.25    -999.25    -999.25    -999.25    -999.25    6.28530   84.21110   84.21110    -999.25    -999.25  101.29750  101.29750    6.28530    6.49550    7.32500    6.49550    -999.25    -999.25    -999.25  -95.82780  -18.21040    7.32500
 5400.00000    -999.25    -999.25   11.55560   11.55560  135.16440    -999.25    -999.25    -999.25    -999.25    -999.25    7.39840   84.44260   84.44260    -999.25    -999.25  101.13100  101.13100    7.39840    7.89390    8.04870    7.89390    -999.25    -999.25    -999.25  -94.53630  -16.55230    8.04870
 5450.00000    -999.25    -999.25   11.33040   11.33040  107.71100    -999.25    -999.25    -999.25    -999.25    -999.25    9.28410   80.46920   80.46920    -999.25    -999.25   99.46680   99.46680    9.28410    9.58730   10.04820    9.58730    -999.25    -999.25    -999.25  -97.43270  -19.08180   10.04820
 5500.00000    -999.25    -999.25   10.62430   10.62430   82.21390    -999.25    -999.25    -999.25    -999.25    -999.25   12.16340   74.86520   74.86520    -999.25    -999.25   90.75130   90.75130   12.16340   12.59170   13.39260   12.59170    -999.25    -999.25    -999.25  -97.10010  -18.38260   13.39260
 5550.00000    -999.25    -999.25   10.36870   10.36870   69.88460    -999.25    -999.25    -999.25    -999.25    -999.25   14.30930   77.48410   77.48410    -999.25    -999.25   91.12440   91.12440   14.30930   13.44440   13.08480   13.44440    -999.25    -999.25    -999.25  -97.92320  -18.83910   13.08480
 5600.00000    -999.25    -999.25   10.34570   10.34570   92.30710    -999.25    -999.25    -999.25    -999.25    -999.25   10.83340   78.89360   78.89360    -999.25    -999.25   92.63290   92.63290   10.83340   11.19120   11.38710   11.19120    -999.25    -999.25    -999.25  -96.34860  -16.89750   11.38710
 5650.00000    -999.25    -999.25   10.17450   10.17450  100.10310    -999.25    -999.25    -999.25    -999.25    -999.25    9.98970   78.56520   78.56520    -999.25    -999.25   92.99500   92.99500    9.98970   10.34290   10.70380   10.34290    -999.25    -999.25    -999.25  -96.74370  -16.92600   10.70380
 5700.00000    -999.25    -999.25   10.53930   10.53930  115.26310    -999.25    -999.25    -999.25    -999.25    -999.25    8.67580   80.04140   80.04140    -999.25    -999.25   95.77060   95.77060    8.67580    8.96210    9.77690    8.96210    -999.25    -999.25    -999.25  -95.42650  -15.24190    9.77690
 5750.00000    -999.25    -999.25   10.28360   10.28360  130.24230    -999.25    -999.25    -999.25    -999.25    -999.25    7.67800   84.93900   84.93900    -999.25    -999.25   97.58010   97.58010    7.67800    7.95220    9.22290    7.95220    -999.25    -999.25    -999.25  -95.76860  -15.21740    9.22290
 5800.00000    -999.25    -999.25   10.51760   10.51760  122.46200    -999.25    -999.25    -999.25    -999.25    -999.25    8.16580   83.22530   83.22530    -999.25    -999.25   98.59290   98.59290    8.16580    8.43590   10.12270    8.43590    -999.25    -999.25    -999.25  -96.04530  -15.12750   10.12270
 5850.00000    -999.25    -999.25   10.13620   10.13620  113.97830    -999.25    -999.25    -999.25    -999.25    -999.25    8.77360   86.51370   86.51370    -999.25    -999.25  103.06430  103.06430    8.77360    9.06610   11.10140    9.06610    -999.25    -999.25    -999.25  -97.40030  -16.11560   11.10140
 5900.00000    -999.25    -999.25   10.08230   10.08230   98.28300    -999.25    -999.25    -999.25    -999.25    -999.25   10.17470   84.82700   84.82700    -999.25    -999.25  112.71530  112.71530   10.17470   10.92480   13.93290   10.92480    -999.25    -999.25    -999.25 -105.30290  -23.65150   13.93290
 5950.00000    -999.25    -999.25   10.68560   10.68560  100.57530    -999.25    -999.25    -999.25    -999.25    -999.25    9.94280   85.38800   85.38800    -999.25    -999.25  103.82320  103.82320    9.94280   10.27640   12.44060   10.27640    -999.25    -999.25    -999.25  -87.25460   -5.23630   12.44060
 6000.00000    -999.25    -999.25    9.86100    9.86100   73.56130    -999.25    -999.25    -999.25    -999.25    -999.25   13.59410   92.04230   92.04230    -999.25    -999.25  126.13620  126.13620   13.59410   14.04870   19.07340   14.04870    -999.25    -999.25    -999.25  -86.83100   -4.44610   19.07340
 6050.00000    -999.25    -999.25   10.47240   10.47240  110.00500    -999.25    -999.25    -999.25    -999.25    -999.25    9.09050   85.55700   85.55700    -999.25    -999.25   98.12530   98.12530    9.09050    9.41570   11.11640    9.41570    -999.25    -999.25    -999.25  -86.66190   -3.91040   11.11640
 6100.00000    -999.25    -999.25   10.07620   10.07620   81.15630    -999.25    -999.25    -999.25    -999.25    -999.25   12.32190   89.20440   89.20440    -999.25    -999.25  110.62100  110.62100   12.32190   12.96330   16.86920   12.96330    -999.25    -999.25    -999.25  -88.19980   -5.08140   16.86920
 6150.00000    -999.25    -999.25   10.17200   10.17200   70.78190    -999.25    -999.25    -999.25    -999.25    -999.25   14.12790   91.86560   91.86560    -999.25    -999.25  118.25990  118.25990   14.12790   14.71450   20.18780   14.71450    -999.25    -999.25    -999.25  -89.12750   -5.64250   20.18780
 6200.00000    -999.25    -999.25   10.42800   10.42800  114.76180    -999.25    -999.25    -999.25    -999.25    -999.25    8.71370   88.25010   88.25010    -999.25    -999.25  101.25370  101.25370    8.71370    9.15600   11.13270    9.15600    -999.25    -999.25    -999.25  -88.06520   -4.21320   11.13270
 6250.00000    -999.25    -999.25    9.50460    9.50460   40.40090    -999.25    -999.25    -999.25    -999.25    -999.25   24.75190  106.89380  106.89380    -999.25    -999.25  127.45420  127.45420   24.75190   26.66940   42.21380   26.66940    -999.25    -999.25    -999.25  -89.47670   -5.57870   42.21380
 6300.00000    -999.25    -999.25   11.53880   11.53880  152.22320    -999.25    -999.25    -999.25    -999.25    -999.25    6.56930   85.40520   85.40520    -999.25    -999.25   98.00090   98.00090    6.56930    6.90270    7.23390    6.90270    -999.25    -999.25    -999.25  -90.75280   -7.02240    7.23390
 6350.00000    -999.25    -999.25   10.64160   10.64160  109.01080    -999.25    -999.25    -999.25    -999.25    -999.25    9.17340   74.79760   74.79760    -999.25    -999.25   82.00570   82.00570    9.17340    9.75850   10.52020    9.75850    -999.25    -999.25    -999.25  -94.84160  -11.27850   10.52020
 6400.00000    -999.25    -999.25   10.96890   10.96890  138.39490    -999.25    -999.25    -999.25    -999.25    -999.25    7.22570   81.23390   81.23390    -999.25    -999.25   97.52840   97.52840    7.22570    7.54460    8.11690    7.54460    -999.25    -999.25    -999.25  -89.59860   -6.20320    8.11690
