~Version ---------------------------------------------------
VERS.      2.0 : CWLS log ASCII Standard -VERSION 2.0
WRAP.       NO : One line per depth step
CREA. 01/05/18 : LAS Creation Date
~Well ------------------------------------------------------
STRT.FT                          300.0 : START DEPTH
STOP.FT                         9300.0 : STOP DEPTH
STEP.FT                       50.00000 : STEP LENGTH
NULL.                          -999.25 : NULL VALUE
COMP.     PAN AMERICAN PETROLEUM CORP. : COMPANY
WELL. PAN AM A-1 HOPE CREEK 6-36-62-13 : WELL
FLD .                                  : FIELD
LOC .                                  : LOCATION
CTRY.                           CANADA : COUNTRY
SRVC.                     Schlumberger : SERVICE COMPANY
DATE.                      21-Feb-1958 : LOGDATE
PROV.                          Alberta : PROVINCE
UWI .                 100063606213W500 : UNIQUE WELL ID
SLAT.WGS84                    54.40496 : SURFACE LATITUDE
SLON.WGS84                   -115.8159 : SURFACE LONGITUDE
~Curve Information -----------------------------------------
DEPT  .FT     : Depth Curve
CALMED.IN     : CALIPER FROM MLL
CALWS .IN     : CALIPER [SPL. MCALED<6136'>CALMED]
CILDED.MMHO   : CONDUCTIVITY FROM RESISTIVITY IEL LOG
CONDWS.MMHO   : CONDUCTIVITY [1000/DRESWS]
DRESWS.OHMM   : DEEP RESISTIVITY [SPL. ILDED/LNED]
GRED  .UR/HR  : GAMMA RAY FROM CBL LOG [DAJ. TO RESISTIVITY]
GRWS  .GAPI   : GAMMA RAY [GRED*10.4]
ILDED .OHMM   : DEEP INDUCTION FROM RESISTIVITY LOG
LL7ED .OHMM   : LATEROLOG 7 FROM RESISTIVITY LL LOG
LNED  .OHMM   : LONG NORMAL RESISTIVITY FROM EL
LT18ED.OHMM   : LATERAL 18' FROM EL
MCALED.IN     : MLT CALIPER FROM CALIPER LOG
MLLED .OHMM   : MICRO FOCUSED LATEROLOG FROM MLL
SN1ED .OHMM   : SHORT NORMAL FROM RESISTIVITY IEL
SNED  .OHMM   : SHORT NORMAL 18" FROM RESISTIVITY LOG
SPR1ED.MV     : SPONTANEOUS POTENTIAL FROM RESISTIVITY
SPRED .MV     : SPONTANEOUS POTENTIAL FROM EL LOG
SPWS  .MV     : SPONTANEOUS POTENTIAL [BASELINE 0 MV, SPRED]
SRESWS.OHMM   : SHALLOW RESISTIVITY [SNED]
~Params ----------------------------------------------------
LMF .                     KB : LOG MEASURED FROM
DMF .                     KB : DRILLING MEASURED FROM
EKB .FT                 3030 : KELLY BUSHING
DATE.               02/21/58 : RUN DATE
RUN .                      2 : RUN NUMBER
DD  .FT                 9350 : DEPTH DRILLER
DL  .FT                 9344 : DEPTH LOGGER
BLI .FT                 9343 : BOTTOM LOG INTERVAL
TLI .FT                 6108 : TOP LOG INTERVAL
BS  .IN                    9 : BIT SIZE
BSD .FT                 9350 : BIT SIZE AT DEPTH
DFT .                    GEL : DRILLING FLUID TYPE
DFD .                    9.9 : DRILLING FLUID DENSITY
DFV .                    102 : DRILLING FLUID VISCOSITY
DFPH.                    9.5 : DRILLING FLUID PH
DFL .                    5.1 : DRILLING FLUID LOSS
RMS .OHMM                3.1 : RESISTIVITY MUD SAMPLE
MST .DEGF                 60 : MUD SAMPLE TEMPERATURE
RMF .OHMM                1.8 : RESISTIVITY MUD FILTRATE SAMPLE
MFST.DEGF                 70 : MUD FILTRATE SAMPLE TEMPERATURE
RMC .OHMM                2.7 : RESISTIVITY MUD CAKE
MCST.DEGF                 71 : MUD CAKE SAMPLE TEMPERATURE
RMB .OHMM                1.1 : RESISTIVITY MUD AT BHT
TCS .HRS                 6.5 : TIME CIRCULATED STOPPED
LUN .                   1785 : LOGGING UNIT NUMBER
ENGI.                LAVERTY : RECORDING ENGINEER
WITN.                JACKSON : WITNESSED BY
CLNT.                A2DTECH : CLIENT CODE
ORIG.            2" 5" PRINT : ORIGIN OF DATA
UWI .       100063606213W500 : UNIQUE WELL ID
DICO. A2D Technologies, Inc. : DIGITIZING COMPANY
~Other -----------------------------------------------------
ALL CURVES APPEAR ON DEPTH ACCEPTED CBL LOG. MERGED LNED TO ILDED AROUND:5727'-5792' 5981'-5993', 6608'-7339', 8756'-8854', 9075'-9296'.
~ASCII -----------------------------------------------------
# ...
 7700.00000    9.12400    9.12400   47.75780   41.13160   24.31220    4.61010   47.94500   24.31220   29.98590   34.54180   35.18490    -999.25   41.61580   28.61240   29.98730  -48.95420  -34.69440   -6.43180   29.98730
 7750.00000    9.13570    9.13570   72.60660   68.12920   14.67800    5.72900   59.58160   14.67800   15.98280   20.21320   24.58300    -999.25   20.81520   18.62880   19.80870  -41.43410  -31.26650   -3.38390   19.80870
 7800.00000    9.13620    9.13620   65.61700   61.27450   16.32000    4.64470   48.30490   16.32000   17.45020   21.00700   11.38670    -999.25   28.75440   19.89460   21.48960  -42.76770  -31.99050   -4.48790   21.48960
 7850.00000    9.15210    9.15210  121.79900  121.19300    8.25130    6.12990   63.75100    8.25130    9.64900   11.34700    7.61640    -999.25   13.08960   11.45520   12.10690  -34.00270  -36.19100   -9.06830   12.10690
 7900.00000    9.51040    9.51040  242.45060  230.99490    4.32910    7.21310   75.01620    4.32910    5.20360    6.81090    7.40600    -999.25    5.06640    5.70570    6.03830  -44.23250  -45.54650  -18.80380    6.03830
 7950.00000    9.14930    9.14930   98.68590   97.97010   10.20720    8.49710   88.36980   10.20720   12.32560   13.01550    5.23730    -999.25   13.38160   14.22210   15.64570  -39.84240  -39.94340  -13.58070   15.64570
 8000.00000    9.12460    9.12460   99.79700   97.03370   10.30570    5.69450   59.22280   10.30570   11.78770   16.23300   16.10630    -999.25   15.46330   14.12200   15.28100  -36.48720  -34.78540   -8.80270   15.28100
 8050.00000    9.25300    9.25300  110.27050  109.74060    9.11240    5.56690   57.89580    9.11240   10.46820    9.53240    9.92800    -999.25   10.83890   10.81790   11.69360  -41.44170  -42.00510  -16.40240   11.69360
 8100.00000    9.51300    9.51300  226.99020  207.18950    4.82650    7.71340   80.21940    4.82650    5.20430    7.62970    7.06060    -999.25    5.43900    6.25680    6.35630  -44.94440  -50.46380  -25.24100    6.35630
 8150.00000    9.27410    9.27410  163.67350  155.46300    6.43240    6.64100   69.06640    6.43240    7.92670    8.18600    6.24050    -999.25    6.46440    8.52050    8.89650  -46.03080  -54.64300  -29.80020    8.89650
 8200.00000    9.14050    9.14050  103.23040  102.36780    9.76870    7.36650   76.61160    9.76870   11.47070   13.70110   13.58130    -999.25   12.85040   13.50030   14.70240  -37.35090  -48.20460  -23.74180   14.70240
 8250.00000    9.15610    9.15610  116.01440  114.49110    8.73430    6.50940   67.69780    8.73430   10.47310   11.98040    9.75520    -999.25   15.18040   12.10970   12.80280  -41.83070  -47.57230  -23.48950   12.80280
 8300.00000    9.14680    9.14680  110.47030  108.98470    9.17560    5.87210   61.06980    9.17560   10.47360   11.45680   10.25860    -999.25    9.16800   12.26090   12.99580  -36.60340  -36.53170  -12.82890   12.99580
 8350.00000    9.21100    9.21100  171.64850  155.90890    6.41400    7.28910   75.80660    6.41400    9.30680    8.96350    8.07880    -999.25   13.74400    9.03100    9.05520  -42.00710  -49.06810  -25.74530    9.05520
 8400.00000    9.27160    9.27160  121.23790  118.27460    8.45490    6.80070   70.72730    8.45490    9.08700   10.57780    8.09500    -999.25   14.51800   11.34710   12.28660  -39.31670  -41.23670  -18.29380   12.28660
 8450.00000    9.17560    9.17560  112.14860  104.03770    9.61190    6.34030   65.93910    9.61190   12.32880   12.11530    7.04510    -999.25   11.18780   13.49530   14.67110  -35.10380  -40.34450  -17.78160   14.67110
 8500.00000    9.30230    9.30230  138.81570  132.50650    7.54680    6.66960   69.36380    7.54680    8.73380    9.10700    7.50970    -999.25    9.28900    9.64390   10.09700  -42.40510  -48.86550  -26.68260   10.09700
 8550.00000    9.28710    9.28710  151.01700  144.79320    6.90640    8.16970   84.96490    6.90640    8.55300   10.11230    7.19640    -999.25   10.15220    9.84380   10.43170  -40.96410  -52.17880  -30.37590   10.43170
 8600.00000    9.34200    9.34200  225.32670  198.61760    5.03480    7.97350   82.92440    5.03480    5.03310    8.31860    5.76600    -999.25    7.03990    6.47460    7.01020  -45.72100  -57.61470  -36.19180    7.01020
 8650.00000    9.25960    9.25960  172.35170  159.40830    6.27320    8.39630   87.32150    6.27320    7.03600    9.99050    5.52450    -999.25    4.37620    8.45950    9.34990  -39.52420  -51.00910  -29.96610    9.34990
 8700.00000    9.12360    9.12360   51.93220   44.27010   22.58860    3.65830   38.04630   22.58860   30.29680   38.05160   34.39040    -999.25   45.33890   29.55190   33.25060  -21.72650  -31.48710  -10.82410   33.25060
 8750.00000    9.14720    9.14720  140.75990  132.66820    7.53760    6.14030   63.85910    7.53760    9.55140   12.01560   12.81560    -999.25    6.77260   10.82680   10.96670  -31.62960  -42.95190  -22.70960   10.96670
 8800.00000    9.05450    9.05450   17.06680    3.05480  327.35020    0.93580    9.73230   83.21500  354.05910  327.35020   18.36640    -999.25   14.21800  119.53570  161.61670  -95.69930 -133.14830 -113.69260  161.61670
 8850.00000    9.03140    9.03140   19.89700    2.63660  379.28080    1.27800   13.29120  105.07770  259.54060  379.28080 1200.91850    -999.25   27.62490  115.58320  135.44520 -121.91520 -151.72740 -133.05840  135.44520
 8900.00000    8.97870    8.97870   98.46320   86.54040   11.55530    1.30360   13.55740   11.55530   75.43860  146.24510  177.51470    -999.25    9.54070   71.70020   84.02570 -144.10140 -175.53000 -157.64770   84.02570
 8950.00000    9.05080    9.05080   12.31720    5.39110  185.49120    0.77560    8.06620  185.49120  224.29320  223.74200  188.81490    -999.25   39.08020  103.58710  100.00000 -119.06660 -148.38120 -131.28560  100.00000
 9000.00000    8.99070    8.99070  185.15280  169.76780    5.89040    1.05150   10.93560    5.89040   43.58930   27.91840    9.36820    -999.25    8.78660   34.99590   39.43780 -144.74210 -175.68280 -159.37390   39.43780
 9050.00000    8.99440    8.99440   88.29750   68.55840   14.58610    1.34430   13.98070   14.58610   54.22940   55.32130    3.54100    -999.25   51.66580   50.10600   56.24140 -147.24970 -179.43290 -163.91060   56.24140
 9100.00000    9.04180    9.04180    6.41690    1.64390  608.32590    1.03020   10.71410  500.00000  700.72450  608.32590  645.16300    -999.25 1000.00000  163.97110  211.28600 -109.00950 -114.38860  -99.65300  211.28600
 9150.00000    9.04780    9.04780    3.96110    0.78880 1267.74780    0.97610   10.15140  500.00000 5556.20120 1267.74780  523.87070    -999.25 1000.00000  255.79450  405.08680  -97.22630  -83.33600  -69.38710  405.08680
 9200.00000    9.05170    9.05170    6.14050    0.40950 2441.94850    0.98960   10.29180  500.00000 4535.75290 2441.94850 2527.30830    -999.25  756.68850  257.76730  321.24310  -87.55730  -81.36090  -68.19870  321.24310
 9250.00000    9.04550    9.04550    6.73620    0.59050 1693.46280    1.24120   12.90850  500.00000 10000.00000 1693.46280 4308.91700    -999.25 1003.83330  222.91510  201.32100  -77.93590  -65.14730  -52.77180  201.32100
 9300.00000    9.05770    9.05770  110.52620  109.43670    9.13770    -999.25    -999.25    9.13770   14.36390   23.87460   23.56070    -999.25   19.63980   40.77360   16.56500  -63.69640  -25.68160  -14.09270   16.56500
