~Version ---------------------------------------------------
VERS.      2.0 : CWLS log ASCII Standard -VERSION 2.0
WRAP.       NO : One line per depth step
CREA. 08/31/17 : LAS Creation Date
~Well ------------------------------------------------------
STRT.FT                            1200.0 : START DEPTH
STOP.FT                           11900.0 : STOP DEPTH
STEP.FT                          50.00000 : STEP LENGTH
NULL.                             -999.25 : NULL VALUE
COMP.                THE PURE OIL COMPANY : COMPANY
WELL. PURE AMERADA ANTE CREEK 12-17-66-26 : WELL
FLD .                                     : FIELD
LOC .                                     : LOCATION
CTRY.                              CANADA : COUNTRY
SRVC.              Schlumberger of Canada : SERVICE COMPANY
DATE.                         16-Mar-1961 : LOGDATE
PROV.                             Alberta : PROVINCE
UWI .                    100121706626W500 : UNIQUE WELL ID
SLAT.WGS84                       54.71423 : SURFACE LATITUDE
SLON.WGS84                      -117.9041 : SURFACE LONGITUDE
~Curve Information -----------------------------------------
DEPT  .FT         : Depth Curve
CALWS .IN         : CALIPER [MCALED]
CILDED.MMHO       : DEEP CONDUCTIVITY INDUCTION FROM IEL LOG
CONDWS.MMHO       : CONDUCTIVITY [1000/DRESWS]
DRESWS.OHMM       : DEEP RESISTIVITY [ILDED]
DTED  .US/F       : ACOUSTIC TRANSIT TIME SLOWNESS, DELTA T FROM BCS LOG [ADJ. TO NEUTED]
DTWS  .US/F       : COMPRESSIONAL SONIC [DTED]
GRNED .UgRa-Eq/T  : GAMMA RAY NEUTRON FROM GRN LOG
GRSED .UgRa-Eq/T  : GAMMA RAY FROM BCS LOG [ADJ. TO GRNED]
GRWS  .GAPI       : GAMMA RAY [GRSED SPL. TO GRNED @ 8833', GRWS*16.50]
ILDED .OHMM       : DEEP INDUCTION RESISTIVITY FROM IEL LOG
MCALED.IN         : MLT MICROLOG CALIPER FROM ML LOG
NEUTED.NAPI       : NEUTRON FROM GRN LOG
NEUTWS.NAPI       : NEUTRON [NEUTED]
SNED  .OHMM       : SHORT NORMAL FROM IEL LOG
SPRED .MV         : SPONTANEOUS POTENTIAL FROM IEL LOG
SPWS  .MV         : SPONTANEOUS POTENTIAL [BASELINED 0 MV, SPRED]
SRESWS.OHMM       : SHALLOW RESISTIVITY [SNED]
~Params ----------------------------------------------------
LMF .                     KB : LOG MEASURED FROM
DMF .                     KB : DRILLING MEASURED FROM
EKB .FT                 2620 : KELLY BUSHING
EGL .FT                 2606 : GROUND LEVEL
DATE.               06/16/61 : RUN DATE
RUN .                      1 : RUN NUMBER
DD  .FT                11935 : DEPTH DRILLER
DL  .FT                11937 : DEPTH LOGGER
BLI .FT                11932 : BOTTOM LOG INTERVAL
TLI .FT                 1235 : TOP LOG INTERVAL
CBD .FT                 1236 : CASING BOTTOM DRILLER
CBL .FT                 1235 : CASING BOTTOM LOGGER
BS  .IN                    9 : BIT SIZE
BSD .FT                11935 : BIT SIZE AT DEPTH
DFT .                    GEL : DRILLING FLUID TYPE
DFD .                   10.1 : DRILLING FLUID DENSITY
DFV .                    600 : DRILLING FLUID VISCOSITY
DFPH.                    9.5 : DRILLING FLUID PH
DFL .                    7.8 : DRILLING FLUID LOSS
MSS .             CIRCULATED : MUD SAMPLE SOURCE
RMS .OHMM               3.65 : RESISTIVITY MUD SAMPLE
MST .DEGF                 56 : MUD SAMPLE TEMPERATURE
RMF .OHMM                2.8 : RESISTIVITY MUD FILTRATE SAMPLE
MFST.DEGF                 70 : MUD FILTRATE SAMPLE TEMPERATURE
RMC .OHMM                3.5 : RESISTIVITY MUD CAKE
MCST.DEGF                 70 : MUD CAKE SAMPLE TEMPERATURE
TCS .HRS                 600 : TIME CIRCULATED STOPPED
LUN .                  1573C : LOGGING UNIT NUMBER
LUL .                     WC : LOGGING UNIT LOCATION
ENGI.              HAUSEGGER : RECORDING ENGINEER
WITN.              ZASEYBIDA : WITNESSED BY
CLNT.                A2DTECH : CLIENT CODE
ORIG.            2" 5" PRINT : ORIGIN OF DATA
UWI .       100121706626W500 : UNIQUE WELL ID
DICO. A2D Technologies, Inc. : DIGITIZING COMPANY
~Other -----------------------------------------------------
~ASCII -----------------------------------------------------
 1200.00000    -999.25    -999.25    -999.25    -999.25    -999.25    -999.25    -999.25    2.66810   44.02360    -999.25    -999.25    -999.25    -999.25    -999.25    -999.25    -999.25    -999.25
 1250.00000   12.77220  300.27740  353.00760    2.83280  114.17150  114.17150    -999.25    4.45940   73.58010    2.83280   12.77220    -999.25    -999.25    4.99860 -129.93300   -3.95360    4.99860
 1300.00000   10.98490  303.94180  328.01940    3.04860  117.05550  117.05550    -999.25    7.22680  119.24220    3.04860   10.98490    -999.25    -999.25    4.58300 -129.77910   -3.74840    4.58300
 1350.00000   10.55780  212.99430  270.34330    3.69900  106.22980  106.22980    -999.25    4.60440   75.97260    3.69900   10.55780    -999.25    -999.25    5.54580 -131.34580   -5.35970    5.54580
 1400.00000   11.28460  292.43800  401.09100    2.49320   99.25230   99.25230    -999.25    5.18030   85.47490    2.49320   11.28460    -999.25    -999.25    4.61290 -129.34960   -3.40830    4.61290
 1450.00000   11.57210  333.32050  435.91980    2.29400  111.02370  111.02370    -999.25    5.22480   86.20920    2.29400   11.57210    -999.25    -999.25    4.44870 -129.01840   -3.12180    4.44870
 1500.00000   10.36260  180.11920  193.41990    5.17010  104.33550  104.33550    -999.25    6.15220  101.51130    5.17010   10.36260    -999.25    -999.25    7.39810 -130.14580   -4.29380    7.39810
 1550.00000   10.94910  284.10230  349.44260    2.86170  121.28900  121.28900    -999.25    5.08320   83.87280    2.86170   10.94910    -999.25    -999.25    4.53040 -129.63720   -3.83000    4.53040
 1600.00000   10.71460  470.72150  692.28110    1.44450  109.20900  109.20900    -999.25    5.93670   97.95560    1.44450   10.71460    -999.25    -999.25    3.85820 -129.65850   -3.89590    3.85820
 1650.00000   10.27410  261.39020  299.21310    3.34210  114.90550  114.90550    -999.25    5.86550   96.78070    3.34210   10.27410    -999.25    -999.25    5.79350 -130.30650   -4.58860    5.79350
 1700.00000    8.93760  127.62720  125.93820    7.94040  103.11300  103.11300    -999.25    4.13480   68.22420    7.94040    8.93760    -999.25    -999.25   10.06280 -135.30380   -9.63060   10.06280
 1750.00000    9.87810  213.71550  243.94410    4.09930  102.57480  102.57480    -999.25    4.45960   73.58340    4.09930    9.87810    -999.25    -999.25    5.89640 -129.42630   -3.80550    5.89640
 1800.00000   10.24920  342.24360  423.31630    2.36230  111.75620  111.75620    -999.25    4.61340   76.12110    2.36230   10.24920    -999.25    -999.25    3.91010 -129.95830   -4.47880    3.91010
 1850.00000   10.15290  207.82590  245.98430    4.06530  107.97980  107.97980    -999.25    4.54030   74.91500    4.06530   10.15290    -999.25    -999.25    6.23490 -129.86800   -4.52970    6.23490
 1900.00000   11.50960  344.06780  427.88070    2.33710  126.34350  126.34350    -999.25    4.42260   72.97290    2.33710   11.50960    -999.25    -999.25    3.93570 -128.90160   -3.70450    3.93570
 1950.00000    9.66480  350.81030  453.02170    2.20740  103.27630  103.27630    -999.25    4.73590   78.14230    2.20740    9.66480    -999.25    -999.25    3.65850 -128.71530   -3.65950    3.65850
 2000.00000    9.60490  198.01290  189.13600    5.28720   90.63220   90.63220    -999.25    4.77480   78.78420    5.28720    9.60490    -999.25    -999.25    6.82050 -128.79480   -3.88020    6.82050
 2050.00000    9.70540  263.13730  290.39380    3.44360   95.04120   95.04120    -999.25    4.61550   76.15570    3.44360    9.70540    -999.25    -999.25    5.18530 -129.50130   -4.72790    5.18530
 2100.00000   10.90700  294.04650  340.14760    2.93990   93.71000   93.71000    -999.25    4.30680   71.06220    2.93990   10.90700    -999.25    -999.25    4.65350 -129.66310   -5.03100    4.65350
 2150.00000   12.60400  196.24510  222.69240    4.49050  114.01100  114.01100    -999.25    4.64680   76.67220    4.49050   12.60400    -999.25    -999.25    5.83450 -129.65180   -5.16090    5.83450
 2200.00000   13.22120  253.76190  305.13850    3.27720  107.99620  107.99620    -999.25    3.69080   60.89820    3.27720   13.22120    -999.25    -999.25    5.21710 -129.28810   -4.93840    5.21710
 2250.00000   13.23810  297.05450  365.21680    2.73810  107.36030  107.36030    -999.25    4.31460   71.19090    2.73810   13.23810    -999.25    -999.25    4.57690 -129.45540   -5.24700    4.57690
 2300.00000   13.17630  119.35620  145.66220    6.86520  112.49950  112.49950    -999.25    3.15700   52.09050    6.86520   13.17630    -999.25    -999.25    8.34260 -132.46820   -8.40100    8.34260
 2350.00000   12.80360  239.41710  224.35610    4.45720  100.99080  100.99080    -999.25    3.68410   60.78760    4.45720   12.80360    -999.25    -999.25    6.15570 -130.75740   -6.83150    6.15570
 2400.00000   11.87470  268.62370  320.01020    3.12490  108.08700  108.08700    -999.25    4.47730   73.87550    3.12490   11.87470    -999.25    -999.25    4.71610 -128.54740   -4.76270    4.71610
 2450.00000   11.70050  224.49400  253.58830    3.94340   98.33520   98.33520    -999.25    4.16340   68.69610    3.94340   11.70050    -999.25    -999.25    5.73620 -128.93710   -5.29360    5.73620
 2500.00000   11.32720  317.06480  379.29070    2.63650  109.12150  109.12150    -999.25    4.66620   76.99230    2.63650   11.32720    -999.25    -999.25    4.09610 -129.17670   -5.67450    4.09610
 2550.00000   10.55110  273.77020  330.74250    3.02350  109.39800  109.39800    -999.25    3.98840   65.80860    3.02350   10.55110    -999.25    -999.25    4.92240 -129.46000   -6.09900    4.92240
 2600.00000   10.53000  282.89920  308.88980    3.23740  103.69250  103.69250    -999.25    4.16100   68.65650    3.23740   10.53000    -999.25    -999.25    4.62650 -127.44110   -4.22130    4.62650
 2650.00000   10.48060  269.84640  295.98060    3.37860  101.70050  101.70050    -999.25    5.05350   83.38270    3.37860   10.48060    -999.25    -999.25    5.65340 -128.01300   -4.93450    5.65340
 2700.00000   10.73600  251.32530  273.58280    3.65520  103.46100  103.46100    -999.25    4.37670   72.21550    3.65520   10.73600    -999.25    -999.25    5.14980 -128.60700   -5.66970    5.14980
 2750.00000    9.76770   66.48860   68.21420   14.65970  101.41100  101.41100    -999.25    2.82400   46.59600   14.65970    9.76770    -999.25    -999.25   19.17350 -147.62390  -24.82780   19.17350
 2800.00000   10.32120  193.84170  220.44400    4.53630  102.43480  102.43480    -999.25    3.96510   65.42410    4.53630   10.32120    -999.25    -999.25    5.77780 -127.68990   -5.03510    5.77780
 2850.00000   10.41480  208.43430  235.57680    4.24490   86.46030   86.46030    -999.25    4.00340   66.05610    4.24490   10.41480    -999.25    -999.25    7.13460 -127.39090   -4.87730    7.13460
 2900.00000   10.43570  193.72230  210.08400    4.76000   96.46530   96.46530    -999.25    4.34430   71.68090    4.76000   10.43570    -999.25    -999.25    7.13580 -129.35830   -6.92260    7.13580
 2950.00000   10.26690  239.40590  278.14090    3.59530  104.49770  104.49770    -999.25    4.05710   66.94210    3.59530   10.26690    -999.25    -999.25    5.63430 -129.41070   -7.03410    5.63430
 3000.00000   10.25160  227.28440  274.61210    3.64150   99.26200   99.26200    -999.25    3.99380   65.89770    3.64150   10.25160    -999.25    -999.25    5.78930 -128.98950   -6.67180    5.78930
 3050.00000   10.01930  157.09830  173.34630    5.76880   90.89830   90.89830    -999.25    5.55200   91.60800    5.76880   10.01930    -999.25    -999.25    8.16450 -130.83370   -8.57510    8.16450
 3100.00000   11.29580  148.66100  163.78410    6.10560   96.79450   96.79450    -999.25    5.60080   92.41320    6.10560   11.29580    -999.25    -999.25    8.92580 -131.21290   -9.01330    8.92580
 3150.00000   12.47860  124.98700  133.33160    7.50010   92.27820   92.27820    -999.25    6.86340  113.24610    7.50010   12.47860    -999.25    -999.25   11.09470 -130.80480   -8.66420   11.09470
 3200.00000   12.70020  109.02480  115.32960    8.67080   99.19050   99.19050    -999.25    6.99550  115.42570    8.67080   12.70020    -999.25    -999.25   13.11620 -130.17410   -8.09250   13.11620
