~Version ---------------------------------------------------
VERS.      2.0 : CWLS log ASCII Standard -VERSION 2.0
WRAP.       NO : One line per depth step
CREA. 08/31/17 : LAS Creation Date
~Well ------------------------------------------------------
STRT.FT                       1300.0 : START DEPTH
STOP.FT                      12650.0 : STOP DEPTH
STEP.FT                     50.00000 : STEP LENGTH
NULL.                        -999.25 : NULL VALUE
COMP.           PETROFINA CANADA LTD : COMPANY
WELL. FINA AMOCO HB MAYBERNE 10-11-5 : WELL
FLD .                                : FIELD
LOC .                                : LOCATION
CTRY.                         CANADA : COUNTRY
SRVC.                   Schlumberger : SERVICE COMPANY
DATE.                    03-Apr-1977 : LOGDATE
PROV.                        Alberta : PROVINCE
UWI .               100101105718W500 : UNIQUE WELL ID
SLAT.WGS84                  53.91479 : SURFACE LATITUDE
SLON.WGS84                 -116.5629 : SURFACE LONGITUDE
~Curve Information -----------------------------------------
DEPT    .FT    : Depth Curve
CALDED  .IN    : DIFFERENTIAL CALIPER FROM DENSITY LOG
CALSED  .IN    : CALIPER FROM SONIC LOG [ADJ. TO GRED]
CALWS   .IN    : CALIPER [CALSED]
CONDWS  .MMHO  : CONDCUTIVITY [1000/DRESWS]
DCORED  .G/C3  : DENSITY CORRECTION FROM DENSITY LOG
DCORWS  .G/C3  : DENSITY CORRECTION [DRHOED]
DENWS   .G/C3  : FORMATION BULK DENSITY [RHOBED]
DPHILSED.V/V   : DENSITY POROSITY LIME [M=2.71, F=1.0] FROM DENSITY LOG [ADJ. TO RHOBED]
DPHISSED.V/V   : DENSITY POROSITY SAND [M=2.65, F=1.0] FROM DENSITY LOG [ADJ, TO RHOBED]
DPOLSWS .V/V   : DENSITY POROSITY LIME [CALC FROM DENWS, M=2.71, F=1.0]
DRESWS  .OHMM  : DEEP RESISTIVITY [ILDED]
DTED    .US/F  : DELTA-T FROM SONIC LOG [ADJ. TO GRDED]
DTWS    .US/F  : COMPRESSIONAL SONIC [DTED]
GRDED   .GAPI  : GAMMA RAY FROM DENSITY LOG
GRSED   .GAPI  : GAMMA RAY FROM SONIC LOG
GRWS    .GAPI  : GAMMA RAY [GRSED]
ILDED   .OHMM  : DEEP INDUCTION RESISTIVITY FROM RESISTIVITY LOG
ILMED   .OHMM  : MEDIUM INDUCTION RESISTIVITY FROM RESISTIVITY LOG
LL8ED   .OHMM  : LATEROLOG-8 RESISTIVITY FROM RESISTIVITY LOG
MRESWS  .OHMM  : MEDIUM RESISTIVITY [ILMED]
NPHILSED.V/V   : NEUTRON POROSITY LIME FROM DENSITY LOG [ADJ. TO RHOBED]
NPOLSWS .V/V   : NEUTRON POROSITY LIME [SS CONVERTS TO LS. SPL. TO LS @ 8849']
NPORSSED.V/V   : NEUTRON POROSITY SAND FROM DENSITY LOG [ADJ. TO RHOBED]
RHOBED  .G/C3  : DENSITY FORMATION DENSITY FROM DENSITY LOG
SPHIED  .V/V   : SONIC POROSITY [DTM=189, DTF=55.6] FROM SONIC LOG [ADJ. TO GRDED]
SPRED   .MV    : SPONTANEOUS POTENTIAL FROM RESISTIVITY LOG
SPWS    .MV    : SPONTANEOUS POTENTIAL [BASELINE 0 MV, SPRED]
SRESWS  .OHMM  : SHALLOW RESISTIVITY [LL8ED]
~Params ----------------------------------------------------
PD  .                     GL : PERMANENT DATUM
EPD .FT                 4315 : ELEVATION PERMANENT DATUM
LMF .                     KB : LOG MEASURED FROM
DAPD.FT                   17 : FEET ABOVE PERMANENT DATUM
EKB .FT                 4322 : KELLY BUSHING
EGL .FT                 4315 : GROUND LEVEL
DATE.               04/03/77 : RUN DATE
RUN .                      1 : RUN NUMBER
DD  .FT                12670 : DEPTH DRILLER
DL  .FT                12672 : DEPTH LOGGER
BLI .FT                12669 : BOTTOM LOG INTERVAL
TLI .FT                 1324 : TOP LOG INTERVAL
CBD .FT                 1327 : CASING BOTTOM DRILLER
CBL .FT                 1324 : CASING BOTTOM LOGGER
BS  .IN                 8.75 : BIT SIZE
BSD .FT                12670 : BIT SIZE AT DEPTH
DFT .               GEL CHEM : DRILLING FLUID TYPE
DFD .                      9 : DRILLING FLUID DENSITY
DFV .                    130 : DRILLING FLUID VISCOSITY
DFPH.                     10 : DRILLING FLUID PH
MSS .               FLOWLINE : MUD SAMPLE SOURCE
RMS .OHMM                3.2 : RESISTIVITY MUD SAMPLE
MST .DEGF                 56 : MUD SAMPLE TEMPERATURE
RMF .OHMM               2.94 : RESISTIVITY MUD FILTRATE SAMPLE
MFST.DEGF                 62 : MUD FILTRATE SAMPLE TEMPERATURE
RMB .OHMM               0.88 : RESISTIVITY MUD AT BHT
TCS .HRS                   4 : TIME CIRCULATED STOPPED
LUN .                   7667 : LOGGING UNIT NUMBER
LUL .                    EDM : LOGGING UNIT LOCATION
ENGI.          CAMPBELL BIGG : RECORDING ENGINEER
WITN.         SANDERS DAVIES : WITNESSED BY
CLNT.                A2DTECH : CLIENT CODE
ORIG.            2" 5" PRINT : ORIGIN OF DATA
UWI .       100101105718W500 : UNIQUE WELL ID
DICO. A2D Technologies, Inc. : DIGITIZING COMPANY
~Other -----------------------------------------------------
~ASCII -----------------------------------------------------
# ...
 8800.00000   12.32730    9.80030    9.80030  119.48730    0.18860    0.18860    2.01020    0.32770    0.37910    0.40930    8.37190   77.78220   77.78220   99.04700  101.25090  101.25090    8.37190   10.82190   10.17090   10.82190    0.28480    0.31270    0.35630    2.01020    0.13150  -30.54480   -0.49050   10.17090
 8850.00000    9.68070   12.20590   12.20590  238.15470    0.24440    0.24440    2.29610    0.24410    -999.25    0.24210    4.20670   83.49910   83.49910  100.95490   98.27020   98.27020    4.20670    4.94650    5.84040    4.94650    0.37250    0.37230    -999.25    2.29610    0.25870  -29.08240    0.00000    5.84040
 8900.00000    8.64300    8.98460    8.98460    2.39390    0.00010    0.00010    2.57850    0.07620    -999.25    0.07690  417.76540   53.62100   53.62100   20.64930   18.82520   18.82520  417.76540  951.67220 1610.44600  951.67220    0.02270    0.02270    -999.25    2.57850    0.03330  -90.55990  -60.85570 1610.44600
 8950.00000    9.32500    9.29600    9.29600    1.34330    0.08850    0.08850    2.57750    0.07720    -999.25    0.07750  766.72540   53.13310   53.13310   14.26260   16.72100   16.72100  766.72540  898.48320 1300.45810  898.48320    0.01430    0.01430    -999.25    2.57750    0.02950 -131.63570 -102.10710 1300.45810
 9000.00000    8.78650    8.94740    8.94740    3.23300   -0.00860   -0.00860    2.58710    0.07250    -999.25    0.07190  309.64230   54.60790   54.60790   16.44050   17.11120   17.11120  309.64230  630.09230 1188.19730  630.09230    0.02830    0.02830    -999.25    2.58710    0.03150 -100.99100  -71.63620 1188.19730
 9050.00000    9.06660    9.38400    9.38400    2.37890   -0.00230   -0.00230    2.47640    0.14240    -999.25    0.13660  420.95630   69.25260   69.25260  300.37290  300.09620  300.09620  420.95630 1167.94720 1463.55840 1167.94720    0.18160    0.18160    -999.25    2.47640    0.15780  -74.13130  -44.95020 1463.55840
 9100.00000    9.18110    9.45660    9.45660   55.62400    0.00290    0.00290    2.69690    0.00600    -999.25    0.00760   17.97980   59.08220   59.08220   95.86440   91.59700   91.59700   17.97980   22.77150   24.04260   22.77150    0.09570    0.09570    -999.25    2.69690    0.06560  -31.13820   -2.11580   24.04260
 9150.00000    8.77710    8.76970    8.76970   71.11340    0.05570    0.05570    2.69970    0.00330    -999.25    0.00600   14.08530   51.77240   51.77240   42.07980   52.30130   52.30130   14.08530   21.12220  185.89900   21.12220    0.12170    0.12170    -999.25    2.69970    0.03090  -97.62780  -67.48100  185.89900
 9200.00000   11.01910    9.05120    9.05120   55.52200    0.25470    0.25470    2.22700    0.27800    -999.25    0.28250   18.02120   57.31500   57.31500   32.40500   30.44360   30.44360   18.02120   24.62360   32.78280   24.62360    0.09950    0.09950    -999.25    2.22700    0.06530  -88.21000  -56.93320   32.78280
 9250.00000   10.81890    9.32470    9.32470   10.65190    0.26640    0.26640    2.52290    0.11250    -999.25    0.10940   93.93380   53.05180   53.05180   24.39620   23.64770   23.64770   93.93380  143.59540  483.12060  143.59540    0.03250    0.03250    -999.25    2.52290    0.01930  -80.62730  -48.23160  483.12060
 9300.00000    9.52000    9.20550    9.20550   63.16990    0.01120    0.01120    2.66550    0.01280    -999.25    0.02600   15.83510   58.50040   58.50040   36.88620   33.95950   33.95950   15.83510   23.93460   57.89440   23.93460    0.10690    0.10690    -999.25    2.66550    0.02480  -64.01780  -30.50340   57.89440
 9350.00000    9.51440    9.26720    9.26720    3.71820    0.00440    0.00440    2.71380   -0.00650    -999.25   -0.00220  272.62120   49.62100   49.62100   10.26630    9.85270    9.85270  272.62120  871.64480 1469.66730  871.64480    0.00280    0.00280    -999.25    2.71380    0.00020  -82.43640  -51.83120 1469.66730
 9400.00000    8.25780    7.50470    7.50470   87.90410    0.11410    0.11410    2.65790    0.02900    -999.25    0.03040   11.39930   54.91370   54.91370   15.72250   14.71820   14.71820   11.39930   30.85190  239.86060   30.85190    0.10690    0.10690    -999.25    2.65790    0.02900 -149.72690 -129.43950  239.86060
 9450.00000    8.86610    9.05520    9.05520    8.49530    0.05490    0.05490    2.39760    0.17610    -999.25    0.18270  117.78010   51.00590   51.00590   17.16710   12.41560   12.41560  117.78010  954.89610 1479.81190  954.89610    0.01750    0.01750    -999.25    2.39760   -0.00000 -123.31510 -113.39710 1479.81190
 9500.00000    8.93870    9.09010    9.09010   75.94000   -0.00300   -0.00300    2.69800    0.00660    -999.25    0.00710   13.17440   55.88750   55.88750   95.09550   99.61220   99.61220   13.17440   18.95350   30.72710   18.95350    0.08910    0.08910    -999.25    2.69800    0.05660  -11.74270   -5.93870   30.72710
 9550.00000    8.95000    8.88660    8.88660   38.28300   -0.00450   -0.00450    2.71820   -0.00610    -999.25   -0.00480   26.12420   53.39980   53.39980   86.38290   84.17170   84.17170   26.12420   36.61740   40.44310   36.61740    0.07730    0.07730    -999.25    2.71820    0.03590  -19.09340   -9.41800   40.44310
 9600.00000    9.00710    9.16450    9.16450  134.00310   -0.00910   -0.00910    2.67220    0.02380    -999.25    0.02210    7.47140   59.63420   59.63420   72.34990   72.95470   72.95470    7.47140   10.10730   11.88870   10.10730    0.12380    0.12380    -999.25    2.67220    0.07000  -40.83540  -32.74230   11.88870
 9650.00000    9.18660    9.03350    9.03350   12.01270    0.04140    0.04140    2.61900    0.05640    -999.25    0.05320   83.75600   53.68620   53.68620   42.89310   37.58790   37.58790   83.75600  132.36630  178.04540  132.36630    0.04840    0.04840    -999.25    2.61900    0.01810  -15.20440  -16.51950  178.04540
 9700.00000   10.27460    9.06940    9.06940    7.35170    0.25070    0.25070    2.58910    0.07770    -999.25    0.07070  136.02710   51.84620   51.84620   13.88710   14.45120   14.45120  136.02710  147.72850  119.92390  147.72850    0.01140    0.01140    -999.25    2.58910    0.01960  -65.27410  -69.76600  119.92390
 9750.00000    8.77670    8.89520    8.89520   10.39950    0.00490    0.00490    2.60100    0.06520    -999.25    0.06370   96.27200   52.89770   52.89770    8.75450   11.43450   11.43450   96.27200  308.03560 1558.77350  308.03560    0.03130    0.03130    -999.25    2.60100    0.02020 -140.26010 -143.83850 1558.77350
 9800.00000   10.90080    9.27820    9.27820   35.99570    0.26200    0.26200    2.62740    0.04110    -999.25    0.04830   27.82100   57.01160   57.01160   45.17670   43.54740   43.54740   27.82100   42.01570   68.92260   42.01570    0.05620    0.05620    -999.25    2.62740    0.03800  -30.54720  -33.21200   68.92260
 9850.00000    8.79720    8.93990    8.93990   47.41770    0.00290    0.00290    2.66860    0.02600    -999.25    0.02420   21.09250   56.90120   56.90120   36.25990   38.87120   38.87120   21.09250   27.80580   43.94270   27.80580    0.05560    0.05560    -999.25    2.66860    0.04590   -6.43770   -8.17970   43.94270
 9900.00000    8.82310    8.87760    8.87760   24.39270    0.00290    0.00290    2.70590    0.00170    -999.25    0.00240   41.05980   54.49100   54.49100   32.10550   33.47120   33.47120   41.05980   56.39620   75.86960   56.39620    0.04020    0.04020    -999.25    2.70590    0.02670   -3.90570   -4.51330   75.86960
 9950.00000    8.81840    8.82570    8.82570   22.29220   -0.01420   -0.01420    2.67200    0.02340    -999.25    0.02220   44.86730   54.72100   54.72100   48.17750   46.17720   46.17720   44.86730   63.12430   75.45960   63.12430    0.04290    0.04290    -999.25    2.67200    0.03460  -10.69470   -9.70650   75.45960
 10000.00000    8.86670    8.82840    8.82840   28.67110   -0.01130   -0.01130    2.67250    0.02000    -999.25    0.02190   34.87830   55.94490   55.94490   60.44730   58.35340   58.35340   34.87830   48.14240   61.06440   48.14240    0.05240    0.05240    -999.25    2.67250    0.04730   -8.40330   -5.00190   61.06440
