~Version ---------------------------------------------------
VERS.      2.0 : CWLS log ASCII Standard -VERSION 2.0
WRAP.       NO : One line per depth step
CREA. 11/10/17 : LAS Creation Date
~Well ------------------------------------------------------
STRT.FT                    1200.0 : START DEPTH
STOP.FT                   11350.0 : STOP DEPTH
STEP.FT                  50.00000 : STEP LENGTH
NULL.                     -999.25 : NULL VALUE
COMP.      PHILLIPS PETROLEUM CO. : COMPANY
WELL. PHILLIPS A TONY 10-27-62-21 : WELL
FLD .                          WC : FIELD
LOC .                             : LOCATION
CTRY.                      CANADA : COUNTRY
SRVC.      Schlumberger of Canada : SERVICE COMPANY
DATE.                 01-Mar-1958 : LOGDATE
PROV.                     Alberta : PROVINCE
UWI .            100102706221W500 : UNIQUE WELL ID
SLAT.WGS84               54.39406 : SURFACE LATITUDE
SLON.WGS84              -117.0596 : SURFACE LONGITUDE
~Curve Information -----------------------------------------
DEPT  .FT         : Depth Curve
CALMED.IN         : CALIPER FROM MICROLOG
CALWS .IN         : CALIPER [CALMED]
CONDWS.MMHO       : CONDUCTIVITY [1000/DRESWS]
DRESWS.OHMM       : DEEP RESISTIVITY [LNED]
GRNED .UgRa-Eq/T  : GAMMA RAY FROM GRN LOG [ADJ. TO EL LOG]
GRWS  .GAPI       : GAMMA RAY [GRNED*16.5]
LATED .OHMM       : 18 FOOT 8 INCH LATERAL RESISTIVITY FROM EL LOG
LLED  .OHMM       : LATERAL RESISTIVITY FROM LL RESISTIVITY LOG [ADJ. TO EL LOG]
LNED  .OHMM       : 64 INCH LONG NORMAL RESISTIVITY FROM EL LOG
NEUTED.CPS        : NEUTRON FROM GRN LOG [ADJ. TO EL LOG]
NEUTWS.CPS        : NEUTRON [NEUTED]
SNED  .OHMM       : 16 INCH SHORT NORMAL RESISTIVITY FROM EL LOG
SPR1ED.MV         : SPONTANEOUS POTENTIAL FROM LL RESISTIVITY LOG [ADJ. TO EL LOG]
SPRED .MV         : SPONTANEOUS POTENTIAL FROM EL LOG
SPWS  .MV         : SPONTANEOUS POTENTIAL [BASELINE 0MV, SPRED]
SRESWS.OHMM       : SHALLOW RESISTIVITY [SNED]
~Params ----------------------------------------------------
LMF .                     KB : LOG MEASURED FROM
DMF .                     KB : DRILLING MEASURED FROM
EKB .FT                 2925 : KELLY BUSHING
EDF .FT                 2922 : DRILLING FLOOR
EGL .FT                 2910 : GROUND LEVEL
DATE.               03/01/58 : RUN DATE
RUN .                      1 : RUN NUMBER
DD  .FT                11400 : DEPTH DRILLER
DL  .FT                11400 : DEPTH LOGGER
BLI .FT                11399 : BOTTOM LOG INTERVAL
TLI .FT                 1533 : TOP LOG INTERVAL
CBD .FT                 1532 : CASING BOTTOM DRILLER
CBL .FT                 1533 : CASING BOTTOM LOGGER
BS  .IN                12.25 : BIT SIZE
BSD .FT                11400 : BIT SIZE AT DEPTH
DFT .                    GEL : DRILLING FLUID TYPE
DFD .                   10.6 : DRILLING FLUID DENSITY
DFV .                    115 : DRILLING FLUID VISCOSITY
DFPH.                    9.7 : DRILLING FLUID PH
DFL .                      4 : DRILLING FLUID LOSS
RMF .OHMM               0.41 : RESISTIVITY MUD FILTRATE SAMPLE
MFST.DEGF                 71 : MUD FILTRATE SAMPLE TEMPERATURE
RMC .OHMM                1.2 : RESISTIVITY MUD CAKE
MCST.DEGF                 74 : MUD CAKE SAMPLE TEMPERATURE
RMB .OHMM               0.53 : RESISTIVITY MUD AT BHT
TCS .HRS                   6 : TIME CIRCULATED STOPPED
LUN .                   1785 : LOGGING UNIT NUMBER
LUL .                     WC : LOGGING UNIT LOCATION
ENGI.                LAVERTY : RECORDING ENGINEER
WITN.         FOSTER TIBBITT : WITNESSED BY
CLNT.                A2DTECH : CLIENT CODE
ORIG.            2" 5" PRINT : ORIGIN OF DATA
UWI .       100102706221W500 : UNIQUE WELL ID
DICO. A2D Technologies, Inc. : DIGITIZING COMPANY
~Other -----------------------------------------------------
~ASCII -----------------------------------------------------
# ...
 5500.00000   12.64890   12.64890  131.44230    7.60790    7.28300  120.16950    6.92010    7.97790    7.60790  191.73340  191.73340    6.66170 -149.76160 -153.52520   -2.46080    6.66170
 5550.00000   13.88870   13.88870  121.36110    8.24000    7.08010  116.82080    9.16880    8.32410    8.24000  186.28040  186.28040    6.83300 -156.40710 -153.26310   -2.50770    6.83300
 5600.00000   15.02890   15.02890  171.12740    5.84360    8.59750  141.85880    7.49750    6.26460    5.84360  190.31830  190.31830    4.95930 -154.05620 -152.27370   -1.82930    4.95930
 5650.00000   14.27250   14.27250  224.20350    4.46030    6.58220  108.60630    2.76070    4.75980    4.46030  193.44430  193.44430    3.66070 -150.31320 -152.38490   -2.24960    3.66070
 5700.00000   13.18410   13.18410  169.60940    5.89590    6.48390  106.98440    4.89230    6.06840    5.89590  203.37010  203.37010    5.51760 -151.77370 -151.68170   -1.85740    5.51760
 5750.00000   12.92760   12.92760  150.60240    6.64000    6.34170  104.63810    7.33120    6.83150    6.64000  194.20000  194.20000    5.86930 -157.13520 -151.36300   -1.84780    5.86930
 5800.00000   13.37080   13.37080   88.02710   11.36030    6.61200  109.09760    6.45960    9.43860   11.36030  184.81140  184.81140    8.00680 -151.12050 -151.99170   -3.29180    8.00680
 5850.00000    9.31760    9.31760   71.74220   13.93880    5.46810   90.22360   24.44380   14.07860   13.93880  238.81500  238.81500   11.84080 -154.17020 -155.99780   -9.33060   11.84080
 5900.00000   10.73250   10.73250  107.13650    9.34540    5.78140   95.39230    4.27370    7.50990    9.34540  223.86720  223.86720    8.14040 -152.41030 -154.41280   -9.76500    8.14040
 5950.00000    9.50410    9.50410   44.91640   22.26360    4.57700   75.52050   24.01990   19.70030   22.26360  251.44450  251.44450   19.27020 -164.30070 -163.86540  -21.25030   19.27020
 6000.00000   10.39570   10.39570   56.47830   17.70590    5.66300   93.43870   17.73430   14.11680   17.70590  247.63510  247.63510   13.44510 -153.74840 -154.37920  -13.78350   13.44510
 6050.00000    9.21950    9.21950   47.48700   21.05860    4.06580   67.08570   17.93940   29.30490   21.05860  271.26380  271.26380   19.70200 -156.04190 -154.37970  -15.80340   19.70200
 6100.00000    9.11090    9.11090   32.10730   31.14560    4.87590   80.45230   17.17010   24.19620   31.14560  222.63920  222.63920   18.11490 -162.70920 -160.83660  -24.29300   18.11490
 6150.00000   11.35660   11.35660   20.29770   49.27890    6.55120  108.09480   59.67660   31.53500   49.27890  183.65520  183.65520   25.62820 -153.28450 -149.04120  -14.51700   25.62820
 6200.00000   10.80820   10.80820   27.69050   36.11350    6.03020   99.49830   93.15720   31.72710   36.11350  178.88430  178.88430   22.51130 -150.83260 -147.19760  -14.70610   22.51130
 6250.00000    9.70840    9.70840   16.79500   59.54170    6.42020  105.93330   54.89470   98.18180   59.54170  185.81710  185.81710   33.05900 -148.51100 -144.62400  -14.15190   33.05900
 6300.00000    9.39020    9.39020   20.00000   50.00000    5.84000   96.36000   37.40490   34.09150   50.00000  248.72250  248.72250   27.49990 -155.06090 -149.68940  -21.23670   27.49990
 6350.00000   11.37970   11.37970   33.18690   30.13240    6.31610  104.21650   33.71830   21.63360   30.13240  235.00800  235.00800   16.55600 -133.94990 -130.53620   -4.11620   16.55600
 6400.00000    9.20410    9.20410   25.33480   39.47200    5.87220   96.89050   17.11020   28.93140   39.47200  240.71400  240.71400   22.23190 -137.77430 -138.39610  -14.42510   22.23190
 6450.00000   11.99550   11.99550   32.34070   30.92080    5.77830   95.34190  168.99940   41.25310   30.92080  200.99530  200.99530   22.93660 -135.77100 -134.95430  -13.49580   22.93660
 6500.00000    9.64490    9.64490   53.26940   18.77250    4.40280   72.64620   13.52360   14.99450   18.77250  241.25270  241.25270   11.59230 -142.62610 -142.25560  -23.29310   11.59230
 6550.00000    9.19590    9.19590   50.13520   19.94610    6.36090  104.95490   20.06690   18.75330   19.94610  236.55820  236.55820   16.52770 -127.12190 -126.09540   -9.62900   16.52770
 6600.00000    9.13100    9.13100   68.13380   14.67700    5.50670   90.85970   16.31250   19.09830   14.67700  242.25300  242.25300   15.14390 -126.04150 -127.51950  -13.56560   15.14390
 6650.00000    9.13780    9.13780   53.45640   18.70690    5.76200   95.07300   16.11070   17.98650   18.70690  222.08700  222.08700   15.07910 -122.57390 -123.63320  -12.17530   15.07910
 6700.00000    9.47810    9.47810   21.84300   45.78120    5.75710   94.99220   35.73650   16.62170   45.78120  197.26940  197.26940   23.80090 -113.47000 -114.80780   -5.86240   23.80090
 6750.00000    9.41740    9.41740   18.77170   53.27170    5.68650   93.82730   34.15190   62.71040   53.27170  258.67370  258.67370   38.59450 -106.99660 -109.68050   -3.23110   38.59450
 6800.00000    9.09450    9.09450   26.07200   38.36070    6.26580  103.38570   49.71210   30.35370   38.36070  206.18820  206.18820   24.16790 -120.83060 -120.92220  -13.99570   24.16790
 6850.00000    8.89450    8.89450   23.33990   42.84510    5.60420   92.46930   19.35390   38.52320   42.84510  269.78050  269.78050   28.33620 -135.17730 -136.73940  -28.93060   28.33620
 6900.00000    9.30150    9.30150   18.64320   53.69420    4.07800   67.28700  203.47530   80.84630   53.69420  272.40330  272.40330   40.68720 -153.71660 -153.07780  -44.39260   40.68720
 6950.00000   14.20020   14.20020  118.06240    8.47010    6.01880   99.31020   16.93790    9.49310    8.47010  188.79530  188.79530    7.22440 -116.02150 -118.64610   -9.07860    7.22440
 7000.00000   13.79570   13.79570  142.59230    7.01300    6.24250  103.00130    7.67630    7.18610    7.01300  180.52110  180.52110    5.48340 -113.77360 -116.27030   -5.82630    5.48340
 7050.00000   14.31870   14.31870  203.81280    4.90750    5.99680   98.94640    6.69830    5.50040    4.90750  178.12790  178.12790    4.25930 -119.73680 -115.88260   -4.56210    4.25930
 7100.00000    9.84600    9.84600    4.09740  244.05810    9.67770  159.68210  212.79760  175.40240  244.05810  220.34670  220.34670   88.49710 -125.17770 -119.11020   -7.00340   88.49710
 7150.00000    9.16380    9.16380    2.29930  434.92260    7.57590  125.00230  571.67200 2329.25130  434.92260  266.96430  266.96430  136.36600 -148.63430 -145.31840  -35.25000  136.36600
 7200.00000    9.35100    9.35100   33.26100   30.06520    4.96520   81.92580   36.72350   26.36170   30.06520  286.26540  286.26540   19.78910 -136.40890 -135.57240  -27.55590   19.78910
 7250.00000    9.18020    9.18020   30.89290   32.36990    4.88080   80.53320   35.58630   28.09000   32.36990  312.53090  312.53090   24.26400 -135.16520 -132.68640  -26.70830   24.26400
 7300.00000    9.16030    9.16030   28.25590   35.39110    5.90090   97.36570   35.62940   33.27280   35.39110  297.61210  297.61210   26.70890 -124.53720 -121.56280  -17.62320   26.70890
 7350.00000    9.01830    9.01830   20.00000   50.00000    4.85090   80.03900   55.42970   44.53920   50.00000  304.09580  304.09580   36.29110 -130.26600 -126.32580  -24.43800   36.29110
 7400.00000    9.12390    9.12390   14.40370   69.42700    5.81530   95.95330   76.37890   63.28730   69.42700  281.90560  281.90560   41.48400 -117.97400 -114.15740  -14.30810   41.48400
 7450.00000   10.07480   10.07480    8.16070  122.53880    2.59750   42.85790  186.74610   91.95730  122.53880  311.25270  311.25270   50.00000 -168.06030 -164.11450  -66.31710   50.00000
 7500.00000    9.56850    9.56850    6.62930  150.84460    2.46290   40.63790  145.96360  208.04990  150.84460  319.38220  319.38220   64.05600 -165.63890 -158.92380  -63.16480   64.05600
 7550.00000   10.76650   10.76650    4.92840  203.11100    3.04600   50.25940  180.66680  254.46890  203.11100  305.67900  305.67900   72.81650 -185.82230 -183.15600  -89.43550   72.81650
 7600.00000    9.46480    9.46480    7.70530  129.78090    2.37630   39.20900   85.90600  377.39060  129.78090  424.85750  424.85750   62.80260 -153.02990 -148.43660  -56.76790   62.80260
