~Version ---------------------------------------------------
VERS.      2.0 : CWLS log ASCII Standard -VERSION 2.0
WRAP.       NO : One line per depth step
CREA. 01/04/18 : LAS Creation Date
~Well ------------------------------------------------------
STRT.FT                               300.0 : START DEPTH
STOP.FT                             11400.0 : STOP DEPTH
STEP.FT                            50.00000 : STEP LENGTH
NULL.                               -999.25 : NULL VALUE
COMP.                  CHEVRON STANDARD LTD : COMPANY
WELL. CHEVRON CLARK 14-34-58-18 10-34-58-18 : WELL
FLD .                          KAYBOB SOUTH : FIELD
LOC .                                       : LOCATION
CTRY.                                CANADA : COUNTRY
SRVC.                          Schlumberger : SERVICE COMPANY
DATE.                           26-Oct-1968 : LOGDATE
PROV.                               Alberta : PROVINCE
UWI .                      100103405818W500 : UNIQUE WELL ID
SLAT.WGS84                         54.05952 : SURFACE LATITUDE
SLON.WGS84                        -116.5853 : SURFACE LONGITUDE
~Curve Information -----------------------------------------
DEPT   .FT    : Depth Curve
CALNED .IN    : CALIPER SIDEWALL NEUTRON  LOG (ADJ TO RES.)
CALSED .IN    : CALIPER  SONIC (ADJ TO RES.)
CALWS  .IN    : CALIPER (CALSED)
CONDWS .MMHO  : CONDUCTIVITY (1000/DRESWS)
DRESWS .OHMM  : DEEP RESISTIVITY (ILDED)
DTED   .US/F  : DELTA TIME (ADJ TO RES.)
DTWS   .US/F  : DELTA TIME
GR1ED  .GAPI  : GAMMA RAY GAMMA RAY LOG (ADJ TO RES.)
GRED   .GAPI  : GAMMA RAY GAMMA RAY LOG (ADJ TO RES.)
GRSED  .GAPI  : GAMMA RAY  SONIC (ADJ TO RES.)
GRWS   .GAPI  : GAMMA RAY (GR1ED/GRSED @ 1957')
ILDED  .OHMM  : DEEP INDUCTION RESISTIVITY
ILMED  .OHMM  : MEDIUM INDUCTION RESISTIVITY
LL8ED  .OHMM  : LATEROLOG-8 RESISTIVITY
MRESWS .OHMM  : MEDIUM RESISTIVITY (ILMED)
NPODLWS.V/V   : NEUTRON POROSITY DOLOMITE (SNPDMED)
SNPDMED.V/V   : SIDEWALL NEUTRON  DOLOMITE (ADJ TO RES.)
SPRED  .MV    : Spontaneous Potential  DIL
SPWS   .MV    : SPONTANEOUS POTENTIAL BASELINE 0 MV (SPRED)
SRESWS .OHMM  : SHALLOW RESISTIVITY (LL8ED)
~Params ----------------------------------------------------
PD  .                     GL : PERMANENT DATUM
EPD .FT               3407.1 : ELEVATION PERMANENT DATUM
LMF .                     KB : LOG MEASURED FROM
DAPD.FT                 13.9 : FEET ABOVE PERMANENT DATUM
DMF .                     KB : DRILLING MEASURED FROM
EKB .FT                 3421 : KELLY BUSHING
EDF .FT                 3407 : DRILLING FLOOR
EGL .FT               3407.1 : GROUND LEVEL
DATE.               10/26/68 : RUN DATE
RUN .                      1 : RUN NUMBER
DD  .FT                11418 : DEPTH DRILLER
DL  .FT                11421 : DEPTH LOGGER
BLI .FT                11420 : BOTTOM LOG INTERVAL
TLI .FT                10900 : TOP LOG INTERVAL
CBD .FT                 2021 : CASING BOTTOM DRILLER
CBL .FT                 2021 : CASING BOTTOM LOGGER
BS  .IN                 8.75 : BIT SIZE
BSD .FT                11418 : BIT SIZE AT DEPTH
DFT .                    GEL : DRILLING FLUID TYPE
DFD .                    9.4 : DRILLING FLUID DENSITY
DFV .                    148 : DRILLING FLUID VISCOSITY
DFPH.                   11.5 : DRILLING FLUID PH
DFL .                    6.4 : DRILLING FLUID LOSS
RMS .OHMM                1.0 : RESISTIVITY MUD SAMPLE
MST .DEGF                 62 : MUD SAMPLE TEMPERATURE
RMF .OHMM               0.84 : RESISTIVITY MUD FILTRATE SAMPLE
MFST.DEGF                 70 : MUD FILTRATE SAMPLE TEMPERATURE
RMC .OHMM               1.22 : RESISTIVITY MUD CAKE
MCST.DEGF                 70 : MUD CAKE SAMPLE TEMPERATURE
TCS .HRS                 300 : TIME CIRCULATED STOPPED
LUN .                   7501 : LOGGING UNIT NUMBER
LUL .                    EDM : LOGGING UNIT LOCATION
ENGI.               STUEHMER : RECORDING ENGINEER
WITN.                HOVDEBO : WITNESSED BY
CLNT.                A2DTECH : CLIENT CODE
ORIG.        2" 5" 10" PRINT : ORIGIN OF DATA
UWI .       100103405818W500 : UNIQUE WELL ID
DICO. A2D Technologies, Inc. : DIGITIZING COMPANY
~Other -----------------------------------------------------
~ASCII -----------------------------------------------------
# ...
 5550.00000    -999.25   11.07260   11.07260   99.77350   10.02270   81.57580   81.57580  112.43280   63.46830   78.72800   78.72800   10.02270    9.00520    8.01160    9.00520    -999.25    -999.25 -110.95210   -6.33600    8.01160
 5600.00000    -999.25   11.67800   11.67800  128.69350    7.77040   84.67980   84.67980  119.26700   62.02660   88.57910   88.57910    7.77040    7.06170    6.38930    7.06170    -999.25    -999.25 -112.62980   -8.24330    6.38930
 5650.00000    -999.25   11.71780   11.71780  108.49050    9.21740   83.88610   83.88610  112.58460   68.30370   82.95530   82.95530    9.21740    8.41240    7.93740    8.41240    -999.25    -999.25 -109.97390   -5.81700    7.93740
 5700.00000    -999.25   11.60060   11.60060  126.51980    7.90390   89.00120   89.00120  127.54530   66.75130   79.57720   79.57720    7.90390    7.66410    7.31410    7.66410    -999.25    -999.25 -107.98950   -4.06230    7.31410
 5750.00000    -999.25   10.44200   10.44200   91.53990   10.92420   88.10040   88.10040  148.18520   78.12290   91.84780   91.84780   10.92420   10.57330   10.10270   10.57330    -999.25    -999.25 -109.89490   -6.19730   10.10270
 5800.00000    -999.25   11.21570   11.21570  103.04500    9.70450   88.42520   88.42520  110.32010   63.46040   86.96640   86.96640    9.70450    9.24970    8.85530    9.24970    -999.25    -999.25 -109.10680   -5.63880    8.85530
 5850.00000    -999.25   10.01640   10.01640   59.18110   16.89730   86.33840   86.33840  124.71020   73.17070   88.26150   88.26150   16.89730   15.47500   17.78010   15.47500    -999.25    -999.25 -110.21600   -6.97760   17.78010
 5900.00000    -999.25   10.26930   10.26930   79.20730   12.62510   91.68960   91.68960  136.95030   76.06050   99.41860   99.41860   12.62510   11.86290   13.45760   11.86290    -999.25    -999.25 -109.20310   -6.19430   13.45760
 5950.00000    -999.25    9.27970    9.27970   50.26740   19.89360   96.71620   96.71620  141.20970   82.24760  104.45420  104.45420   19.89360   18.15100   24.00170   18.15100    -999.25    -999.25 -109.57280   -6.79360   24.00170
 6000.00000    -999.25    9.50560    9.50560   51.70840   19.33920   91.13750   91.13750  159.86830   84.15010   87.14170   87.14170   19.33920   17.49480   18.04310   17.49480    -999.25    -999.25 -106.69990   -4.15030   18.04310
 6050.00000    -999.25   11.57570   11.57570  118.24940    8.45670   83.55270   83.55270  111.60060   62.77060   76.76260   76.76260    8.45670    7.57320    7.12970    7.57320    -999.25    -999.25 -105.40650   -3.08660    7.12970
 6100.00000    -999.25   11.41160   11.41160  120.47760    8.30030   81.86060   81.86060  103.88190   55.76820   66.39490   66.39490    8.30030    7.50620    6.92950    7.50620    -999.25    -999.25 -105.79290   -3.70260    6.92950
 6150.00000    -999.25   10.90370   10.90370  122.25540    8.17960   78.67270   78.67270  122.42250   68.71050   75.05350   75.05350    8.17960    7.84350    6.69090    7.84350    -999.25    -999.25 -106.99380   -5.13310    6.69090
 6200.00000    -999.25   11.58960   11.58960  121.97060    8.19870   82.44250   82.44250  121.23710   57.96260   77.89950   77.89950    8.19870    7.86780    7.09520    7.86780    -999.25    -999.25 -108.37850   -6.74740    7.09520
 6250.00000    -999.25   10.49390   10.49390   62.96560   15.88170   74.09100   74.09100   91.09600   50.33490   62.78890   62.78890   15.88170   14.71970   16.67000   14.71970    -999.25    -999.25 -117.41440  -16.01290   16.67000
 6300.00000    -999.25   12.04740   12.04740  115.78360    8.63680   80.09290   80.09290  123.65610   64.27880   85.10710   85.10710    8.63680    8.17420    7.67460    8.17420    -999.25    -999.25 -103.61150   -2.43960    7.67460
 6350.00000    -999.25   14.45140   14.45140  187.34310    5.33780   90.75720   90.75720  122.15360   61.86350   81.49160   81.49160    5.33780    5.03470    4.80700    5.03470    -999.25    -999.25  -99.81240    1.12980    4.80700
 6400.00000    -999.25   15.04250   15.04250  184.70630    5.41400   94.32760   94.32760  123.21320   67.60410   91.86550   91.86550    5.41400    5.00070    4.72030    5.00070    -999.25    -999.25  -98.81230    1.90030    4.72030
 6450.00000    -999.25   15.15780   15.15780  332.41370    3.00830  108.73130  108.73130   83.70520   45.50230   76.66310   76.66310    3.00830    2.57250    2.83980    2.57250    -999.25    -999.25 -114.26340  -13.78040    2.83980
 6500.00000    -999.25   15.13890   15.13890  196.33250    5.09340   87.49450   87.49450   76.05270   45.77600   67.75550   67.75550    5.09340    4.12580    4.26630    4.12580    -999.25    -999.25  -97.85750    2.39590    4.26630
 6550.00000    -999.25   11.90180   11.90180  240.40770    4.15960   99.95900   99.95900   69.90810   42.29830   63.46900   63.46900    4.15960    3.44180    3.92470    3.44180    -999.25    -999.25  -99.14490    0.87890    3.92470
 6600.00000    -999.25   10.12810   10.12810   37.68490   26.53580   70.40590   70.40590   66.39940   41.48530   55.11290   55.11290   26.53580   22.59160   25.44580   22.59160    -999.25    -999.25 -114.20170  -14.40750   25.44580
 6650.00000    -999.25   12.28050   12.28050   92.56430   10.80330   78.43430   78.43430   83.63540   48.01070   71.23370   71.23370   10.80330    9.93580    9.33790    9.93580    -999.25    -999.25 -101.20810   -1.64360    9.33790
 6700.00000    -999.25   10.98000   10.98000   73.36860   13.62980   73.51060   73.51060   79.36370   43.04730   59.23080   59.23080   13.62980   10.54730   10.55170   10.54730    -999.25    -999.25 -104.32850   -4.99360   10.55170
 6750.00000    -999.25   11.26100   11.26100   59.35210   16.84860   75.11970   75.11970   55.93060   27.19060   39.41520   39.41520   16.84860   14.13340   13.58550   14.13340    -999.25    -999.25 -119.23630  -20.13100   13.58550
 6800.00000    -999.25   12.20320   12.20320   82.62070   12.10350   76.62910   76.62910   75.47080   39.28280   67.22110   67.22110   12.10350    8.93580    8.08790    8.93580    -999.25    -999.25 -112.86150  -13.98580    8.08790
 6850.00000    -999.25   11.71470   11.71470   66.11310   15.12560   88.75900   88.75900   75.94110   44.11720   68.21740   68.21740   15.12560   10.00140   11.60630   10.00140    -999.25    -999.25 -105.96240   -7.31630   11.60630
 6900.00000    -999.25   11.55580   11.55580   84.79030   11.79380   78.36870   78.36870   92.45950   43.59980   63.09370   63.09370   11.79380   12.41970    9.84320   12.41970    -999.25    -999.25 -106.92020   -8.50370    9.84320
 6950.00000    -999.25   12.86390   12.86390   88.54260   11.29400   73.00220   73.00220   89.13490   45.77820   68.45880   68.45880   11.29400   10.61580   10.01380   10.61580    -999.25    -999.25 -105.64330   -7.45640   10.01380
 7000.00000    -999.25   12.34940   12.34940   82.17740   12.16880   74.49530   74.49530   83.92150   48.25260   68.39870   68.39870   12.16880    9.25830   10.10170    9.25830    -999.25    -999.25 -106.19370   -8.23650   10.10170
 7050.00000    -999.25   11.71920   11.71920   71.67380   13.95210   83.83430   83.83430   87.45100   54.67250   75.06850   75.06850   13.95210   11.13010   12.93570   11.13010    -999.25    -999.25 -104.86300   -7.13540   12.93570
 7100.00000    -999.25   11.15230   11.15230   69.68300   14.35070   70.10690   70.10690   42.61100   30.67950   46.70200   46.70200   14.35070   13.40670   12.97650   13.40670    -999.25    -999.25 -106.82920   -9.33120   12.97650
 7150.00000    -999.25   10.84170   10.84170  117.05760    8.54280   73.24690   73.24690   83.70340   45.84900   62.67170   62.67170    8.54280    8.97420   11.53770    8.97420    -999.25    -999.25 -123.06630  -25.79790   11.53770
 7200.00000    -999.25   10.20040   10.20040   82.47080   12.12550   62.85390   62.85390   55.98850   39.02410   64.85640   64.85640   12.12550   11.06720   14.34930   11.06720    -999.25    -999.25 -102.98960   -6.09850   14.34930
 7250.00000    -999.25   10.49150   10.49150  109.96260    9.09400   75.65890   75.65890   59.93420   34.97220   53.97880   53.97880    9.09400    8.59770    9.38900    8.59770    -999.25    -999.25 -116.34330  -20.42010    9.38900
