~Version ---------------------------------------------------
VERS.      2.0 : CWLS log ASCII Standard -VERSION 2.0
WRAP.       NO : One line per depth step
CREA. 08/31/17 : LAS Creation Date
~Well ------------------------------------------------------
STRT.FT                       1300.0 : START DEPTH
STOP.FT                      12650.0 : STOP DEPTH
STEP.FT                     50.00000 : STEP LENGTH
NULL.                        -999.25 : NULL VALUE
COMP.           PETROFINA CANADA LTD : COMPANY
WELL. FINA AMOCO HB MAYBERNE 10-11-5 : WELL
FLD .                                : FIELD
LOC .                                : LOCATION
CTRY.                         CANADA : COUNTRY
SRVC.                   Schlumberger : SERVICE COMPANY
DATE.                    03-Apr-1977 : LOGDATE
PROV.                        Alberta : PROVINCE
UWI .               100101105718W500 : UNIQUE WELL ID
SLAT.WGS84                  53.91479 : SURFACE LATITUDE
SLON.WGS84                 -116.5629 : SURFACE LONGITUDE
~Curve Information -----------------------------------------
DEPT    .FT    : Depth Curve
CALDED  .IN    : DIFFERENTIAL CALIPER FROM DENSITY LOG
CALSED  .IN    : CALIPER FROM SONIC LOG [ADJ. TO GRED]
CALWS   .IN    : CALIPER [CALSED]
CONDWS  .MMHO  : CONDCUTIVITY [1000/DRESWS]
DCORED  .G/C3  : DENSITY CORRECTION FROM DENSITY LOG
DCORWS  .G/C3  : DENSITY CORRECTION [DRHOED]
DENWS   .G/C3  : FORMATION BULK DENSITY [RHOBED]
DPHILSED.V/V   : DENSITY POROSITY LIME [M=2.71, F=1.0] FROM DENSITY LOG [ADJ. TO RHOBED]
DPHISSED.V/V   : DENSITY POROSITY SAND [M=2.65, F=1.0] FROM DENSITY LOG [ADJ, TO RHOBED]
DPOLSWS .V/V   : DENSITY POROSITY LIME [CALC FROM DENWS, M=2.71, F=1.0]
DRESWS  .OHMM  : DEEP RESISTIVITY [ILDED]
DTED    .US/F  : DELTA-T FROM SONIC LOG [ADJ. TO GRDED]
DTWS    .US/F  : COMPRESSIONAL SONIC [DTED]
GRDED   .GAPI  : GAMMA RAY FROM DENSITY LOG
GRSED   .GAPI  : GAMMA RAY FROM SONIC LOG
GRWS    .GAPI  : GAMMA RAY [GRSED]
ILDED   .OHMM  : DEEP INDUCTION RESISTIVITY FROM RESISTIVITY LOG
ILMED   .OHMM  : MEDIUM INDUCTION RESISTIVITY FROM RESISTIVITY LOG
LL8ED   .OHMM  : LATEROLOG-8 RESISTIVITY FROM RESISTIVITY LOG
MRESWS  .OHMM  : MEDIUM RESISTIVITY [ILMED]
NPHILSED.V/V   : NEUTRON POROSITY LIME FROM DENSITY LOG [ADJ. TO RHOBED]
NPOLSWS .V/V   : NEUTRON POROSITY LIME [SS CONVERTS TO LS. SPL. TO LS @ 8849']
NPORSSED.V/V   : NEUTRON POROSITY SAND FROM DENSITY LOG [ADJ. TO RHOBED]
RHOBED  .G/C3  : DENSITY FORMATION DENSITY FROM DENSITY LOG
SPHIED  .V/V   : SONIC POROSITY [DTM=189, DTF=55.6] FROM SONIC LOG [ADJ. TO GRDED]
SPRED   .MV    : SPONTANEOUS POTENTIAL FROM RESISTIVITY LOG
SPWS    .MV    : SPONTANEOUS POTENTIAL [BASELINE 0 MV, SPRED]
SRESWS  .OHMM  : SHALLOW RESISTIVITY [LL8ED]
~Params ----------------------------------------------------
PD  .                     GL : PERMANENT DATUM
EPD .FT                 4315 : ELEVATION PERMANENT DATUM
LMF .                     KB : LOG MEASURED FROM
DAPD.FT                   17 : FEET ABOVE PERMANENT DATUM
EKB .FT                 4322 : KELLY BUSHING
EGL .FT                 4315 : GROUND LEVEL
DATE.               04/03/77 : RUN DATE
RUN .                      1 : RUN NUMBER
DD  .FT                12670 : DEPTH DRILLER
DL  .FT                12672 : DEPTH LOGGER
BLI .FT                12669 : BOTTOM LOG INTERVAL
TLI .FT                 1324 : TOP LOG INTERVAL
CBD .FT                 1327 : CASING BOTTOM DRILLER
CBL .FT                 1324 : CASING BOTTOM LOGGER
BS  .IN                 8.75 : BIT SIZE
BSD .FT                12670 : BIT SIZE AT DEPTH
DFT .               GEL CHEM : DRILLING FLUID TYPE
DFD .                      9 : DRILLING FLUID DENSITY
DFV .                    130 : DRILLING FLUID VISCOSITY
DFPH.                     10 : DRILLING FLUID PH
MSS .               FLOWLINE : MUD SAMPLE SOURCE
RMS .OHMM                3.2 : RESISTIVITY MUD SAMPLE
MST .DEGF                 56 : MUD SAMPLE TEMPERATURE
RMF .OHMM               2.94 : RESISTIVITY MUD FILTRATE SAMPLE
MFST.DEGF                 62 : MUD FILTRATE SAMPLE TEMPERATURE
RMB .OHMM               0.88 : RESISTIVITY MUD AT BHT
TCS .HRS                   4 : TIME CIRCULATED STOPPED
LUN .                   7667 : LOGGING UNIT NUMBER
LUL .                    EDM : LOGGING UNIT LOCATION
ENGI.          CAMPBELL BIGG : RECORDING ENGINEER
WITN.         SANDERS DAVIES : WITNESSED BY
CLNT.                A2DTECH : CLIENT CODE
ORIG.            2" 5" PRINT : ORIGIN OF DATA
UWI .       100101105718W500 : UNIQUE WELL ID
DICO. A2D Technologies, Inc. : DIGITIZING COMPANY
~Other -----------------------------------------------------
~ASCII -----------------------------------------------------
# ...
 11300.00000    8.90210    8.70910    8.70910   19.28200    0.02020    0.02020    2.65900    0.03420    -999.25    0.02980   51.86840   54.06840   54.06840   35.91890   41.53360   41.53360   51.86840   66.86660  100.12200   66.86660    0.04580    0.04580    -999.25    2.65900    0.03100  -44.85370  -26.45130  100.12200
 11350.00000    8.80420    8.84430    8.84430   54.73870   -0.01160   -0.01160    2.67030    0.02020    -999.25    0.02320   18.26880   58.50350   58.50350   50.86440   52.84870   52.84870   18.26880   24.86660   29.25580   24.86660    0.08460    0.08460    -999.25    2.67030    0.06310  -24.12530   -9.05570   29.25580
 11400.00000    8.87630    8.96440    8.96440   71.86590   -0.02510   -0.02510    2.66070    0.03080    -999.25    0.02880   13.91600   61.43700   61.43700   66.71410   66.91530   66.91530   13.91600   18.59760   20.03700   18.59760    0.11480    0.11480    -999.25    2.66070    0.07980  -13.38690   -1.63360   20.03700
 11450.00000    9.33130    8.98300    8.98300    4.53530    0.08560    0.08560    2.66800    0.02050    -999.25    0.02460  220.59060   50.26730   50.26730   28.92450   28.44320   28.44320  220.59060  465.29570  180.43850  465.29570    0.02000    0.02000    -999.25    2.66800   -0.00140  -67.31900  -57.68680  180.43850
 11500.00000    9.03520    8.92390    8.92390   45.82770   -0.00640   -0.00640    2.65210    0.03330    -999.25    0.03390   21.85350   62.17390   62.17390   86.23050   98.33220   98.33220   21.85350   29.31130   31.47790   29.31130    0.14460    0.14460    -999.25    2.65210    0.09200  -20.51950  -12.40870   31.47790
 11550.00000    9.47760    9.21240    9.21240   29.40630    0.19090    0.19090    2.68780    0.01140    -999.25    0.01300   34.00780   52.89160   52.89160   41.57200   40.26950   40.26950   34.00780   50.36560   63.98720   50.36560    0.04050    0.04050    -999.25    2.68780    0.02940  -22.59050  -16.00120   63.98720
 11600.00000   11.11400    9.45810    9.45810  133.58050    0.21440    0.21440    2.42540    0.17180    -999.25    0.16640    7.48950   70.11240   70.11240   94.30370   92.52380   92.52380    7.48950    9.87820   10.89750    9.87820    0.19060    0.19060    -999.25    2.42540    0.15250  -15.31850  -10.26590   10.89750
 11650.00000    9.83890    9.56260    9.56260  127.04620    0.25280    0.25280    2.50040    0.12070    -999.25    0.12260    7.87440   73.59050   73.59050  104.09120  100.81830  100.81830    7.87440   10.46400   12.60390   10.46400    0.19880    0.19880    -999.25    2.50040    0.16960   -8.06690   -4.54340   12.60390
 11700.00000    9.14850    9.00740    9.00740   40.11690    0.24220    0.24220    2.63280    0.04930    -999.25    0.04520   24.92920   61.39870   61.39870   86.98660   86.73340   86.73340   24.92920   29.32520   29.09580   29.32520    0.10630    0.10630    -999.25    2.63280    0.08640   -7.07180   -8.19130   29.09580
 11750.00000    9.11590    9.01830    9.01830   65.27660    0.17490    0.17490    2.67020    0.02250    -999.25    0.02320   15.32260   58.98600   58.98600   66.34600   63.98290   63.98290   15.32260   22.09830   33.44180   22.09830    0.09830    0.09830    -999.25    2.67020    0.06280  -13.82730  -22.21290   33.44180
 11800.00000    8.88000    8.85210    8.85210  104.16640    0.03020    0.03020    2.63310    0.04180    -999.25    0.04500    9.60020   66.13710   66.13710   92.10120  100.79700  100.79700    9.60020   14.53430   14.93120   14.53430    0.16940    0.16940    -999.25    2.63310    0.11460  -12.40390  -28.05570   14.93120
 11850.00000    9.16000    9.00600    9.00600  121.94600    0.14710    0.14710    2.64560    0.03850    -999.25    0.03760    8.20060   68.50440   68.50440   89.88040   91.37350   91.37350    8.20060   13.49430   12.71860   13.49430    0.16480    0.16480    -999.25    2.64560    0.13050  -24.95280  -47.94380   12.71860
 11900.00000    9.92610    9.47040    9.47040  147.25800    0.17830    0.17830    2.57900    0.07920    -999.25    0.07660    6.79110   75.45120   75.45120  114.31130  115.61390  115.61390    6.79110   11.35580   10.20650   11.35580    0.22700    0.22700    -999.25    2.57900    0.17890  -20.65010  -50.94390   10.20650
 11950.00000    8.64560    8.98630    8.98630   87.98590    0.00140    0.00140    2.64470    0.03570    -999.25    0.03820   11.36950   72.87500   72.87500  106.01920  114.51980  114.51980   11.36950   17.67590   16.98260   17.67590    0.18950    0.18950    -999.25    2.64470    0.16160   39.70160    0.00000   16.98260
 12000.00000    8.62110    8.72760    8.72760    2.83280    0.00030    0.00030    2.53600    0.10620    -999.25    0.10180  355.58490   71.03130   71.03130  148.27700  144.92090  144.92090  355.58490 1212.55770 1549.86320 1212.55770    0.17870    0.17870    -999.25    2.53600    0.15630  -43.65400  -70.26570 1549.86320
 12050.00000    8.61900    8.65850    8.65850    1.30280    0.00770    0.00770    2.50250    0.12330    -999.25    0.12130  767.59430   71.64400   71.64400  202.84440  214.67440  214.67440  767.59430 1359.94890 1554.90330 1359.94890    0.13900    0.13900    -999.25    2.50250    0.14600  -92.69930 -110.26620 1554.90330
 12100.00000    8.60050    8.74420    8.74420    2.11910    0.00650    0.00650    2.47130    0.14140    -999.25    0.13960  481.34310   71.03180   71.03180  161.62190  162.02430  162.02430  481.34310 1076.42840  891.72760 1076.42840    0.16640    0.16640    -999.25    2.47130    0.15100 -122.61990 -138.90870  891.72760
 12150.00000    8.82270    8.70320    8.70320    1.76780   -0.00380   -0.00380    2.46900    0.13970    -999.25    0.14090  570.46110   72.73930   72.73930  137.54570  142.81830  142.81830  570.46110 1296.47000 1470.36180 1296.47000    0.18350    0.18350    -999.25    2.46900    0.16260  -75.99320  -91.01020 1470.36180
 12200.00000    9.59720    8.99110    8.99110    1.63470    0.26340    0.26340    2.72220   -0.01170    -999.25   -0.00710  612.32760   50.90810   50.90810   28.04600   28.57770   28.57770  612.32760 1344.22230 1428.95730 1344.22230    0.02940    0.02940    -999.25    2.72220    0.00480  -71.85160  -86.80100 1428.95730
 12250.00000    9.40530    8.86090    8.86090    1.22110    0.18140    0.18140    2.36320    0.17990    -999.25    0.20280  820.30920   49.69710   49.69710   18.34510   17.32370   17.32370  820.30920 1406.74980 1353.72410 1406.74980    0.05370    0.05370    -999.25    2.36320   -0.01470 -148.63280 -165.50330 1353.72410
 12300.00000    8.31940    8.05250    8.05250    3.23230    0.06490    0.06490    2.66170    0.02700    -999.25    0.02820  310.31990   49.31720   49.31720   14.49130   14.84780   14.84780  310.31990 1115.74050  513.34540 1115.74050    0.11950    0.11950    -999.25    2.66170    0.03370 -162.82660 -181.61820  513.34540
 12350.00000    8.08230    8.11290    8.11290   10.07620    0.07080    0.07080    2.62840    0.04930    -999.25    0.04780   99.41010   52.17440   52.17440   12.53340   11.67620   11.67620   99.41010  146.11620  206.81310  146.11620    0.15680    0.15680    -999.25    2.62840    0.02510 -110.87770 -131.60970  206.81310
 12400.00000    8.28540    8.02340    8.02340   19.31710    0.11260    0.11260    2.64330    0.03290    -999.25    0.03910   51.76800   54.69400   54.69400   13.00330   12.57690   12.57690   51.76800   99.63330   93.90490   99.63330    0.13410    0.13410    -999.25    2.64330    0.04250  -89.89300 -112.55570   93.90490
 12450.00000    8.18390    7.98290    7.98290   23.13310    0.13900    0.13900    2.70130   -0.00830    -999.25    0.00510   43.25600   53.71600   53.71600   14.71100   13.26790   13.26790   43.25600   82.77570  161.92570   82.77570    0.09660    0.09660    -999.25    2.70130    0.01480  -89.24410 -113.84710  161.92570
 12500.00000    8.77890    8.72640    8.72640    2.79230    0.25650    0.25650    2.59530    0.05970    -999.25    0.06700  359.05370   47.01940   47.01940   13.01570   13.75220   13.75220  359.05370 1383.95420  630.79760 1383.95420    0.07370    0.07370    -999.25    2.59530   -0.02440 -110.34300 -136.86700  630.79760
