~Version ---------------------------------------------------
VERS. 2.0 : CWLS log ASCII Standard -VERSION 2.0
WRAP.  NO : ONE LINE PER DEPTH STEP
~Well ------------------------------------------------------
STRT.M                               380.5 : START DEPTH
STOP.M                              2549.3 : STOP DEPTH
STEP.M                             0.20000 : STEP LENGTH
NULL.                              -999.25 : NULL VALUE
COMP.                DEVON ARL CORPORATION : COMPANY
WELL. DEVON ARL ETAL 7D GVILLEE 7-25-76-23 : WELL
FLD .                                      : FIELD
LOC .                                      : LOCATION
CTRY.                               CANADA : COUNTRY
SRVC.                         Schlumberger : SERVICE COMPANY
DATE.                          06-Mar-2003 : LOGDATE
PROV.                              Alberta : PROVINCE
UWI .                     100072507623W500 : UNIQUE WELL ID
SLAT.WGS84                        55.61368 : SURFACE LATITUDE
SLON.WGS84                       -117.4224 : SURFACE LONGITUDE
~Curve Information -----------------------------------------
DEPT    .M    0   1   0  0 : 1 MEASURED DEPTH
GRS     .GAPI 60 310 01 00 : GAMMA RAY FROM SONIC LOG
HDS     .MM   60 280 00 00 : HOLE DIAMETER FROM SONIC
DT      .US/M 60 500 00 00 : DELTA-T (INTERVAL TRANSIT TIME)
HCALS   .MM   60 280 50 00 : HRCC CALIPER CALIBRATED FROM SONIC LOG
TENS    .N    60 635 00 00 : TENSION FROM SONIC LOG
GRR     .GAPI 06 310 01 00 : GAMMA RAY FROM RESISTIVITY LOG
RXOZ    .OHMM 06 270 04 00 : INVADED FORMATION RESISTIVITY FILTERED AT 18 INCHES
TENR    .N    06 635 00 00 : TENSION FROM RESISTIVITY LOG
SPR     .MV   06 010 01 00 : SPONTANEOUS POTENTIAL FROM RESISTIVITY LOG
AHF30   .OHMM 06 120 30 00 : ARRAY INDUCTION FOUR FOOT RESISTIVITY A30
AHF20   .OHMM 06 120 20 00 : ARRAY INDUCTION FOUR FOOT RESISTIVITY A20
AHF60   .OHMM 06 120 60 00 : ARRAY INDUCTION FOUR FOOT RESISTIVITY A60
GRD     .GAPI 45 310 01 00 : GAMMA RAY FROM DENSITY LOG
NPOR_SAN.DEC  42 890 03 00 : ENHANCED THERMAL NEUTRON POROSITY (SANDSTONE)
HDD     .MM   45 280 60 00 : HOLE DIAMETER
HCALD   .MM   45 280 60 00 : HRCC CALIPER CALIBRATED FROM DENSITY LOG
DPHI_SAN.DEC  45 890 12 00 : DENSITY POROSITY (MATRIX SANDSTONE)
HDRA    .K/M3 45 356 01 00 : HRDD SPINE AND RIBS DENSITY CORRECTION
PEFZ    .B/E  45 358 01 00 : HRDD STANDARD RESOLUTION FORMATION PHOTOELECTRIC FACTOR
TEND    .N    45 635 00 00 : TENSION FROM DENSITY LOG
NPOR_LS .DEC  42 890 01 00 : NEUTRON POROSITY LIMESTONE
DPHI_LS .DEC  45 890 10 00 : DENSITY POROSITY LIMESTONE
RHOZ    .K/M3 45 350 01 00 : HRDD STANDARD RESOLUTION FORMATION DENSITY
~Params ----------------------------------------------------
PD  .                                  GL : PERMANENT DATUM
EPD .M                              551.9 : ELEVATION PERMANENT DATUM
LMF .                                  KB : LOG MEASURED FROM
DAPD.M                                4.7 : FEET ABOVE PERMANENT DATUM
DMF .                                  KB : DRILLING MEASURED FROM
EKB .M                              556.6 : KELLY BUSHING
EDF .M                              556.3 : DRILLING FLOOR
EGL .M                              551.9 : GROUND LEVEL
DATE.                            03/06/03 : RUN DATE
RUN .                                   1 : RUN NUMBER
DD  .M                               2545 : DEPTH DRILLER
DL  .M                               2544 : DEPTH LOGGER
BLI .M                             2538.3 : BOTTOM LOG INTERVAL
TLI .M                                421 : TOP LOG INTERVAL
CS  .MM                             219.1 : CASING SIZE
CBD .M                                421 : CASING BOTTOM DRILLER
CBL .M                              420.5 : CASING BOTTOM LOGGER
BS  .MM                               200 : BIT SIZE
BSD .M                               2545 : BIT SIZE AT DEPTH
DFT .                            GEL CHEM : DRILLING FLUID TYPE
DFD .                                1050 : DRILLING FLUID DENSITY
DFV .                                  83 : DRILLING FLUID VISCOSITY
DFPH.                                10.5 : DRILLING FLUID PH
DFL .                                   7 : DRILLING FLUID LOSS
MSS .                            FLOWLINE : MUD SAMPLE SOURCE
RMS .OHMM                            1.27 : RESISTIVITY MUD SAMPLE
MST .DEGC                              17 : MUD SAMPLE TEMPERATURE
RMF .OHMM                            0.98 : RESISTIVITY MUD FILTRATE SAMPLE
MFST.DEGC                              18 : MUD FILTRATE SAMPLE TEMPERATURE
RMC .OHMM                            1.55 : RESISTIVITY MUD CAKE
MCST.DEGC                              18 : MUD CAKE SAMPLE TEMPERATURE
MFSS.                            MEASURED : MUD FILTRATE SAMPLE SOURCE
MCSS.                             MEAURED : MUD CAKE SAMPLE SOURCE
RMB .OHMM                           0.566 : RESISTIVITY MUD AT BHT
TCS .HRS                              640 : TIME CIRCULATED STOPPED
TLAB.HRS                             1645 : TIME LOGGER AT BOTTOM
LUN .                                2133 : LOGGING UNIT NUMBER
LUL .                      GRANDE PRAIRIE : LOGGING UNIT LOCATION
ENGI.                            STIRLING : RECORDING ENGINEER
WITN.                              MCLEAY : WITNESSED BY
CLNT.                             A2DTECH : CLIENT CODE
ORIG. 6.5"/100M 16.5"/100M 33"/100M PRINT : ORIGIN OF DATA
UWI .                    100072507623W500 : UNIQUE WELL ID
DICO.              A2D Technologies, Inc. : DIGITIZING COMPANY
~Other -----------------------------------------------------
~ASCII -----------------------------------------------------
# ...
 1268.50000   31.91130  259.99400  188.87140  256.75440 14430.64940   31.76510   26.40350 14503.90620  -36.48360    6.45040    6.75000    7.18590   31.86530    -999.25  259.27420  256.91010    -999.25   -8.35840    4.26810 14400.25880    0.06000    0.04740 2663.04520
 1268.70000   30.25210  262.52880  200.67360  258.10330 14484.80270   30.20690   38.17840 14515.87400  -40.18490    4.89030    5.48250    4.64750   30.11260    -999.25  261.34970  257.79930    -999.25   -4.20030    4.17430 14498.72360    0.15820    0.09110 2629.69170
 1268.90000   32.01490  264.29260  217.53460  260.43480 14402.37010   31.92280    5.91650 14579.12300  -44.44720    3.40640    3.87400    3.11420   31.97930    -999.25  263.92530  259.11930    -999.25   -3.06260    3.78560 14410.35160    0.29190    0.13270 2532.97850
 1269.10000   29.93830  264.37800  222.03920  262.08330 14346.17090   30.14910    2.82910 14525.03710  -48.22370    2.65230    2.75870    2.52670   29.96480    -999.25  265.72510  262.34930    -999.25   -1.83980    3.28670 14375.54980    0.35650    0.12920 2459.04590
 1269.30000   26.92160  264.44030  208.96740  262.68870 14316.41700   26.83390    2.69710 14439.45020  -50.30680    2.65430    2.71100    2.58150   26.90820    -999.25  265.41890  262.27180    -999.25    0.70840    3.64370 14339.19040    0.22410    0.08240 2480.98360
 1269.50000   26.58830  264.54540  191.90090  259.90110 14363.22460   26.75270    4.77300 14394.62110  -49.74280    3.36980    3.52020    3.15610   26.87980    -999.25  264.99510  259.89800    -999.25   -0.83200    4.22700 14319.18160    0.11790    0.04300 2594.01710
 1269.70000   26.59390  264.68390  185.99210  257.63620 14404.99020   26.61050   19.78000 14451.00000  -48.34780    4.37560    4.57090    4.09820   26.68450    -999.25  265.00120  257.36750    -999.25   -2.35580    4.27240 14319.52640    0.07650    0.02950 2672.66090
 1269.90000   27.38060  265.79880  191.45850  257.98080 14355.12010   27.68150   31.52590 14390.65620  -46.20590    5.68170    5.91740    5.32150   27.47530    -999.25  265.68550  257.49830    -999.25   -8.06520    3.97660 14319.74410    0.10990    0.04530 2647.31860
 1270.10000   32.43670  268.70100  201.41430  259.45940 14306.36620   33.37830   15.50590 14314.98050  -44.09850    4.94860    5.48070    4.29490   32.33310    -999.25  267.35370  258.67680    -999.25   -5.48330    3.70210 14286.70900    0.16970    0.07510 2605.66210
 1270.30000   39.38650  270.95840  217.09000  261.13800 14309.76950   40.34330    9.50520 14279.23540  -43.71410    2.78130    3.06190    2.42020   39.59770    -999.25  269.69110  259.94850    -999.25   -3.04700    3.47870 14250.07910    0.24430    0.11260 2557.75980
 1270.50000   44.72820  273.86900  231.56400  263.90010 14305.26270   45.00970    5.46950 14375.03810  -46.31420    1.64640    1.79010    1.45240   44.54500    -999.25  272.00300  261.81480    -999.25    6.63080    3.28070 14315.31150    0.32530    0.15720 2492.72190
 1270.70000   46.01610  277.86260  249.69550  268.01160 14301.66990   43.71610    2.81220 14403.24800  -49.64290    1.01580    1.07490    0.95530   46.20050    -999.25  275.79370  266.15190    -999.25    6.47630    3.05580 14292.63670    0.35890    0.19950 2398.65360
 1270.90000   42.14240  282.07470  260.73460  272.32380 14305.75880   38.41580    2.18150 14359.63090  -52.97150    0.79580    0.82920    0.74970   41.59130    -999.25  280.15300  270.81890    -999.25    0.37490    2.94640 14233.81050    0.37730    0.22410 2344.08110
 1271.10000   34.63510  287.66160  263.87580  276.03460 14310.81640   33.49290    2.25990 14228.76950  -56.02390    0.69210    0.70640    0.67090   34.76010    -999.25  284.87350  274.67250    -999.25   -2.42790    2.87280 14254.96190    0.39530    0.23600 2314.68140
 1271.30000   28.98950  292.51970  265.50420  279.03180 14315.87400   28.69850    2.09700 14288.97070  -58.17930    0.61580    0.62910    0.59620   28.91400    -999.25  290.42370  277.88260    -999.25   -0.51840    2.81030 14252.53710    0.42640    0.23720 2304.30490
 1271.50000   27.44400  294.06610  266.88590  280.70730 14318.52830   27.24300    1.94770 14422.13960  -57.51380    0.60120    0.60960    0.58880   27.39540    -999.25  293.46630  279.84870    -999.25    4.13700    2.82590 14319.56050    0.47710    0.22830 2304.18380
 1271.70000   27.22640  293.18150  262.40850  280.46070 14342.26270   26.95930    1.64670 14482.35450  -56.07620    0.65000    0.66320    0.63070   27.18290    -999.25  294.02670  281.12950    -999.25   16.88210    2.91950 14397.45610    0.44640    0.20390 2323.32930
 1271.90000   27.40390  280.06800  241.37540  277.08990 14391.50390   27.45870    1.42560 14522.89940  -54.39820    0.73270    0.77200    0.70230   27.43510    -999.25  291.03580  279.66420    -999.25   26.48440    3.04780 14429.60350    0.37090    0.15530 2377.47170
 1272.10000   29.82830  261.23510  216.97210  264.39510 14440.74510   30.52740    1.95350 14643.93750  -51.80230    1.00450    1.05830    0.92870   30.04430    -999.25  276.06380  266.20150    -999.25   18.53880    3.18330 14562.81840    0.24150    0.11410 2481.92800
 1272.30000   35.48170  258.26690  207.75740  252.99130 14454.68160   36.85010    5.18120 14673.50200  -48.92780    1.37720    1.45100    1.27290   35.68520    -999.25  259.69530  254.44780    -999.25    6.36180    3.31630 14529.14360    0.17580    0.10020 2541.92430
 1272.50000   37.20720  257.68950  209.93070  254.39630 14410.49510   36.41220   11.95840 14527.54790  -50.35100    1.88800    1.98930    1.74480   37.30580    -999.25  254.07530  253.53360    -999.25    0.48660    3.39790 14377.79490    0.24480    0.09870 2534.00290
 1272.70000   31.42320  256.68960  209.91970  256.15260 14372.09860   29.04340    4.89910 14336.20310  -54.76420    2.52210    2.62000    2.30660   32.32820    -999.25  256.31280  255.42890    -999.25   -1.96170    3.50210 14339.94920    0.26550    0.07170 2531.51950
 1272.90000   23.47280  254.94050  205.17580  255.92520 14457.51760   21.93220    5.56080 14462.96970  -56.92960    3.16310    3.28560    2.95840   24.27080    -999.25  256.81260  255.70260    -999.25    0.58670    3.82520 14490.32230    0.19420    0.01400 2659.72460
 1273.10000   21.13090  253.26510  196.71760  253.92580 14515.10450   21.37030   23.67330 14541.97170  -56.80570    3.96700    4.12040    3.74550   21.27320    -999.25  255.23450  254.77420    -999.25    0.11410    4.43300 14503.13870    0.17180   -0.01860 2710.44970
 1273.30000   22.23690  252.58110  189.19740  253.30160 14531.33590   22.50400   26.58320 14536.91410  -56.34570    4.80310    4.92070    4.66140   22.49830    -999.25  253.65640  253.42200    -999.25   -1.83220    4.76120 14456.16500    0.13910   -0.02540 2749.61650
 1273.50000   22.18130  252.39450  187.09170  252.49220 14450.70700   22.11110   21.43060 14536.12890  -55.94730    5.34080    5.59030    5.18380   22.44260    -999.25  253.18680  252.36590    -999.25  -17.57200    4.73270 14385.27150    0.09280   -0.02400 2761.37450
 1273.70000   21.70630  252.73710  184.56290  251.00540 14448.48440   22.07530   32.83020 14553.43260  -55.29610    5.69110    5.74780    5.60680   21.84520    -999.25  253.18680  251.79900    -999.25  -13.02200    4.34610 14440.04200    0.12680   -0.00790 2753.57150
 1273.90000   23.98290  253.20810  186.16670  249.91230 14444.86040   25.72560   37.59420 14498.14260  -54.14970    5.61970    5.69380    5.51070   24.14580    -999.25  253.18680  251.16850    -999.25   -5.76920    4.10250 14390.50680    0.14200    0.00540 2711.96630
 1274.10000   28.42270  254.07120  187.06860  249.78390 14441.23630   28.41520   20.78510 14472.81740  -52.98620    4.89130    5.10220    4.58980   27.97220    -999.25  253.40570  250.72160    -999.25   -0.67370    4.10390 14376.22660    0.15130   -0.00000 2688.39550
 1274.30000   28.43960  254.54920  187.00400  250.81810 14405.36720   27.62590   11.12220 14457.82420  -54.24250    3.79640    3.96010    3.56270   28.86420    -999.25  253.81220  250.85400    -999.25   -2.63880    4.39240 14431.81740    0.15670   -0.01910 2711.10600
