~Version ---------------------------------------------------
VERS.      2.0 : CWLS log ASCII Standard -VERSION 2.0
WRAP.       NO : One line per depth step
CREA. 09/25/17 : LAS Creation Date
~Well ------------------------------------------------------
STRT.FT                             850.0 : START DEPTH
STOP.FT                            9900.0 : STOP DEPTH
STEP.FT                          50.00000 : STEP LENGTH
NULL.                             -999.25 : NULL VALUE
COMP.         BLUEMOUNT RESOURCES LIMITED : COMPANY
WELL. BLUEMOUNT ET AL GOODWIN 11-31-58-13 : WELL
FLD .                                     : FIELD
LOC .                                     : LOCATION
CTRY.                              CANADA : COUNTRY
SRVC.              Schlumberger of Canada : SERVICE COMPANY
DATE.                         07-Apr-1973 : LOGDATE
PROV.                             Alberta : PROVINCE
UWI .                    100113105813W500 : UNIQUE WELL ID
SLAT.WGS84                       54.06009 : SURFACE LATITUDE
SLON.WGS84                      -115.9256 : SURFACE LONGITUDE
~Curve Information -----------------------------------------
DEPT    .FT    : Depth Curve
CALDED  .IN    : CALIPER FROM DENSITY LOG [ADJ.TO RESISTIVITY LOG]
CALSED  .IN    : CALIPER FROM SONIC LOG [ADJ.TO RESISTIVITY LOG]
CALWS   .IN    : CALIPER [CALSED SPL.TO CALDED @ 2963.5'-9832']
CILDED  .MMHO  : CONDUCTIVITY FROM RESISTIVITY LOG
CONDWS  .MMHO  : CONDUCTIVITY [1000/DRESWS]
DCORWS  .G/C3  : DENSITY CORRECTION [DRHOED]
DENWS   .G/C3  : FORMATION BULK DENSITY [CALC. FROM DPHILSED, M=2.71, F=1.00, SPL.TO RHOBED @ 7938']
DPHILSED.V/V   : DENSITY POROSITY LIMESTONE [M=2.71, F=1.00] FROM DENSITY LOG [ADJ.TO RESISTIVITY LOG]
DPOLSWS .V/V   : DENSITY POROSITY LIMESTONE [CALC. FROM DENWS, M=2.71, F=1.00]
DRESWS  .OHMM  : DEEP RESISTIVITY [1000/CILDED IF ILDED <=2, ILDED, SPL.TO ILDED @ 3000']
DRHOED  .G/C3  : DENSITY CORRECTION FROM DENSITY LOG [ADJ.TO RESISTIVITY LOG]
DTED    .US/F  : DELTA TIME FROM SONIC LOG [ADJ.TO RESISTIVITY LOG]
DTWS    .US/F  : COMPRESSIONAL SONIC [DTED]
GRDED   .GAPI  : GAMMA RAY FROM DENSITY LOG [ADJ.TO RESISTIVITY LOG]
GRSED   .GAPI  : GAMMA RAY FROM SONIC LOG [ADJ.TO RESISTIVITY LOG]
GRWS    .GAPI  : GAMMA RAY [GRSED SPL.TO GRDED @ 2966.5']
ILDED   .OHMM  : DEEP INDUCTION FROM RESISTIVITY LOG
ILMED   .OHMM  : MEDIUM INDUCTION FROM RESISTIVITY LOG
LL8ED   .OHMM  : LATEROLOG 8 FROM RESISTIVITY LOG
MRESWS  .OHMM  : MEDIUM RESISTIVITY [ILMED]
NPHILSED.V/V   : NEUTRON POROSITY LIMESTONE FROM DENSITY LOG [ADJ.TO RESISTIVITY LOG]
NPOLSWS .V/V   : NEUTRON POROSITY LIMESTONE [NPHILSED]
RHOBED  .G/C3  : BULK DENSITY FROM DENSITY LOG [ADJ.TO RESISTIVITY LOG]
SPRED   .MV    : SPONTANEOUS POTENTIAL FROM RESISTIVITY LOG
SPWS    .MV    : SPONTANEOUS POTENTIAL [BASELINE 0 MV, SPRED]
SRESWS  .OHMM  : SHALLOW RESISTIVITY [LL8ED]
~Params ----------------------------------------------------
PD  .                     GL : PERMANENT DATUM
EPD .FT                 3069 : ELEVATION PERMANENT DATUM
LMF .                     KB : LOG MEASURED FROM
DAPD.FT                   17 : FEET ABOVE PERMANENT DATUM
EKB .FT                 3087 : KELLY BUSHING
EGL .FT                 3069 : GROUND LEVEL
DATE.               04/07/73 : RUN DATE
RUN .                      1 : RUN NUMBER
DD  .FT                 9938 : DEPTH DRILLER
DL  .FT                 9940 : DEPTH LOGGER
BLI .FT                 9935 : BOTTOM LOG INTERVAL
TLI .FT                 1025 : TOP LOG INTERVAL
CBD .FT                 1025 : CASING BOTTOM DRILLER
CBL .FT                 1030 : CASING BOTTOM LOGGER
BS  .IN                 8.75 : BIT SIZE
BSD .FT                 9938 : BIT SIZE AT DEPTH
DFT .               GEL CHEM : DRILLING FLUID TYPE
DFD .                    9.5 : DRILLING FLUID DENSITY
DFV .                     92 : DRILLING FLUID VISCOSITY
DFPH.                      9 : DRILLING FLUID PH
DFL .                     10 : DRILLING FLUID LOSS
MSS .             CALCULATED : MUD SAMPLE SOURCE
TCS .HRS                   5 : TIME CIRCULATED STOPPED
LUN .                   7667 : LOGGING UNIT NUMBER
LUL .                    EDM : LOGGING UNIT LOCATION
ENGI.                  LEWIS : RECORDING ENGINEER
WITN.              TUDDENHAM : WITNESSED BY
CLNT.                A2DTECH : CLIENT CODE
ORIG.            2" 5" PRINT : ORIGIN OF DATA
UWI .       100113105813W500 : UNIQUE WELL ID
DICO. A2D Technologies, Inc. : DIGITIZING COMPANY
~Other -----------------------------------------------------
DI-LL-FDC-CNL-SONIC LOG RUN.
SPRED CILDED,ILDED,LL8ED DIG IN 2" SCALE @ TOP TO 3000'
~ASCII -----------------------------------------------------
# ...
 4900.00000    7.75640    7.52110    7.75640    -999.25   93.14830    0.08290    2.62400    0.05030    0.05030   10.73560    0.08290  110.23760  110.23760  128.49100  130.47640  128.49100   10.73560   12.23430   17.22360   12.23430    0.35010    0.35010    2.60850 -209.48640   -9.06090   17.22360
 4950.00000   10.19790    7.94620   10.19790    -999.25  144.12340    0.31510    2.37400    0.19650    0.19650    6.93850    0.31510  110.15120  110.15120  105.34220  102.26080  105.34220    6.93850    7.25120    9.51560    7.25120    0.30560    0.30560    2.37400 -207.70700   -7.40400    9.51560
 5000.00000   10.18180    8.15960   10.18180    -999.25  152.89350    0.30070    2.36170    0.20370    0.20370    6.54050    0.30070  104.52600  104.52600   98.86600  104.96050   98.86600    6.54050    6.95590    8.01300    6.95590    0.30580    0.30580    2.35030 -207.88750   -7.70630    8.01300
 5050.00000   10.45740    8.89730   10.45740    -999.25  189.28300    0.28060    2.18520    0.30690    0.30690    5.28310    0.28060  105.20790  105.20790  102.33250  105.60670  102.33250    5.28310    5.46800    6.06820    5.46800    0.38420    0.38420    2.18670 -210.61220  -10.55230    6.06820
 5100.00000    8.10590    7.68790    8.10590    -999.25  163.59920    0.30040    2.64960    0.03530    0.03530    6.11250    0.30040   90.54140   90.54140   96.73010  100.50150   96.73010    6.11250    6.35010    7.37870    6.35010    0.23960    0.23960    2.64280 -205.90900   -5.97150    7.37870
 5150.00000   10.09260    9.35840   10.09260    -999.25  210.45180    0.31370    2.34440    0.21380    0.21380    4.75180    0.31370   93.32200   93.32200   88.22620  105.20220   88.22620    4.75180    4.51200    5.68950    4.51200    0.43450    0.43450    2.34220 -206.99060   -7.17420    5.68950
 5200.00000   10.16860    8.91280   10.16860    -999.25  174.84960    0.31630    2.37880    0.19370    0.19370    5.71920    0.31630   89.26240   89.26240   91.03680  103.91100   91.03680    5.71920    5.42620    6.86610    5.42620    0.34430    0.34430    2.38020 -207.19030   -7.49640    6.86610
 5250.00000   11.82390   10.32030   11.82390    -999.25  194.79130    0.26360    2.33430    0.21970    0.21970    5.13370    0.26360   91.61430   91.61430   87.44140   99.14910   87.44140    5.13370    4.51030    5.94220    4.51030    0.51770    0.51770    2.33490 -204.79510   -6.15030    5.94220
 5300.00000    9.58750    8.27140    9.58750    -999.25  261.90840    0.29570    2.19270    0.30250    0.30250    3.81940    0.29570  116.53510  116.53510  140.28870  158.00300  140.28870    3.81940    3.43450    5.08230    3.43450    0.47610    0.47610    2.19220 -206.03190  -10.48430    5.08230
 5350.00000   10.47620    8.93460   10.47620    -999.25  365.11010    0.23770    2.28030    0.25130    0.25130    2.73890    0.23770   97.47120   97.47120   98.44960  102.67050   98.44960    2.73890    2.50620    3.51770    2.50620    0.56330    0.56330    2.28640 -210.23150  -17.81230    3.51770
 5400.00000   10.78020    9.24690   10.78020    -999.25  252.49320    0.27930    2.20160    0.29730    0.29730    3.96190    0.27930   82.09670   82.09670   85.61950   86.62860   85.61950    3.96190    3.78010    4.78530    3.78010    0.36180    0.36180    2.20310 -206.70280  -17.38090    4.78530
 5450.00000    7.07090    6.80300    7.07090    -999.25  126.84080    0.11070    2.58740    0.07170    0.07170    7.88390    0.11070   77.78160   77.78160   43.02100   52.56180   43.02100    7.88390    8.71780   12.28460    8.71780    0.19000    0.19000    2.59080 -220.23490  -34.04140   12.28460
 5500.00000    7.27570    7.06110    7.27570    -999.25   69.81830    0.15780    2.60570    0.06100    0.06100   14.32290    0.15780   72.46630   72.46630   33.70680   38.28660   33.70680   14.32290   20.21320   22.59640   20.21320    0.12210    0.12210    2.60700 -235.97110  -52.89040   22.59640
 5550.00000   10.06770    9.06950   10.06770    -999.25  562.90510    0.17020    2.46750    0.14180    0.14180    1.77650    0.17020  122.06730  122.06730   85.43910   91.61910   85.43910    1.77650    1.50590    2.30240    1.50590    0.53170    0.53170    2.47320 -205.80340  -25.82000    2.30240
 5600.00000    8.17400    7.68590    8.17400    -999.25   51.67720    0.08730    2.82390   -0.06660   -0.06660   19.35090    0.08730   72.87000   72.87000   48.04870   53.63050   48.04870   19.35090   20.98610   29.44250   20.98610    0.12670    0.12670    2.82730 -212.31360  -35.45860   29.44250
 5650.00000    8.69860    8.31270    8.69860    -999.25   68.77880    0.22260    2.80470   -0.05540   -0.05540   14.54310    0.22260   72.62960   72.62960   56.66820   65.50910   56.66820   14.54310   15.51410   16.80610   15.51410    0.20460    0.20460    2.80690 -205.73120  -31.97350   16.80610
 5700.00000   11.75050   10.77060   11.75050    -999.25  123.66440    0.22040    2.02570    0.40020    0.40020    8.08640    0.22040  120.06790  120.06790   92.37520   97.35220   92.37520    8.08640    5.37230    7.90190    5.37230    0.64650    0.64650    2.00960 -200.40230  -29.77290    7.90190
 5750.00000    8.51510    8.63120    8.51510    -999.25  114.59610    0.06590    2.63410    0.04440    0.04440    8.72630    0.06590   76.64770   76.64770   75.63670   71.77580   75.63670    8.72630    9.40560    9.79320    9.40560    0.20210    0.20210    2.63310 -208.37000  -40.85350    9.79320
 5800.00000    8.53620    8.50810    8.53620    -999.25   87.47080    0.08860    2.67000    0.02340    0.02340   11.43380    0.08860   84.55540   84.55540   49.71430   56.56480   49.71430   11.43380   12.15960   13.22470   12.15960    0.21280    0.21280    2.66960 -200.17010  -35.75080   13.22470
 5850.00000    9.59320    9.21150    9.59320    -999.25   91.26840    0.25390    2.31360    0.23180    0.23180   10.95670    0.25390  100.15210  100.15210   85.62870   82.67650   85.62870   10.95670   13.40560   18.01720   13.40560    0.36810    0.36810    2.32240 -201.52160  -40.23070   18.01720
 5900.00000    8.87780    8.53160    8.87780    -999.25   95.50180    0.04330    2.36730    0.20040    0.20040   10.47930    0.04330   86.35450   86.35450   73.87750   80.31410   73.87750   10.47930   11.49930   14.57620   11.49930    0.43530    0.43530    2.38580 -202.65210  -44.45850   14.57620
 5950.00000   10.33120    8.75310   10.33120    -999.25   82.83080    0.15530    1.93430    0.45360    0.45360   12.07280    0.15530   89.30170   89.30170   65.50070   73.21710   65.50070   12.07280    8.76680   17.27940    8.76680    0.61820    0.61820    1.94330 -192.37090  -37.30570   17.27940
 6000.00000    8.50300    8.16170    8.50300    -999.25   96.02370    0.06530    2.70500    0.00290    0.00290   10.41410    0.06530   84.95250   84.95250   82.02930   86.33600   82.02930   10.41410   11.49180   13.45500   11.49180    0.21770    0.21770    2.70020 -206.34270  -54.39030   13.45500
 6050.00000    8.86920    8.48950    8.86920    -999.25  120.22270    0.09580    2.70910    0.00050    0.00050    8.31900    0.09580   85.95600   85.95600   73.51160   72.19340   73.51160    8.31900    8.82350   10.05200    8.82350    0.21740    0.21740    2.70840 -197.04110  -48.18600   10.05200
 6100.00000    8.44440    8.09660    8.44440    -999.25   67.42950    0.11960    2.70910    0.00050    0.00050   14.83030    0.11960   89.35280   89.35280   71.96050   85.15160   71.96050   14.83030   11.29360    9.86770   11.29360    0.24930    0.24930    2.69540 -192.06860  -46.34190    9.86770
 6150.00000    8.38800    7.88980    8.38800    -999.25  116.09340    0.20100    2.60000    0.06430    0.06430    8.62220    0.20100   84.68820   84.68820   82.69670   91.89260   82.69670    8.62220    9.76880   13.91220    9.76880    0.22260    0.22260    2.56510 -178.10280  -35.47330   13.91220
 6200.00000    8.43650    8.09670    8.43650    -999.25   42.44540    0.14680    2.68610    0.01400    0.01400   23.55970    0.14680   85.25160   85.25160   63.08670   67.07080   63.08670   23.55970   32.03890   36.88200   32.03890    0.18160    0.18160    2.69670 -156.82210  -13.06710   36.88200
