~Version ---------------------------------------------------
VERS. 2.0 : CWLS log ASCII Standard -VERSION 2.0
WRAP.  NO : ONE LINE PER DEPTH STEP
~Well ------------------------------------------------------
STRT.F                 1200.0 : START DEPTH
STOP.F                10800.0 : STOP DEPTH
STEP.F               50.00000 : STEP LENGTH
NULL.                 -999.25 : NULL VALUE
COMP. SUN OIL COMPANY LIMITED : COMPANY
WELL. BEC ROSEVEAR 6-34-54-15 : WELL
FLD .                         : FIELD
LOC .                         : LOCATION
CTRY.                  CANADA : COUNTRY
SRVC.  Schlumberger of Canada : SERVICE COMPANY
DATE.             25-Mar-1971 : LOGDATE
PROV.                 Alberta : PROVINCE
UWI .        100063405415W500 : UNIQUE WELL ID
SLAT.WGS84           53.70553 : SURFACE LATITUDE
SLON.WGS84          -116.1304 : SURFACE LONGITUDE
~Curve Information -----------------------------------------
DEPT  .F    0   1   0  0 : 1 MEASURED DEPTH
NEUT  .NAPI 35 330 01 00 : NEUTRON
GRN   .GAPI 35 310 01 00 : GAMMA RAY FROM GRN LOG
GRS   .GAPI 60 310 01 00 : GAMMA RAY FROM SONIC LOG
DT    .US/F 60 500 00 00 : DELTA-T (INTERVAL TRANSIT TIME)
CALS  .IN   60 280 50 00 : CALIPER FROM SONIC LOG
ILD   .OHMM 07 120 46 00 : INDUCTION DEEP RESISTIVITY
ILM   .OHMM 07 120 44 00 : INDUCTION MEDIUM RESISTIVITY
LL8   .OHMM 07 220 08 00 : LATEROLOG 8
SPR   .MV   07 010 01 00 : SPONTANEOUS POTENTIAL FROM RESISTIVITY LOG
CALI  .IN   41 280 60 00 : CALIPER
GR    .GAPI 41 310 01 00 : GAMMA RAY
SNP_LS.DEC  41 890 01 00 : SIDEWALL NEUTRON POROSITY [LIMESTONE]
CILD  .MMHO 07 110 46 00 : INDUCTION DEEP CONDUCTIVITY
SN    .OHMM 07 040 16 00 : SHORT NORMAL RESISTIVITY
~Params ----------------------------------------------------
PD  .                     GL : PERMANENT DATUM
EPD .FT               2803.5 : ELEVATION PERMANENT DATUM
LMF .                     KB : LOG MEASURED FROM
DAPD.FT                 15.5 : FEET ABOVE PERMANENT DATUM
EKB .FT                 2819 : KELLY BUSHING
EGL .FT               2803.5 : GROUND LEVEL
DATE.               03/25/71 : RUN DATE
RUN .                      1 : RUN NUMBER
DD  .FT                10590 : DEPTH DRILLER
DL  .FT                10587 : DEPTH LOGGER
BLI .FT                10581 : BOTTOM LOG INTERVAL
TLI .FT                 1243 : TOP LOG INTERVAL
CBD .FT                 1243 : CASING BOTTOM DRILLER
CBL .FT                 1243 : CASING BOTTOM LOGGER
BS  .IN                 8.75 : BIT SIZE
BSD .FT                10590 : BIT SIZE AT DEPTH
DFT .                    GEL : DRILLING FLUID TYPE
DFD .                   11.1 : DRILLING FLUID DENSITY
DFV .                    127 : DRILLING FLUID VISCOSITY
DFPH.                     10 : DRILLING FLUID PH
DFL .                      6 : DRILLING FLUID LOSS
MSS .                   CIRC : MUD SAMPLE SOURCE
RMS .OHMM               1.34 : RESISTIVITY MUD SAMPLE
MST .DEGF                 68 : MUD SAMPLE TEMPERATURE
RMF .OHMM               0.95 : RESISTIVITY MUD FILTRATE SAMPLE
MFST.DEGF                 50 : MUD FILTRATE SAMPLE TEMPERATURE
RMC .OHMM               1.98 : RESISTIVITY MUD CAKE
MCST.DEGF                 52 : MUD CAKE SAMPLE TEMPERATURE
RMB .OHMM               0.32 : RESISTIVITY MUD AT BHT
TCS .HRS                   4 : TIME CIRCULATED STOPPED
LUN .                   5628 : LOGGING UNIT NUMBER
ENGI.               PUOURSON : RECORDING ENGINEER
WITN.                 BAANUT : WITNESSED BY
CLNT.                A2DTECH : CLIENT CODE
ORIG.            2" 5" PRINT : ORIGIN OF DATA
UWI .       100063405415W500 : UNIQUE WELL ID
DICO. A2D Technologies, Inc. : DIGITIZING COMPANY
~Other -----------------------------------------------------
~ASCII -----------------------------------------------------
# ...
 8550.00000    -999.25    -999.25   15.59010   54.15110   10.57870 1506.28360  124.13830  333.51170 -113.51100   13.36130    8.89460    0.34250    -999.25    -999.25
 8600.00000    -999.25    -999.25   14.05500   50.28380    9.89270  330.83130  180.38730  155.59720  -99.98240   12.80740    8.96170    0.14640    -999.25    -999.25
 8650.00000    -999.25    -999.25   15.56900   51.00030   10.08220 1547.69150 1158.26950  457.84420 -104.35910   13.03630   11.15980    0.29460    -999.25    -999.25
 8700.00000    -999.25    -999.25   14.07690   51.66200   11.09500  836.33440   72.75440  275.19000 -102.40210   12.96300    9.17490    0.15060    -999.25    -999.25
 8750.00000    -999.25    -999.25   17.25020   50.20460   10.02570  102.76760   68.78360  102.99160 -111.83650   11.82720   10.31380    0.18150    -999.25    -999.25
 8800.00000    -999.25    -999.25   13.89680   48.70780    9.14200  140.31870  195.74480  291.39000 -125.00270    9.73130    8.25650    0.08740    -999.25    -999.25
 8850.00000    -999.25    -999.25   16.72760   47.53600    9.40240 1510.87590 1386.06150 1665.34310  -83.59440   10.31650   12.47860    0.01290    -999.25    -999.25
 8900.00000    -999.25    -999.25   13.36720   48.32510    9.60330 1544.01510 1823.05250 1660.24320  -89.77640   10.56890    8.90850    0.00460    -999.25    -999.25
 8950.00000    -999.25    -999.25   24.49130   52.18830    9.88220  159.83250  106.25730  133.36700  -92.50170   14.44690   14.11810    0.18450    -999.25    -999.25
 9000.00000    -999.25    -999.25   34.10700   51.30760   10.14540  255.41880  117.06640   92.94950  -67.41540   13.88440   17.30730    0.13160    -999.25    -999.25
 9050.00000    -999.25    -999.25   26.03150   52.40620   10.27410   61.86110   82.61580   60.58350  -68.78110   14.54690   15.36710    0.21850    -999.25    -999.25
 9100.00000    -999.25    -999.25   37.97130   55.04020    9.51660   71.30350   77.41090   95.20210  -29.33070   11.21720   23.26060    0.07240    -999.25    -999.25
 9150.00000    -999.25    -999.25   46.07070   55.18860    9.26600   37.35390   44.35750   51.76760  -34.88570   10.20950   28.96850    0.04360    -999.25    -999.25
 9200.00000    -999.25    -999.25   61.44240   63.06410    9.76290   13.52460   15.84690   19.16830  -39.37790   10.47460   36.05060    0.09740    -999.25    -999.25
 9250.00000    -999.25    -999.25   49.94070   57.31080    9.35110   19.86880   24.02480   27.85920  -40.71710   10.44350   29.37080    0.05430    -999.25    -999.25
 9300.00000    -999.25    -999.25   57.23430   61.92710    9.36180   17.52020   20.64980   25.84590  -37.62270   10.42890   33.08110    0.06800    -999.25    -999.25
 9350.00000    -999.25    -999.25   77.43170   83.28090   12.84440    5.34580    4.92160    6.82230  -51.56360   14.14360   43.34270    0.50630    -999.25    -999.25
 9400.00000    -999.25    -999.25   84.16010   64.75830    9.34430   31.57850   34.80830   41.91120  -35.61920   10.38510   51.07730    0.13100    -999.25    -999.25
 9450.00000    -999.25    -999.25   70.90350   63.40940    9.96810   15.30730   16.16020   24.11410  -32.92810   11.01780   45.48110    0.17200    -999.25    -999.25
 9500.00000    -999.25    -999.25   83.43720   81.78890   11.70290    5.66520    5.44570    7.32620  -28.76930   13.22140   52.15090    0.49970    -999.25    -999.25
 9550.00000    -999.25    -999.25   71.60130   62.24070    9.48910   21.59850   23.68880   31.25650  -16.33350   10.81550   46.33180    0.13840    -999.25    -999.25
 9600.00000    -999.25    -999.25   83.81060   65.17070    9.42690   13.58380   16.75770   20.10010  -25.18920   10.98390   55.75720    0.12990    -999.25    -999.25
 9650.00000    -999.25    -999.25   77.55690   64.70940    9.60730   13.63140   16.41240   20.33820  -15.53220   10.93850   49.28790    0.13650    -999.25    -999.25
 9700.00000    -999.25    -999.25   68.05140   63.08890    9.40010   14.45040   17.16840   21.32040  -16.48340   10.48650   39.02400    0.09340    -999.25    -999.25
 9750.00000    -999.25    -999.25   95.04060   70.88430    9.80220    9.69840   11.20930   13.96570  -25.42060   11.55930   60.30990    0.22110    -999.25    -999.25
 9800.00000    -999.25    -999.25   84.72910   65.27070    9.32890   15.08280   17.70260   23.21760  -25.38030   10.34180   52.32740    0.11260    -999.25    -999.25
 9850.00000    -999.25    -999.25   82.08820   69.15220    9.67150    9.72040   11.30460   14.51950  -31.03810   11.07440   50.49510    0.22480    -999.25    -999.25
 9900.00000    -999.25    -999.25   92.94490   67.66950    9.73020   11.39370   13.75290   17.69460  -12.18900   10.88220   55.84690    0.21460    -999.25    -999.25
 9950.00000    -999.25    -999.25   92.11360   67.31920    9.17570   12.28140   14.42130   19.12460   -3.96780    9.81060   57.61830    0.19830    -999.25    -999.25
 10000.00000    -999.25    -999.25   87.27110   68.60910    9.34630   12.85490   15.10530   20.35770  -14.16880   10.00550   52.05300    0.14470    -999.25    -999.25
 10050.00000    -999.25    -999.25   81.41820   64.50390    9.16310   19.00030   25.73880   20.60950  -22.67110   10.09220   46.54190    0.11180    -999.25    -999.25
 10100.00000    -999.25    -999.25   74.53660   63.28100    9.15290   22.28280   27.06960   37.40940   -2.61560    9.98560   47.05780    0.10670    -999.25    -999.25
 10150.00000    -999.25    -999.25   33.28180   51.01930    9.17770  210.14940 1095.23750  648.12550  -23.01040    9.95950   21.06030    0.03930    -999.25    -999.25
 10200.00000 3620.51270   75.48000  139.63580   78.79150    9.05730  132.64140  615.20560 1177.61150  -32.40000   10.13580   87.56910    0.13450    -999.25    -999.25
 10250.00000 6613.21140   14.85270   16.76690   49.29550    9.15330 1444.64990  499.51250 1396.63960  -24.80950   10.32130    6.74520    0.01260    -999.25    -999.25
 10300.00000 7356.27150   14.59050   14.20420   49.20500    9.16070  465.26640  228.50820  441.78870  -26.14200   10.32980    7.87780    0.01830    -999.25    -999.25
 10350.00000 7141.68070   16.61600   17.22420   48.64750    9.39540 1413.91190 1486.89100 1668.93910   -3.84090   11.41540    8.18950    0.03830    -999.25    -999.25
 10400.00000 6204.40330   13.09270   18.68500   49.05090   10.20280  182.77750  133.93120 1346.65840   34.93940   11.81930    9.52330    0.04810    -999.25    -999.25
 10450.00000 6171.83640   14.63630   14.88640   51.72670    8.96710 1442.50710 1050.72860 1666.52840  -38.57460   10.00730    7.92600    0.11040    -999.25    -999.25
 10500.00000 4152.73050   15.26340   16.73860   63.73240    8.93220  874.81210  608.34090 1077.92600  -45.69550    9.93060   10.86330    0.16320    -999.25    -999.25
 10550.00000 4537.31450   15.44360   18.33050   57.39940    8.75170  113.19670   91.44620  123.61100  -60.38180    9.47290    9.24210    0.17330    -999.25    -999.25
 10600.00000 9126.24610   26.27160   16.59330   49.44350    6.99400 1574.43490 1361.15560 1551.62100 -169.48870    -999.25    -999.25    -999.25    -999.25    -999.25
 10650.00000 11040.06250   23.28230   12.38770   49.57470    6.69180 1433.78850 1208.35970 1511.13460 -137.85840    -999.25    -999.25    -999.25    -999.25    -999.25
 10700.00000 9272.14840   65.49920   75.39740   52.23200    6.25530  126.41870 1130.16060  755.53720  -60.65090    -999.25    -999.25    -999.25    -999.25    -999.25
 10750.00000 8350.69430   61.67140   57.10200   67.08560    5.78630    6.57360    6.94530   58.35040 -145.08580    -999.25    -999.25    -999.25    -999.25    -999.25
 10800.00000 9595.72460   58.51160    -999.25   53.79600    6.08400   45.44150   81.36970  115.33370  -89.60630    -999.25    -999.25    -999.25    -999.25    -999.25
