~Version ---------------------------------------------------
VERS.      2.0 : CWLS log ASCII Standard -VERSION 2.0
WRAP.       NO : One line per depth step
CREA. 10/05/17 : LAS Creation Date
~Well ------------------------------------------------------
STRT.FT                  900.0 : START DEPTH
STOP.FT                11100.0 : STOP DEPTH
STEP.FT               50.00000 : STEP LENGTH
NULL.                   -999.0 : NULL VALUE
COMP.     CHEVRON STANDARD LTD : COMPANY
WELL. CHEVRON CLARK 10-2-59-18 : WELL
FLD .             KAYBOB SOUTH : FIELD
LOC .                          : LOCATION
CTRY.                   CANADA : COUNTRY
SRVC.             Schlumberger : SERVICE COMPANY
DATE.              17-Jul-1968 : LOGDATE
PROV.                  Alberta : PROVINCE
UWI .         100100205918W500 : UNIQUE WELL ID
SLAT.WGS84            54.07468 : SURFACE LATITUDE
SLON.WGS84           -116.5832 : SURFACE LONGITUDE
~Curve Information -----------------------------------------
DEPT    .FT    : Depth Curve
CALDED  .IN    : CALIPER FROM DENSITY LOG
CALNED  .IN    : CALIPER FROM NEUTRON LOG [ADJ. TO RESISTIVITY LOG]
CALSED  .IN    : CALIPER FROM SONIC LOG [ADJ. TO RESISTIVITY LOG]
CALWS   .IN    : CALIPER [CALSED SPL. TO CALDED @ 10654']
CONDWS  .MMHO  : CONDUCTIVITY [1000/DRESWS]
DCORWS  .G/C3  : DENSITY CORRECTION [DRHOED]
DENWS   .G/C3  : FORMATION BULK DENSITY [RHOBED]
DPHIDLED.V/V   : DENSITY POROSITY DOLOMITE [M=2.85, F=1.00] FROM DENSITY LOG [ADJ. TO RESISTIVITY LOG]
DPHILSED.V/V   : DENSITY POROSITY LIMESTONE [M=2.71,F=1.0] FROM DENSITY LOG [ADJ. TO RESISTIVITY LOG]
DPOLSWS .V/V   : DENSITY POROSITY LIMESTONE [CALC FROM DENWS,M=2.71, F=1.00]
DRESWS  .OHMM  : DEEP RESISTIVITY [ILDED]
DRHOED  .G/C3  : BULK DENSITY CORRECTION FROM DENSITY LOG [ADJ. TO RESISTIVITY LOG]
DTED    .US/F  : DELTA-T FROM SONIC LOG [ADJ. TO RESISTIVITY LOG]
DTWS    .US/F  : COMPRESSIONAL SONIC [DTED]
GRSED   .GAPI  : GAMMA RAY FROM SONIC LOG [ADJ. TO RESISTIVITY LOG]
GRWS    .GAPI  : GAMMA RAY [GRSED]
ILDED   .OHMM  : DEEP INDUCTION RESISTIVITY FROM RESISTIVITY LOG
ILMED   .OHMM  : MEDIUM INDUCTION RESISTIVITY FROM RESISTIVITY LOG
LL8ED   .OHMM  : LATEROLOG-8 RESISTIVITY FROM RESISTIVITY LOG
MRESWS  .OHMM  : MEDIUM RESISTIVITY [ILMED]
NPOLSWS .V/V   : NEUTRON POROSITY [SNPLSED]
RHOBED  .G/C3  : BULK DENSITY FROM DENSITY LOG
SNPLSED .V/V   : SIDEWALL NEUTRON POROSITY LIMESONTE FROM SNP LOG [ADJ. TO RESISTIVITY LOG]
SPRED   .MV    : SPONTANEOUS POTENTIAL FROM RESISTIVITY LOG
SPWS    .MV    : SPONTANEOUS POTENTIAL [BASELINE 0 MV,SPRED]
SRESWS  .OHMM  : SHALLOW RESISTIVITY [LL8ED]
~Params ----------------------------------------------------
PD  .                     GL : PERMANENT DATUM
EPD .FT                 3126 : ELEVATION PERMANENT DATUM
LMF .                     KB : LOG MEASURED FROM
DAPD.FT                   14 : FEET ABOVE PERMANENT DATUM
EKB .FT                 3140 : KELLY BUSHING
EDF .FT                 3126 : DRILLING FLOOR
DATE.               08/13/68 : RUN DATE
RUN .                      2 : RUN NUMBER
DD  .FT                11108 : DEPTH DRILLER
DL  .FT                11107 : DEPTH LOGGER
BLI .FT                11102 : BOTTOM LOG INTERVAL
TLI .FT                10629 : TOP LOG INTERVAL
CBD .FT                10630 : CASING BOTTOM DRILLER
CBL .FT                10629 : CASING BOTTOM LOGGER
BS  .IN                 6.25 : BIT SIZE
BSD .FT                11108 : BIT SIZE AT DEPTH
DFT .                    GEL : DRILLING FLUID TYPE
DFD .                    9.7 : DRILLING FLUID DENSITY
DFV .                     87 : DRILLING FLUID VISCOSITY
RMS .OHMM               1.52 : RESISTIVITY MUD SAMPLE
MST .DEGF                 70 : MUD SAMPLE TEMPERATURE
RMF .OHMM               1.25 : RESISTIVITY MUD FILTRATE SAMPLE
MFST.DEGF                 75 : MUD FILTRATE SAMPLE TEMPERATURE
RMC .OHMM               1.55 : RESISTIVITY MUD CAKE
MCST.DEGF                 70 : MUD CAKE SAMPLE TEMPERATURE
TCS .HRS                 1.5 : TIME CIRCULATED STOPPED
LUN .                   3702 : LOGGING UNIT NUMBER
LUL .                     DC : LOGGING UNIT LOCATION
ENGI.                   BIGG : RECORDING ENGINEER
WITN.         HOVDEBO GHAZAR : WITNESSED BY
CLNT.                A2DTECH : CLIENT CODE
ORIG.            2" 5" PRINT : ORIGIN OF DATA
UWI .       100100205918W500 : UNIQUE WELL ID
DICO. A2D Technologies, Inc. : DIGITIZING COMPANY
~Other -----------------------------------------------------
DIL-LAT/FDC/SNP/BCS LOG RAN
MATRIX VALUE NOT MENTION
~ASCII -----------------------------------------------------
# ...
 4950.00000     -999.0     -999.0   12.36190   12.36190  132.42790     -999.0     -999.0     -999.0     -999.0     -999.0    7.55160     -999.0   88.12110   88.12110   73.29530   73.29530    7.55160    7.04080    6.28520    7.04080     -999.0     -999.0     -999.0 -128.72460   -8.23610    6.28520
 5000.00000     -999.0     -999.0   11.50380   11.50380  111.98460     -999.0     -999.0     -999.0     -999.0     -999.0    8.92980     -999.0   84.54790   84.54790   76.51270   76.51270    8.92980    8.58000    7.16950    8.58000     -999.0     -999.0     -999.0 -126.52390   -6.26730    7.16950
 5050.00000     -999.0     -999.0    9.94530    9.94530   56.24990     -999.0     -999.0     -999.0     -999.0     -999.0   17.77780     -999.0   79.12820   79.12820   50.58180   50.58180   17.77780   19.18000   20.45860   19.18000     -999.0     -999.0     -999.0 -151.96720  -31.90260   20.45860
 5100.00000     -999.0     -999.0   11.36000   11.36000   96.04490     -999.0     -999.0     -999.0     -999.0     -999.0   10.41180     -999.0   80.02240   80.02240   81.53060   81.53060   10.41180   10.78250    9.34960   10.78250     -999.0     -999.0     -999.0 -130.17800  -10.17220    9.34960
 5150.00000     -999.0     -999.0   11.82680   11.82680  105.88400     -999.0     -999.0     -999.0     -999.0     -999.0    9.44430     -999.0   84.53040   84.53040   87.39310   87.39310    9.44430    9.91990    8.28790    9.91990     -999.0     -999.0     -999.0 -128.57610   -8.62870    8.28790
 5200.00000     -999.0     -999.0   12.01730   12.01730  103.46710     -999.0     -999.0     -999.0     -999.0     -999.0    9.66540     -999.0   82.67300   82.67300   83.64740   83.64740    9.66540    9.93680    8.63270    9.93680     -999.0     -999.0     -999.0 -128.35800   -8.46930    8.63270
 5250.00000     -999.0     -999.0   12.54350   12.54350  127.20700     -999.0     -999.0     -999.0     -999.0     -999.0    7.86120     -999.0   86.12600   86.12600   89.77550   89.77550    7.86120    8.42420    7.56700    8.42420     -999.0     -999.0     -999.0 -127.22890   -7.39860    7.56700
 5300.00000     -999.0     -999.0   12.97340   12.97340  130.96550     -999.0     -999.0     -999.0     -999.0     -999.0    7.63560     -999.0   86.83570   86.83570   83.43140   83.43140    7.63560    8.33390    7.40140    8.33390     -999.0     -999.0     -999.0 -127.08220   -7.31020    7.40140
 5350.00000     -999.0     -999.0   12.15650   12.15650  120.35720     -999.0     -999.0     -999.0     -999.0     -999.0    8.30860     -999.0   88.08270   88.08270   88.83300   88.83300    8.30860    9.45590    8.81090    9.45590     -999.0     -999.0     -999.0 -127.29280   -7.57960    8.81090
 5400.00000     -999.0     -999.0   11.55970   11.55970  109.69960     -999.0     -999.0     -999.0     -999.0     -999.0    9.11580     -999.0   91.85290   91.85290   92.66670   92.66670    9.11580   10.74580   10.36620   10.74580     -999.0     -999.0     -999.0 -126.10560   -6.45070   10.36620
 5450.00000     -999.0     -999.0   11.13760   11.13760   97.58050     -999.0     -999.0     -999.0     -999.0     -999.0   10.24790     -999.0   90.85910   90.85910   97.63960   97.63960   10.24790   10.68490   10.98280   10.68490     -999.0     -999.0     -999.0 -125.81370   -6.21760   10.98280
 5500.00000     -999.0     -999.0   10.85930   10.85930   84.27580     -999.0     -999.0     -999.0     -999.0     -999.0   11.86580     -999.0   90.37820   90.37820   99.85570   99.85570   11.86580   12.32090   13.31930   12.32090     -999.0     -999.0     -999.0 -125.98580   -6.44810   13.31930
 5550.00000     -999.0     -999.0   10.91350   10.91350   80.57110     -999.0     -999.0     -999.0     -999.0     -999.0   12.41140     -999.0   89.93090   89.93090  109.20470  109.20470   12.41140   12.95860   14.59600   12.95860     -999.0     -999.0     -999.0 -125.75430   -6.27490   14.59600
 5600.00000     -999.0     -999.0   11.11430   11.11430   85.48180     -999.0     -999.0     -999.0     -999.0     -999.0   11.69840     -999.0   91.91850   91.91850  105.34600  105.34600   11.69840   12.19140   14.22510   12.19140     -999.0     -999.0     -999.0 -125.52650   -6.10590   14.22510
 5650.00000     -999.0     -999.0   11.28390   11.28390  106.09850     -999.0     -999.0     -999.0     -999.0     -999.0    9.42520     -999.0   90.99040   90.99040   94.18220   94.18220    9.42520   10.13650   10.77950   10.13650     -999.0     -999.0     -999.0 -124.32630   -4.96400   10.77950
 5700.00000     -999.0     -999.0   10.91350   10.91350   87.70520     -999.0     -999.0     -999.0     -999.0     -999.0   11.40830     -999.0  101.17280  101.17280  108.43420  108.43420   11.40830   14.91230   17.63480   14.91230     -999.0     -999.0     -999.0 -124.03570   -4.73220   17.63480
 5750.00000     -999.0     -999.0   12.13560   12.13560  133.00350     -999.0     -999.0     -999.0     -999.0     -999.0    7.51860     -999.0   80.13760   80.13760   70.80990   70.80990    7.51860    8.72830    7.85090    8.72830     -999.0     -999.0     -999.0 -125.68430   -6.43920    7.85090
 5800.00000     -999.0     -999.0   12.29370   12.29370  139.14010     -999.0     -999.0     -999.0     -999.0     -999.0    7.18700     -999.0   89.25070   89.25070   83.37650   83.37650    7.18700    7.65850    7.99810    7.65850     -999.0     -999.0     -999.0 -124.26100   -5.07420    7.99810
 5850.00000     -999.0     -999.0   12.73850   12.73850  159.53290     -999.0     -999.0     -999.0     -999.0     -999.0    6.26830     -999.0   88.24020   88.24020   88.74270   88.74270    6.26830    6.66560    6.44690    6.66560     -999.0     -999.0     -999.0 -124.64190   -5.51390    6.44690
 5900.00000     -999.0     -999.0   11.89410   11.89410  137.49860     -999.0     -999.0     -999.0     -999.0     -999.0    7.27280     -999.0   84.46810   84.46810   85.62310   85.62310    7.27280    7.41980    7.64350    7.41980     -999.0     -999.0     -999.0 -124.90580   -5.83610    7.64350
 5950.00000     -999.0     -999.0   12.34730   12.34730  110.63010     -999.0     -999.0     -999.0     -999.0     -999.0    9.03920     -999.0   82.72490   82.72490   86.08670   86.08670    9.03920    8.54340    7.94330    8.54340     -999.0     -999.0     -999.0 -124.24030   -5.22940    7.94330
 6000.00000     -999.0     -999.0   12.16740   12.16740  151.73360     -999.0     -999.0     -999.0     -999.0     -999.0    6.59050     -999.0   83.12980   83.12980   82.16210   82.16210    6.59050    7.33580    6.95410    7.33580     -999.0     -999.0     -999.0 -123.82830   -4.87570    6.95410
 6050.00000     -999.0     -999.0   12.61810   12.61810  138.26670     -999.0     -999.0     -999.0     -999.0     -999.0    7.23240     -999.0   90.60990   90.60990   89.53700   89.53700    7.23240    6.65710    6.97640    6.65710     -999.0     -999.0     -999.0 -122.17030   -3.27610    6.97640
 6100.00000     -999.0     -999.0   13.44870   13.44870  135.78650     -999.0     -999.0     -999.0     -999.0     -999.0    7.36450     -999.0   99.56760   99.56760  136.71300  136.71300    7.36450    7.13820    6.82980    7.13820     -999.0     -999.0     -999.0 -122.41290   -3.57750    6.82980
 6150.00000     -999.0     -999.0   11.79140   11.79140  231.70680     -999.0     -999.0     -999.0     -999.0     -999.0    4.31580     -999.0  103.76820  103.76820   81.55330   81.55330    4.31580    3.94030    3.72410    3.94030     -999.0     -999.0     -999.0 -121.58500   -2.80790    3.72410
 6200.00000     -999.0     -999.0   14.54880   14.54880  191.12440     -999.0     -999.0     -999.0     -999.0     -999.0    5.23280     -999.0   96.31260   96.31260   70.56120   70.56120    5.23280    4.67140    4.35300    4.67140     -999.0     -999.0     -999.0 -121.84830   -3.13000    4.35300
 6250.00000     -999.0     -999.0   10.53060   10.53060   62.24250     -999.0     -999.0     -999.0     -999.0     -999.0   16.06620     -999.0   71.09430   71.09430   37.03220   37.03220   16.06620   22.41530   24.20470   22.41530     -999.0     -999.0     -999.0 -149.10200  -30.34520   24.20470
