~Version ---------------------------------------------------
VERS.      2.0 : CWLS log ASCII Standard -VERSION 2.0
WRAP.       NO : One line per depth step
CREA. 07/25/13 : LAS Creation Date
~Well ------------------------------------------------------
STRT.M                      450.0 : START DEPTH
STOP.M                     3050.0 : STOP DEPTH
STEP.M                   50.00000 : STEP LENGTH
NULL.                     -999.25 : NULL VALUE
COMP.      DOME PETROLEUM LIMITED : COMPANY
WELL. DOME ET AL NITON 9-33-55-12 : WELL
FLD .                       NITON : FIELD
LOC .                             : LOCATION
CTRY.                      CANADA : COUNTRY
SRVC.                Schlumberger : SERVICE COMPANY
DATE.                 16-Apr-1985 : LOGDATE
PROV.                     Alberta : PROVINCE
UWI .            100093305512W500 : UNIQUE WELL ID
SLAT.WGS84               53.79778 : SURFACE LATITUDE
SLON.WGS84              -115.7155 : SURFACE LONGITUDE
~Curve Information -----------------------------------------
DEPT    .M      : DEPTH METER
CALDED  .MM     : CALIPER FROM DENSITY LOG [ADJ TO RESISTIVITY LOG]
CALSED  .MM     : CALIPER FROM SONIC LOG [ADJ TO RESISTIVITY LOG]
CALWS   .MM     : CALIPER [CALDED]
CONDWS  .MMHO   : CONDUCTIVITY [1000/DRESWS]
DCORWS  .KG/M3  : DENSITY CORRECTION [DRHOED]
DENWS   .KG/M3  : FORMATION BULK DENSITY [CALC FROM DPOLSWS, M=2710,F=1000]
DPHILSED.V/V    : DENSITY POROSITY LIMESTONE  [M=2710,F=1000] FROM DENSITY LOG [ADJ TO RESISTIVITY LOG]
DPHISSED.V/V    : DENSITY POROSITY SANDSTONE  [M=2650,F=1000] FROM DENSITY LOG [ADJ TO RESISTIVITY LOG]
DPOLSWS .V/V    : DENSITY POROSITY LIMESTONE [DPHISSED CONVERTED TO LIMESTONE (M=2710, F=1000) SPL. TO DPHILSED @ 1962.1M]
DRESWS  .OHMM   : DEEP RESISTIVITY [ILDED]
DRHOED  .KG/M3  : DENSITY CORRECTION FROM DENSITY LOG [ADJ TO RESISTIVITY LOG]
DTED    .US/M   : DELTA - T FROM SONIC LOG [ADJ TO RESISTIVITY LOG]
DTWS    .US/M   : COMPRESSIONAL SONIC [DTED]
GRDED   .GAPI   : GAMMA RAY FROM DENSITY LOG [ADJ TO RESISTIVITY LOG]
GRSED   .GAPI   : GAMMA RAY FROM SONIC LOG [ADJ TO RESISTIVITY LOG]
GRWS    .GAPI   : GAMMA RAY [GRDED]
ILDED   .OHMM   : DEEP INDUCTION FROM RESISTIVITY LOG
ILMED   .OHMM   : MEDIUM INDUCTION FROM RESISTIVITY LOG
LAED    .MM     : CALIPER FROM DENSITY LOG [ADJ TO RESISTIVITY LOG]
MRESWS  .OHMM   : MEDIUM RESISTIVITY [ILMED]
NPHILSED.V/V    : NEUTRON POROSITY LIMESTONE FROM DENSITY LOG [ADJ TO RESISTIVITY LOG]
NPHISSED.V/V    : NEUTRON POROSITY SANDSTONE FROM DENSITY LOG [ADJ TO RESISTIVITY LOG]
NPOLSWS .V/V    : NEUTRON POROSITY LIMESTONE [NPHISSED MATRIX CONVERSION FOR LIMESTONE, SPL. NPHILSED @1957.1M]
PEFED   .B/E    : PHOTO ELECTRIC FACTOR FROM DENSITY LOG [ADJ TO RESISTIVITY LOG]
PEFWS   .B/E    : PHOTO ELECTRIC FACTOR [PEFED]
RHOBED  .KG/M3  : BULK DENSITY FROM DENSITY LOG [ADJ TO RESISTIVITY LOG]
SFLUED  .OHMM   : SPHERICALLY FOCUSED UNAVERAGED FROM RESISTIVITY LOG
SPRED   .MV     : SPONTANEOUS POTENTIAL FROM RESISTIVITY LOG
SPWS    .MV     : SPONTANEOUS POTENTIAL [BASELINE 0 MV, SPRED]
SRESWS  .OHMM   : SHALLOW RESISTIVITY [SFLUED]
TENDED  .N      : TENSION FROM DENSITY LOG [ADJ TO RESISTIVITY LOG]
TENSED  .N      : TENSION FROM SONIC LOG [ADJ TO RESISTIVITY LOG]
~Params ----------------------------------------------------
PD  .                         GL : PERMANENT DATUM
EPD .M                     872.2 : ELEVATION PERMANENT DATUM
LMF .                         KB : LOG MEASURED FROM
DAPD.M                       3.8 : FEET ABOVE PERMANENT DATUM
DMF .                         KB : DRILLING MEASURED FROM
EKB .M                       876 : KELLY BUSHING
EDF .M                     875.7 : DRILLING FLOOR
EGL .M                     872.2 : GROUND LEVEL
DATE.                   04/16/85 : RUN DATE
RUN .                          1 : RUN NUMBER
DD  .M                      3060 : DEPTH DRILLER
DL  .M                    3061.7 : DEPTH LOGGER
BLI .M                      3061 : BOTTOM LOG INTERVAL
TLI .M                       420 : TOP LOG INTERVAL
CS  .MM                    244.5 : CASING SIZE
CBD .M                       420 : CASING BOTTOM DRILLER
CBL .M                       420 : CASING BOTTOM LOGGER
BS  .MM                      222 : BIT SIZE
BSD .M                      3060 : BIT SIZE AT DEPTH
DFT .                   GEL CHEM : DRILLING FLUID TYPE
DFD .                       1125 : DRILLING FLUID DENSITY
DFV .                         88 : DRILLING FLUID VISCOSITY
DFPH.                         10 : DRILLING FLUID PH
DFL .                         10 : DRILLING FLUID LOSS
MSS .                    FLOWLNE : MUD SAMPLE SOURCE
RMS .OHMM                   3.21 : RESISTIVITY MUD SAMPLE
MST .DEGC                    9.4 : MUD SAMPLE TEMPERATURE
RMF .OHMM                   2.24 : RESISTIVITY MUD FILTRATE SAMPLE
MFST.DEGC                   14.4 : MUD FILTRATE SAMPLE TEMPERATURE
MFSS.                       MEAS : MUD FILTRATE SAMPLE SOURCE
MCSS.                       MEAS : MUD CAKE SAMPLE SOURCE
RMB .OHMM                  0.969 : RESISTIVITY MUD AT BHT
TCS .HRS                    1830 : TIME CIRCULATED STOPPED
TLAB.HRS                     214 : TIME LOGGER AT BOTTOM
LUN .                       8037 : LOGGING UNIT NUMBER
LUL .                        EDM : LOGGING UNIT LOCATION
ENGI.                  CROCKFORD : RECORDING ENGINEER
WITN.                      BRYCE : WITNESSED BY
CLNT.                    A2DTECH : CLIENT CODE
ORIG. 6.5"/100M 16.5"/100M PRINT : ORIGIN OF DATA
UWI .           100093305512W500 : UNIQUE WELL ID
DICO.     A2D Technologies, Inc. : DIGITIZING COMPANY
~Other -----------------------------------------------------
DIL-SFL-CN-LDT-BCS TOOL RUN
RHOB & CORR FROM SMALL SCALE LOG
~ASCII -----------------------------------------------------
# ...
 1550.00000  249.56270  237.82220  249.56270  129.79430  204.90190 2285.40700    -999.25    0.22100    0.24830    7.70450  204.90190  301.72460  301.72460  110.52880  118.49450  111.78090    7.70450    8.16200  277.95890    8.16200    -999.25    0.36670    0.31900    2.36930    2.36930 2257.29570    8.68100  -45.19800   -2.82580    8.68100 14967.08300 12732.21780
 1600.00000  248.90240  264.75530  248.90240  145.42490  159.85710 2314.64800    -999.25    0.20320    0.23120    6.87640  159.85710  268.29530  268.29530   96.92490   95.22670   98.38050    6.87640    7.13890  332.34910    7.13890    -999.25    0.32490    0.27460    2.43110    2.43110 2345.88160    8.23160  -45.75360   -4.45090    8.23160 15119.38090 13127.44730
 1650.00000  235.17240  234.56550  235.17240  360.54230   95.15500 2160.23500    -999.25    0.29680    0.32150    2.77360   95.15500  323.20320  323.20320  110.15500  107.62510  109.50480    2.77360    2.60320  275.86860    2.60320    -999.25    0.44210    0.40130    2.26100    2.26100 2170.05590    3.06720  -42.48910   -2.25600    3.06720 15416.95410 13258.55860
 1700.00000  262.41850  288.77460  262.41850  202.15500  183.36480 2210.33800    -999.25    0.26650    0.29220    4.94670  183.36480  275.35580  275.35580   78.75830   74.32390   76.90320    4.94670    5.03910  365.25420    5.03910    -999.25    0.34560    0.29650    1.95960    1.95960 2205.86500    5.61280  -42.44940   -4.63060    5.61280 15530.40430 13559.24120
 1750.00000  253.88160  261.19420  253.88160   86.44240   -3.61510 2591.32600    -999.25    0.03560    0.06940   11.56840   -3.61510  237.12330  237.12330   75.38430   70.43780   75.26040   11.56840   11.94750  293.98360   11.94750    -999.25    0.24910    0.19650    2.80380    2.80380 2591.39720   12.87290  -49.72270  -14.42250   12.87290 16077.64360 13747.68070
 1800.00000  256.02200  268.59430  256.02200   57.34140  -12.93350 2589.61600    -999.25    0.03660    0.07040   17.43940  -12.93350  217.26360  217.26360   39.25070   32.88850   38.94420   17.43940   19.12070  314.02540   19.12070    -999.25    0.21520    0.16350    3.34530    3.34530 2600.19360   30.07750  -59.54090  -25.89960   30.07750 15835.58690 13890.55660
 1850.00000  259.29230  272.94340  259.29230   79.75940   -9.19330 2626.55200    -999.25    0.01420    0.04880   12.53770   -9.19330  224.82240  224.82240   69.30920   71.71130   72.07200   12.53770   13.04610  314.06540   13.04610    -999.25    0.18920    0.13920    3.15260    3.15260 2623.35640   15.08910  -37.16040   -5.15370   15.08910 16154.11910 14164.18550
 1900.00000  247.88970  258.40320  247.88970  107.80740  -11.94610 2701.45000    -999.25   -0.03120    0.00500    9.27580  -11.94610  211.51190  211.51190   67.71530   62.10140   70.24790    9.27580   11.07020  301.17950   11.07020    -999.25    0.18620    0.13640    3.08890    3.08890 2724.32350   26.19610  -41.57300  -11.96320   26.19610 16316.79490 14237.66410
 1950.00000  220.75610  228.01480  220.75610   11.64460   -6.27010 2559.86200    -999.25    0.05460    0.08780   85.87660   -6.27010  178.80600  178.80600   16.52210   15.06960   16.52210   85.87660  115.70020  257.68020  115.70020    -999.25    0.05880    0.02870    2.36000    2.36000 2549.22580  286.71030 -104.66190  -42.78220  286.71030 16463.61520 14595.43360
 2000.00000  224.59880  222.67830  224.59880   91.53070   69.62430 2664.68500    0.02650    -999.25    0.02650   10.92530   69.62430  179.23500  179.23500   40.31020   41.59810   40.94700   10.92530   17.29510  228.85720   17.29510    0.11890    -999.25    0.11890    2.77500    2.77500 2657.37960   40.44420 -133.03430  -72.95720   40.44420 16659.40820 14767.75390
 2050.00000  234.25000  235.73900  234.25000   53.64690    7.80820 2703.33100    0.00390    -999.25    0.00390   18.64040    7.80820  187.73710  187.73710   62.76330   55.97300   70.55760   18.64040   19.77110  255.68660   19.77110    0.10110    -999.25    0.10110    2.67890    2.67890 2677.98020   26.10420  -44.58510   -8.60940   26.10420 17208.47660 14986.94530
 2100.00000  234.59770  235.21480  234.59770   17.10760   -8.37600 2730.52000   -0.01200    -999.25   -0.01200   58.45340   -8.37600  171.64990  171.64990   24.47270   18.76220   25.28030   58.45340   61.45150  254.82890   61.45150    0.01780    -999.25    0.01780    4.11920    4.11920 2739.08640   87.94700  -70.58580  -40.42170   87.94700 17355.92190 15078.37500
 2150.00000  227.73060  234.77980  227.73060   17.52370  -15.86850 2691.87400    0.01060    -999.25    0.01060   57.06550  -15.86850  176.90310  176.90310   31.12200   30.41830   31.25110   57.06550   62.74160  254.85550   62.74160    0.02950    -999.25    0.02950    3.79760    3.79760 2690.57080   90.37470  -37.72750  -10.37990   90.37470 17609.10740 15345.43850
 2200.00000  228.02310  234.77840  228.02310    3.88610    9.07550 2647.07200    0.03680    -999.25    0.03680  257.32670    9.07550  171.60990  171.60990   16.74040   18.48910   16.74040  257.32670  262.46890  257.20310  262.46890    0.01330    -999.25    0.01330    3.98560    3.98560 2656.23930  860.87600  -75.05010  -48.03110  860.87600 17828.51370 15649.57710
 2250.00000  221.77760  235.29490  221.77760    2.74170  -19.71770 2676.65500    0.01950    -999.25    0.01950  364.73820  -19.71770  159.96590  159.96590   11.51590   11.49170   11.92500  364.73820  526.22630  295.31040  526.22630    0.00250    -999.25    0.00250    4.81230    4.81230 2669.34300  474.19240 -159.72350 -134.35460  474.19240 17897.82810 15865.59570
 2300.00000  221.23880  239.84320  221.23880    2.59300  -17.25160 2710.17100   -0.00010    -999.25   -0.00010  385.65480  -17.25160  158.97230  158.97230   14.52200   12.92320   14.34620  385.65480 1992.44250  328.55300 1992.44250    0.00700    -999.25    0.00700    4.40080    4.40080 2703.20650 1099.10140 -160.00330 -136.28460 1099.10140 18025.38480 16078.31450
 2350.00000  220.80580  244.97980  220.80580    5.52250  -14.87140 2685.20500    0.01450    -999.25    0.01450  181.07860  -14.87140  159.03350  159.03350   15.40400   19.34000   14.36020  181.07860  146.03260  372.92200  146.03260    0.01460    -999.25    0.01460    4.69480    4.69480 2697.58400  188.98820 -152.61430 -130.54580  188.98820 18278.35940 16241.66310
 2400.00000  228.99280  234.12460  228.99280    4.18210  -13.03640 2887.66900   -0.10390    -999.25   -0.10390  239.11620  -13.03640  160.00860  160.00860   13.70060   15.82500   10.30270  239.11620  562.00240  274.39730  562.00240    0.00820    -999.25    0.00820    4.13720    4.13720 2892.54930 1837.15320 -116.86530  -96.44700 1837.15320 18418.15430 16367.81450
 2450.00000  225.44910  264.87370  225.44910    2.32030   -1.24330 2777.20300   -0.03930    -999.25   -0.03930  430.97310   -1.24330  160.75000  160.75000   24.72110   24.83210   23.92300  430.97310  181.38920  404.86970  181.38920    0.07150    -999.25    0.07150    2.56620    2.56620 2776.29930  360.16020 -121.05990 -112.62190  360.16020 18655.90430 16753.10350
 2500.00000  258.11790  277.27870  258.11790   51.18440   54.17730 2651.51800    0.03420    -999.25    0.03420   19.53720   54.17730  211.14760  211.14760   60.95120   61.89290   60.15030   19.53720   20.21890  358.77300   20.21890    0.14830    -999.25    0.14830    3.31070    3.31070 2652.63790   27.46830   -8.18510  -10.04170   27.46830 19205.02730 16887.74220
 2550.00000  231.14210  238.28320  231.14210   25.69520  -20.10160 2677.68100    0.01890    -999.25    0.01890   38.91770  -20.10160  204.25680  204.25680   77.36820   80.46510   70.47360   38.91770   47.05800  277.22310   47.05800    0.15900    -999.25    0.15900    3.49850    3.49850 2670.92140   78.12230   -2.74220   -8.77920   78.12230 19261.93950 17089.99020
 2600.00000  234.03560  249.51720  234.03560   19.93220   -7.09400 2712.05200   -0.00120    -999.25   -0.00120   50.17000   -7.09400  179.70140  179.70140   42.23260   43.19430   57.47090   50.17000   60.14620  312.77520   60.14620    0.04000    -999.25    0.04000    4.39390    4.39390 2709.96290   79.34710    5.18770   -4.98980   79.34710 19352.97850 17253.68750
