~Version ---------------------------------------------------
VERS.      2.0 : CWLS log ASCII Standard -VERSION 2.0
WRAP.       NO : One line per depth step
CREA. 11/15/17 : LAS Creation Date
~Well ------------------------------------------------------
STRT.FT                            1100.0 : START DEPTH
STOP.FT                           11050.0 : STOP DEPTH
STEP.FT                          50.00000 : STEP LENGTH
NULL.                             -999.25 : NULL VALUE
COMP.        CANADIAN HOMESTEAD OILS LTD. : COMPANY
WELL. HOMESTEAD ET AL ROSEVEAR 9-34-53-15 : WELL
FLD .                                     : FIELD
LOC .                                     : LOCATION
CTRY.                              CANADA : COUNTRY
SRVC.              Schlumberger of Canada : SERVICE COMPANY
DATE.                         06-May-1975 : LOGDATE
PROV.                             Alberta : PROVINCE
UWI .                    100093405315W500 : UNIQUE WELL ID
SLAT.WGS84                       53.62182 : SURFACE LATITUDE
SLON.WGS84                      -116.1151 : SURFACE LONGITUDE
~Curve Information -----------------------------------------
DEPT    .FT    : Depth Curve
CALDED  .IN    : CALIPER FROM CND LOG[DSH TO GRSED/ILDED]
CALSED  .IN    : CALIPER FROM SONIC LOG
CALWS   .IN    : CALIPER [CALSED]
CONDWS  .MMHO  : CONDUCTIVITY [1000/DRESWS]
DCORED  .G/C3  : DENSITY CORRECTION FROM CND LOG[DSH TO GRSED/ILDED]
DCORWS  .G/C3  : DENSITY CORRECTION DCORED]
DENWS   .G/C3  : BULK FORMATION DENSITY[RHOBED]
DPHILSED.V/V   : DENSITY POROSITY LIMESTONE[M=2.71, F=1.00]FROM CND LOG[DSH TO GRSED/ILDED]
DPHISSED.V/V   : DENSITY POROSITY SANDSTONE[M=2.65, F=1.00]FROM CND LOG[DSH TO GRSED/ILDED]
DPOLSWS .V/V   : DENSITY POROSITY LIMESTONE[M=2.71, F=1.00][CALCULATED FROM DENWS]
DRESWS  .OHMM  : DEEP RESISTIVITY [ILDED]
DTED    .US/F  : ACOUSTIC TRANSIT TIME SLOWNESS, DELTA T
DTWS    .US/F  : ACOUSTIC TRANSIT TIME SLOWNESS[DTED]
GRDED   .GAPI  : GAMMA RAY FROM DENSITY LOG[DSH TO GRSED/ILDED]
GRSED   .GAPI  : GAMMA RAY FROM SONIC LOG
GRWS    .GAPI  : GAMMA RAY [GRSED]
ILDED   .OHMM  : INDUCTION LOG DEEP RESISTIVITY
ILMED   .OHMM  : INDUCTION LOG MEDIUM RESISTIVITY
LL8ED   .OHMM  : 8 INCH LATEROLOG RESISTIVITY
MRESWS  .OHMM  : MEDIUM RESISTIVITY [ILMED]
NPHILSED.V/V   : NEUTRON POROSITY LIMESTONE FROM CND LOG[DSH TO GRSED/ILDED]
NPHISSED.V/V   : NEUTRON POROSITY SANDSTONE FROM CND LOG[DSH TO GRSED/ILDED]
NPOLSWS .V/V   : NEUTRON POROSITY LIMESTONE[ NPHSSED CONVERTED TO LIMESTONE AND SPLICED TO NPHILSED AT 7521']
RHOBED  .G/C3  : BULK FORMATION DENSITY FROM CND LOG[DSH TO GRSED/ILDED]
SPHIED  .V/V   : SONIC POROSITY [DTM=55.6, DF=189<7520' and 47.6 DF=189>7520']FROM SONIC LOG
SPOWS   .V/V   : SONIC POROSITY [SPHIED]
SPRED   .MV    : SPONTANEOUS POTENTIAL FROM RESISTIVITY LOG
SPWS    .MV    : SPONTANEOUS POTENTIAL [BASELINE 0 MV] [SPRED]
SRESWS  .OHMM  : SHALLOW RESISTIVITY [LL8ED]
~Params ----------------------------------------------------
PD  .                     GL : PERMANENT DATUM
EPD .FT               2932.7 : ELEVATION PERMANENT DATUM
LMF .                     KB : LOG MEASURED FROM
DAPD.FT                 18.3 : FEET ABOVE PERMANENT DATUM
EKB .FT                 2951 : KELLY BUSHING
EGL .FT               2932.7 : GROUND LEVEL
DATE.               05/06/75 : RUN DATE
RUN .                      1 : RUN NUMBER
DD  .FT                11081 : DEPTH DRILLER
DL  .FT                11087 : DEPTH LOGGER
BLI .FT                11081 : BOTTOM LOG INTERVAL
TLI .FT                 1136 : TOP LOG INTERVAL
CBD .FT                 1136 : CASING BOTTOM DRILLER
CBL .FT                 1134 : CASING BOTTOM LOGGER
BS  .IN                 8.75 : BIT SIZE
BSD .FT                11081 : BIT SIZE AT DEPTH
DFT .               CHEM GEL : DRILLING FLUID TYPE
DFD .                    9.2 : DRILLING FLUID DENSITY
DFV .                     90 : DRILLING FLUID VISCOSITY
DFPH.                     11 : DRILLING FLUID PH
DFL .                    8.4 : DRILLING FLUID LOSS
MSS .              CIRULATED : MUD SAMPLE SOURCE
RMS .OHMM               1.22 : RESISTIVITY MUD SAMPLE
MST .DEGF                 72 : MUD SAMPLE TEMPERATURE
RMF .OHMM               0.98 : RESISTIVITY MUD FILTRATE SAMPLE
MFST.DEGF                 70 : MUD FILTRATE SAMPLE TEMPERATURE
LUN .                   7690 : LOGGING UNIT NUMBER
LUL .                    EDM : LOGGING UNIT LOCATION
ENGI.                  BORLE : RECORDING ENGINEER
WITN.                   KING : WITNESSED BY
CLNT.                A2DTECH : CLIENT CODE
ORIG.            2" 5" PRINT : ORIGIN OF DATA
UWI .       100093405315W500 : UNIQUE WELL ID
DICO. A2D Technologies, Inc. : DIGITIZING COMPANY
~Other -----------------------------------------------------
~ASCII -----------------------------------------------------
# ...
 2350.00000    -999.25   11.04350   11.04350   72.09910    -999.25    -999.25    -999.25    -999.25    -999.25    -999.25   13.86980   77.13190   77.13190    -999.25   61.52010   61.52010   13.86980   13.02380   14.61730   13.02380    -999.25    -999.25    -999.25    -999.25    0.17770    0.17770 -114.82760   -4.34050   14.61730
 2400.00000    -999.25   10.94880   10.94880   51.28970    -999.25    -999.25    -999.25    -999.25    -999.25    -999.25   19.49710   80.28490   80.28490    -999.25   47.81390   47.81390   19.49710   18.76840   17.55900   18.76840    -999.25    -999.25    -999.25    -999.25    0.19230    0.19230 -119.17170   -8.92040   17.55900
 2450.00000    -999.25   10.76740   10.76740   96.06610    -999.25    -999.25    -999.25    -999.25    -999.25    -999.25   10.40950   78.99420   78.99420    -999.25   61.59110   61.59110   10.40950    9.08370    8.54840    9.08370    -999.25    -999.25    -999.25    -999.25    0.16630    0.16630 -112.87480   -2.85930    8.54840
 2500.00000    -999.25   11.14820   11.14820   52.44940    -999.25    -999.25    -999.25    -999.25    -999.25    -999.25   19.06600   83.50080   83.50080    -999.25   41.14180   41.14180   19.06600   18.09140   17.26330   18.09140    -999.25    -999.25    -999.25    -999.25    0.21940    0.21940 -126.81230  -17.03250   17.26330
 2550.00000    -999.25   11.03050   11.03050  172.92360    -999.25    -999.25    -999.25    -999.25    -999.25    -999.25    5.78290   96.04300   96.04300    -999.25   84.31370   84.31370    5.78290    5.48830    5.10960    5.48830    -999.25    -999.25    -999.25    -999.25    0.32070    0.32070 -112.22770   -2.68370    5.10960
 2600.00000    -999.25   10.89630   10.89630  110.08730    -999.25    -999.25    -999.25    -999.25    -999.25    -999.25    9.08370   87.32570   87.32570    -999.25   73.72100   73.72100    9.08370    8.24380   10.11240    8.24380    -999.25    -999.25    -999.25    -999.25    0.26260    0.26260 -114.72190   -5.41370   10.11240
 2650.00000    -999.25   11.62440   11.62440  214.95670    -999.25    -999.25    -999.25    -999.25    -999.25    -999.25    4.65210  101.34850  101.34850    -999.25   83.31210   83.31210    4.65210    4.12830    5.42190    4.12830    -999.25    -999.25    -999.25    -999.25    0.41970    0.41970 -112.20540   -3.13300    5.42190
 2700.00000    -999.25   11.18260   11.18260  166.42810    -999.25    -999.25    -999.25    -999.25    -999.25    -999.25    6.00860  109.98650  109.98650    -999.25   86.69620   86.69620    6.00860    4.79660    4.29860    4.79660    -999.25    -999.25    -999.25    -999.25    0.44950    0.44950 -110.73150   -1.89490    4.29860
 2750.00000    -999.25   10.95720   10.95720  189.89380    -999.25    -999.25    -999.25    -999.25    -999.25    -999.25    5.26610   96.28470   96.28470    -999.25   84.05630   84.05630    5.26610    4.92940    4.59150    4.92940    -999.25    -999.25    -999.25    -999.25    0.31830    0.31830 -112.16540   -3.56450    4.59150
 2800.00000    -999.25   10.94850   10.94850  218.93340    -999.25    -999.25    -999.25    -999.25    -999.25    -999.25    4.56760   93.77970   93.77970    -999.25   84.79070   84.79070    4.56760    4.42440    4.18330    4.42440    -999.25    -999.25    -999.25    -999.25    0.30480    0.30480 -110.44860   -2.08350    4.18330
 2850.00000    -999.25   11.76420   11.76420  208.80310    -999.25    -999.25    -999.25    -999.25    -999.25    -999.25    4.78920   98.07000   98.07000    -999.25   78.48150   78.48150    4.78920    4.03010    4.95530    4.03010    -999.25    -999.25    -999.25    -999.25    0.33050    0.33050 -111.66780   -3.53850    4.95530
 2900.00000    -999.25   11.10780   11.10780  192.63740    -999.25    -999.25    -999.25    -999.25    -999.25    -999.25    5.19110   88.90860   88.90860    -999.25   79.73320   79.73320    5.19110    5.04580    4.73190    5.04580    -999.25    -999.25    -999.25    -999.25    0.26800    0.26800 -109.64060   -1.74710    4.73190
 2950.00000    -999.25   10.67630   10.67630  254.27180    -999.25    -999.25    -999.25    -999.25    -999.25    -999.25    3.93280  104.97220  104.97220    -999.25  100.04540  100.04540    3.93280    3.64820    3.41650    3.64820    -999.25    -999.25    -999.25    -999.25    0.36520    0.36520 -109.75900   -2.10130    3.41650
 3000.00000    -999.25   10.68090   10.68090  125.17680    -999.25    -999.25    -999.25    -999.25    -999.25    -999.25    7.98870   78.25890   78.25890    -999.25   60.80790   60.80790    7.98870    6.35110    5.54050    6.35110    -999.25    -999.25    -999.25    -999.25    0.18590    0.18590 -109.69230   -2.27030    5.54050
 3050.00000    -999.25   10.41420   10.41420  159.68570    -999.25    -999.25    -999.25    -999.25    -999.25    -999.25    6.26230   87.52460   87.52460    -999.25   80.65620   80.65620    6.26230    6.10980    5.51820    6.10980    -999.25    -999.25    -999.25    -999.25    0.25550    0.25550 -110.09610   -2.90990    5.51820
 3100.00000    -999.25    9.89600    9.89600  253.79420    -999.25    -999.25    -999.25    -999.25    -999.25    -999.25    3.94020   90.78180   90.78180    -999.25   91.09680   91.09680    3.94020    3.64710    3.20240    3.64710    -999.25    -999.25    -999.25    -999.25    0.27670    0.27670 -109.98480   -3.03440    3.20240
 3150.00000    -999.25   10.31750   10.31750  106.69400    -999.25    -999.25    -999.25    -999.25    -999.25    -999.25    9.37260   78.52290   78.52290    -999.25   77.13090   77.13090    9.37260    8.69370   12.16030    8.69370    -999.25    -999.25    -999.25    -999.25    0.18600    0.18600 -108.58090   -1.86630   12.16030
 3200.00000    -999.25   10.37590   10.37590  116.83330    -999.25    -999.25    -999.25    -999.25    -999.25    -999.25    8.55920   92.35520   92.35520    -999.25   83.37670   83.37670    8.55920    7.52870    8.54660    7.52870    -999.25    -999.25    -999.25    -999.25    0.29150    0.29150 -109.93890   -3.46000    8.54660
 3250.00000    -999.25   10.23970   10.23970  284.35750    -999.25    -999.25    -999.25    -999.25    -999.25    -999.25    3.51670   96.92600   96.92600    -999.25   98.29730   98.29730    3.51670    3.23520    3.42810    3.23520    -999.25    -999.25    -999.25    -999.25    0.32890    0.32890 -108.95290   -2.70980    3.42810
 3300.00000    -999.25   10.76220   10.76220  250.55750    -999.25    -999.25    -999.25    -999.25    -999.25    -999.25    3.99110   93.57060   93.57060    -999.25   87.52440   87.52440    3.99110    3.82110    4.09260    3.82110    -999.25    -999.25    -999.25    -999.25    0.30490    0.30490 -110.37990   -4.37260    4.09260
 3350.00000    -999.25    9.72370    9.72370  137.30040    -999.25    -999.25    -999.25    -999.25    -999.25    -999.25    7.28330   86.12370   86.12370    -999.25   47.26580   47.26580    7.28330    6.31740    4.77870    6.31740    -999.25    -999.25    -999.25    -999.25    0.23940    0.23940 -109.08360   -3.31210    4.77870
 3400.00000    -999.25   10.00980   10.00980  108.75240    -999.25    -999.25    -999.25    -999.25    -999.25    -999.25    9.19520   84.79070   84.79070    -999.25   44.60420   44.60420    9.19520    8.80500    8.24390    8.80500    -999.25    -999.25    -999.25    -999.25    0.23050    0.23050 -113.77300   -8.23730    8.24390
 3450.00000    -999.25   10.50500   10.50500  259.18820    -999.25    -999.25    -999.25    -999.25    -999.25    -999.25    3.85820   82.19670   82.19670    -999.25   85.56680   85.56680    3.85820    2.87280    4.06750    2.87280    -999.25    -999.25    -999.25    -999.25    0.22670    0.22670 -107.55400   -2.25400    4.06750
 3500.00000    -999.25   11.38930   11.38930  162.51710    -999.25    -999.25    -999.25    -999.25    -999.25    -999.25    6.15320   86.26970   86.26970    -999.25   78.41420   78.41420    6.15320    5.46840    6.37470    5.46840    -999.25    -999.25    -999.25    -999.25    0.25570    0.25570 -107.24860   -2.18440    6.37470
 3550.00000    -999.25   10.77240   10.77240  106.21690    -999.25    -999.25    -999.25    -999.25    -999.25    -999.25    9.41470   77.23430   77.23430    -999.25   62.20290   62.20290    9.41470    9.97620   10.88500    9.97620    -999.25    -999.25    -999.25    -999.25    0.17450    0.17450 -108.55630   -3.72790   10.88500
