~Version ---------------------------------------------------
VERS.      2.0 : CWLS log ASCII Standard -VERSION 2.0
WRAP.       NO : One line per depth step
CREA. 09/27/17 : LAS Creation Date
~Well ------------------------------------------------------
STRT.FT                             850.0 : START DEPTH
STOP.FT                            7200.0 : STOP DEPTH
STEP.FT                          50.00000 : STEP LENGTH
NULL.                             -999.25 : NULL VALUE
COMP.                  FORGOTSON AND BURK : COMPANY
WELL. FORGOTSON-BURK ROWLEY W 10-34-32-21 : WELL
FLD .                                     : FIELD
LOC .                                     : LOCATION
CTRY.                              CANADA : COUNTRY
SRVC.              Schlumberger of Canada : SERVICE COMPANY
DATE.                         18-Nov-1962 : LOGDATE
PROV.                             Alberta : PROVINCE
UWI .                    100103403221W400 : UNIQUE WELL ID
SLAT.WGS84                       51.78894 : SURFACE LATITUDE
SLON.WGS84                      -112.8948 : SURFACE LONGITUDE
~Curve Information -----------------------------------------
DEPT  .FT    : Depth Curve
ACED  .US/F  : ACOUSTIC FROM SONIC LOG [ADJ. TO RESISTIVITY LOG]
CALIED.IN    : CALIPER FROM CALIPER LOG
CALWS .IN    : CALIPER [CALIED]
CILDED.MMHO  : CONDUCTIVITY INDUCTION FROM RESISTIVITY LOG
CONDWS.MMHO  : CONDUCTIVITY [1000/DRESWS]
DRESWS.OHMM  : DEEP RESISTIVITY [ILDED]
DTWS  .US/F  : COMPRESSIONNAL SONIC [ACED]
GRRED .GAPI  : GAMMA RAY FROM RESISTIVITY LOG
GRWS  .GAPI  : GAMMA RAY [GRRED]
ILDED .OHMM  : DEEP INDUCTION RESISTIVITY  FROM RESISTIVITY LOG
SNED  .OHMM  : SHORT NORMAL  FROM RESISTIVITY LOG
SPRED .MV    : SPONTANEOUS POTENTIAL FROM RESISTIVITY
SPWS  .MV    : SPONTANEOUS POTENTIAL [BASELINE 0 MV, SPRED]
SRESWS.OHMM  : SHALLOW RESISTIVITY [SNED]
~Params ----------------------------------------------------
PD  .                     GL : PERMANENT DATUM
EPD .FT               3003.4 : ELEVATION PERMANENT DATUM
LMF .                     KB : LOG MEASURED FROM
DAPD.FT                 12.6 : FEET ABOVE PERMANENT DATUM
EKB .FT                 3016 : KELLY BUSHING
EGL .FT               3003.4 : GROUND LEVEL
DATE.               11/18/62 : RUN DATE
RUN .                      1 : RUN NUMBER
DD  .FT                 7224 : DEPTH DRILLER
DL  .FT                 7223 : DEPTH LOGGER
BLI .FT                 7222 : BOTTOM LOG INTERVAL
TLI .FT                  794 : TOP LOG INTERVAL
CBD .FT                  794 : CASING BOTTOM DRILLER
CBL .FT                  794 : CASING BOTTOM LOGGER
BS  .IN                7.875 : BIT SIZE
BSD .FT                 7224 : BIT SIZE AT DEPTH
DFT .               GYP BASE : DRILLING FLUID TYPE
DFD .                   10.4 : DRILLING FLUID DENSITY
DFV .                     70 : DRILLING FLUID VISCOSITY
DFPH.                   10.5 : DRILLING FLUID PH
DFL .                    9.4 : DRILLING FLUID LOSS
MSS .                  0.285 : MUD SAMPLE SOURCE
RMS .OHMM                 71 : RESISTIVITY MUD SAMPLE
MST .DEGF              0.155 : MUD SAMPLE TEMPERATURE
RMF .OHMM                 67 : RESISTIVITY MUD FILTRATE SAMPLE
MFST.DEGF               0.68 : MUD FILTRATE SAMPLE TEMPERATURE
RMC .OHMM                 67 : RESISTIVITY MUD CAKE
RMB .OHMM               0.14 : RESISTIVITY MUD AT BHT
TCS .HRS                   3 : TIME CIRCULATED STOPPED
LUN .                   3815 : LOGGING UNIT NUMBER
ENGI.                 GORITZ : RECORDING ENGINEER
WITN.                  CLARK : WITNESSED BY
CLNT.                A2DTECH : CLIENT CODE
ORIG.        2" 5" 25" PRINT : ORIGIN OF DATA
UWI .       100103403221W400 : UNIQUE WELL ID
DICO. A2D Technologies, Inc. : DIGITIZING COMPANY
~Other -----------------------------------------------------
IEL & COMPOSITE LOG
~ASCII -----------------------------------------------------
# ...
 3300.00000    -999.25    -999.25    -999.25  110.78060  116.94730    8.55900    -999.25    -999.25    -999.25    8.55900    6.73840  -20.08590   -3.42490    6.73840
 3350.00000    -999.25    -999.25    -999.25  132.90790  143.78350    6.95490    -999.25    -999.25    -999.25    6.95490    6.16930  -18.82700   -2.66130    6.16930
 3400.00000    -999.25    -999.25    -999.25  133.09050  143.84150    6.95220    -999.25    -999.25    -999.25    6.95220    6.28410  -22.18610   -3.56570    6.28410
 3450.00000    -999.25    -999.25    -999.25  101.75050  102.76010    9.73140    -999.25    -999.25    -999.25    9.73140    6.25800  -21.07680   -4.16700    6.25800
 3500.00000    -999.25    -999.25    -999.25  125.71180  135.03480    7.40550    -999.25    -999.25    -999.25    7.40550    6.33400  -18.80260   -2.86030    6.33400
 3550.00000    -999.25    -999.25    -999.25  111.50660  117.06770    8.54510    -999.25    -999.25    -999.25    8.54510    6.85140  -20.57930   -4.24610    6.85140
 3600.00000    -999.25    -999.25    -999.25  128.60800  142.89590    6.99810    -999.25    -999.25    -999.25    6.99810    6.43810  -20.40770   -3.68110    6.43810
 3650.00000    -999.25    -999.25    -999.25  115.42360  123.72360    8.08270    -999.25    -999.25    -999.25    8.08270    6.41390  -18.65070   -1.53320    6.41390
 3700.00000    -999.25    -999.25    -999.25  131.18720  143.54820    6.96630    -999.25    -999.25    -999.25    6.96630    5.87490  -18.38250   -0.94100    5.87490
 3750.00000    -999.25    -999.25    -999.25  102.84030  108.27670    9.23560    -999.25    -999.25    -999.25    9.23560    6.89760  -19.60550   -2.16400    6.89760
 3800.00000    -999.25    -999.25    -999.25  133.71660  143.95100    6.95530    -999.25    -999.25    -999.25    6.95530    6.14030  -18.63020   -1.18870    6.14030
 3850.00000    -999.25    -999.25    -999.25  113.99350  121.86950    8.20550    -999.25    -999.25    -999.25    8.20550    6.58970  -19.68830   -2.24680    6.58970
 3900.00000    -999.25    -999.25    -999.25   96.75590  103.71240    9.64320    -999.25    -999.25    -999.25    9.64320   10.07190  -20.18220   -2.74070   10.07190
 3950.00000    -999.25    -999.25    -999.25   52.79940   54.94840   18.19890    -999.25    -999.25    -999.25   18.19890   13.89360  -19.27270   -1.83120   13.89360
 4000.00000    -999.25    -999.25    -999.25  137.81950  149.43890    6.69170    -999.25    -999.25    -999.25    6.69170    6.37160  -19.71850   -2.27700    6.37160
 4050.00000    -999.25    -999.25    -999.25  149.43360  168.73920    5.92710    -999.25    -999.25    -999.25    5.92710    6.40430  -18.43260   -0.99110    6.40430
 4100.00000  107.28000    8.43200    8.43200  132.03240  143.34250    6.97630  107.28000  155.82000  155.82000    6.97630    8.42970  -21.02150   -4.04400    8.42970
 4150.00000   98.37000    8.44950    8.44950  185.36000  210.92800    4.74450   98.37000  129.85200  129.85200    4.74450    5.49940  -19.26560   -2.62920    5.49940
 4200.00000  105.80000   10.14100   10.14100  266.30510  324.53830    3.08130  105.80000   72.63600   72.63600    3.08130    3.60240  -19.79680   -2.82660    3.60240
 4250.00000  121.84000   12.15900   12.15900  421.48830  533.10590    1.87580  121.84000   82.89600   82.89600    1.87580    2.72740  -19.66880   -2.36690    2.72740
 4300.00000   83.94000    8.97150    8.97150  100.09940  104.10360    9.60700   83.94000   75.35400   75.35400    9.60700    8.49930  -21.52690   -2.10200    8.49930
 4350.00000   79.31000    7.86100    7.86100   88.03610   90.08040   11.10120   79.31000   50.98800   50.98800   11.10120    9.63960  -24.30100   -2.35990    9.63960
 4400.00000   78.99000    8.80300    8.80300   74.29470   76.56180   13.06160   78.99000   60.06600   60.06600   13.06160   10.36510  -21.30050   -5.11640   10.36510
 4450.00000   89.55000   10.17100   10.17100  211.48740  247.10880    4.04680   89.55000   80.44800   80.44800    4.04680    4.41020  -23.20820   -4.03870    4.41020
 4500.00000  138.97000   13.21100   13.21100  620.11450  724.74270    1.37980  138.97000   63.33600   63.33600    1.37980    1.79570  -20.31290   -3.36510    1.79570
 4550.00000   62.80000    9.84950    9.84950  121.51870  127.07000    7.89340   62.80000   62.15400   62.15400    7.89340    4.75780  -19.95620   -5.55000    4.75780
 4600.00000   84.77000    9.53800    9.53800   89.66630   93.88530   10.65130   84.77000   58.14000   58.14000   10.65130    9.35950  -23.36970   -6.66450    9.35950
 4650.00000   93.53500   12.75750   12.75750  152.18430  167.40560    5.97640   93.53500   57.77400   57.77400    5.97640    8.62250  -18.44680   -2.06470    8.62250
 4700.00000   78.79000    9.44300    9.44300   58.35640   59.77180   16.73030   78.79000   61.12800   61.12800   16.73030   12.44690  -22.64840   -5.50930   12.44690
 4750.00000   69.60000    8.82500    8.82500   59.26180   60.11820   16.63390   69.60000   99.31200   99.31200   16.63390   18.80700  -19.77180   -2.07260   18.80700
 4800.00000   88.54000   10.08100   10.08100  150.11890  152.96650    7.11460   88.54000   60.19200   60.19200    7.11460    6.18920  -18.99920   -2.40960    6.18920
 4850.00000   83.41000    9.80900    9.80900   68.34000   67.56570   14.80040   83.41000   40.57200   40.57200   14.80040    7.70090  -23.93180   -6.87840    7.70090
 4900.00000   89.81000   10.81850   10.81850  112.57780  114.18720    8.75760   89.81000   62.11200   62.11200    8.75760    5.47540  -21.28420   -4.28230    5.47540
 4950.00000   87.03000   10.07700   10.07700   76.10130   76.02940   13.15280   87.03000   30.45600   30.45600   13.15280    7.43320  -28.96950  -14.77030    7.43320
 5000.00000   61.75500    8.58600    8.58600   49.17580   32.10430   31.14850   61.75500   46.02000   46.02000   31.14850   13.87990  -20.98030   -7.22860   13.87990
 5050.00000   63.21000    8.64000    8.64000   36.34260   37.44150   26.71320   63.21000   29.13000   29.13000   26.71320   20.98320  -22.00200   -5.98610   20.98320
 5100.00000   61.31000    9.00600    9.00600   30.64110   31.73440   31.51150   61.31000   63.93600   63.93600   31.51150   15.92730  -20.36450   -5.36580   15.92730
 5150.00000   72.71000    9.65900    9.65900   87.54770   88.84490   11.25610   72.71000   56.12400   56.12400   11.25610    9.91030  -20.12070   -3.86230    9.91030
 5200.00000   75.90000    9.32700    9.32700  110.64280  107.41830    9.30940   75.90000   56.94000   56.94000    9.30940    8.47270  -20.26850   -2.74210    8.47270
 5250.00000   81.56000    9.59200    9.59200  130.26190  124.30850    8.04450   81.56000   59.07600   59.07600    8.04450    7.65470  -20.40070   -2.21120    7.65470
 5300.00000   78.94000    9.26050    9.26050  130.05810  133.24960    7.50480   78.94000   68.46600   68.46600    7.50480    7.95400  -19.51490   -1.62940    7.95400
 5350.00000   90.31500    9.17600    9.17600  127.90470  123.88810    8.07180   90.31500  117.10800  117.10800    8.07180    8.48160  -20.20820   -2.62870    8.48160
 5400.00000   67.30000    8.58100    8.58100   45.84170   44.14580   22.72530   67.30000   40.33200   40.33200   22.72530   19.58850  -21.53840   -5.10130   19.58850
 5450.00000   54.31600    8.27100    8.27100    0.00040    1.27520  784.20420   54.31600   11.56800   11.56800  784.20420   51.55070  -21.93650   -7.35080   51.55070
 5500.00000   56.00400    8.38000    8.38000   13.81120   13.09560   76.36140   56.00400   23.83200   23.83200   76.36140   41.44520  -19.12620   -6.37980   41.44520
 5550.00000   57.65200    8.52700    8.52700   31.34980   29.80910   33.68690   57.65200   12.46200   12.46200   33.68690   36.62580  -18.76910   -7.86200   36.62580
 5600.00000   55.02600    8.23400    8.23400   31.87520   28.24540   35.40400   55.02600    9.99600    9.99600   35.40400   30.63900  -26.80130  -17.74560   30.63900
 5650.00000   56.02800    8.28300    8.28300   10.03910    9.98320  100.16900   56.02800   12.76800   12.76800  100.16900   55.96220  -18.44790  -11.23150   55.96220
 5700.00000   55.90400    8.27700    8.27700    7.00540    5.97460  167.37400   55.90400   15.31200   15.31200  167.37400   51.92260  -14.23830   -8.87330   51.92260
