~Version ---------------------------------------------------
VERS. 2.0 : CWLS log ASCII Standard -VERSION 2.0
WRAP.  NO : ONE LINE PER DEPTH STEP
~Well ------------------------------------------------------
STRT.M                           400.0 : START DEPTH
STOP.M                          2400.0 : STOP DEPTH
STEP.M                        50.00000 : STEP LENGTH
NULL.                          -999.25 : NULL VALUE
COMP.        GULF CANADA RESOURCES INC : COMPANY
WELL. GULF POC AEC IROQUOIS 6-13-75-18 : WELL
FLD .                                  : FIELD
LOC .                                  : LOCATION
CTRY.                           CANADA : COUNTRY
SRVC.                          Unknown : SERVICE COMPANY
DATE.                      09-Feb-1982 : LOGDATE
PROV.                          Alberta : PROVINCE
UWI .                 100061307518W500 : UNIQUE WELL ID
SLAT.WGS84                    55.49456 : SURFACE LATITUDE
SLON.WGS84                   -116.6526 : SURFACE LONGITUDE
~Curve Information -----------------------------------------
DEPT   .M     0   1   0  0 : 1 MEASURED DEPTH
GRD    .GAPI  45 310 01 00 : GAMMA RAY FROM DENSITY LOG
NPHI_SS.DEC   42 890 03 00 : NEUTRON POROSITY SANDSTONE
DPHI_SS.DEC   45 890 12 00 : DENSITY POROSITY SANDSTONE
CALD   .MM    45 280 60 00 : CALIPER FROM DENSITY LOG
NPHI_LS.DEC   42 890 01 00 : NEUTRON POROSITY LIMESTONE
DPHI_LS.DEC   45 890 10 00 : DENSITY POROSITY LIMESTONE
DRHO   .KG/M3 45 356 01 00 : BULK DENSITY CORRECTION
RHOB   .KG/M3 45 350 01 00 : BULK DENSITY
ILD    .OHMM  07 120 46 00 : INDUCTION DEEP RESISTIVITY
SPR    .MV    07 010 01 00 : SPONTANEOUS POTENTIAL FROM RESISTIVITY LOG
SFLU   .OHMM  07 220 01 00 : SHALLOW FOCUSED RESISTIVITY (UNAVERAGED)
ILM    .OHMM  07 120 44 00 : INDUCTION MEDIUM RESISTIVITY
GRS    .GAPI  60 310 01 00 : GAMMA RAY FROM SONIC LOG
DT     .US/M  60 500 00 00 : DELTA-T (INTERVAL TRANSIT TIME)
CALS   .MM    60 280 50 00 : CALIPER FROM SONIC LOG
~Params ----------------------------------------------------
PD  .                         GL : PERMANENT DATUM
EPD .M                    625.05 : ELEVATION PERMANENT DATUM
LMF .                         KB : LOG MEASURED FROM
DAPD.M                      6.55 : FEET ABOVE PERMANENT DATUM
DMF .                         KB : DRILLING MEASURED FROM
EKB .M                     631.6 : KELLY BUSHING
EGL .M                    625.05 : GROUND LEVEL
DATE.                   02/09/82 : RUN DATE
RUN .                          1 : RUN NUMBER
DD  .M                      2411 : DEPTH DRILLER
DL  .M                      2411 : DEPTH LOGGER
BLI .M                      2410 : BOTTOM LOG INTERVAL
TLI .M                       372 : TOP LOG INTERVAL
CS  .MM                      219 : CASING SIZE
CBD .M                       372 : CASING BOTTOM DRILLER
CBL .M                       372 : CASING BOTTOM LOGGER
BS  .MM                      200 : BIT SIZE
BSD .M                      2411 : BIT SIZE AT DEPTH
DFT .                   GEL CHEM : DRILLING FLUID TYPE
DFD .                       1150 : DRILLING FLUID DENSITY
DFV .                         68 : DRILLING FLUID VISCOSITY
DFPH.                         11 : DRILLING FLUID PH
DFL .                        9.5 : DRILLING FLUID LOSS
MSS .                   FLOWLINE : MUD SAMPLE SOURCE
RMS .OHMM                   2.06 : RESISTIVITY MUD SAMPLE
MST .DEGC                   13.3 : MUD SAMPLE TEMPERATURE
RMF .OHMM                   1.84 : RESISTIVITY MUD FILTRATE SAMPLE
MFST.DEGC                   13.3 : MUD FILTRATE SAMPLE TEMPERATURE
RMC .OHMM                  0.912 : RESISTIVITY MUD CAKE
MCST.DEGC                   48.8 : MUD CAKE SAMPLE TEMPERATURE
MFSS.                   FLOWLINE : MUD FILTRATE SAMPLE SOURCE
RMB .OHMM                  1.021 : RESISTIVITY MUD AT BHT
TCS .HRS                    1200 : TIME CIRCULATED STOPPED
TLAB.HRS                    2300 : TIME LOGGER AT BOTTOM
LUN .                       8037 : LOGGING UNIT NUMBER
LUL .                        EDM : LOGGING UNIT LOCATION
ENGI.              BENWOOD AMLIN : RECORDING ENGINEER
WITN.                      THORP : WITNESSED BY
CLNT.                    A2DTECH : CLIENT CODE
ORIG. 6.5"/100M 16.5"/100M PRINT : ORIGIN OF DATA
UWI .           100061307518W500 : UNIQUE WELL ID
DICO.     A2D Technologies, Inc. : DIGITIZING COMPANY
~Other -----------------------------------------------------
~ASCII -----------------------------------------------------
  400.00000   88.31270    0.43450    0.18300  347.93270    -999.25    -999.25   45.20970 2354.22190    4.98710  -42.30540    5.21850    4.74580   93.67970  391.49400  241.33120
  450.00000  118.95200    0.50750    0.27680  424.36160    -999.25    -999.25   64.48690 2195.51340    2.83320  -45.32440    2.98410    2.57870  124.41820  436.51220  239.17330
  500.00000   99.64070    0.39290    0.20410  306.19650    -999.25    -999.25   55.62290 2311.07540    4.63100  -49.81070    4.56740    4.21260  101.38700  366.69380  227.24240
  550.00000   93.52310    0.39340    0.20030  273.20140    -999.25    -999.25   84.64890 2321.31400    5.17980  -45.58890    4.53590    4.91420   92.05780  352.63440  218.10780
  600.00000   83.93260    0.41560    0.17520  211.09110    -999.25    -999.25   59.71000 2362.62280    3.84580  -43.20740    3.88200    3.89460   84.01780  349.94560  203.61000
  650.00000   78.23350    0.41370    0.21590  239.93410    -999.25    -999.25   42.30050 2300.88330    3.84900  -47.28110    4.74810    3.91640   79.39730  343.77020  212.73850
  700.00000   86.96390    0.41120    0.17230  226.55350    -999.25    -999.25   18.67540 2360.81400    3.78710  -43.57110    4.08050    4.04700   72.26250  342.46530  208.20220
  750.00000   65.70670    0.42530    0.23880  205.70140    -999.25    -999.25   28.41940 2251.36230    2.96520  -67.95910    5.70520    3.85180   73.12760  342.17370  200.33340
  800.00000   65.39230    0.37650    0.18720  217.30960    -999.25    -999.25   35.29870 2341.01590    4.63380  -58.50460    8.32270    5.41440   52.98500  308.89820  202.46540
  850.00000   76.51510    0.46180    0.33710  249.87260    -999.25    -999.25  158.02870 2077.40380    3.41210  -28.77010    3.70180    3.18280   95.14710  363.19390  230.37670
  900.00000   52.53650    0.28760    0.20860  212.60670    0.24830    0.23620   73.99950 2307.05620   12.70470  -63.95910   28.69780   16.57330   59.86380  298.44040  204.17990
  950.00000   97.43810    0.37260    0.21270  259.08510    0.32210    0.24160   13.42990 2301.68210   52.02460  -58.79620 1701.60520   90.44750  102.65730  308.50230  210.70730
 1000.00000   19.39630    0.28380    0.08070  196.00320    0.24120    0.11280   52.05340 2517.87620    3.19760 -116.94860   17.72000    4.56360   20.49530  221.20960  203.66030
 1050.00000   28.14500    0.03330   -0.02300  254.87750    0.00810    0.01210   20.89290 2688.30050   89.35790  -53.83850  443.98270  114.32590   23.53200  166.53120  234.10580
 1100.00000   23.41600    -999.25    -999.25  223.59480    0.04070    0.00890   19.74480 2693.12570   24.59420  -84.47410   70.15520   28.49390   34.13800  169.02730  227.44090
 1150.00000   36.30690    -999.25    -999.25  244.37870    0.05980    0.09240   -2.51420 2557.41330   11.53530  -37.66150   37.58340   14.06180   38.23120  186.15020  241.47260
 1200.00000   31.51120    -999.25    -999.25  247.11200    0.12160    0.06330  128.06920 2604.98220   10.81360  -50.50180   12.82390   11.09910   36.99650  215.70940  257.09910
 1250.00000   54.47940    -999.25    -999.25  346.29340    0.32680    0.50620  106.18500 1835.64110    6.68330  -28.33180    5.88170    5.04850   51.43300  242.80360  291.60740
 1300.00000   18.32730    -999.25    -999.25  232.25470    0.03550    0.05830    8.21480 2608.71970   31.41660  -96.42400   75.56290   34.50420   15.30240  176.28020  208.91080
 1350.00000   58.95100    -999.25    -999.25  311.52050    0.22020    0.20290   16.33750 2376.37820    4.46510  -44.06100    5.28920    4.88990   55.10950  209.30070  255.09500
 1400.00000   33.35000    -999.25    -999.25  297.27080    0.05800    0.05850    6.22920 2598.01390   12.08110  -29.34250   24.67180   13.00760   49.15920  214.85310  249.80730
 1450.00000   32.52750    -999.25    -999.25  244.22260    0.06030    0.00720   32.41410 2692.54860   13.77320  -34.63240   19.32750   13.22650   33.58890  201.40860  215.74290
 1500.00000   45.45940    -999.25    -999.25  273.53680    0.08960    0.03840   11.94270 2647.39820    9.07480  -34.37240   11.39430    8.77160   40.50320  218.03290  236.18810
 1550.00000  113.97120    -999.25    -999.25  424.89030    0.47490    0.33740  105.24570 2078.25980    2.47330  -34.78360    2.77590    2.25810  115.31340  346.71070  275.13450
 1600.00000   12.45770    -999.25    -999.25  266.38700   -0.00510   -0.00040   11.94910 2712.19140  193.03250  -70.31680  306.76100  132.66230   17.72880  176.22280  223.84420
 1650.00000   14.15920    -999.25    -999.25  272.00730    0.01770    0.04300   18.92760 2636.72530   25.44870 -136.07100  178.40970   34.48210   15.45910  172.61690  235.98410
 1700.00000   18.13470    -999.25    -999.25  256.65850    0.00080   -0.00450   -0.14490 2719.85690  189.56630  -79.09050  299.99510  130.99870   16.16240  162.60090  217.72350
 1750.00000   14.23300    -999.25    -999.25  247.65770   -0.00180   -0.01150    7.25140 2734.39400  515.65830  -95.44500  690.58540  259.46740   15.53970  162.11020  215.47720
 1800.00000   12.31150    -999.25    -999.25  232.12700    0.09780    0.00230   44.81110 2707.58300   89.49150 -130.19230  311.33670  103.17370   10.31290  159.53030  208.81210
 1850.00000   26.32510    -999.25    -999.25  241.36370    0.11210   -0.01820   21.41670 2752.81960   18.20180  -94.09050   30.55780   17.75840   27.61500  170.60910  218.28200
 1900.00000   55.20750    -999.25    -999.25  228.42700    0.10590    0.02770   31.85760 2666.55590    7.40120  -50.86720    7.58750    7.10850   54.36120  203.01330  209.19260
 1950.00000   98.60070    -999.25    -999.25  391.70200    0.33530    0.12460   94.13190 2498.73240    3.53410  -52.83290    4.21280    3.38040  107.55960  271.12150  254.90990
 2000.00000  117.86910    -999.25    -999.25  562.28380    0.26910    0.13490  249.99840 2467.95680    3.52610  -48.91820    3.81700    3.05710  119.35700  282.99370  209.15830
 2050.00000   94.36170    -999.25    -999.25  562.28000    0.22500    0.08570  159.53430 2562.91770    4.12980  -30.16080    4.63820    3.81230   97.08700  269.24650  204.11320
 2100.00000   67.48400    -999.25    -999.25  210.92680    0.13200    0.01340    0.55460 2689.52780   13.69980   -4.04520   19.05800   15.04750   71.22290  210.77270  202.15640
 2150.00000   80.87510    -999.25    -999.25  262.74740    0.25610    0.13300  249.79730 2478.10010    7.29710  -16.75120    9.08770    7.57770   84.64190  232.70450  215.49930
 2200.00000   89.18030    -999.25    -999.25  388.75620    0.45450    0.23770  135.58040 2305.15280    2.86230  -17.10370    3.41120    2.61900   94.90850  303.76360  276.65190
 2250.00000   48.86570    -999.25    -999.25  228.99470    0.10450    0.02360   -4.87180 2668.18530   14.93420   17.86550   19.55740   14.99400   53.41080  203.73720  216.11950
 2300.00000   22.78490    -999.25    -999.25  207.35840    0.02260    0.00430    0.51290 2703.05080  105.02270   10.87060  148.04340   93.06500   21.91980  172.18230  214.86790
 2350.00000  116.42790    -999.25    -999.25  200.46560    0.16620    0.22470   20.00760 2329.34890    0.52380  -72.90640    2.99620    0.69130  106.78640  264.00980  214.42360
 2400.00000    -999.25    -999.25    -999.25    -999.25    -999.25    -999.25    -999.25    -999.25   45.60910  -32.33490  502.50780   72.81960    -999.25  173.28710  211.73910
