~Version ---------------------------------------------------
VERS.      2.0 : CWLS log ASCII Standard -VERSION 2.0
WRAP.       NO : One line per depth step
CREA. 09/22/17 : LAS Creation Date
~Well ------------------------------------------------------
STRT.FT                1200.0 : START DEPTH
STOP.FT               10800.0 : STOP DEPTH
STEP.FT              50.00000 : STEP LENGTH
NULL.                 -999.25 : NULL VALUE
COMP. SUN OIL COMPANY LIMITED : COMPANY
WELL. BEC ROSEVEAR 6-34-54-15 : WELL
FLD .                         : FIELD
LOC .                         : LOCATION
CTRY.                  CANADA : COUNTRY
SRVC.  Schlumberger of Canada : SERVICE COMPANY
DATE.             25-Mar-1971 : LOGDATE
PROV.                 Alberta : PROVINCE
UWI .        100063405415W500 : UNIQUE WELL ID
SLAT.WGS84           53.70553 : SURFACE LATITUDE
SLON.WGS84          -116.1304 : SURFACE LONGITUDE
~Curve Information -----------------------------------------
DEPT   .FT    : Depth Curve
CALIED .IN    : CALIPER FROM SNP LOG [ADJ. TO RESISTIVITY LOG]
CALSED .IN    : CALIPER FROM SONIC LOG [ADJ. TO RESISTIVITY LOG]
CALWS  .IN    : CALIPER [CALSED]
CILDED .MMHO  : CONDUCTIVITY FROM RESISTIVITY LOG
CONDWS .MMHO  : CONDUCTIVITY [1000/DRESWS]
DRESWS .OHMM  : DEEP RESISTIVITY [1000/CILDED IF ILDED<=5, ILDED]
DTED   .US/F  : DELTA T FROM SONIC LOG [ADJ. TO RESISTIVITY LOG]
DTWS   .US/F  : COMPRESSIONAL SONIC [DTED]
GRED   .GAPI  : GAMMA RAY FROM SNP LOG [ADJ. TO RESISTIVITY LOG]
GRNED  .GAPI  : GAMMA RAY NEUTRON FROM GRN LOG [ADJ. TO RESISTIVITY LOG]
GRSED  .GAPI  : GAMMA RAY FROM SONIC LOG [ADJ. TO RESISTIVITY LOG]
GRWS   .GAPI  : GAMMA RAY [GRSED SPL. TO GRNED @ 10735']
ILDED  .OHMM  : DEEP INDUCTION FROM RESISTIVITY LOG
ILMED  .OHMM  : MEDIUM INDUCTION FROM RESISTIVITY LOG
LL8ED  .OHMM  : LATEROLOG 8' FROM RESISTIVITY LOG
MRESWS .OHMM  : MEDIUM RESISTIVITY [ILMED]
NEUTED .NAPI  : NEUTRON FROM GRN LOG [ADJ. TO RESISTIVITY LOG]
NEUTWS .NAPI  : NEUTRON [NEUTED]
NPOLSWS.V/V   : NEUTRON POROSITY LIMESTONE [SNPLSED]
SNED   .OHMM  : SHORT NORMAL FROM RESISTIVITY LOG
SNPLSED.V/V   : SIDEWALL NEUTRON POROSITY LIMESTONE FROM SNP LOG [ADJ. TO RESISTIVITY LOG]
SPRED  .MV    : SPONTANEOUS POTENTIAL FROM RESISTIVITY LOG
SPWS   .MV    : SPONTANEOUS POTENTIAL [BASELINE 0 MV, SPRED]
SRESWS .OHMM  : SHALLOW RESISTIVITY [SNED SPL. TO LL8ED @ 4794']
~Params ----------------------------------------------------
PD  .                     GL : PERMANENT DATUM
EPD .FT               2803.5 : ELEVATION PERMANENT DATUM
LMF .                     KB : LOG MEASURED FROM
DAPD.FT                 15.5 : FEET ABOVE PERMANENT DATUM
EKB .FT                 2819 : KELLY BUSHING
EGL .FT               2803.5 : GROUND LEVEL
DATE.               03/25/71 : RUN DATE
RUN .                      1 : RUN NUMBER
DD  .FT                10590 : DEPTH DRILLER
DL  .FT                10587 : DEPTH LOGGER
BLI .FT                10581 : BOTTOM LOG INTERVAL
TLI .FT                 1243 : TOP LOG INTERVAL
CBD .FT                 1243 : CASING BOTTOM DRILLER
CBL .FT                 1243 : CASING BOTTOM LOGGER
BS  .IN                 8.75 : BIT SIZE
BSD .FT                10590 : BIT SIZE AT DEPTH
DFT .                    GEL : DRILLING FLUID TYPE
DFD .                   11.1 : DRILLING FLUID DENSITY
DFV .                    127 : DRILLING FLUID VISCOSITY
DFPH.                     10 : DRILLING FLUID PH
DFL .                      6 : DRILLING FLUID LOSS
MSS .                   CIRC : MUD SAMPLE SOURCE
RMS .OHMM               1.34 : RESISTIVITY MUD SAMPLE
MST .DEGF                 68 : MUD SAMPLE TEMPERATURE
RMF .OHMM               0.95 : RESISTIVITY MUD FILTRATE SAMPLE
MFST.DEGF                 50 : MUD FILTRATE SAMPLE TEMPERATURE
RMC .OHMM               1.98 : RESISTIVITY MUD CAKE
MCST.DEGF                 52 : MUD CAKE SAMPLE TEMPERATURE
RMB .OHMM               0.32 : RESISTIVITY MUD AT BHT
TCS .HRS                   4 : TIME CIRCULATED STOPPED
LUN .                   5628 : LOGGING UNIT NUMBER
ENGI.               PUOURSON : RECORDING ENGINEER
WITN.                 BAANUT : WITNESSED BY
CLNT.                A2DTECH : CLIENT CODE
ORIG.            2" 5" PRINT : ORIGIN OF DATA
UWI .       100063405415W500 : UNIQUE WELL ID
DICO. A2D Technologies, Inc. : DIGITIZING COMPANY
~Other -----------------------------------------------------
DIL-GRN-SNP-BCS LOG RAN.
~ASCII -----------------------------------------------------
# ...
 5550.00000   10.90970    9.66240    9.66240    -999.25   83.48940   11.97760   84.44980   84.44980   63.70970    -999.25  103.12020  103.12020   11.97760   13.27980   16.41130   13.27980    -999.25    -999.25    0.34620    -999.25    0.34620  -44.35450   -5.26740   16.41130
 5600.00000   11.28700    9.60070    9.60070    -999.25   78.19890   12.78790   85.99400   85.99400   66.21900    -999.25  114.03700  114.03700   12.78790   14.14940   17.78220   14.14940    -999.25    -999.25    0.34440    -999.25    0.34440  -42.58460   -4.70790   17.78220
 5650.00000   11.25300    9.52760    9.52760    -999.25   68.49530   14.60470   87.81210   87.81210   71.00970    -999.25  109.30070  109.30070   14.60470   16.48790   21.51600   16.48790    -999.25    -999.25    0.34000    -999.25    0.34000  -41.22800   -4.54950   21.51600
 5700.00000   10.42580    9.62740    9.62740    -999.25   95.96470   10.42050   86.91120   86.91120   63.23400    -999.25  104.26100  104.26100   10.42050   11.34280   14.59840   11.34280    -999.25    -999.25    0.27300    -999.25    0.27300  -38.85990   -3.39180   14.59840
 5750.00000   10.72580   10.01760   10.01760    -999.25   87.33240   11.45050   91.02140   91.02140   63.10770    -999.25  110.88690  110.88690   11.45050   12.55070   16.61260   12.55070    -999.25    -999.25    0.28850    -999.25    0.28850  -38.42830   -4.16450   16.61260
 5800.00000   11.20120   10.43490   10.43490    -999.25  108.38250    9.23090   80.08190   80.08190   51.95700    -999.25   95.60400   95.60400    9.23090   10.73990   13.36050   10.73990    -999.25    -999.25    0.27690    -999.25    0.27690  -37.22210   -4.15660   13.36050
 5850.00000   11.29850   10.68120   10.68120    -999.25  137.96720    7.24810   83.85780   83.85780   58.13000    -999.25   88.54200   88.54200    7.24810    7.58080    9.12250    7.58080    -999.25    -999.25    0.37380    -999.25    0.37380  -35.16560   -3.31050    9.12250
 5900.00000   12.79730   10.20850   10.20850    -999.25  144.91980    6.90060   81.55070   81.55070   56.00870    -999.25   88.75440   88.75440    6.90060    7.30780    8.71030    7.30780    -999.25    -999.25    0.38840    -999.25    0.38840  -33.78980   -3.13290    8.71030
 5950.00000   11.84440   10.06360   10.06360    -999.25  116.57050    8.57850   78.23200   78.23200   57.34060    -999.25   92.75610   92.75610    8.57850    9.28960   11.95170    9.28960    -999.25    -999.25    0.34930    -999.25    0.34930  -33.13260   -3.68610   11.95170
 6000.00000   13.14470   10.48280   10.48280    -999.25  126.58230    7.90000   81.67050   81.67050   53.28220    -999.25   96.69640   96.69640    7.90000    8.53800    9.67970    8.53800    -999.25    -999.25    0.39050    -999.25    0.39050  -31.46790   -3.22570    9.67970
 6050.00000   13.92000   10.45010   10.45010    -999.25  138.38350    7.22630   79.80330   79.80330   49.88970    -999.25   83.03750   83.03750    7.22630    7.61940    9.41650    7.61940    -999.25    -999.25    0.41250    -999.25    0.41250  -28.55360   -1.47380    9.41650
 6100.00000   14.95940    9.95030    9.95030    -999.25  105.15030    9.51020   81.88270   81.88270  200.15110    -999.25  299.89280  299.89280    9.51020   11.31050   13.58220   11.31050    -999.25    -999.25    0.38200    -999.25    0.38200  -30.35700   -3.11420   13.58220
 6150.00000   15.88540   11.59870   11.59870    -999.25  263.99180    3.78890   92.10220   92.10220   44.55270    -999.25   88.03150   88.03150    3.78890    3.68400    4.59620    3.68400    -999.25    -999.25    0.50260    -999.25    0.50260  -32.78680   -4.14240    4.59620
 6200.00000   16.27110   13.48240   13.48240    -999.25  114.48720    8.73460   81.06080   81.06080   43.03320    -999.25   66.16980   66.16980    8.73460    7.13270    8.73240    7.13270    -999.25    -999.25    0.49310    -999.25    0.49310  -32.97680   -3.07580    8.73240
 6250.00000   10.67620    9.43740    9.43740    -999.25   32.91790   30.37860   64.26770   64.26770   29.03970    -999.25   43.06970   43.06970   30.37860   35.26150   56.81530   35.26150    -999.25    -999.25    0.07800    -999.25    0.07800  -42.34190  -11.32610   56.81530
 6300.00000   11.00730   11.62370   11.62370    -999.25   97.65180   10.29500   76.22550   76.22550   37.19860    -999.25   59.97700   59.97700   10.29500   11.58080   12.09990   11.58080    -999.25    -999.25    0.27570    -999.25    0.27570  -34.98660   -2.01930   12.09990
 6350.00000   15.75130   10.22510   10.22510    -999.25   65.76220   15.20630   74.19280   74.19280   23.72970    -999.25   38.50160   38.50160   15.20630   24.40060   29.80820   24.40060    -999.25    -999.25    0.24750    -999.25    0.24750  -64.84870  -30.23840   29.80820
 6400.00000   11.29400   10.29320   10.29320    -999.25   75.07460   13.32020   70.93700   70.93700   40.00850    -999.25   62.61310   62.61310   13.32020   13.71180   17.02370   13.71180    -999.25    -999.25    0.14430    -999.25    0.14430  -41.04940   -4.95320   17.02370
 6450.00000   11.91950   10.82960   10.82960    -999.25   95.18460   10.50590  119.12860  119.12860   32.01210    -999.25   50.87400   50.87400   10.50590   17.92190   41.18190   17.92190    -999.25    -999.25    0.50870    -999.25    0.50870  -37.64340   -1.34020   41.18190
 6500.00000   11.07510   10.11620   10.11620    -999.25   50.03950   19.98420   66.46360   66.46360   40.00430    -999.25   59.17800   59.17800   19.98420   21.21230   22.76980   21.21230    -999.25    -999.25    0.13080    -999.25    0.13080  -47.02120  -12.36080   22.76980
 6550.00000   11.13960   10.33050   10.33050    -999.25   56.18270   17.79920   71.73930   71.73930   44.56830    -999.25   77.03030   77.03030   17.79920   20.66040   30.01660   20.66040    -999.25    -999.25    0.17370    -999.25    0.17370  -32.96900   -0.61450   30.01660
 6600.00000   11.59750   11.26560   11.26560    -999.25   81.94500   12.20330   74.62360   74.62360   42.12190    -999.25   64.32750   64.32750   12.20330   11.98090   15.53160   11.98090    -999.25    -999.25    0.38240    -999.25    0.38240  -32.79560   -1.77120   15.53160
 6650.00000   10.92190    9.84620    9.84620    -999.25   41.96110   23.83700   61.51970   61.51970   30.11190    -999.25   49.92040   49.92040   23.83700   33.04520   38.60230   33.04520    -999.25    -999.25    0.07960    -999.25    0.07960  -37.02200   -7.36570   38.60230
 6700.00000   10.95300   10.34020   10.34020    -999.25   83.91660   11.91660   65.43180   65.43180   31.78500    -999.25   46.93890   46.93890   11.91660   13.38770   13.48510   13.38770    -999.25    -999.25    0.10050    -999.25    0.10050  -36.33390   -8.09360   13.48510
 6750.00000   11.07920   10.20160   10.20160    -999.25   69.32070   14.42570   72.95930   72.95930   40.78350    -999.25   77.56400   77.56400   14.42570   16.21120   24.99170   16.21120    -999.25    -999.25    0.13510    -999.25    0.13510  -47.81770  -20.62960   24.99170
 6800.00000   11.30000   10.41470   10.41470    -999.25   62.97110   15.88710   74.07150   74.07150   55.18100    -999.25   83.40570   83.40570   15.88710   18.16840   19.71750   18.16840    -999.25    -999.25    0.18580    -999.25    0.18580  -28.55870   -2.12260   19.71750
 6850.00000   12.02310   10.60970   10.60970    -999.25   85.72360   11.66540   74.24170   74.24170   45.48570    -999.25   77.62350   77.62350   11.66540   12.51010   14.44100   12.51010    -999.25    -999.25    0.17480    -999.25    0.17480  -29.51600   -3.83930   14.44100
 6900.00000   12.07460   10.50940   10.50940    -999.25   73.43340   13.61810   72.20330   72.20330   47.68050    -999.25   81.97200   81.97200   13.61810   15.45190   17.24350   15.45190    -999.25    -999.25    0.18140    -999.25    0.18140  -30.24320   -5.31830   17.24350
 6950.00000   13.35870   10.78690   10.78690    -999.25   72.71250   13.75280   77.98050   77.98050   49.43470    -999.25   77.45330   77.45330   13.75280   15.36380   21.63700   15.36380    -999.25    -999.25    0.32820    -999.25    0.32820  -25.85960   -1.69410   21.63700
