~Version ---------------------------------------------------
VERS.      2.0 : CWLS log ASCII Standard -VERSION 2.0
WRAP.       NO : One line per depth step
CREA. 08/01/17 : LAS Creation Date
~Well ------------------------------------------------------
STRT.FT                      1100.0 : START DEPTH
STOP.FT                     10300.0 : STOP DEPTH
STEP.FT                    50.00000 : STEP LENGTH
NULL.                       -999.25 : NULL VALUE
COMP.        DOME PETROLEUM LIMITED : COMPANY
WELL. DOME ET AL EAGLE T10-18-63-16 : WELL
FLD .                            WC : FIELD
LOC .                               : LOCATION
CTRY.                        CANADA : COUNTRY
SRVC.                  Schlumberger : SERVICE COMPANY
DATE.                   02-Apr-1968 : LOGDATE
PROV.                       Alberta : PROVINCE
UWI .              100101806316W500 : UNIQUE WELL ID
SLAT.WGS84                 54.45347 : SURFACE LATITUDE
SLON.WGS84                -116.4023 : SURFACE LONGITUDE
~Curve Information -----------------------------------------
DEPT  .FT    : Depth Curve
CALSED.IN    : CALIPER FROM BCS LOG [ADJ. TO ILDED]
CALWS .IN    : CALIPER [CALSED]
CILDED.MMHO  : DEEP INDUCTION CONDUCTIVITY FROM IEL LOG
CONDWS.MMHO  : CONDUCTIVITY [CILDED]
DRESWS.OHMM  : DEEP RESISTIVITY [1000/CILDED IF ILDED <1, ILDED]
DTED  .US/F  : ACOUSTIC TRANSIT TIME SLOWNESS, DELTA T FROM BCS LOG [ADJ. TO ILDED]
DTWS  .US/F  : COMPRESSIONAL SONIC [DTED]
GRSED .GAPI  : GAMMA RAY FROM BCS LOG [ADJ. TO ILDED]
GRWS  .GAPI  : GAMMA RAY [GRSED]
ILDED .OHMM  : DEEP INDUCTION RESISTIVITY FROM IEL LOG
SNED  .OHMM  : SHORT NORMAL FROM IEL LOG
SPRED .MV    : SPONTANEOUS POTENTIAL FROM IEL LOG
SPWS  .MV    : SPONTANEOUS POTENTIAL [BASELINED 0 MV, SPRED]
SRESWS.OHMM  : SHALLOW RESISTIVITY [SNED]
~Params ----------------------------------------------------
PD  .                     GL : PERMANENT DATUM
EPD .FT                 3417 : ELEVATION PERMANENT DATUM
LMF .                     KB : LOG MEASURED FROM
DAPD.FT                   13 : FEET ABOVE PERMANENT DATUM
DMF .                     KB : DRILLING MEASURED FROM
EKB .FT                 3430 : KELLY BUSHING
EGL .FT                 3417 : GROUND LEVEL
DATE.               04/02/68 : RUN DATE
RUN .                      1 : RUN NUMBER
DD  .FT                10343 : DEPTH DRILLER
DL  .FT                10341 : DEPTH LOGGER
BLI .FT                10340 : BOTTOM LOG INTERVAL
TLI .FT                 1104 : TOP LOG INTERVAL
CBD .FT                 1103 : CASING BOTTOM DRILLER
CBL .FT                 1104 : CASING BOTTOM LOGGER
BS  .IN                7.875 : BIT SIZE
BSD .FT                10343 : BIT SIZE AT DEPTH
DFT .               GEL CHEM : DRILLING FLUID TYPE
DFD .                   10.8 : DRILLING FLUID DENSITY
DFV .                    110 : DRILLING FLUID VISCOSITY
DFPH.                   10.5 : DRILLING FLUID PH
DFL .                    6.6 : DRILLING FLUID LOSS
RMS .OHMM               3.34 : RESISTIVITY MUD SAMPLE
MST .DEGF                 60 : MUD SAMPLE TEMPERATURE
RMF .OHMM                2.7 : RESISTIVITY MUD FILTRATE SAMPLE
MFST.DEGF                 61 : MUD FILTRATE SAMPLE TEMPERATURE
RMB .OHMM               1.07 : RESISTIVITY MUD AT BHT
TCS .HRS                 4.5 : TIME CIRCULATED STOPPED
LUN .                   3816 : LOGGING UNIT NUMBER
LUL .                    S L : LOGGING UNIT LOCATION
ENGI.                  MOORE : RECORDING ENGINEER
WITN.                  FOOTE : WITNESSED BY
CLNT.                A2DTECH : CLIENT CODE
ORIG.            2" 5" PRINT : ORIGIN OF DATA
UWI .       100101806316W500 : UNIQUE WELL ID
DICO. A2D Technologies, Inc. : DIGITIZING COMPANY
~Other -----------------------------------------------------
~ASCII -----------------------------------------------------
 1100.00000    -999.25    -999.25    -999.25    -999.25    -999.25    -999.25    -999.25   57.56590   57.56590    -999.25    -999.25    -999.25    -999.25    -999.25
 1150.00000    9.24470    9.24470  156.17470  156.17470    5.99340  110.03090  110.03090   66.54620   66.54620    5.99340    7.67330  -79.83070   -7.07710    7.67330
 1200.00000    8.54810    8.54810   46.86850   46.86850   16.28250   93.69200   93.69200   41.85990   41.85990   16.28250   16.91400  -89.95670  -17.20310   16.91400
 1250.00000    9.02170    9.02170  226.22920  226.22920    4.25160  151.81590  151.81590   57.85590   57.85590    4.25160    4.90950  -75.72920   -2.97560    4.90950
 1300.00000   13.06780   13.06780  120.90710  120.90710    6.06380  165.13500  165.13500   54.64490   54.64490    6.06380    6.88030  -78.21520   -5.71850    6.88030
 1350.00000    8.64600    8.64600  205.36730  205.36730    4.92910  108.42830  108.42830   63.66960   63.66960    4.92910    4.43800  -78.03460   -5.92690    4.43800
 1400.00000   14.21590   14.21590  256.18100  256.18100    3.73130  130.86750  130.86750   53.18180   53.18180    3.73130    3.49850  -75.01780   -3.29670    3.49850
 1450.00000   11.11280   11.11280  272.96930  272.96930    3.68410  122.28490  122.28490   61.60920   61.60920    3.68410    3.29030  -74.71650   -3.38450    3.29030
 1500.00000    9.22210    9.22210  150.27800  150.27800    5.94400  103.16390  103.16390   66.06140   66.06140    5.94400    5.71030  -79.63420   -8.68870    5.71030
 1550.00000   11.32720   11.32720  242.63770  242.63770    4.01690  118.93520  118.93520   63.83150   63.83150    4.01690    3.70490  -73.76890   -2.99390    3.70490
 1600.00000   11.07860   11.07860  220.48760  220.48760    4.22430  135.20350  135.20350   51.11130   51.11130    4.22430    4.78190  -72.91840   -2.22910    4.78190
 1650.00000   10.79600   10.79600  252.56980  252.56980    4.05240  117.41740  117.41740   72.63920   72.63920    4.05240    3.47620  -75.77450   -5.17040    3.47620
 1700.00000    9.48480    9.48480  235.92090  235.92090    4.45370  106.84330  106.84330   62.06250   62.06250    4.45370    4.18230  -75.71100   -5.19260    4.18230
 1750.00000    8.47770    8.47770  205.34880  205.34880    4.98200  109.71820  109.71820   60.18730   60.18730    4.98200    4.60500  -74.81910   -4.38590    4.60500
 1800.00000    9.72850    9.72850  229.12000  229.12000    4.09180  108.60600  108.60600   75.26720   75.26720    4.09180    3.95910  -73.16980   -2.82170    3.95910
 1850.00000    9.90560    9.90560  195.39050  195.39050    4.88360  102.20070  102.20070   86.85510   86.85510    4.88360    4.23810  -73.96600   -3.70370    4.23810
 1900.00000    9.67360    9.67360  165.90950  165.90950    5.83880  101.68520  101.68520   59.55590   59.55590    5.83880    4.83600  -75.74670   -5.56950    4.83600
 1950.00000   11.04710   11.04710  202.45250  202.45250    4.92360  114.55650  114.55650   59.97260   59.97260    4.92360    4.19890  -72.36480   -2.27340    4.19890
 2000.00000   11.26580   11.26580  238.76310  238.76310    4.24550  105.76480  105.76480   66.11140   66.11140    4.24550    4.00510  -73.72370   -3.71740    4.00510
 2050.00000   10.71250   10.71250  284.05830  284.05830    3.61680  120.75630  120.75630   55.42790   55.42790    3.61680    4.36500  -74.89400   -4.97290    4.36500
 2100.00000   11.39270   11.39270  304.46630  304.46630    3.37900  119.55760  119.55760   74.45830   74.45830    3.37900    2.77030  -74.20310   -4.42080    2.77030
 2150.00000   10.45990   10.45990  255.80760  255.80760    3.91040  125.09810  125.09810   61.41050   61.41050    3.91040    3.37280  -73.53570   -3.94620    3.37280
 2200.00000   10.55060   10.55060  269.60350  269.60350    3.62580   99.76640   99.76640   62.85260   62.85260    3.62580    3.45250  -73.41340   -4.01790    3.45250
 2250.00000   10.88680   10.88680  344.75860  344.75860    3.02290  120.15970  120.15970   64.14710   64.14710    3.02290    2.42020  -73.10820   -3.90550    2.42020
 2300.00000   10.86430   10.86430  407.99980  407.99980    2.53950  114.65800  114.65800   69.76210   69.76210    2.53950    2.30020  -73.08850   -4.07850    2.30020
 2350.00000   10.25360   10.25360  222.35150  222.35150    4.61460  111.59840  111.59840   53.35880   53.35880    4.61460    3.93700  -75.95240   -7.13650    3.93700
 2400.00000   10.26200   10.26200  366.86750  366.86750    2.91960  112.79450  112.79450   71.44120   71.44120    2.91960    2.15130  -74.78870   -6.16550    2.15130
 2450.00000   10.44710   10.44710  217.49710  217.49710    4.76280  107.18550  107.18550   57.96410   57.96410    4.76280    4.38910  -81.34760  -12.91850    4.38910
 2500.00000    7.99290    7.99290   74.19870   74.19870   11.37110  103.91570  103.91570   40.03020   40.03020   11.37110   11.95690  -95.27650  -27.04010   11.95690
 2550.00000    8.24330    8.24330  118.31170  118.31170    7.57200  102.47850  102.47850   55.61500   55.61500    7.57200    6.91490  -85.83840  -17.79480    6.91490
 2600.00000    7.89090    7.89090   85.41580   85.41580   10.28690   93.09760   93.09760   51.87270   51.87270   10.28690   11.28570  -93.84910  -25.60480   11.28570
 2650.00000   12.05590   12.05590  584.85090  584.85090    2.02400  160.83380  160.83380   69.74870   69.74870    2.02400    1.66440  -73.36110   -4.61980    1.66440
 2700.00000    9.52510    9.52510  218.29010  218.29010    4.45680   99.76940   99.76940   63.78880   63.78880    4.45680    3.99590  -75.39110   -6.14960    3.99590
 2750.00000    8.77650    8.77650  182.73080  182.73080    5.64030  100.09500  100.09500   52.06250   52.06250    5.64030    6.08140  -80.17280  -10.43430    6.08140
 2800.00000    8.31880    8.31880  105.00640  105.00640    9.82140   92.42620   92.42620   49.77140   49.77140    9.82140   10.48670  -82.09870  -11.86330   10.48670
 2850.00000    9.83380    9.83380  268.76740  268.76740    3.72970  118.34200  118.34200   51.41150   51.41150    3.72970    3.95390  -75.93250   -5.19690    3.95390
 2900.00000    8.46410    8.46410   92.82700   92.82700   10.03060   76.44570   76.44570   42.43300   42.43300   10.03060   12.82310  -79.91420   -8.68160   12.82310
 2950.00000   10.37760   10.37760  279.81740  279.81740    3.53430  101.43020  101.43020   55.69920   55.69920    3.53430    3.19180  -74.00220   -2.26940    3.19180
 3000.00000   10.41160   10.41160  258.34530  258.34530    3.53450  101.97950  101.97950   56.06820   56.06820    3.53450    3.81160  -74.76180   -3.32010    3.81160
 3050.00000   11.00370   11.00370  264.25990  264.25990    3.61020  116.50600  116.50600   62.76800   62.76800    3.61020    3.33030  -72.44670   -1.40870    3.33030
 3100.00000    9.86360    9.86360  211.04880  211.04880    4.75640  112.13240  112.13240   48.00230   48.00230    4.75640    4.29630  -75.23800   -4.60630    4.29630
 3150.00000   11.04520   11.04520  233.54660  233.54660    4.22170  113.85050  113.85050   54.06840   54.06840    4.22170    3.72800  -73.89860   -3.67060    3.72800
 3200.00000    8.87900    8.87900  159.49450  159.49450    5.90670   92.47110   92.47110   52.44400   52.44400    5.90670    5.67880  -74.89540   -5.04530    5.67880
 3250.00000    8.44330    8.44330   68.00870   68.00870   14.09050   92.76190   92.76190   39.00140   39.00140   14.09050   11.90120  -83.69410  -14.04180   11.90120
 3300.00000    9.35990    9.35990  233.77750  233.77750    4.24330  102.13950  102.13950   50.64350   50.64350    4.24330    4.22630  -74.23390   -4.77930    4.22630
 3350.00000    8.74330    8.74330  209.38670  209.38670    4.80850   94.42070   94.42070   59.09240   59.09240    4.80850    4.59010  -73.50330   -4.24780    4.59010
 3400.00000    9.04930    9.04930  250.54360  250.54360    3.85540   97.90380   97.90380   56.39430   56.39430    3.85540    4.43890  -73.70660   -4.64880    4.43890
 3450.00000    8.38480    8.38480   96.29820   96.29820    9.33280   85.61050   85.61050   54.07910   54.07910    9.33280   10.65950  -89.12930  -20.10880   10.65950
 3500.00000    8.94380    8.94380  127.83580  127.83580    6.80810   92.68060   92.68060   40.46290   40.46290    6.80810    7.11520  -85.06580  -15.70880    7.11520
