~Version ---------------------------------------------------
VERS. 2.0 : CWLS log ASCII Standard -VERSION 2.0
WRAP.  NO : ONE LINE PER DEPTH STEP
~Well ------------------------------------------------------
STRT.F                      557.7428 : START DEPTH
STOP.F                    10838.7428 : STOP DEPTH
STEP.F                       0.50000 : STEP LENGTH
NULL.                        -999.25 : NULL VALUE
COMP.           PETROFINA CANADA LTD : COMPANY
WELL. FINA AMOCO HB FOXCK 6-35-60-18 : WELL
FLD .                                : FIELD
LOC .                                : LOCATION
CTRY.                         CANADA : COUNTRY
SRVC.         Schlumberger of Canada : SERVICE COMPANY
DATE.                    29-Aug-1976 : LOGDATE
PROV.                        Alberta : PROVINCE
UWI .               100063506018W500 : UNIQUE WELL ID
SLAT.WGS84                  54.22952 : SURFACE LATITUDE
SLON.WGS84                 -116.5928 : SURFACE LONGITUDE
~Curve Information -----------------------------------------
DEPT   .F                 : 
SPR    .MV                : SPONTANEOUS POTENTIAL FROM RESISTIVITY
ILD    .OHMM              : DEEP INDUCTION RESISTIVITY
ILM    .OHMM              : INDUCTION MEDIUM RESISTIVITY
LL8    .OHMM              : LATEROLOG-8 RESISTIVITY
CALD   .IN   70 280 01 00 : CALIPER
DCOR   .G/C3 45 356 01 00 : DENSITY CORRECTION
GRD    .GAPI 45 310 01 00 : GAMMA RAY FROM DENSITY LOG
RHOB   .G/C3 45 350 01 00 : BULK DENSITY
DPOR_SS.DEC               : DENSITY POROSITY SANDSTONE
NPOR_S .DEC               : ENCHANCED THERMAL NEUTRON POROSITY IN SELECTED LITHOLOGY SANDSTONE
DPOR_LS.DEC               : DENSITY POROSITY LIMESTONE
NPOR_LS.DEC               : ENCHANCED THERMAL NEUTRON POROSITY IN SELECTED LITHOLOGY SANDSTONE
DT     .US/F 60 520 00 00 : ACOUSTIC TRANSIT TIME SLOWNESS, DELTA T
CALS   .IN                : 
GRS    .GAPI              : GAMMA RAY FROM SONIC LOG
GR     .GAPI              : GAMMA RAY
~Params ----------------------------------------------------
PD  .                     GL : PERMANENT DATUM
EPD .FT                 3085 : ELEVATION PERMANENT DATUM
LMF .                     KB : LOG MEASURED FROM
DAPD.FT                 15.7 : FEET ABOVE PERMANENT DATUM
EKB .FT               3100.9 : KELLY BUSHING
EDF .FT               3085.2 : DRILLING FLOOR
EGL .FT               3085.5 : GROUND LEVEL
DATE.               08/29/76 : RUN DATE
RUN .                      1 : RUN NUMBER
DD  .FT                10843 : DEPTH DRILLER
DL  .FT                10840 : DEPTH LOGGER
BLI .FT                10834 : BOTTOM LOG INTERVAL
TLI .FT                 1119 : TOP LOG INTERVAL
CBD .FT                 1119 : CASING BOTTOM DRILLER
CBL .FT                 1119 : CASING BOTTOM LOGGER
BS  .IN                 8.75 : BIT SIZE
BSD .FT                10843 : BIT SIZE AT DEPTH
DFT .               GEL CHEM : DRILLING FLUID TYPE
DFD .                    9.3 : DRILLING FLUID DENSITY
DFV .                    150 : DRILLING FLUID VISCOSITY
DFPH.                   10.5 : DRILLING FLUID PH
DFL .                    7.0 : DRILLING FLUID LOSS
MSS .            CIRCULATION : MUD SAMPLE SOURCE
RMS .OHMM               2.43 : RESISTIVITY MUD SAMPLE
MST .DEGF                 76 : MUD SAMPLE TEMPERATURE
RMF .OHMM               2.33 : RESISTIVITY MUD FILTRATE SAMPLE
MFST.DEGF                 73 : MUD FILTRATE SAMPLE TEMPERATURE
RMC .OHMM               2.22 : RESISTIVITY MUD CAKE
MCST.DEGF                 67 : MUD CAKE SAMPLE TEMPERATURE
RMB .OHMM               0.86 : RESISTIVITY MUD AT BHT
TCS .HRS                   3 : TIME CIRCULATED STOPPED
LUN .                   7691 : LOGGING UNIT NUMBER
LUL .                    WCT : LOGGING UNIT LOCATION
ENGI.              CROCKFORD : RECORDING ENGINEER
WITN.                 HALKOW : WITNESSED BY
CLNT.                A2DTECH : CLIENT CODE
ORIG.            2" 5" PRINT : ORIGIN OF DATA
UWI .       100063506018W500 : UNIQUE WELL ID
DICO. A2D Technologies, Inc. : DIGITIZING COMPANY
~Other -----------------------------------------------------
~ASCII -----------------------------------------------------
# ...
 5094.24280  -25.49120   11.58600   10.47660   13.36780   12.85350    0.21070  117.37260    2.07550    0.36180    0.36450    -999.25    -999.25   91.05650   10.49130  109.03380    -999.25
 5094.74280  -25.34960   11.54070   10.35940   13.14770   12.55900    0.22600  117.89670    2.13000    0.36090    0.37100    -999.25    -999.25   92.61120   10.26470  109.23120    -999.25
 5095.24280  -25.18910   11.48290   10.30880   13.53460   12.80340    0.22700  117.39150    2.13810    0.32660    0.37420    -999.25    -999.25   95.55170   10.41100  108.62080    -999.25
 5095.74280  -25.08160   11.42540   10.32690   14.11290   13.00830    0.20850  116.45300    2.12690    0.30950    0.37270    -999.25    -999.25   94.18060   10.95370  108.51140    -999.25
 5096.24280  -25.05260   11.36820   10.34500   14.22160   12.97550    0.20290  115.39040    2.14570    0.31880    0.36740    -999.25    -999.25   91.68920   11.38750  109.25240    -999.25
 5096.74280  -25.02650   11.31120   10.36310   13.95830   13.43940    0.21120  114.93870    2.14890    0.30990    0.36510    -999.25    -999.25   91.41960   11.08080  110.05290    -999.25
 5097.24280  -24.95930   11.25460   10.37360   13.73010   13.84110    0.20030  116.13830    2.11010    0.29600    0.36890    -999.25    -999.25   91.52090   10.76370  110.83640    -999.25
 5097.74280  -24.93150   11.19820   10.37240   13.51450   13.85750    0.19080  118.42250    2.09020    0.31220    0.37430    -999.25    -999.25   90.94180   10.92470  111.48180    -999.25
 5098.24280  -24.81670   11.15770   10.36760   13.32800   14.01850    0.19710  119.18450    2.09880    0.33820    0.37990    -999.25    -999.25   90.52100   11.30610  111.05340    -999.25
 5098.74280  -24.60540   11.14300   10.37690   13.29460   13.94480    0.19900  118.20620    2.06100    0.33490    0.38610    -999.25    -999.25   91.41830   11.61610  109.88720    -999.25
 5099.24280  -24.48950   11.13780   10.49790   13.31770   13.63440    0.19370  118.00680    2.01010    0.33760    0.39170    -999.25    -999.25   91.20470   11.66260  108.87300    -999.25
 5099.74280  -24.47600   11.13500   10.72960   13.37590   13.33810    0.18550  118.21340    2.01200    0.36770    0.38950    -999.25    -999.25   91.73040   12.27380  108.48390    -999.25
 5100.24280  -24.55360   11.17830   10.91940   13.54420   12.80820    0.18050  117.77940    2.05400    0.38520    0.38760    -999.25    -999.25   92.70080   12.81650  108.84140    -999.25
 5100.74280  -24.66470   11.26820   10.96130   13.78250   12.04590    0.19090  116.90910    2.12250    0.38020    0.39410    -999.25    -999.25   93.32190   12.42480  109.85600    -999.25
 5101.24280  -24.79110   11.35880   10.88290   14.03500   11.79040    0.21300  115.89430    2.16410    0.34740    0.40000    -999.25    -999.25   94.92470   11.69140  111.73560    -999.25
 5101.74280  -24.94230   11.43580   10.76300   14.23140   12.17850    0.19910  115.46530    2.16010    0.30290    0.40230    -999.25    -999.25   94.50280   11.16500  114.74570    -999.25
 5102.24280  -25.03490   11.46740   10.62280   14.31420   12.41540    0.15550  115.52460    2.15460    0.28970    0.39440    -999.25    -999.25   93.68230   11.01700  117.75840    -999.25
 5102.74280  -25.08270   11.46650   10.48450   14.32020   12.89160    0.13890  115.14030    2.14890    0.29810    0.38330    -999.25    -999.25   93.41830   10.92220  118.70070    -999.25
 5103.24280  -25.17190   11.45710   10.36760   14.13360   13.92900    0.15920  114.71430    2.13870    0.30170    0.38290    -999.25    -999.25   92.51810   10.74820  117.94420    -999.25
 5103.74280  -25.23170   11.41210   10.29730   13.58480   13.43540    0.18210  115.29420    2.13240    0.30300    0.39220    -999.25    -999.25   93.05020   10.61530  116.46350    -999.25
 5104.24280  -25.22030   11.33910   10.24540   13.15610   12.66610    0.17740  116.27730    2.13490    0.31230    0.40300    -999.25    -999.25   94.12070   10.52990  114.23500    -999.25
 5104.74280  -25.21590   11.26660   10.21170   13.36390   13.37180    0.16310  117.58880    2.10930    0.31210    0.40460    -999.25    -999.25   94.36640   10.65890  112.50770    -999.25
 5105.24280  -25.21150   11.19470   10.21660   13.97260   14.05180    0.16410  119.55420    2.02790    0.30800    0.39910    -999.25    -999.25   94.23070   10.96650  112.08060    -999.25
 5105.74280  -25.13610   11.13690   10.23320   14.11950   13.77130    0.16190  121.44570    1.95480    0.33660    0.39500    -999.25    -999.25   93.21230   11.11140  112.40250    -999.25
 5106.24280  -25.02140   11.11480   10.25040   13.47570   12.88690    0.15720  121.57030    1.93710    0.38120    0.39200    -999.25    -999.25   92.40720   11.03070  112.97870    -999.25
 5106.74280  -24.80590   11.11480   10.26760   12.99170   12.28990    0.17160  120.29680    1.95150    0.41540    0.38790    -999.25    -999.25   92.80950   10.86120  113.93290    -999.25
 5107.24280  -24.46320   11.11480   10.28480   13.26370   11.85130    0.18960  119.90930    1.96940    0.42730    0.37990    -999.25    -999.25   93.39640   10.93750  114.84840    -999.25
 5107.74280  -24.10970   11.11850   10.30070   13.87520   11.89190    0.20130  120.75420    1.98830    0.41660    0.37390    -999.25    -999.25   94.10940   11.25640  115.50580    -999.25
 5108.24280  -23.72190   11.14140   10.30900   14.40550   11.87610    0.20920  121.96550    2.02060    0.40340    0.37510    -999.25    -999.25   95.27950   11.47040  116.74720    -999.25
 5108.74280  -23.40040   11.18050   10.31060   14.63690   11.66180    0.21780  122.45620    2.04520    0.38920    0.37910    -999.25    -999.25   95.29790   11.41280  118.46170    -999.25
 5109.24280  -23.23420   11.21960   10.31220   14.54000   11.23970    0.22160  121.01220    2.03250    0.37050    0.38660    -999.25    -999.25   94.13210   11.10260  119.89390    -999.25
 5109.74280  -23.12870   11.25890   10.32590   14.37690   11.31590    0.21870  118.10880    2.02800    0.36770    0.40490    -999.25    -999.25   92.86280   10.87200  120.52020    -999.25
 5110.24280  -23.10430   11.32140   10.36050   14.13640   11.75930    0.21220  114.87130    2.05860    0.37800    0.42730    -999.25    -999.25   92.33420   10.80860  120.49880    -999.25
 5110.74280  -23.15150   11.40860   10.40150   13.76390   11.84430    0.19360  112.13620    2.09980    0.36730    0.43390    -999.25    -999.25   92.39740   10.87210  119.74110    -999.25
 5111.24280  -23.29480   11.50540   10.53500   13.67480   12.26380    0.16250  110.30220    2.10070    0.33660    0.42450    -999.25    -999.25   91.94120   10.88280  118.35180    -999.25
 5111.74280  -23.49620   11.72870   10.72600   14.31820   12.75630    0.14880  108.82390    2.02740    0.31860    0.41020    -999.25    -999.25   91.50620   10.68790  116.89530    -999.25
 5112.24280  -23.69640   12.16310   10.96330   14.92930   12.92840    0.14110  107.69090    1.96240    0.34160    0.39660    -999.25    -999.25   91.61880   10.64260  115.19650    -999.25
 5112.74280  -23.79140   12.75790   11.79660   14.77250   12.34450    0.09550  107.23380    1.98960    0.39100    0.38120    -999.25    -999.25   92.11130   10.78630  113.28550    -999.25
 5113.24280  -23.66960   13.44220   13.57550   14.46730   11.22190    0.05350  107.16390    2.09060    0.40240    0.35840    -999.25    -999.25   92.32610   10.80080  111.18830    -999.25
 5113.74280  -23.35160   14.16320   15.59980   17.22490    9.87210    0.10920  109.14040    2.20340    0.36370    0.32960    -999.25    -999.25   91.64300   10.77340  108.35560    -999.25
 5114.24280  -22.91880   14.69520   16.68290   26.44430    9.36780    0.21780  113.86210    2.23710    0.30320    0.31080    -999.25    -999.25   90.55900   10.86800  105.19990    -999.25
 5114.74280  -22.65310   14.96080   16.29620   34.00020    9.97180    0.25990  117.44030    2.17570    0.25300    0.31580    -999.25    -999.25   88.34200   11.16380  102.26280    -999.25
 5115.24280  -22.69010   15.06920   15.19280   29.93240   10.56740    0.25030  118.90690    2.13880    0.27740    0.34070    -999.25    -999.25   84.25070   10.89870  100.14000    -999.25
