~Version ---------------------------------------------------
VERS.      2.0 : CWLS log ASCII Standard -VERSION 2.0
WRAP.       NO : One line per depth step
CREA. 08/01/17 : LAS Creation Date
~Well ------------------------------------------------------
STRT.FT                  900.0 : START DEPTH
STOP.FT                 9500.0 : STOP DEPTH
STEP.FT               50.00000 : STEP LENGTH
NULL.                  -999.25 : NULL VALUE
COMP. BP CANADA ENERGY COMPANY : COMPANY
WELL. AMOCO HB WIND 3-32-60-15 : WELL
FLD .                          : FIELD
LOC .                          : LOCATION
CTRY.                   CANADA : COUNTRY
SRVC.   Schlumberger of Canada : SERVICE COMPANY
DATE.              25-Jan-1971 : LOGDATE
PROV.                  Alberta : PROVINCE
UWI .         100033206015W500 : UNIQUE WELL ID
SLAT.WGS84             54.2274 : SURFACE LATITUDE
SLON.WGS84           -116.2148 : SURFACE LONGITUDE
~Curve Information -----------------------------------------
DEPT    .FT    : Depth Curve
CALDED  .IN    : CALIPER FROM DENSITY LOG
CALNED  .IN    : CALIPER FROM NEUTRON LOG
CALSED  .IN    : CALIPER FROM SONIC LOG
CALWS   .IN    : CALIPER [CALSED]
CONDWS  .MMHO  : CONDUCTIVITY [1000/DRESWS]
CORRED  .G/C3  : DENSITY CORRECTION FROM DENSITY LOG
DCORWS  .G/C3  : DENSITY CORR4ECTION [CORRED]
DENWS   .G/C3  : BULK DENSITY RHOBED]
DPHILSED.V/V   : DENSITY POROSITY [M=2.71, F=1.00] FROM DENSITY LOG
DPOLSWS .V/V   : DENSITY POROSITY LIMESTONE [CALCULATED FROM DENWS]
DRESWS  .OHMM  : DEEP RESISTIVITY [ILDED]
DTED    .US/F  : DELTA TIME FROM SONIC LOG
DTWS    .US/F  : DELTA TIME [DTED]
GRDED   .GAPI  : GAMMA RAY FROM DENSITY LOG
GRNED   .GAPI  : GAMMA RAY FROM NEUTRON LOG
GRSED   .GAPI  : GAMMA RAY FROM SONIC LOG
GRWS    .GAPI  : GAMMA RAY [GRDED]
ILDED   .OHMM  : INDUCTION LOG DEEP RESISTIVITY
ILMED   .OHMM  : INDUCTION LOG MEDIUM RESISTIVITY
LL8ED   .OHMM  : 8 INCH LATEROLOG RESISTIVITY
MRESWS  .OHMM  : MEDIUM RESISTIVITY [ILMED]
NPOLSWS .V/V   : NEUTRON POROSITY LIMESTONE [SNPLSED]
RHOBED  .G/C3  : BULK DENSITY FROM DENSITY LOG
SNPLSED .V/V   : SIDEWALL NEUTRON POROSITY LIMESONTE
SPRED   .MV    : SPONTANEOUS POTENTIAL FROM RESISTIVITY LOG
SPWS    .MV    : SPONTANEOUS POTENTIAL [BASELINE 0 MV] [SPRED]
SRESWS  .OHMM  : SHALLOW RESISTIVITY [LL8ED]
~Params ----------------------------------------------------
PD  .                     GL : PERMANENT DATUM
EPD .FT               2499.5 : ELEVATION PERMANENT DATUM
LMF .                     KB : LOG MEASURED FROM
DAPD.FT                   14 : FEET ABOVE PERMANENT DATUM
EKB .FT               2513.5 : KELLY BUSHING
EGL .FT               2499.5 : GROUND LEVEL
DATE.               01/25/71 : RUN DATE
RUN .                      1 : RUN NUMBER
DD  .FT                 8540 : DEPTH DRILLER
DL  .FT                 8541 : DEPTH LOGGER
BLI .FT                 8535 : BOTTOM LOG INTERVAL
TLI .FT                  921 : TOP LOG INTERVAL
CBD .FT                  921 : CASING BOTTOM DRILLER
CBL .FT                  920 : CASING BOTTOM LOGGER
BS  .IN                 8.75 : BIT SIZE
BSD .FT                 9540 : BIT SIZE AT DEPTH
DFT .                GELCHEM : DRILLING FLUID TYPE
DFD .                    9.7 : DRILLING FLUID DENSITY
DFV .                    122 : DRILLING FLUID VISCOSITY
DFPH.                     10 : DRILLING FLUID PH
DFL .                      8 : DRILLING FLUID LOSS
MSS .               FLOWLINE : MUD SAMPLE SOURCE
RMF .OHMM               0.97 : RESISTIVITY MUD FILTRATE SAMPLE
MFST.DEGF                 73 : MUD FILTRATE SAMPLE TEMPERATURE
RMC .OHMM               1.49 : RESISTIVITY MUD CAKE
MCST.DEGF                 72 : MUD CAKE SAMPLE TEMPERATURE
TCS .HRS                   4 : TIME CIRCULATED STOPPED
LUN .                   7501 : LOGGING UNIT NUMBER
LUL .                    EDM : LOGGING UNIT LOCATION
ENGI.                 SLADEN : RECORDING ENGINEER
WITN.       HEIKKINEN MORRIS : WITNESSED BY
CLNT.                A2DTECH : CLIENT CODE
ORIG.            2" 5" PRINT : ORIGIN OF DATA
UWI .       100033206015W500 : UNIQUE WELL ID
DICO. A2D Technologies, Inc. : DIGITIZING COMPANY
~Other -----------------------------------------------------
~ASCII -----------------------------------------------------
# ...
 2200.00000    -999.25    -999.25   10.67740   10.67740  164.10430    -999.25    -999.25    -999.25    -999.25    -999.25    6.09370   96.55740   96.55740    -999.25    -999.25   68.07280   68.07280    6.09370    5.93730    6.77860    5.93730    -999.25    -999.25    -999.25  -97.53940   -4.63710    6.77860
 2250.00000    -999.25    -999.25   10.64060   10.64060  203.02510    -999.25    -999.25    -999.25    -999.25    -999.25    4.92550   97.89910   97.89910    -999.25    -999.25   64.03520   64.03520    4.92550    4.60690    4.40030    4.60690    -999.25    -999.25    -999.25  -97.31230   -4.70830    4.40030
 2300.00000    -999.25    -999.25   11.14480   11.14480  234.47210    -999.25    -999.25    -999.25    -999.25    -999.25    4.26490  115.69960  115.69960    -999.25    -999.25   48.23110   48.23110    4.26490    4.08190    3.41140    4.08190    -999.25    -999.25    -999.25  -98.33450   -6.03030    3.41140
 2350.00000    -999.25    -999.25   11.13830   11.13830  155.78750    -999.25    -999.25    -999.25    -999.25    -999.25    6.41900   92.74840   92.74840    -999.25    -999.25   62.95060   62.95060    6.41900    5.91230    6.32550    5.91230    -999.25    -999.25    -999.25  -96.61720   -4.61270    6.32550
 2400.00000    -999.25    -999.25   10.16680   10.16680   78.97830    -999.25    -999.25    -999.25    -999.25    -999.25   12.66170   88.73630   88.73630    -999.25    -999.25   48.63550   48.63550   12.66170   11.87360   10.67780   11.87360    -999.25    -999.25    -999.25  -96.91050   -5.20580   10.67780
 2450.00000    -999.25    -999.25    9.89350    9.89350  125.01090    -999.25    -999.25    -999.25    -999.25    -999.25    8.04410   90.74080   90.74080    -999.25    -999.25   50.99230   50.99230    8.04410    6.54620    7.11070    6.54620    -999.25    -999.25    -999.25  -95.83870   -4.43520    7.11070
 2500.00000    -999.25    -999.25    9.64200    9.64200   97.36340    -999.25    -999.25    -999.25    -999.25    -999.25   10.27080   90.00800   90.00800    -999.25    -999.25   58.07920   58.07920   10.27080    9.03250    9.14040    9.03250    -999.25    -999.25    -999.25  -96.64190   -5.53670    9.14040
 2550.00000    -999.25    -999.25   10.53680   10.53680  164.94570    -999.25    -999.25    -999.25    -999.25    -999.25    6.06260   99.57690   99.57690    -999.25    -999.25   59.88320   59.88320    6.06260    5.61790    4.66980    5.61790    -999.25    -999.25    -999.25  -97.29550   -6.49000    4.66980
 2600.00000    -999.25    -999.25   10.24720   10.24720   82.04250    -999.25    -999.25    -999.25    -999.25    -999.25   12.18880   91.16760   91.16760    -999.25    -999.25   34.43360   34.43360   12.18880   10.19070   13.04100   10.19070    -999.25    -999.25    -999.25  -99.31070   -8.80490   13.04100
 2650.00000    -999.25    -999.25   10.06670   10.06670  150.91150    -999.25    -999.25    -999.25    -999.25    -999.25    6.62640   93.75300   93.75300    -999.25    -999.25   52.48690   52.48690    6.62640    5.79150    5.62080    5.79150    -999.25    -999.25    -999.25  -97.31430   -7.10830    5.62080
 2700.00000    -999.25    -999.25   10.22980   10.22980  198.41480    -999.25    -999.25    -999.25    -999.25    -999.25    5.04000   93.49940   93.49940    -999.25    -999.25   65.17390   65.17390    5.04000    5.35070    6.09650    5.35070    -999.25    -999.25    -999.25  -96.47010   -6.56530    6.09650
 2750.00000    -999.25    -999.25    9.90880    9.90880   46.54150    -999.25    -999.25    -999.25    -999.25    -999.25   21.48620   83.89650   83.89650    -999.25    -999.25   38.17010   38.17010   21.48620   19.52440   18.01850   19.52440    -999.25    -999.25    -999.25 -102.91060  -13.30410   18.01850
 2800.00000    -999.25    -999.25   12.10230   12.10230  153.18160    -999.25    -999.25    -999.25    -999.25    -999.25    6.52820   95.26070   95.26070    -999.25    -999.25   60.82830   60.82830    6.52820    6.13910    4.96410    6.13910    -999.25    -999.25    -999.25  -96.58130   -7.27450    4.96410
 2850.00000    -999.25    -999.25   10.81200   10.81200  177.27350    -999.25    -999.25    -999.25    -999.25    -999.25    5.64100   93.58810   93.58810    -999.25    -999.25   65.64210   65.64210    5.64100    4.97300    5.30830    4.97300    -999.25    -999.25    -999.25  -95.46780   -6.46080    5.30830
 2900.00000    -999.25    -999.25   10.86370   10.86370  184.70630    -999.25    -999.25    -999.25    -999.25    -999.25    5.41400   92.14220   92.14220    -999.25    -999.25   61.61780   61.61780    5.41400    5.17670    5.76450    5.17670    -999.25    -999.25    -999.25  -95.81290   -7.10560    5.76450
 2950.00000    -999.25    -999.25   10.66570   10.66570  122.58970    -999.25    -999.25    -999.25    -999.25    -999.25    8.15730   88.87860   88.87860    -999.25    -999.25   65.61290   65.61290    8.15730    7.91780    8.78330    7.91780    -999.25    -999.25    -999.25  -96.89150   -8.48540    8.78330
 3000.00000    -999.25    -999.25   11.18850   11.18850  150.07800    -999.25    -999.25    -999.25    -999.25    -999.25    6.66320   92.39360   92.39360    -999.25    -999.25   74.84450   74.84450    6.66320    6.13090    7.07820    6.13090    -999.25    -999.25    -999.25  -96.48780   -8.38000    7.07820
 3050.00000    -999.25    -999.25   11.41370   11.41370  125.10480    -999.25    -999.25    -999.25    -999.25    -999.25    7.99330   84.87610   84.87610    -999.25    -999.25   75.92360   75.92360    7.99330    7.27100    8.46030    7.27100    -999.25    -999.25    -999.25  -96.08070   -8.27270    8.46030
 3100.00000    -999.25    -999.25    9.59340    9.59340  147.24290    -999.25    -999.25    -999.25    -999.25    -999.25    6.79150   91.15660   91.15660    -999.25    -999.25   89.60530   89.60530    6.79150    6.48700    7.14690    6.48700    -999.25    -999.25    -999.25  -95.04350   -7.53520    7.14690
 3150.00000    -999.25    -999.25   10.15990   10.15990  151.59090    -999.25    -999.25    -999.25    -999.25    -999.25    6.59670   93.69220   93.69220    -999.25    -999.25   84.18330   84.18330    6.59670    6.27850    7.00570    6.27850    -999.25    -999.25    -999.25  -95.86280   -8.65430    7.00570
 3200.00000    -999.25    -999.25    9.93830    9.93830   92.65140    -999.25    -999.25    -999.25    -999.25    -999.25   10.79320   86.62170   86.62170    -999.25    -999.25   93.56960   93.56960   10.79320   10.15370   14.67910   10.15370    -999.25    -999.25    -999.25  -96.89940   -9.99210   14.67910
 3250.00000    -999.25    -999.25   10.26070   10.26070  122.44250    -999.25    -999.25    -999.25    -999.25    -999.25    8.16710   93.34090   93.34090    -999.25    -999.25   99.67070   99.67070    8.16710    7.59060    9.61410    7.59060    -999.25    -999.25    -999.25  -94.69500   -8.08600    9.61410
 3300.00000    -999.25    -999.25   10.32960   10.32960  117.59450    -999.25    -999.25    -999.25    -999.25    -999.25    8.50380   87.89980   87.89980    -999.25    -999.25   93.43390   93.43390    8.50380    8.04500    9.68640    8.04500    -999.25    -999.25    -999.25  -96.63780  -10.32850    9.68640
 3350.00000    -999.25    -999.25   10.07810   10.07810  138.42750    -999.25    -999.25    -999.25    -999.25    -999.25    7.22400   88.70520   88.70520    -999.25    -999.25   86.63410   86.63410    7.22400    6.91720    7.87790    6.91720    -999.25    -999.25    -999.25  -94.30880   -8.29930    7.87790
 3400.00000    -999.25    -999.25   10.70830   10.70830  107.95170    -999.25    -999.25    -999.25    -999.25    -999.25    9.26340   82.85770   82.85770    -999.25    -999.25   84.06000   84.06000    9.26340    8.66560    9.60360    8.66560    -999.25    -999.25    -999.25  -96.24540  -10.53560    9.60360
 3450.00000    -999.25    -999.25   11.32240   11.32240  145.63080    -999.25    -999.25    -999.25    -999.25    -999.25    6.86690   90.71660   90.71660    -999.25    -999.25   86.87410   86.87410    6.86690    6.52020    7.11400    6.52020    -999.25    -999.25    -999.25  -95.84370  -10.43510    7.11400
