~Version ---------------------------------------------------
VERS.      2.0 : CWLS log ASCII Standard -VERSION 2.0
WRAP.       NO : One line per depth step
CREA. 08/14/13 : LAS Creation Date
~Well ------------------------------------------------------
STRT.M                        300.0 : START DEPTH
STOP.M                       2500.0 : STOP DEPTH
STEP.M                     50.00000 : STEP LENGTH
NULL.                       -999.25 : NULL VALUE
COMP.            TETHYS ENERGY INC. : COMPANY
WELL. TETHYS GIROUXVILLE 5-21-77-23 : WELL
FLD .                               : FIELD
LOC .                               : LOCATION
CTRY.                        CANADA : COUNTRY
SRVC.                       Unknown : SERVICE COMPANY
DATE.                   06-Jun-2000 : LOGDATE
PROV.                       Alberta : PROVINCE
UWI .              100052107723W500 : UNIQUE WELL ID
SLAT.WGS84                 55.68364 : SURFACE LATITUDE
SLON.WGS84                -117.5147 : SURFACE LONGITUDE
~Curve Information -----------------------------------------
DEPT    .M      : Depth Curve
AHT10ED .OHMM   : 10 INCH RESISTIVITY TWO FOOT RESOLUTION FROM AIT LOG
AHT20ED .OHMM   : 20 INCH RESISTIVITY TWO FOOT RESOLUTION FROM AIT LOG
AHT30ED .OHMM   : 30 INCH RESISTIVITY TWO FOOT RESOLUTION FROM AIT LOG
AHT60ED .OHMM   : 60 INCH RESISTIVITY TWO FOOT RESOLUTION FROM AIT LOG
AHT90ED .OHMM   : 90 INCH RESISTIVITY TWO FOOT RESOLUTION FROM AIT LOG
CALWS   .MM     : CALIPER [HCALDED]
CONDWS  .MMHO   : CONDUCTIVITY [1000/DRESWS]
DCORWS  .KG/M3  : DENSITY CORRECTION [HDRAED]
DENWS   .KG/M3  : BULK DENSITY [M=2650 F=1000] [CALCULATED FROM DPOLSWS]
DPHZLSED.V/V    : DENSITY POROSITY [M=2710 F=1000] FROM DENSITY LOG
DPHZSSED.V/V    : DENSITY POROSITY [M=2650 F=1000] FROM DENSITY LOG
DPOLSWS .V/V    : DENSITY POROSITY [M=2710 F=1000] [MERGED DPHZSSED CONVERTED TO LS/DPHZLSED at 1071.6 M]
DRESWS  .OHMM   : DEEP RESISTIVITY [AHT90ED]
DTED    .US/M   : DELTA TIME FROM SONIC LOG
DTWS    .US/M   : DELTA TIME [DTED]
GRDED   .GAPI   : GAMMA RAY FROM DENSITY LOG
GRED    .GAPI   : GAMMA RAY FROM CBL [DEPTH ADJ. TO GRDED]
GRWS    .GAPI   : GAMMA RAY [MERGED GRED + 50 API/GRDED at 312.6 M]
HCALDED .MM     : HILT CALIPER FROM DENSITY LOG
HDDED   .MM     : HOLE DIAMETER FROM DENSITY LOG
HDRAED  .KG/M3  : DENSITY CORRECTION FROM DENSITY LOG
MRESWS  .OHMM   : MEDIUM RESISTIVITY [AHT30ED]
NPOLSWS .V/V    : NEUTRON POROSITY LIMESTONE [[MERGED NPHZSSED CONVERTED TO LS/NPHZLSED at 1071.6 M]]
NPORLSED.V/V    : NEUTRON POROSITY LIMESTONE FROM DENSITY LOG
NPORSSED.V/V    : NEUTRON POROSITY SANDSTONE FROM DENSITY LOG
PEFWS   .B/E    : PHOTOELECTRIC FACTOR [PEFZED]
PEFZED  .B/E    : PHOTOELECTRIC FACTOR STANDARD RESOLUTION FROM DENSITY LOG
RHOZED  .KG/M3  : HRDD STANDARD RESOLUTION FORMATION DENSITY FROM DENSITY LOG
RXOZED  .OHMM   : STANDARD RESOLUTION INVADED ZONE RESISTIVITY
SPRED   .MV     : SPONTANEOUS POTENTIAL FROM RESISTIVITY LOG
SPWS    .MV     : SPONTANEOUS POTENTIAL [BASELINE 0 MV] [SPRED]
SRESWS  .OHMM   : SHALLOW RESISTIVITY [AHT10ED]
TENDED  .N      : TENSION FROM FROM DENSITY LOG
~Params ----------------------------------------------------
PD  .                         GL : PERMANENT DATUM
EPD .M                     554.4 : ELEVATION PERMANENT DATUM
LMF .                         KB : LOG MEASURED FROM
DAPD.M                         4 : FEET ABOVE PERMANENT DATUM
DMF .                         KB : DRILLING MEASURED FROM
EKB .M                     558.4 : KELLY BUSHING
EDF .M                     558.1 : DRILLING FLOOR
EGL .M                     554.4 : GROUND LEVEL
DATE.                   06/06/00 : RUN DATE
RUN .                          1 : RUN NUMBER
DD  .M                      2515 : DEPTH DRILLER
DL  .M                    2515.5 : DEPTH LOGGER
BLI .M                      2513 : BOTTOM LOG INTERVAL
TLI .M                     337.5 : TOP LOG INTERVAL
CS  .MM                    219.1 : CASING SIZE
CBD .M                       338 : CASING BOTTOM DRILLER
CBL .M                     337.5 : CASING BOTTOM LOGGER
BS  .MM                      200 : BIT SIZE
BSD .M                      2515 : BIT SIZE AT DEPTH
DFT .                   GEL CHEM : DRILLING FLUID TYPE
DFD .                       1120 : DRILLING FLUID DENSITY
DFV .                         80 : DRILLING FLUID VISCOSITY
DFPH.                        9.8 : DRILLING FLUID PH
DFL .                        9.5 : DRILLING FLUID LOSS
MSS .                   FLOWLINE : MUD SAMPLE SOURCE
RMS .OHMM                   1.45 : RESISTIVITY MUD SAMPLE
MST .DEGC                     18 : MUD SAMPLE TEMPERATURE
RMF .OHMM                   1.13 : RESISTIVITY MUD FILTRATE SAMPLE
MFST.DEGC                     17 : MUD FILTRATE SAMPLE TEMPERATURE
RMC .OHMM                    1.5 : RESISTIVITY MUD CAKE
MCST.DEGC                     16 : MUD CAKE SAMPLE TEMPERATURE
MFSS.                   MEASURED : MUD FILTRATE SAMPLE SOURCE
MCSS.                   MEASURED : MUD CAKE SAMPLE SOURCE
RMB .OHMM                  0.674 : RESISTIVITY MUD AT BHT
TCS .HRS                    2300 : TIME CIRCULATED STOPPED
TLAB.HRS                     900 : TIME LOGGER AT BOTTOM
LUN .                       2016 : LOGGING UNIT NUMBER
LUL .              GRANDE PRARIE : LOGGING UNIT LOCATION
ENGI.                    PEACHEY : RECORDING ENGINEER
WITN.                      GAWNE : WITNESSED BY
CLNT.                    A2DTECH : CLIENT CODE
ORIG. 6.5"/100M 16.5"/100M PRINT : ORIGIN OF DATA
UWI .           100052107723W500 : UNIQUE WELL ID
DICO.     A2D Technologies, Inc. : DIGITIZING COMPANY
~Other -----------------------------------------------------
~ASCII -----------------------------------------------------
# ...
 1400.00000   10.33880    8.66220    8.05230    5.98680    5.78170  246.61990  172.95950   18.85950 2599.02100    0.06490    -999.25    0.06490    5.78170  193.25340  193.25340   24.34040    -999.25   24.34040  246.61990  247.90810   18.85950    8.05230    0.12200    0.12200    -999.25    4.71990    4.71990 2597.18210   78.66070  -44.45740 -114.22190   10.33880 123945.43540
 1450.00000   10.97770   10.57050    9.03320    7.64780    7.15010  245.57290  139.85820   -2.94620 2621.93500    0.05150    -999.25    0.05150    7.15010  182.55710  182.55710   11.37410    -999.25   11.37410  245.57290  255.64850   -2.94620    9.03320    0.10340    0.10340    -999.25    4.69460    4.69460 2624.53170  104.02550   -2.92260  -68.11900   10.97770 124412.04560
 1500.00000    5.35300    7.53860    8.46220   10.13600   10.81860  250.39240   92.43340    8.62820 2637.66700    0.04230    -999.25    0.04230   10.81860  224.43970  224.43970   66.75500    -999.25   66.75500  250.39240  273.49120    8.62820    8.46220    0.15460    0.15460    -999.25    4.02710    4.02710 2608.88310    6.48100   31.31740  -20.97700    5.35300 131888.67770
 1550.00000   31.13250   52.53140   56.31470   61.88940   65.74510  228.74340   15.21030   -4.78530 2648.95300    0.03570    -999.25    0.03570   65.74510  176.27180  176.27180   18.09050    -999.25   18.09050  228.74340  230.38730   -4.78530   56.31470    0.06050    0.06050    -999.25    4.47160    4.47160 2647.14670   74.45210  -17.33510  -68.42980   31.13250 132733.37160
 1600.00000    3.39060    4.99950    4.32820    4.03930    3.79490  248.53880  263.51160   31.04670 2580.72400    0.07560    -999.25    0.07560    3.79490  243.17700  243.17700   94.81310   20.66090   94.81310  248.53880  282.63840   31.04670    4.32820    0.21970    0.21970    -999.25    3.43480    3.43480 2580.29520    3.11410    7.05890  -50.90110    3.39060 132843.29430
 1650.00000    5.77180    7.60060    7.77010    8.05500    8.19010  241.72680  122.09860   57.00280 2582.94700    0.07430    -999.25    0.07430    8.19010  226.26380  226.26380   64.01090    -999.25   64.01090  241.72680  242.78220   57.00280    7.77010    0.20250    0.20250    -999.25    3.59560    3.59560 2581.08620    6.48730   65.39790    1.15180    5.77180 135804.26130
 1700.00000   18.86800   26.66120   25.75070   25.78760   24.57150  229.20290   40.69760   -5.87400 2678.53600    0.01840    -999.25    0.01840   24.57150  183.98160  183.98160   24.94560    -999.25   24.94560  229.20290  244.21510   -5.87400   25.75070    0.07090    0.07090    -999.25    4.43140    4.43140 2678.38890   34.62650   13.98650  -49.69880   18.86800 137000.08810
 1750.00000    6.11730    7.23890    7.14970    6.97660    6.73450  250.25730  148.48910   -4.99880 2612.87200    0.05680    -999.25    0.05680    6.73450  233.84980  233.84980   77.31960    -999.25   77.31960  250.25730  254.76840   -4.99880    7.14970    0.18650    0.18650    -999.25    3.63660    3.63660 2612.80220    9.81540   29.09500  -34.02960    6.11730 139693.98660
 1800.00000    3.26250    4.10030    4.46110    4.72450    5.06150  279.71230  197.56990  225.82130 2397.41200    0.18280    -999.25    0.18280    5.06150  259.65980  259.65980   87.82830    -999.25   87.82830  279.71230    -999.25  225.82130    4.46110    0.28120    0.28120    -999.25    3.04880    3.04880 2407.45630    2.70600   40.68620  -21.87760    3.26250 144061.08690
 1850.00000    2.96060    3.51900    4.22590    7.16290    8.65290  257.89400  115.56820   39.68200 2084.31100    0.36590    -999.25    0.36590    8.65290  307.75820  307.75820  186.79790    -999.25  186.79790  257.89400  234.38160   39.68200    4.22590    0.33530    0.33530    -999.25    2.68740    2.68740 2153.86520    2.62940   55.94420   -6.05890    2.96060 142401.91450
 1900.00000  126.42210  239.75100  206.11440  182.51240  147.47240  240.19330    6.78090   -2.18120 2691.87400    0.01060    -999.25    0.01060  147.47240  164.84560  164.84560   16.72800    -999.25   16.72800  240.19330  235.09940   -2.18120  206.11440    0.03350    0.03350    -999.25    4.77850    4.77850 2691.04220  260.34930  -55.86640 -113.83320  126.42210 147345.13690
 1950.00000   26.99760   64.10010   51.63840   45.92970   37.63210  234.05180   26.57310   -6.68840 2662.46200    0.02780    -999.25    0.02780   37.63210  168.15100  168.15100   15.60840    -999.25   15.60840  234.05180  254.40120   -6.68840   51.63840    0.04180    0.04180    -999.25    4.85610    4.85610 2661.04420  181.94920  -51.68900 -105.52680   26.99760 147872.00410
 2000.00000  195.43940  207.82710  259.17790  416.92880  358.41710  218.86070    2.79000   -5.38970 2727.78400   -0.01040    -999.25   -0.01040  358.41710  158.70130  158.70130   12.76110    -999.25   12.76110  218.86070  226.41570   -5.38970  259.17790    0.02000    0.02000    -999.25    4.82600    4.82600 2730.18210  336.46300  -93.72630 -143.43510  195.43940 152973.26260
 2050.00000  228.91890  256.96200  308.77800  486.01570  619.41130  232.12010    1.61440   -1.90410 2710.51300   -0.00030    -999.25   -0.00030  619.41130  162.06620  162.06620   24.79310    -999.25   24.79310  232.12010  250.06510   -1.90410  308.77800    0.02680    0.02680    -999.25    4.88380    4.88380 2717.97630  221.10160  -82.74130 -128.32100  228.91890 152648.33200
 2100.00000   98.71140  152.84360  165.78320  233.61630  246.73210  230.54030    4.05300    8.25550 2709.31600    0.00040    -999.25    0.00040  246.73210  158.80870  158.80870   12.00850    -999.25   12.00850  230.54030  251.64750    8.25550  165.78320    0.01660    0.01660    -999.25    4.87340    4.87340 2709.61230  172.27730  -96.39090 -137.84160   98.71140 156530.86510
 2150.00000   32.81330   55.49760   57.84820   60.77110   61.70540  228.36880   16.20600   -2.32630 2731.03300   -0.01230    -999.25   -0.01230   61.70540  167.74450  167.74450   35.53080    0.57300   35.53080  228.36880  229.11520   -2.32630   57.84820    0.05400    0.05400    -999.25    4.20020    4.20020 2732.16090   93.21190  -13.29320  -50.61490   32.81330 156834.03770
 2200.00000   14.67190   20.15610   19.14620   22.83890   24.40480  241.60460   40.97550   72.22130 2606.20300    0.06070    -999.25    0.06070   24.40480  204.02800  204.02800   55.73200   24.54880   55.73200  241.60460  312.49180   72.22130   19.14620    0.16640    0.16640    -999.25    4.26920    4.26920 2596.34960   15.68930   18.20080  -14.99190   14.67190 162559.26300
 2250.00000    2.89840    3.74560    4.33180    5.45620    5.79360  401.09580  172.60430  293.72630 2231.54200    0.27980    -999.25    0.27980    5.79360  172.39340  172.39340   83.16890    -999.25   83.16890  401.09580  388.80270  293.72630    4.33180    0.71300    0.71300    -999.25    2.68020    2.68020 2228.73680    1.63720   26.02590   -4.89580    2.89840 154238.72350
 2300.00000    2.94650    3.96990    4.69380    5.74300    6.43120  375.94400  155.49200   33.86760 2333.28700    0.22030    -999.25    0.22030    6.43120  267.20050  267.20050   94.87010    -999.25   94.87010  375.94400  364.15270   33.86760    4.69380    0.52960    0.52960    -999.25    3.26070    3.26070 2334.97530    2.03330    6.11970  -24.80200    2.94650 160478.71150
 2350.00000    4.83910    6.89110    7.56000    7.76100    8.02970  325.22400  124.53770   59.71720 2629.28800    0.04720    -999.25    0.04720    8.02970  249.02180  249.02180   81.58630    -999.25   81.58630  325.22400    -999.25   59.71720    7.56000    0.34980    0.34980    -999.25    3.78500    3.78500 2631.59060    4.23980   24.19690   -6.72480    4.83910 162351.35120
 2400.00000    6.55980    7.53380   10.15260   13.02170   14.63220  222.44160   68.34240  137.28620 2599.87600    0.06440    -999.25    0.06440   14.63220  238.35750  238.35750  101.41170   47.97410  101.41170  222.44160  262.62220  137.28620   10.15260    0.23570    0.23570    -999.25    3.73450    3.73450 2594.51560    7.13470   14.80860  -16.11310    6.55980 164859.20970
 2450.00000   10.17170   17.50990   19.48610   18.89490   18.21630  224.30600   54.89590   49.10310 2700.59500    0.00550   -0.03110    0.00550   18.21630  203.21540  203.21540   62.70790    -999.25   62.70790  224.30600  217.02220   49.10310   19.48610    0.14500    0.14500    0.19570    4.23150    4.23150 2703.09640   19.24850   -5.14440  -36.06610   10.17170 169601.51050
