~Version ---------------------------------------------------
VERS.      2.0 : CWLS log ASCII Standard -VERSION 2.0
WRAP.       NO : One line per depth step
CREA. 10/24/17 : LAS Creation Date
~Well ------------------------------------------------------
STRT.FT                         1250.0 : START DEPTH
STOP.FT                        11000.0 : STOP DEPTH
STEP.FT                       50.00000 : STEP LENGTH
NULL.                          -999.25 : NULL VALUE
COMP.             MOBIL OIL CANADA LTD : COMPANY
WELL. MOBIL ET AL ROSEVEAR 10-19-53-14 : WELL
FLD .                                  : FIELD
LOC .                                  : LOCATION
CTRY.                           CANADA : COUNTRY
SRVC.                     Schlumberger : SERVICE COMPANY
DATE.                      04-Mar-1978 : LOGDATE
PROV.                          Alberta : PROVINCE
UWI .                 100101905314W500 : UNIQUE WELL ID
SLAT.WGS84                    53.59265 : SURFACE LATITUDE
SLON.WGS84                   -116.0472 : SURFACE LONGITUDE
~Curve Information -----------------------------------------
DEPT    .FT    : Depth Curve
CALDED  .IN    : CALIPER FROM DENSITY LOG
CALWS   .IN    : CALIPER [CALDED]
CONDWS  .MMHO  : CONDUCTIVITY [1000/DRESWS]
DCORWS  .G/C3  : DENSITY CORRECTION [DRHOED]
DENWS   .G/C3  : BULK DENSITY [M=2.71, F=1.00] [RHOBED]
DPHILSED.V/V   : DENSITY POROSITY [M=2.71, F=1.00] FROM DENSITY LOG
DPHISSED.V/V   : DENSITY POROSITY [M=2650 F=1000] FROM DENSITY LOG
DPOLSWS .V/V   : DENSITY POROSITY [M=2.71, F=1.00] [CAL. FROM DENWS]
DRESWS  .OHMM  : DEEP RESISTIVITY [ILDED]
DRHOED  .G/C3  : DENSITY CORRECTION FROM DENSITY LOG
DTED    .US/F  : DELTA TIME FROM SONIC LOG
DTWS    .US/F  : DELTA TIME [DTED]
GRDED   .GAPI  : GAMMA RAY FROM DENSITY LOG
GRWS    .GAPI  : GAMMA RAY [GRDED]
ILDED   .OHMM  : INDUCTION LOG DEEP RESISTIVITY
ILMED   .OHMM  : INDUCTION LOG MEDIUM RESISTIVITY
LL8ED   .OHMM  : 8 INCH LATEROLOG RESISTIVITY
MRESWS  .OHMM  : MEDIUM RESISTIVITY [ILMED]
NPHILSED.V/V   : NEUTRON POROSITY LIMESTONE FROM DENSITY LOG
NPHISSED.V/V   : NEUTRON POROSITY SANDSTONE FROM DENSITY LOG
NPOLSWS .V/V   : NEUTRON POROSITY LIMESTONE [366 NPOLSCAL [COMP. FROM NPHISSED] 7500'2286 NPHILSED]
RHOBED  .G/C3  : BULK DENSITY FROM DENSITY LOG
SPRED   .MV    : SPONTANEOUS POTENTIAL FROM RESISTIVITY LOG [SHIFT IS REMOVED]
SPWS    .MV    : SPONTANEOUS POTENTIAL [BASELINE 0 MV] [SPRED]
SRESWS  .OHMM  : SHALLOW RESISTIVITY [LL8ED]
~Params ----------------------------------------------------
PD  .                     GL : PERMANENT DATUM
EPD .FT               2885.2 : ELEVATION PERMANENT DATUM
LMF .                     KB : LOG MEASURED FROM
DAPD.FT                 13.8 : FEET ABOVE PERMANENT DATUM
EKB .FT                 2899 : KELLY BUSHING
EGL .FT               2885.2 : GROUND LEVEL
DATE.               03/04/78 : RUN DATE
RUN .                      1 : RUN NUMBER
DD  .FT                11010 : DEPTH DRILLER
DL  .FT                11002 : DEPTH LOGGER
BLI .FT                10999 : BOTTOM LOG INTERVAL
TLI .FT                 1207 : TOP LOG INTERVAL
CBD .FT                 1205 : CASING BOTTOM DRILLER
CBL .FT                 1207 : CASING BOTTOM LOGGER
BS  .IN                 8.75 : BIT SIZE
BSD .FT                11010 : BIT SIZE AT DEPTH
DFT .               GEL CHEM : DRILLING FLUID TYPE
DFD .                    9.2 : DRILLING FLUID DENSITY
DFV .                    132 : DRILLING FLUID VISCOSITY
DFPH.                     10 : DRILLING FLUID PH
DFL .                    9.4 : DRILLING FLUID LOSS
MSS .               FLOWLINE : MUD SAMPLE SOURCE
RMS .OHMM               1.94 : RESISTIVITY MUD SAMPLE
MST .DEGF                 64 : MUD SAMPLE TEMPERATURE
RMF .OHMM               2.12 : RESISTIVITY MUD FILTRATE SAMPLE
MFST.DEGF                 59 : MUD FILTRATE SAMPLE TEMPERATURE
RMB .OHMM               0.65 : RESISTIVITY MUD AT BHT
TCS .HRS                   3 : TIME CIRCULATED STOPPED
LUN .                   7730 : LOGGING UNIT NUMBER
LUL .                    EDM : LOGGING UNIT LOCATION
ENGI.               CAMPBELL : RECORDING ENGINEER
WITN.              MATHEWSON : WITNESSED BY
CLNT.                A2DTECH : CLIENT CODE
ORIG.            2" 5" PRINT : ORIGIN OF DATA
UWI .       100101905314W500 : UNIQUE WELL ID
DICO. A2D Technologies, Inc. : DIGITIZING COMPANY
~Other -----------------------------------------------------
~ASCII -----------------------------------------------------
# ...
 5450.00000    9.28320    9.28320   97.32450    0.21120    2.13380    -999.25    0.29860    0.33700   10.27490    0.21120   78.96720   78.96720  126.88990  126.88990   10.27490   10.57570   11.27900   10.57570    -999.25    0.31860    0.27470    2.13380  -40.36020   -6.38550   11.27900
 5500.00000    9.97860    9.97860  100.44800    0.19580    2.17510    -999.25    0.27760    0.31280    9.95540    0.19580   77.15960   77.15960  118.05610  118.05610    9.95540   10.56520   12.12710   10.56520    -999.25    0.27250    0.22850    2.17510  -40.19970   -6.39550   12.12710
 5550.00000   10.40240   10.40240  111.75460    0.11660    1.99180    -999.25    0.43900    0.42000    8.95690    0.11660   75.76300   75.76300  105.51760  105.51760    8.95690    9.48130   11.37900    9.48130    -999.25    0.35420    0.31060    1.99180  -40.55740   -6.92280   11.37900
 5600.00000   10.46620   10.46620   90.50590    0.25090    2.23040    -999.25    0.23010    0.28050   11.04900    0.25090   75.62750   75.62750  111.70390  111.70390   11.04900   10.56650   11.23340   10.56650    -999.25    0.31050    0.26660    2.23040  -40.64130   -7.17820   11.23340
 5650.00000   13.28280   13.28280  114.68000    0.21000    2.08210    -999.25    0.33120    0.36720    8.72040    0.21000   83.59180   83.59180  114.18660  114.18660    8.72040    9.21750   10.46870    9.21750    -999.25    0.35330    0.30980    2.08210  -39.31090   -6.01740   10.46870
 5700.00000   14.12240   14.12240  118.64230    0.08500    1.53950    -999.25    -999.25    0.68450    8.42870    0.08500   93.07450   93.07450  104.44310  104.44310    8.42870    7.25110    9.05590    7.25110    -999.25    0.55370    0.51680    1.53950  -36.75650   -3.63440    9.05590
 5750.00000    9.92390    9.92390   80.31550    0.20940    2.16280    -999.25    0.29120    0.32000   12.45090    0.20940   84.83790   84.83790  141.74730  141.74730   12.45090   12.91090   16.91330   12.91090    -999.25    0.33720    0.29340    2.16280  -38.09440   -5.14290   16.91330
 5800.00000   11.36240   11.36240   87.68180    0.19860    1.98540    -999.25    0.40880    0.42370   11.40570    0.19860   84.96250   84.96250  120.26520  120.26520   11.40570   10.38140   14.71590   10.38140    -999.25    0.36360    0.32010    1.98540  -37.01000   -4.22820   14.71590
 5850.00000   10.04960   10.04960   76.57670    0.21880    2.29590    -999.25    0.20970    0.24220   13.05880    0.21880   86.51090   86.51090  141.98220  141.98220   13.05880   13.53150   18.72850   13.53150    -999.25    0.36430    0.32080    2.29590  -37.15040   -4.53990   18.72850
 5900.00000    9.80330    9.80330   60.47270    0.24780    2.31170    -999.25    0.20490    0.23300   16.53640    0.24780   85.42780   85.42780  148.59500  148.59500   16.53640   17.05190   25.22480   17.05190    -999.25    0.34160    0.29780    2.31170  -38.10620   -5.66540   25.22480
 5950.00000    9.51640    9.51640   56.84470    0.21730    2.41410    -999.25    0.14380    0.17300   17.59180    0.21730   88.78220   88.78220  154.44460  154.44460   17.59180   18.20150   27.90750   18.20150    -999.25    0.35720    0.31360    2.41410  -37.47410   -5.20470   27.90750
 6000.00000   12.85990   12.85990   78.63860    0.22430    2.14950    -999.25    0.30110    0.32780   12.71640    0.22430   89.55940   89.55940  132.41570  132.41570   12.71640   11.73600   17.24800   11.73600    -999.25    0.38770    0.34460    2.14950  -36.89610   -4.79730   17.24800
 6050.00000   11.71870   11.71870   81.96280    0.08560    2.26100    -999.25    0.24610    0.26260   12.20470    0.08560   90.76540   90.76540  126.20990  126.20990   12.20470   10.78260   15.35340   10.78260    -999.25    0.52340    0.48480    2.26100  -36.29210   -4.36290   15.35340
 6100.00000   14.57860   14.57860  127.86420    0.17070    1.92640    -999.25    0.43920    0.45820    7.82080    0.17070   80.26280   80.26280   95.01100   95.01100    7.82080    6.89140    8.58100    6.89140    -999.25    0.44080    0.39890    1.92640  -37.05260   -5.29480    8.58100
 6150.00000   15.00470   15.00470  112.96330    0.24580    2.26100    -999.25    0.19150    0.26260    8.85660    0.24580   82.97700   82.97700  115.32230  115.32230    8.85660    8.36070   10.06290    8.36070    -999.25    0.41990    0.37740    2.26100  -36.06850   -4.48050   10.06290
 6200.00000   14.26170   14.26170  113.02880    0.22110    2.07120    -999.25    0.34060    0.37360    8.84730    0.22110   79.08050   79.08050  114.28640  114.28640    8.84730    8.17850    9.48440    8.17850    -999.25    0.42270    0.38030    2.07120  -37.01740   -5.60070    9.48440
 6250.00000   14.98590   14.98590  112.25360    0.21170    2.26300    -999.25    0.23840    0.26140    8.90840    0.21170   80.26240   80.26240  102.46520  102.46520    8.90840    8.25150   11.91390    8.25150    -999.25    0.45220    0.41060    2.26300  -35.90230   -4.65610   11.91390
 6300.00000   13.18510   13.18510  122.42520    0.15730    2.06970    -999.25    0.35260    0.37450    8.16830    0.15730   81.72460   81.72460  110.14410  110.14410    8.16830    7.20470    9.41890    7.20470    -999.25    0.37660    0.33330    2.06970  -34.49120   -3.41470    9.41890
 6350.00000   14.38600   14.38600  142.29200    0.13510    2.53630    -999.25    0.06670    0.10160    7.02780    0.13510   87.08060   87.08060  147.34180  147.34180    7.02780    6.35050    9.74480    6.35050    -999.25    0.52020    0.48140    2.53630  -34.23220   -3.32710    9.74480
 6400.00000   14.17180   14.17180  230.41720    0.17810    1.84350    -999.25    0.47300    0.50680    4.34070    0.17810   88.24890   88.24890  102.64170  102.64170    4.34070    3.78020    5.17330    3.78020    -999.25    -999.25    0.56560    1.84350  -33.20420   -2.49730    5.17330
 6450.00000   14.71380   14.71380  141.48670    0.10640    1.74370    -999.25    0.54960    0.56510    7.06780    0.10640   82.05480   82.05480  105.98030  105.98030    7.06780    7.40040    8.45310    7.40040    -999.25    0.47110    0.43010    1.74370  -33.65110   -3.49660    8.45310
 6500.00000    8.78390    8.78390   36.18670    0.01700    2.51690    -999.25    0.07480    0.11290   27.63450    0.01700   68.72770   68.72770   46.50100   46.50100   27.63450   28.75250   31.82520   28.75250    -999.25    0.20490    0.16140    2.51690  -62.85350  -33.24870   31.82520
 6550.00000    8.76570    8.76570   47.56220    0.26160    2.47420    -999.25    0.10990    0.13790   21.02880    0.26160   64.95460   64.95460   62.32580   62.32580   21.02880   22.80780   23.73870   22.80780    -999.25    0.19490    0.15150    2.47420  -39.94230  -10.88450   23.73870
 6600.00000   11.28460   11.28460  294.46410    0.14790    2.09290    -999.25    0.32160    0.36090    3.39600    0.14790   94.70280   94.70280  106.48130  106.48130    3.39600    2.66860    4.04270    2.66860    -999.25    -999.25    0.56670    2.09290  -36.96270   -8.45740    4.04270
 6650.00000   10.00030   10.00030   70.19720    0.21460    2.12830    -999.25    0.30250    0.34020   14.24950    0.21460   68.49390   68.49390   97.50190   97.50190   14.24950   13.99760   15.87060   13.99760    -999.25    0.45760    0.41610    2.12830  -41.76110  -13.80280   15.87060
 6700.00000    9.73990    9.73990   74.61960    0.23390    2.56460    -999.25    0.03580    0.08500   13.40130    0.23390   66.47600   66.47600   83.50370   83.50370   13.40130   12.96340   16.79620   12.96340    -999.25    0.30840    0.26450    2.56460  -41.69550  -14.28960   16.79620
 6750.00000   10.01910   10.01910   62.98930    0.24710    2.22760    -999.25    0.25210    0.28210   15.87570    0.24710   69.74150   69.74150   94.89280   94.89280   15.87570   17.88700   16.37780   17.88700    -999.25    0.43040    0.38820    2.22760  -40.80550  -13.94940   16.37780
 6800.00000   11.35460   11.35460   56.98580    0.00390    2.61310    -999.25    0.01360    0.05670   17.54840    0.00390   67.96680   67.96680   96.56860   96.56860   17.54840   18.52170   22.55450   18.52170    -999.25    0.32000    0.27610    2.61310  -41.33090  -15.02170   22.55450
