~Version ---------------------------------------------------
VERS. 2.0 : CWLS log ASCII Standard -VERSION 2.0
WRAP.  NO : ONE LINE PER DEPTH STEP
~Well ------------------------------------------------------
STRT.M                        300.0 : START DEPTH
STOP.M                       1700.0 : STOP DEPTH
STEP.M                     50.00000 : STEP LENGTH
NULL.                       -999.25 : NULL VALUE
COMP.      VERMILION RESOURCES LTD. : COMPANY
WELL. VERMILION RES NIPISI 1-6-81-9 : WELL
FLD .                        NIPISI : FIELD
LOC .                               : LOCATION
CTRY.                        CANADA : COUNTRY
SRVC.        Schlumberger of Canada : SERVICE COMPANY
DATE.                   12-Feb-1992 : LOGDATE
PROV.                       Alberta : PROVINCE
UWI .              100010608109W500 : UNIQUE WELL ID
SLAT.WGS84            55.9875111466 : SURFACE LATITUDE
SLON.WGS84          -115.3905485331 : SURFACE LONGITUDE
~Curve Information -----------------------------------------
DEPT    .M                                                           : DEPTH METERS
CALDED  .MM                                                          : CALIPER FROM DENSITY LOG (ADJ TO RES.)
CALWS   .MM                                                          : CALIPER [CALDED]
CONDWS  .MMHO                                                        : CONDUCTIVITY [1000/DRESWS]
DCORWS  .KG/M3                                                       : DENSITY CORRECTION (DRHOED)
DENWS   .KG/M3                                                       : BULK DENSITY [M=2710 F=1000] [CALCULATED FROM DPOLSWS]
DPHISSED.V/V                                                         : DENSITY POROSITY [M=2650 F=1000] FROM DENSITY LOG (ADJ TO RES.)
DPOLSWS .V/V                                                         : DENSITY POROSITY LIMESTONE [CONVERTED TO M=2710 F=1000]
DRESWS  .OHMM                                                        : DEEP RESISTIVITY [IDPHED]
DRHOED  .KG/M3                                                       : DENSITY CORRECTION FROM DENSITY LOG
GRRED   .GAPI                                                        : GAMMA RAY FROM RESISTIVITY LOG
GRWS    .GAPI                                                        : GAMMA RAY [GRRED]
IDPHED  .OHMM                                                        : INDUCTION DEEP PHASE RESISTIVITY
IMPHED  .OHMM                                                        : INDUCTION MEDIUM PHASE RESISTIVITY
MRESWS  .OHMM                                                        : MEDIUM RESISTIVITY [IMPHED]
NPOLSWS .V/V :   NEUTRON POROSITY LIMESTONE [CONVERTED FROM NPHISSED : CO. SWS, TOOL=CNL(NPHI). SIGM IN=4.6, SIGM OUT=7.1]
NPORSSED.V/V                                                         : NEUTRON POROSITY SANDSTONE FROM DENSITY LOG
PEFED   .B/E                                                         : PHOTOELECTRIC FACTOR FROM DENSITY LOG
PEFWS   .B/E                                                         : PHOTOELECTRIC FACTOR [PEFED]
RHOBED  .KG/M3                                                       : BULK DENSITY FROM DENSITY LOG (ADJ TO RES.) SMALL SCALE-NOT USED
SFLUED  .OHMM                                                        : SPHERICALLY FOCUSED LOG RESISTIVITY
SPRED   .MV                                                          : SPONTANEOUS POTENTIAL FROM RESISTIVITY LOG
SPWS    .MV                                                          : SPONTANEOUS POTENTIAL [BASELINE 0 MV] [SPRED] (SPRED SHIFTED -20 MV)
SRESWS  .OHMM                                                        : SHALLOW RESISTIVITY [SFLUED]
~Params ----------------------------------------------------
PD  .                         GL : PERMANENT DATUM
EPD .M                     642.3 : ELEVATION PERMANENT DATUM
LMF .                         KB : LOG MEASURED FROM
DAPD.M                       4.5 : FEET ABOVE PERMANENT DATUM
DMF .                         KB : DRILLING MEASURED FROM
EKB .M                     646.8 : KELLY BUSHING
EDF .M                     646.5 : DRILLING FLOOR
EGL .M                     642.3 : GROUND LEVEL
DATE.                   02/12/92 : RUN DATE
RUN .                          1 : RUN NUMBER
DD  .M                      1745 : DEPTH DRILLER
DL  .M                    1744.3 : DEPTH LOGGER
BLI .M                      1743 : BOTTOM LOG INTERVAL
TLI .M                     209.6 : TOP LOG INTERVAL
CS  .MM                      219 : CASING SIZE
CBD .M                       209 : CASING BOTTOM DRILLER
CBL .M                     209.6 : CASING BOTTOM LOGGER
BS  .MM                      200 : BIT SIZE
BSD .M                      1745 : BIT SIZE AT DEPTH
DFT .                   GEL CHEM : DRILLING FLUID TYPE
DFD .                       1130 : DRILLING FLUID DENSITY
DFV .                        115 : DRILLING FLUID VISCOSITY
DFPH.                       10.5 : DRILLING FLUID PH
DFL .                        8.5 : DRILLING FLUID LOSS
MSS .                   FLOWLINE : MUD SAMPLE SOURCE
RMS .OHMM                   0.76 : RESISTIVITY MUD SAMPLE
MST .DEGC                     20 : MUD SAMPLE TEMPERATURE
RMF .OHMM                    0.6 : RESISTIVITY MUD FILTRATE SAMPLE
MFST.DEGC                     19 : MUD FILTRATE SAMPLE TEMPERATURE
MFSS.                   MEASURED : MUD FILTRATE SAMPLE SOURCE
RMB .OHMM                  0.505 : RESISTIVITY MUD AT BHT
TCS .HRS                     800 : TIME CIRCULATED STOPPED
TLAB.HRS                    1400 : TIME LOGGER AT BOTTOM
LUN .                       2031 : LOGGING UNIT NUMBER
LUL .                       5202 : LOGGING UNIT LOCATION
ENGI.                  WEINHEBER : RECORDING ENGINEER
WITN.                   GOODYEAR : WITNESSED BY
CLNT.                    A2DTECH : CLIENT CODE
ORIG. 6.5"/100M 16.5"/100M PRINT : ORIGIN OF DATA
UWI .           100010608109W500 : UNIQUE WELL ID
DICO.     A2D Technologies, Inc. : DIGITIZING COMPANY
~Other -----------------------------------------------------
~ASCII -----------------------------------------------------
  300.00000  254.21680  254.21680  244.71420    -999.25    -999.25    -999.25    -999.25    4.08640    -999.25   81.41800   81.41800    4.08640    3.51640    3.51640    -999.25    -999.25    -999.25    -999.25    -999.25    3.80010   -8.65770   -3.90450    3.80010
  350.00000  213.28400  213.28400  202.00390    -999.25    -999.25    -999.25    -999.25    4.95040    -999.25   65.41150   65.41150    4.95040    5.06920    5.06920    -999.25    -999.25    -999.25    -999.25    -999.25    5.19430  -24.09790  -22.54580    5.19430
  400.00000  213.22720  213.22720  197.97280    -999.25    -999.25    -999.25    -999.25    5.05120    -999.25   77.30450   77.30450    5.05120    5.21630    5.21630    -999.25    -999.25    -999.25    -999.25    -999.25    5.25010  -16.31310  -13.37090    5.25010
  450.00000  238.87950  238.87950  207.56790    -999.25    -999.25    -999.25    -999.25    4.81770    -999.25   76.14620   76.14620    4.81770    4.72590    4.72590    -999.25    -999.25    -999.25    -999.25    -999.25    4.51720  -15.39740   -8.17880    4.51720
  500.00000  264.99690  264.99690  153.79170    -999.25    -999.25    -999.25    -999.25    6.50230    -999.25   67.44950   67.44950    6.50230    6.21200    6.21200    -999.25    -999.25    -999.25    -999.25    -999.25    5.85410   32.06990   -8.66600    5.85410
  550.00000  231.29180  231.29180   36.73530    -999.25    -999.25    -999.25    -999.25   27.22180    -999.25   23.78160   23.78160   27.22180   26.93200   26.93200    -999.25    -999.25    -999.25    -999.25    -999.25   37.06350   30.92700  -11.75430   37.06350
  600.00000  295.67540  295.67540  144.85410    -999.25    -999.25    -999.25    -999.25    6.90350    -999.25   48.65530   48.65530    6.90350    6.76690    6.76690    -999.25    -999.25    -999.25    -999.25    -999.25    8.55940   30.09720  -11.88900    8.55940
  650.00000  268.91760  268.91760  140.62520    -999.25    -999.25    -999.25    -999.25    7.11110    -999.25   37.95530   37.95530    7.11110    6.63800    6.63800    -999.25    -999.25    -999.25    -999.25    -999.25    7.80290  -29.63260   -3.68510    7.80290
  700.00000  227.32790  227.32790   25.21430    -999.25    -999.25    -999.25    -999.25   39.66010    -999.25   10.25610   10.25610   39.66010   75.83900   75.83900    -999.25    -999.25    -999.25    -999.25    -999.25  134.04940  -44.58660  -19.59760  134.04940
  750.00000  228.36510  228.36510   36.85260    -999.25    -999.25    -999.25    -999.25   27.13510    -999.25   22.69740   22.69740   27.13510   27.40520   27.40520    -999.25    -999.25    -999.25    -999.25    -999.25   23.38770  -31.57660   -7.54610   23.38770
  800.00000  263.52140  263.52140  209.40650    -999.25    -999.25    -999.25    -999.25    4.77540    -999.25   44.92460   44.92460    4.77540    4.58930    4.58930    -999.25    -999.25    -999.25    -999.25    -999.25    4.66980  -24.68110   -1.60910    4.66980
  850.00000  321.84090  321.84090  362.59470    -999.25    -999.25    -999.25    -999.25    2.75790    -999.25  147.13260  147.13260    2.75790    2.74890    2.74890    -999.25    -999.25    -999.25    -999.25    -999.25    2.84120  -30.41300   -8.22430    2.84120
  900.00000  226.56840  226.56840   23.22270    -999.25    -999.25    -999.25    -999.25   43.06130    -999.25   10.27610   10.27610   43.06130   48.32110   48.32110    -999.25    -999.25    -999.25    -999.25    -999.25   72.73440  -78.95410  -55.84480   72.73440
  950.00000  219.61130  219.61130   34.16600    -999.25    -999.25    -999.25    -999.25   29.26890    -999.25    9.50390    9.50390   29.26890   40.40570   40.40570    -999.25    -999.25    -999.25    -999.25    -999.25   83.30610  -94.77950  -70.74960   83.30610
 1000.00000  225.09480  225.09480   43.05190    -999.25    -999.25    -999.25    -999.25   23.22780    -999.25   15.27270   15.27270   23.22780   28.69850   28.69850    -999.25    -999.25    -999.25    -999.25    -999.25   68.07040  -85.05640  -60.10590   68.07040
 1050.00000  224.20630  224.20630   26.10430    -999.25    -999.25    -999.25    -999.25   38.30780    -999.25   15.03290   15.03290   38.30780   53.50540   53.50540    -999.25    -999.25    -999.25    -999.25    -999.25   94.84290  -83.47810  -57.60700   94.84290
 1100.00000  220.67700  220.67700   45.43100    -999.25    -999.25    -999.25    -999.25   22.01140    -999.25    8.61910    8.61910   22.01140   22.29300   22.29300    -999.25    -999.25    -999.25    -999.25    -999.25   41.57470  -78.24950  -51.45780   41.57470
 1150.00000  218.68080  218.68080   81.59870    -999.25    -999.25    -999.25    -999.25   12.25510    -999.25   33.99780   33.99780   12.25510   11.57830   11.57830    -999.25    -999.25    -999.25    -999.25    -999.25   15.13810  -68.66860  -40.95630   15.13810
 1200.00000  208.13260  208.13260  108.04390    -999.25    -999.25    -999.25    -999.25    9.25550    -999.25   40.32060   40.32060    9.25550   11.28420   11.28420    -999.25    -999.25    -999.25    -999.25    -999.25   26.03350  -71.92810  -43.29520   26.03350
 1250.00000  199.14180  199.14180  118.95420    -999.25    -999.25    -999.25    -999.25    8.40660    -999.25   24.88930   24.88930    8.40660   11.89940   11.89940    -999.25    -999.25    -999.25    -999.25    -999.25   17.76330  -57.57710  -28.02360   17.76330
 1300.00000  233.77360  233.77360  315.15910    -999.25    -999.25    -999.25    -999.25    3.17300    -999.25   77.04500   77.04500    3.17300    3.37790    3.37790    -999.25    -999.25    -999.25    -999.25    -999.25    3.19570  -42.13200  -13.70990    3.19570
 1350.00000  273.31910  273.31910  347.05350    -999.25    -999.25    -999.25    -999.25    2.88140    -999.25   69.65730   69.65730    2.88140    2.78340    2.78340    -999.25    -999.25    -999.25    -999.25    -999.25    2.92250  -41.26350  -14.51830    2.92250
 1400.00000  292.62040  292.62040  432.63820   73.05050 1851.23500    0.48410    0.50220    2.31140   73.05050   76.68910   76.68910    2.31140    2.12100    2.12100    0.47480    0.51650    2.87190    2.87190 1861.16460    2.29300  -39.19630  -14.12800    2.29300
 1450.00000  221.88800  221.88800  101.24220    2.70700 2650.16500   -0.00010    0.03500    9.87730    2.70700   37.17460   37.17460    9.87730   10.44630   10.44630    0.12310    0.16600    4.59770    4.59770 2650.79570   11.58560  -22.62280    0.76860   11.58560
 1500.00000  388.21200  388.21200  458.67350   88.91280 1750.25500    0.54530    0.56130    2.18020   88.91280   92.30670   92.30670    2.18020    2.01140    2.01140    0.40720    0.44890    2.51000    2.51000 1748.96510    2.30590  -33.93790  -12.22340    2.30590
 1550.00000  266.44710  266.44710  275.74040  127.92930 2025.80490    0.37830    0.40010    3.62660  127.92930   65.66960   65.66960    3.62660    3.46990    3.46990    0.33970    0.38290    2.85430    2.85430 2055.50980    4.14120  -35.75190  -15.71430    4.14120
 1600.00000  251.22220  251.22220  176.36990   -1.89680 2626.89990    0.01400    0.04860    5.66990   -1.89680   75.94420   75.94420    5.66990    5.96050    5.96050    0.20220    0.24610    3.88770    3.88770 2625.65770    6.60320  -18.31700    0.04370    6.60320
 1650.00000  228.87220  228.87220  127.91160    1.45520 2658.90990   -0.00540    0.02990    7.81790    1.45520   51.93680   51.93680    7.81790    8.27690    8.27690    0.15970    0.20320    4.33020    4.33020 2657.72090    8.99320  -23.17370   -6.48990    8.99320
 1700.00000  206.39090  206.39090   35.85910    0.67690 2868.29490   -0.13230   -0.09260   27.88690    0.67690   21.87750   21.87750   27.88690   29.07710   29.07710    0.06920    0.11120    4.16230    4.16230 2872.92920   38.06830  -50.68690  -21.75590   38.06830
