~Version ---------------------------------------------------
VERS.      2.0 : CWLS log ASCII Standard -VERSION 2.0
WRAP.       NO : One line per depth step
CREA. 06/07/13 : LAS Creation Date
~Well ------------------------------------------------------
STRT.M                 350.0 : START DEPTH
STOP.M                4150.0 : STOP DEPTH
STEP.M              50.00000 : STEP LENGTH
NULL.                -999.25 : NULL VALUE
COMP.  CDC OIL & GAS LIMITED : COMPANY
WELL. CDCOG OBED 13-24-55-22 : WELL
FLD .                        : FIELD
LOC .                        : LOCATION
CTRY.                 CANADA : COUNTRY
SRVC. Schlumberger of Canada : SERVICE COMPANY
DATE.            06-Mar-1981 : LOGDATE
PROV.                Alberta : PROVINCE
UWI .       100132405522W500 : UNIQUE WELL ID
SLAT.WGS84          53.77035 : SURFACE LATITUDE
SLON.WGS84         -117.1407 : SURFACE LONGITUDE
~Curve Information -----------------------------------------
DEPT    .M      : DEPTH METER
CALDED  .MM     : CALIPER FROM DENSITY LOG [ADJ. TO RESISTIVITY LOG]
CALSED  .MM     : CALIPER FROM SONIC LOG [ADJ. TO RESISTIVITY LOG]
CALWS   .MM     : CALIPER [CALSED]
CONDWS  .MMHO   : CONDUCTIVITY [1000/DRESWS]
DCORED  .KG/M3  : DENSITY CORRECTION FROM DENSITY LOG [ADJ. TO RESISTIVITY LOG]
DCORWS  .KG/M3  : DENSITY CORRECTION [DCORED]
DENWS   .KG/M3  : FORMATION BULK DENSITY [CALC FROM DPOLSWS, M=2710, F=1000]
DPHILSED.V/V    : DENSITY POROSITY LIMESTONE [M=2710, F=1000] FROM DENSITY LOG [ADJ. TO RESISTIVITY LOG]
DPHISSED.V/V    : DENSITY POROSITY SANDSTONE [M=2650, F=1000] FROM DENSITY LOG [ADJ. TO RESISTIVITY LOG]
DPOLSWS .V/V    : DENSITY POROSITY LIMESTONE [DPHISSED CONVERTED TO LIMESTONE MATRIX, M=2.71, F=1.0, SPL.TO DPHILSED @ 2975.7M]
DRESWS  .OHMM   : DEEP RESISTIVITY [LLDED]
DTED    .US/M   : DELTA TIME FROM SONIC LOG [ADJ. TO RESISTIVITY LOG]
DTWS    .US/M   : COMPRESSIONAL SONIC [DTED]
GRDED   .GAPI   : GAMMA RAY FROM DENSITY LOG [ADJ. TO RESISTIVITY LOG]
GRRED   .GAPI   : GAMMA RAY FROM RESISTIVITY LOG
GRSED   .GAPI   : GAMMA RAY FROM SONIC LOG [ADJ. TO RESISTIVITY LOG]
GRWS    .GAPI   : GAMMA RAY [GRSED]
LLDED   .OHMM   : DEEP LATEROLOG FROM RESISTIVITY LOG
LLSED   .OHMM   : SHALLOW LATEROLOG FROM RESISTIVITY LOG
NPHILSED.V/V    : NEUTRON POROSITY LIMESTONE FROM DENSITY LOG [ADJ. TO RESISTIVITY LOG]
NPHISSED.V/V    : NEUTRON POROSITY SANDSTONE FROM DENSITY LOG [ADJ. TO RESISTIVITY LOG]
NPOLSWS .V/V    : NEUTRON POROSITY LIMESTONE [NPHISSED MATRIX SLB CNL (NPHI) CONVERSION FOR LIMESTONE, SPL.TO NPHILSED @ 2975.7M]
RHOBED  .KG/M3  : BULK DENSITY FROM DENSITY LOG [ADJ. TO RESISTIVITY LOG]
SPRED   .MV     : SPONTANEOUS POTENTIAL FROM RESISTIVITY LOG
SPWS    .MV     : SPONTANEOUS POTENTIAL [BASELINE 0 MV, SPRED]
SRESWS  .OHMM   : SHALLOW RESISTIVITY [LLSED]
~Params ----------------------------------------------------
PD  .                         GL : PERMANENT DATUM
EPD .M                   1011.77 : ELEVATION PERMANENT DATUM
LMF .                         KB : LOG MEASURED FROM
DAPD.M                       7.5 : FEET ABOVE PERMANENT DATUM
DMF .                         KB : DRILLING MEASURED FROM
EKB .M                   1019.27 : KELLY BUSHING
EGL .M                   1011.77 : GROUND LEVEL
DATE.                   03/06/81 : RUN DATE
RUN .                          2 : RUN NUMBER
DD  .M                      4183 : DEPTH DRILLER
DL  .M                    4185.5 : DEPTH LOGGER
BLI .M                    4184.6 : BOTTOM LOG INTERVAL
TLI .M                    2582.5 : TOP LOG INTERVAL
CS  .MM                      244 : CASING SIZE
CBD .M                    2582.6 : CASING BOTTOM DRILLER
CBL .M                    2582.5 : CASING BOTTOM LOGGER
BS  .MM                      216 : BIT SIZE
BSD .M                      4183 : BIT SIZE AT DEPTH
DFT .                        KCL : DRILLING FLUID TYPE
DFD .                       1060 : DRILLING FLUID DENSITY
DFV .                         64 : DRILLING FLUID VISCOSITY
DFPH.                         11 : DRILLING FLUID PH
DFL .                         12 : DRILLING FLUID LOSS
MSS .                CIRCULATION : MUD SAMPLE SOURCE
RMS .OHMM                  0.339 : RESISTIVITY MUD SAMPLE
MST .DEGC                   27.8 : MUD SAMPLE TEMPERATURE
RMF .OHMM                  0.267 : RESISTIVITY MUD FILTRATE SAMPLE
MFST.DEGC                   18.3 : MUD FILTRATE SAMPLE TEMPERATURE
MFSS.                      PRESS : MUD FILTRATE SAMPLE SOURCE
MCSS.                       MEAS : MUD CAKE SAMPLE SOURCE
RMB .OHMM                  0.118 : RESISTIVITY MUD AT BHT
TCS .HRS                     800 : TIME CIRCULATED STOPPED
TLAB.HRS                    2030 : TIME LOGGER AT BOTTOM
LUN .                       8112 : LOGGING UNIT NUMBER
LUL .                      EDSON : LOGGING UNIT LOCATION
ENGI.                    LEBLANC : RECORDING ENGINEER
WITN.                  MACDONALD : WITNESSED BY
CLNT.                    A2DTECH : CLIENT CODE
ORIG. 6.5"/100M 16.5"/100M PRINT : ORIGIN OF DATA
UWI .           100132405522W500 : UNIQUE WELL ID
DICO.     A2D Technologies, Inc. : DIGITIZING COMPANY
~Other -----------------------------------------------------
DLL-FDC-CNL-BHC LOG RUN
RHOBED, DCORED DIG IN SMALL SCALE
~ASCII -----------------------------------------------------
# ...
 3050.00000  234.14420  204.65150  204.65150    9.00960    9.50310   13.96220 2681.95600    0.01640    -999.25    0.01640  110.99240   77.22650   77.22650   82.60330   83.76670   75.89910   75.89910  110.99240  118.49980    0.03180    -999.25    0.03180 2688.13480  -72.25090   -1.73930  118.49980
 3100.00000  247.01250  211.13440  211.13440   52.15970   75.16780   31.34780 2632.19500    0.04550    -999.25    0.04550   19.17190  183.36590  183.36590   13.32230    9.59610   11.33380   11.33380   19.17190   20.08370    0.11670    -999.25    0.11670 2626.98100  -31.34660   60.66420   20.08370
 3150.00000  273.25690  228.96280  228.96280    3.65810  148.58620  149.33330 2171.52100    0.31490    -999.25    0.31490  273.36420  168.05040  168.05040   31.38380   32.82160   29.37930   29.37930  273.36420  133.88440    0.02750    -999.25    0.02750 2170.76050  -53.92040  -26.94780  133.88440
 3200.00000  272.68440  232.35860  232.35860   11.74520  245.56080  249.85850 2723.50900   -0.00790    -999.25   -0.00790   85.14150  163.83160  163.83160    7.90200    9.40550    7.03770    7.03770   85.14150   71.26130    0.01170    -999.25    0.01170 2720.11230  -69.67570  -60.38360   71.26130
 3250.00000  260.43530  235.77890  235.77890   23.70850   21.70510   22.19920 2730.17800   -0.01180    -999.25   -0.01180   42.17890  182.42990  182.42990   73.95200   62.36390   65.62020   65.62020   42.17890   40.03110    0.08620    -999.25    0.08620 2722.49100  -53.69070  -22.34380   40.03110
 3300.00000  260.44730  230.73110  230.73110   23.29980   16.82860   11.53270 2708.80300    0.00070    -999.25    0.00070   42.91890  185.42540  185.42540   41.30070   44.66580   37.71180   37.71180   42.91890   45.80740    0.02720    -999.25    0.02720 2701.10690  -51.98930  -29.98020   45.80740
 3350.00000  246.64220  229.18220  229.18220   36.48250   -3.75130   -0.06220 2681.10100    0.01690    -999.25    0.01690   27.41040  198.76300  198.76300   64.13890   58.92040   61.55760   61.55760   27.41040   28.77980    0.06990    -999.25    0.06990 2677.98240  -48.34890  -14.18090   28.77980
 3400.00000  277.17770  227.25100  227.25100    0.13530  249.76300  249.84070 2720.77300   -0.00630    -999.25   -0.00630 7392.13920  158.04580  158.04580   17.30550   15.50710   14.85460   14.85460 7392.13920 4033.51830    0.00010    -999.25    0.00010 2724.20390  -55.74850  -49.48030 4033.51830
 3450.00000  289.70860  237.32730  237.32730    0.48060  226.76500  236.33420 2670.67000    0.02300    -999.25    0.02300 2080.69630  159.54810  159.54810    9.67890    8.69380   11.27340   11.27340 2080.69630 1628.85210   -0.00450    -999.25   -0.00450 2667.73830  -88.13030  -83.58060 1628.85210
 3500.00000  247.25620  222.23840  222.23840    4.40980   66.14700   44.60930 2770.87600   -0.03560    -999.25   -0.03560  226.76940  165.05280  165.05280    7.16090    6.98270    8.71130    8.71130  226.76940   64.87580    0.00950    -999.25    0.00950 2766.80100  -54.74220  -51.91110   64.87580
 3550.00000  302.20900  236.97090  236.97090    0.09330  249.89050  249.89050 2569.78000    0.08200    -999.25    0.08200 10714.80960  159.04790  159.04790   14.36140   11.04260   13.99420   13.99420 10714.80960 3991.84910   -0.00690    -999.25   -0.00690 2571.90800  -88.02220  -86.90970 3991.84910
 3600.00000  323.13280  241.60900  241.60900    0.03540  246.98750  247.24320 2482.74100    0.13290    -999.25    0.13290 28286.39840  159.78010  159.78010   13.54880   12.67790   10.83880   10.83880 28286.39840 1873.43980   -0.00230    -999.25   -0.00230 2490.46830 -105.05240 -105.65840 1873.43980
 3650.00000  437.33560  242.85990  242.85990    0.68260  230.90230  215.70200 2296.35100    0.24190    -999.25    0.24190 1464.89990  165.17960  165.17960   21.30950   18.62960   17.23120   17.23120 1464.89990  115.81370    0.08200    -999.25    0.08200 2254.93020  -67.38810  -69.71270  115.81370
 3700.00000  231.50650  215.78560  215.78560    0.57590  241.87150  245.96760 2734.11100   -0.01410    -999.25   -0.01410 1736.49240  165.18550  165.18550   25.85750   28.71330   26.66880   26.66880 1736.49240 1920.62050    0.00310    -999.25    0.00310 2731.38890  -35.91980  -39.96290 1920.62050
 3750.00000  230.80690  216.03010  216.03010    2.93570   17.96390   15.38390 2699.39800    0.00620    -999.25    0.00620  340.63650  170.24070  170.24070   31.75120   30.92720   32.66370   32.66370  340.63650  407.34800    0.01760    -999.25    0.01760 2686.28470  -42.64810  -53.12910  407.34800
 3800.00000  229.49540  215.17790  215.17790   26.12530  169.61290  208.84140 2640.91600    0.04040    -999.25    0.04040   38.27700  215.99400  215.99400   91.59220   95.81120   91.00970   91.00970   38.27700   40.22300    0.14600    -999.25    0.14600 2638.21780   17.33510   -5.94630   40.22300
 3850.00000  230.36070  211.93970  211.93970    5.20530   39.63020   47.60840 2727.78400   -0.01040    -999.25   -0.01040  192.11090  183.70540  183.70540   60.64560   58.94950   61.52550   61.52550  192.11090  202.78620    0.06480    -999.25    0.06480 2731.06130  -47.08660  -63.63900  202.78620
 3900.00000  254.16750  221.63420  221.63420    2.53620  244.42020  240.41470 2490.94900    0.12810    -999.25    0.12810  394.28490  181.75360  181.75360  134.77360  126.64830   79.90060   79.90060  394.28490  350.06500    0.06560    -999.25    0.06560 2546.62940   -9.29990  -21.04830  350.06500
 3950.00000  279.22120  231.84260  231.84260    2.96850  150.89440  168.82460 2645.02000    0.03800    -999.25    0.03800  336.86940  166.27870  166.27870    8.98030   10.60230    9.55140    9.55140  336.86940  239.49060    0.07240    -999.25    0.07240 2617.13350  -70.38910  -82.70040  239.49060
 4000.00000  236.25780  235.26720  235.26720    0.05760   78.83540  120.56890 2776.86100   -0.03910    -999.25   -0.03910 17355.17580  151.75170  151.75170   11.52730    9.16980    9.21020    9.21020 17355.17580 3560.97560    0.02110    -999.25    0.02110 2768.76200  -34.21590  -47.09010 3560.97560
 4050.00000  247.17780  222.61850  222.61850    0.14010   -5.82680   12.03480 2126.54800    0.34120    -999.25    0.34120 7140.16160  160.58510  160.58510    7.93760    7.49170    8.22390    8.22390 7140.16160  494.44530    0.02770    -999.25    0.02770 2181.50460  -20.17740  -33.61460  494.44530
 4100.00000  323.05010  245.77350  245.77350    0.02180  252.05330  251.96160 2727.78400   -0.01040    -999.25   -0.01040 45786.30470  155.81790  155.81790   25.64730   21.18650   18.58540   18.58540 45786.30470  529.32040   -0.00560    -999.25   -0.00560 2723.14990  -30.58810  -44.58820  529.32040
 4150.00000  269.24020  235.83970  235.83970    0.02060  246.68450  247.97030 2343.20500    0.21450    -999.25    0.21450 48488.78520  153.41520  153.41520   20.69720   20.98400   19.42430   19.42430 48488.78520 1927.97290    0.00540    -999.25    0.00540 2343.20340  -42.03230  -60.33700 1927.97290
