~Version ---------------------------------------------------
VERS.      2.0 : CWLS log ASCII Standard -VERSION 2.0
WRAP.       NO : One line per depth step
CREA. 08/01/17 : LAS Creation Date
~Well ------------------------------------------------------
STRT.FT                        1000.0 : START DEPTH
STOP.FT                        9200.0 : STOP DEPTH
STEP.FT                      50.00000 : STEP LENGTH
NULL.                         -999.25 : NULL VALUE
COMP.                LL&E  CANADA LTD : COMPANY
WELL. LL&E ET AL CHICKADEE 7-35-60-14 : WELL
FLD .                        WINDFALL : FIELD
LOC .                                 : LOCATION
CTRY.                          CANADA : COUNTRY
SRVC.                    Schlumberger : SERVICE COMPANY
DATE.                     10-Nov-1969 : LOGDATE
PROV.                         Alberta : PROVINCE
UWI .                100073506014W500 : UNIQUE WELL ID
SLAT.WGS84                     54.229 : SURFACE LATITUDE
SLON.WGS84                  -115.9821 : SURFACE LONGITUDE
~Curve Information -----------------------------------------
DEPT  .FT    : Depth Curve
CALSED.IN    : CALIPER FROM SONIC LOG
CALWS .IN    : CALIPER [CALSED]
CONDWS.MMHO  : CONDUCTIVITY [1000/DRESWS]
DRESWS.OHMM  : DEEP RESISTIVITY [ILDED]
DTED  .US/F  : DELTA TIME FROM SONIC LOG
DTWS  .US/F  : COMPRESSIONAL SONIC [DTED]
GRSED .GAPI  : GAMMA RAY FROM SONIC LOG
GRWS  .GAPI  : GAMMA RAY [GRSED]
ILDED .OHMM  : DEEP INDUCTION RESISTIVITY FROM RESISTIVITY LOG
ILMED .OHMM  : MEDIUM INDUCTION RESISTIVITY FROM RESISTIVITY LOG
LL8ED .OHMM  : 8 INCH LATEROLOG RESISTIVITY FROM RESISTIVITY LOG
MRESWS.OHMM  : MEDIUM RESISTIVITY [ILMED]
SPRED .MV    : SPONTANEOUS POTENTIAL FROM RESISTIVITY LOG
SPWS  .MV    : SPONTANEOUS POTENTIAL [BASELINE 0 MV, SPRED]
SRESWS.OHMM  : SHALLOW RESISTIVITY [RFOCED]
~Params ----------------------------------------------------
PD  .                     GL : PERMANENT DATUM
LMF .                     KB : LOG MEASURED FROM
DAPD.FT                 13.7 : FEET ABOVE PERMANENT DATUM
EGL .FT               2582.3 : GROUND LEVEL
DATE.               11/10/69 : RUN DATE
RUN .                      1 : RUN NUMBER
DD  .FT                 9222 : DEPTH DRILLER
DL  .FT                 9221 : DEPTH LOGGER
BLI .FT                 9217 : BOTTOM LOG INTERVAL
TLI .FT                 1027 : TOP LOG INTERVAL
CBD .FT                 1027 : CASING BOTTOM DRILLER
CBL .FT                 1028 : CASING BOTTOM LOGGER
BS  .IN                 8.75 : BIT SIZE
BSD .FT                 9222 : BIT SIZE AT DEPTH
DFT .                    GEL : DRILLING FLUID TYPE
DFD .                    9.4 : DRILLING FLUID DENSITY
DFV .                    200 : DRILLING FLUID VISCOSITY
DFPH.                   10.5 : DRILLING FLUID PH
DFL .                    6.4 : DRILLING FLUID LOSS
RMS .OHMM               1.07 : RESISTIVITY MUD SAMPLE
MST .DEGF                 62 : MUD SAMPLE TEMPERATURE
RMF .OHMM               0.79 : RESISTIVITY MUD FILTRATE SAMPLE
MFST.DEGF                 67 : MUD FILTRATE SAMPLE TEMPERATURE
RMC .OHMM               1.26 : RESISTIVITY MUD CAKE
MCST.DEGF                 66 : MUD CAKE SAMPLE TEMPERATURE
MCSS.               MEASURED : MUD CAKE SAMPLE SOURCE
RMB .OHMM               0.79 : RESISTIVITY MUD AT BHT
TCS .HRS                   3 : TIME CIRCULATED STOPPED
LUN .                   7502 : LOGGING UNIT NUMBER
LUL .                    EDM : LOGGING UNIT LOCATION
ENGI.              NICKERSON : RECORDING ENGINEER
WITN.                WOODMAN : WITNESSED BY
CLNT.                A2DTECH : CLIENT CODE
ORIG.            2" 5" PRINT : ORIGIN OF DATA
UWI .       100073506014W500 : UNIQUE WELL ID
DICO. A2D Technologies, Inc. : DIGITIZING COMPANY
~Other -----------------------------------------------------
~ASCII -----------------------------------------------------
# ...
 3300.00000   10.96550   10.96550  125.57130    7.96360   96.33120   96.33120   76.13760   76.13760    7.96360    6.04160    8.72570    6.04160  -74.44440   -3.48280    8.72570
 3350.00000   10.33640   10.33640  114.91080    8.70240   85.26170   85.26170   74.73800   74.73800    8.70240    6.86020    9.35730    6.86020  -76.10510   -3.22580    9.35730
 3400.00000   10.41190   10.41190  136.93000    7.30300   90.73740   90.73740   76.02640   76.02640    7.30300    5.85930    8.40070    5.85930  -79.10520   -3.77300    8.40070
 3450.00000   10.39180   10.39180  142.14150    7.03560   91.73360   91.73360   91.14960   91.14960    7.03560    6.16910    8.60390    6.16910  -80.44080   -4.74880    8.60390
 3500.00000   12.26690   12.26690  153.44720    6.51690   95.84020   95.84020   80.29460   80.29460    6.51690    5.18970    6.97160    5.18970  -78.97130   -3.06840    6.97160
 3550.00000    9.91930    9.91930  141.96680    7.04390  108.62390  108.62390   79.35760   79.35760    7.04390    5.62440    8.03710    5.62440  -77.13390   -1.02020    8.03710
 3600.00000   11.03000   11.03000  139.12660    7.18770  100.40600  100.40600   74.80760   74.80760    7.18770    5.83070    8.08920    5.83070  -78.91360   -2.58760    8.08920
 3650.00000   10.45760   10.45760  156.42840    6.39270   99.21640   99.21640   66.85090   66.85090    6.39270    5.00890    7.33740    5.00890  -76.92730   -0.89630    7.33740
 3700.00000   10.65970   10.65970  112.72460    8.87120   88.52870   88.52870   82.51030   82.51030    8.87120    7.37160    9.73690    7.37160  -76.61620   -1.01790    9.73690
 3750.00000    9.50210    9.50210  104.99900    9.52390   86.96490   86.96490   86.14070   86.14070    9.52390    7.62520   10.57880    7.62520  -77.49020   -2.32190   10.57880
 3800.00000   10.03780   10.03780  128.99900    7.75200   90.27360   90.27360   79.27790   79.27790    7.75200    6.36950    8.66350    6.36950  -83.51860   -8.78020    8.66350
 3850.00000   10.26400   10.26400  155.85550    6.41620   90.07440   90.07440   86.04210   86.04210    6.41620    5.41980    7.75920    5.41980  -78.78800   -4.48230    7.75920
 3900.00000    9.94410    9.94410  160.53680    6.22910   94.26260   94.26260   86.77780   86.77780    6.22910    5.10580    7.34620    5.10580  -76.15130   -2.27550    7.34620
 3950.00000    9.25600    9.25600  111.15950    8.99620   93.45200   93.45200  112.89980  112.89980    8.99620    7.77580   11.94850    7.77580  -77.34240   -3.89940   11.94850
 4000.00000    9.59340    9.59340  115.41750    8.66420   94.06340   94.06340  107.17490  107.17490    8.66420    7.05180   11.75320    7.05180  -78.74420   -5.73110   11.75320
 4050.00000    9.70880    9.70880  120.59670    8.29210   96.40270   96.40270  115.22400  115.22400    8.29210    6.72280   11.73140    6.72280  -79.16700   -6.58380   11.73140
 4100.00000    9.23490    9.23490   80.96120   12.35160   93.05320   93.05320  123.75450  123.75450   12.35160   10.20470   17.80400   10.20470  -73.95490   -1.80450   17.80400
 4150.00000    9.82610    9.82610  136.69420    7.31560   97.00340   97.00340  101.63860  101.63860    7.31560    5.99480    9.85160    5.99480  -80.55750   -7.41030    9.85160
 4200.00000    9.97050    9.97050  123.38850    8.10860   86.61080   86.61080   90.25440   90.25440    8.10860    6.73890    9.31180    6.73890  -78.77260   -5.81460    9.31180
 4250.00000   10.74060   10.74060  180.99550    5.52500   89.03440   89.03440   91.07150   91.07150    5.52500    4.69190    6.93360    4.69190  -78.36600   -6.54010    6.93360
 4300.00000    9.63800    9.63800   99.81530   10.01850   77.83920   77.83920   76.17740   76.17740   10.01850    8.80010   12.91480    8.80010  -77.37710   -6.68320   12.91480
 4350.00000   10.34810   10.34810  170.52920    5.86410   86.66480   86.66480   97.52800   97.52800    5.86410    5.02680    7.60550    5.02680  -74.49530   -4.94090    7.60550
 4400.00000   10.61000   10.61000  175.26330    5.70570   83.20210   83.20210   87.05650   87.05650    5.70570    4.98440    6.13200    4.98440  -72.22910   -3.80680    6.13200
 4450.00000   11.03240   11.03240  172.35450    5.80250   88.94740   88.94740   86.54010   86.54010    5.80250    5.01740    6.13020    5.01740  -72.06610   -4.78330    6.13020
 4500.00000   10.02190   10.02190  181.24480    5.51740   94.03960   94.03960  131.05390  131.05390    5.51740    4.92460    6.12540    4.92460  -75.52750   -9.37670    6.12540
 4550.00000   11.55030   11.55030  344.38820    2.90370   99.31130   99.31130   84.33210   84.33210    2.90370    2.44550    3.06670    2.44550  -66.00700   -0.98830    3.06670
 4600.00000   12.06400   12.06400  307.69230    3.25000   96.81600   96.81600   81.65030   81.65030    3.25000    2.79300    3.54090    2.79300  -68.16600   -4.30490    3.54090
 4650.00000   11.02830   11.02830  203.55410    4.91270   90.15520   90.15520   92.42110   92.42110    4.91270    4.41440    6.00610    4.41440  -73.10380  -10.47000    6.00610
 4700.00000    8.81260    8.81260   65.43720   15.29540   74.03920   74.03920   35.76210   35.76210   15.29540   14.52790   22.31100   14.52790  -93.78960  -32.39110   22.31100
 4750.00000   12.62520   12.62520  235.65450    4.24350   90.80720   90.80720   69.38100   69.38100    4.24350    3.41850    3.93690    3.41850  -66.10950   -5.93820    3.93690
 4800.00000   10.21820   10.21820   95.84600   10.43340   77.43600   77.43600   69.57590   69.57590   10.43340    9.39750   11.27430    9.39750  -70.81090  -10.05070   11.27430
 4850.00000   12.29730   12.29730   98.28980   10.17400  154.99850  154.99850   48.02970   48.02970   10.17400    5.68070   16.70120    5.68070  -76.32870  -13.87890   16.70120
 4900.00000   10.01610   10.01610   91.22090   10.96240   72.47770   72.47770   54.43690   54.43690   10.96240   10.25560   16.93260   10.25560  -88.10830  -24.01040   16.93260
 4950.00000   11.11790   11.11790  143.80770    6.95390   79.03840   79.03840   60.38860   60.38860    6.95390    5.58400    6.04560    5.58400  -72.19690   -7.96170    6.04560
 5000.00000   12.29400   12.29400  146.74590    6.81450   78.84870   78.84870   62.95990   62.95990    6.81450    5.82310    5.92420    5.82310  -73.51320   -9.14160    5.92420
 5050.00000   11.02110   11.02110   76.78070   13.02410   92.83050   92.83050   74.61730   74.61730   13.02410    8.69640   15.71130    8.69640  -73.32790   -8.81990   15.71130
 5100.00000   10.61560   10.61560   70.95120   14.09420   71.89680   71.89680   63.03700   63.03700   14.09420   11.58040   18.66880   11.58040  -81.36760  -16.72230   18.66880
 5150.00000    9.24030    9.24030  118.88340    8.41160   79.20910   79.20910   47.51720   47.51720    8.41160    9.15880   18.17600    9.15880 -101.70690  -36.92520   18.17600
 5200.00000   10.27120   10.27120  134.46100    7.44000   79.24640   79.24640   60.34980   60.34980    7.44000    6.14530   10.62570    6.14530  -84.66250  -19.74340   10.62570
 5250.00000   10.26450   10.26450   92.75150   10.78150   73.15290   73.15290   75.22950   75.22950   10.78150    8.98460    9.79290    8.98460  -66.75760   -3.44490    9.79290
 5300.00000   10.16690   10.16690   96.40970   10.37240   70.58240   70.58240   58.26540   58.26540   10.37240    9.01800   11.83590    9.01800  -70.09670   -9.49600   11.83590
 5350.00000   10.19560   10.19560   80.72720   12.38740   69.24320   69.24320   79.50060   79.50060   12.38740   10.78260   15.19100   10.78260  -66.90340   -5.25080   15.19100
 5400.00000   10.38930   10.38930  100.44090    9.95610   77.14850   77.14850   66.62080   66.62080    9.95610    8.42200    9.23050    8.42200  -69.36220   -5.48960    9.23050
 5450.00000    9.50760    9.50760   25.54500   39.40570   68.18920   68.18920   44.68200   44.68200   39.40570   33.56150   52.70560   33.56150  -69.75620   -5.06310   52.70560
 5500.00000    9.39560    9.39560   63.27950   15.80290   75.66570   75.66570   84.36350   84.36350   15.80290   13.29040   20.30110   13.29040  -60.62920   -1.04110   20.30110
 5550.00000    9.20390    9.20390   48.00580   20.83080   68.68630   68.68630   50.18790   50.18790   20.83080   18.21720   30.90980   18.21720  -67.33310   -9.27750   30.90980
