~Version ---------------------------------------------------
VERS.      2.0 : CWLS log ASCII Standard -VERSION 2.0
WRAP.       NO : One line per depth step
CREA. 11/20/17 : LAS Creation Date
~Well ------------------------------------------------------
STRT.FT                            1000.0 : START DEPTH
STOP.FT                            9500.0 : STOP DEPTH
STEP.FT                          50.00000 : STEP LENGTH
NULL.                             -999.25 : NULL VALUE
COMP.                  FRONTIER OIL & GAS : COMPANY
WELL. FRONTIER SUN L BA GOOSE 10-18-66-17 : WELL
FLD .                                     : FIELD
LOC .                                     : LOCATION
CTRY.                              CANADA : COUNTRY
SRVC.                        Schlumberger : SERVICE COMPANY
DATE.                         21-Dec-1966 : LOGDATE
PROV.                             Alberta : PROVINCE
UWI .                    100101806617W500 : UNIQUE WELL ID
SLAT.WGS84                       54.71404 : SURFACE LATITUDE
SLON.WGS84                      -116.5551 : SURFACE LONGITUDE
~Curve Information -----------------------------------------
DEPT  .FT    : Depth Curve
CALSED.IN    : CALIPER FROM SONIC LOG
CALWS .IN    : CALIPER [CALSED]
CILDED.MMHO  : DEEP INDUCTION CONDUCTIVITY FROM RESISTIVITY LOG
CONDWS.MMHO  : CONDUCTIVITY [1000/DRESWS]
DRESWS.OHMM  : DEEP RESISTIVITY [1000/CILDED,IF ILDED<2.5,ILDED]
DTED  .US/F  : DELTA TIME FROM SONIC LOG
DTWS  .US/F  : COMPRESSIONAL SONIC [DTED]
GRSED .GAPI  : GAMMA RAY FROM SONIC LOG
GRWS  .GAPI  : GAMMA RAY [GRSED]
ILDED .OHMM  : DEEP INDUCTION RESISTIVITY FROM RESISTIVITY LOG
SNED  .OHMM  : 16 INCH SHORT NORMAL FROM RESISTIVITY LOG
SPRED .MV    : SPONTANEOUS POTENTIAL FROM RESISTIVITY LOG
SPWS  .MV    : SPONTANEOUS POTENTIAL [BASELINE 0MV, SPRED]
SRESWS.OHMM  : SHALLOW RESISTIVITY [SNED]
~Params ----------------------------------------------------
PD  .                     GL : PERMANENT DATUM
EPD .FT                 2677 : ELEVATION PERMANENT DATUM
LMF .                     KB : LOG MEASURED FROM
DAPD.FT                   14 : FEET ABOVE PERMANENT DATUM
EKB .FT                 2691 : KELLY BUSHING
EGL .FT                 2677 : GROUND LEVEL
DATE.               12/21/66 : RUN DATE
RUN .                      1 : RUN NUMBER
DD  .FT                 9520 : DEPTH DRILLER
DL  .FT                 9522 : DEPTH LOGGER
BLI .FT                 9521 : BOTTOM LOG INTERVAL
TLI .FT                  978 : TOP LOG INTERVAL
CBD .FT                  978 : CASING BOTTOM DRILLER
CBL .FT                  978 : CASING BOTTOM LOGGER
BS  .IN                7.875 : BIT SIZE
BSD .FT                 9520 : BIT SIZE AT DEPTH
DFT .           GEL CHEM OIL : DRILLING FLUID TYPE
DFD .                    9.7 : DRILLING FLUID DENSITY
DFV .                    132 : DRILLING FLUID VISCOSITY
DFPH.                     10 : DRILLING FLUID PH
DFL .                    6.4 : DRILLING FLUID LOSS
RMS .OHMM               2.23 : RESISTIVITY MUD SAMPLE
MST .DEGF                 68 : MUD SAMPLE TEMPERATURE
RMF .OHMM               1.81 : RESISTIVITY MUD FILTRATE SAMPLE
MFST.DEGF                 66 : MUD FILTRATE SAMPLE TEMPERATURE
RMC .OHMM               2.37 : RESISTIVITY MUD CAKE
MCST.DEGF                 66 : MUD CAKE SAMPLE TEMPERATURE
RMB .OHMM               0.88 : RESISTIVITY MUD AT BHT
TCS .HRS                   3 : TIME CIRCULATED STOPPED
LUN .                   3705 : LOGGING UNIT NUMBER
LUL .                    WCT : LOGGING UNIT LOCATION
ENGI.              DEMETRICK : RECORDING ENGINEER
WITN.              MACLNTOSH : WITNESSED BY
CLNT.                A2DTECH : CLIENT CODE
ORIG.            2" 5" PRINT : ORIGIN OF DATA
UWI .       100101806617W500 : UNIQUE WELL ID
DICO. A2D Technologies, Inc. : DIGITIZING COMPANY
~Other -----------------------------------------------------
IEL-BCS LOG RUN
ALL IEL DATA FROM TOP TO 3790' FROM 2" SCALE LOG
~ASCII -----------------------------------------------------
# ...
 5900.00000    9.00970    9.00970   43.43400   43.58610   22.94310   50.93400   50.93400   18.95070   18.95070   22.94310   50.38820 -118.02340  -65.00710   50.38820
 5950.00000    8.86990    8.86990   23.02650   22.13120   45.18500   51.53460   51.53460   13.61490   13.61490   45.18500   71.58730 -142.45950  -90.42730   71.58730
 6000.00000    8.85720    8.85720   22.43960   21.08260   47.43250   51.25640   51.25640   12.48650   12.48650   47.43250   79.72680 -162.19160 -111.14350   79.72680
 6050.00000    8.99830    8.99830   24.31010   23.39130   42.75090   52.13850   52.13850   16.01820   16.01820   42.75090   93.71600 -160.54550 -110.48140   93.71600
 6100.00000    9.23530    9.23530   19.03690   18.94300   52.78990   53.82720   53.82720   13.56700   13.56700   52.78990  104.35720 -133.67020  -84.59020  104.35720
 6150.00000   10.62480   10.62480  568.89100  378.40090    2.64270   70.41530   70.41530   43.89510   43.89510    2.64270    3.82150  -96.43230  -52.24080    3.82150
 6200.00000    9.55440    9.55440  110.54930  111.18400    8.99410   56.74750   56.74750   51.39670   51.39670    8.99410   18.55120  -63.80980  -26.18000   18.55120
 6250.00000    9.74460    9.74460  114.01420  110.78980    9.02610   70.87930   70.87930  107.53030  107.53030    9.02610   14.24690  -36.42940   -4.89470   14.24690
 6300.00000    9.99470    9.99470   17.49540   15.32830   65.23880   51.85000   51.85000    9.11020    9.11020   65.23880   63.55890  -54.01380  -22.37300   63.55890
 6350.00000    9.61340    9.61340   46.66040   47.36730   21.11160   53.60750   53.60750   16.20520   16.20520   21.11160   54.50110 -120.46370  -88.71690   54.50110
 6400.00000    8.96190    8.96190   38.07710   37.60700   26.59080   57.24640   57.24640   46.79080   46.79080   26.59080   45.37480  -48.76610  -16.91320   45.37480
 6450.00000    8.56030    8.56030   24.58480   23.53270   42.49410   55.81290   55.81290   32.02350   32.02350   42.49410   51.98420  -48.74040  -16.78140   51.98420
 6500.00000    8.52090    8.52090   12.95080   11.99990   83.33370   52.63770   52.63770   26.32900   26.32900   83.33370   96.91350  -62.42610  -30.36110   96.91350
 6550.00000    8.47010    8.47010   15.91380   13.47250   74.22530   53.97870   53.97870   31.68610   31.68610   74.22530   80.02470  -65.44630  -33.27520   80.02470
 6600.00000    8.48070    8.48070    9.51880    8.04570  124.28960   52.73170   52.73170   25.18820   25.18820  124.28960  128.96330  -72.36040  -40.08320  128.96330
 6650.00000    8.66420    8.66420   15.32620   14.45160   69.19660   54.26900   54.26900   35.74150   35.74150   69.19660   71.14780  -61.69680  -29.31360   71.14780
 6700.00000    9.70510    9.70510   20.03140   16.93390   59.05320   67.80180   67.80180   75.05420   75.05420   59.05320   59.29150  -34.26340   -1.87540   59.29150
 6750.00000    9.62850    9.62850   52.92760   53.43910   18.71290   58.90660   58.90660   75.84830   75.84830   18.71290   24.30470  -57.32410  -28.20450   24.30470
 6800.00000    9.44690    9.44690    8.43850    6.51710  153.44300   51.50530   51.50530   26.66930   26.66930  153.44300  123.53020  -42.83340  -16.14650  123.53020
 6850.00000    8.86600    8.86600    6.16210    4.10470  243.62300   50.86650   50.86650   13.49380   13.49380  243.62300  146.89080 -109.06050  -82.54640  146.89080
 6900.00000    8.89360    8.89360    6.28190    4.86260  205.64970   49.14430   49.14430   13.69360   13.69360  205.64970  189.82020  -86.24190  -59.90060  189.82020
 6950.00000    8.53860    8.53860   13.54770   11.45140   87.32580   48.98670   48.98670    9.02030    9.02030   87.32580  158.72160 -150.56800 -124.39950  158.72160
 7000.00000    8.41480    8.41480    6.16050    4.24450  235.59910   48.32570   48.32570    9.95590    9.95590  235.59910  152.62490  -90.41360  -64.41790  152.62490
 7050.00000    8.78810    8.78810    6.21640    4.62140  216.38440   49.37500   49.37500   10.85880   10.85880  216.38440  141.00060 -112.01900  -86.19620  141.00060
 7100.00000    8.79430    8.79430   13.75860   12.61280   79.28430   49.88510   49.88510   11.19550   11.19550   79.28430  105.82300 -136.65360 -111.00360  105.82300
 7150.00000    8.11170    8.11170   17.54780   16.03430   62.36620   52.50220   52.50220   13.67190   13.67190   62.36620  129.60180 -169.11400 -143.63680  129.60180
 7200.00000    8.79030    8.79030    5.23430    3.11730  320.78780   49.17130   49.17130    9.49520    9.49520  320.78780  222.88850 -116.83290  -91.52850  222.88850
 7250.00000    8.92780    8.92780    9.07880   10.30640   97.02670   50.48560   50.48560    9.55780    9.55780   97.02670   97.41350 -147.19460 -122.06300   97.41350
 7300.00000    8.93370    8.93370    4.79890    2.31220  432.49300   49.16610   49.16610   10.87080   10.87080  432.49300  212.94000 -120.38370  -95.42490  212.94000
 7350.00000    8.71490    8.71490    6.00480    4.67360  213.96960   49.50910   49.50910   60.98920   60.98920  213.96960  166.36170 -141.38840 -116.60250  166.36170
 7400.00000    8.71160    8.71160   12.67270   11.98220   83.45740   50.09250   50.09250   13.64670   13.64670   83.45740  125.49110 -176.29030 -151.67720  125.49110
 7450.00000    8.41170    8.41170   28.72980   28.59350   34.97300   51.02460   51.02460   14.77710   14.77710   34.97300   98.30960 -195.45390 -171.01360   98.30960
 7500.00000    8.24060    8.24060   49.20500   48.79330   20.49460   54.03270   54.03270   15.69210   15.69210   20.49460   91.86780 -234.59740 -210.32990   91.86780
 7550.00000    8.31070    8.31070   43.15480   35.36580   28.27590   49.80070   49.80070   19.00080   19.00080   28.27590   46.00000 -173.08140 -148.98670   46.00000
 7600.00000    8.17030    8.17030   23.86920   22.30850   44.82590   57.19640   57.19640   34.16990   34.16990   44.82590   91.14430 -169.14820 -145.22630   91.14430
 7650.00000    8.56860    8.56860   13.09650   11.25210   88.87240   48.65770   48.65770   11.66510   11.66510   88.87240   92.69580 -181.22040 -157.47140   92.69580
 7700.00000    8.40210    8.40210  193.88340  177.57890    5.63130   57.80010   57.80010   53.14110   53.14110    5.63130   20.42950 -182.74940 -159.17320   20.42950
 7750.00000    8.50020    8.50020    9.35570    8.31610  120.24910   51.14470   51.14470   24.14490   24.14490  120.24910  118.14630 -119.22900  -95.82560  118.14630
 7800.00000    9.27430    9.27430   48.55150   47.11050   21.22670   57.89680   57.89680   48.67100   48.67100   21.22670   29.04610 -117.30920  -94.07860   29.04610
 7850.00000    8.57750    8.57750    5.67780    3.34550  298.91130   51.55950   51.55950   16.19210   16.19210  298.91130  261.70960 -131.06790 -108.01010  261.70960
 7900.00000    9.65320    9.65320   77.68730   79.55320   12.57020   58.50160   58.50160  126.36060  126.36060   12.57020   19.46630 -154.49430 -131.60940   19.46630
 7950.00000    9.99910    9.99910   73.36000   70.84410   14.11550   59.63350   59.63350  134.00240  134.00240   14.11550   17.00240 -142.07340 -119.36130   17.00240
 8000.00000   11.69810   11.69810  220.18330  210.44210    4.75190   80.95420   80.95420   76.28350   76.28350    4.75190    6.66140 -147.16940 -124.63010    6.66140
 8050.00000   12.35680   12.35680  177.80570  171.55310    5.82910   73.92090   73.92090   59.31360   59.31360    5.82910    7.18900 -141.34240 -118.97590    7.18900
 8100.00000   15.09020   15.09020  229.91180  216.22090    4.62490   77.68530   77.68530   62.46400   62.46400    4.62490    5.61750 -132.58240 -110.38870    5.61750
 8150.00000    -999.25    -999.25  171.47320  167.81900    5.95880    -999.25    -999.25    -999.25    -999.25    5.95880    7.48240 -135.46590 -113.44500    7.48240
 8200.00000    -999.25    -999.25  266.28680  237.48460    4.21080    -999.25    -999.25    -999.25    -999.25    4.21080    4.94520 -134.17960 -112.33160    4.94520
 8250.00000    -999.25    -999.25  274.61840  248.86770    4.01820    -999.25    -999.25    -999.25    -999.25    4.01820    4.88400 -145.77720 -124.10200    4.88400
 8300.00000    -999.25    -999.25  264.18560  242.25980    4.12780    -999.25    -999.25    -999.25    -999.25    4.12780    5.06620 -155.38230 -133.87990    5.06620
