~Version ---------------------------------------------------
VERS.      2.0 : CWLS log ASCII Standard -VERSION 2.0
WRAP.       NO : One line per depth step
CREA. 12/21/17 : LAS Creation Date
~Well ------------------------------------------------------
STRT.FT                       650.0 : START DEPTH
STOP.FT                     10100.0 : STOP DEPTH
STEP.FT                    50.00000 : STEP LENGTH
NULL.                       -999.25 : NULL VALUE
COMP.        CALIFORNIA STANDARD CO : COMPANY
WELL. CALSTAN B A KAYBOB 2-27-63-19 : WELL
FLD .                               : FIELD
LOC .                               : LOCATION
CTRY.                        CANADA : COUNTRY
SRVC.                       Unknown : SERVICE COMPANY
DATE.                   05-Jul-1959 : LOGDATE
PROV.                       Alberta : PROVINCE
UWI .              100022706319W500 : UNIQUE WELL ID
SLAT.WGS84                  54.4744 : SURFACE LATITUDE
SLON.WGS84                -116.7821 : SURFACE LONGITUDE
~Curve Information -----------------------------------------
DEPT  .FT    : Depth Curve
CALWS .IN    : CALIPER [MCALED]
CILDED.MMHO  : CONDUCTIVITY FROM IE RESISTIVITY LOG
CONDWS.MMHO  : CONDUCTIVITY [1000/DRESWS]
DRESWS.OHMM  : DEEP RESISTIVITY [ILDED]
GRED  .CU    : GAMMA RAY FROM CASED HOLE GAMMA RAY LOG
GRNED .CU    : GAMMA RAY FROM CASED HOLE NEUTRON GAMMA RAY LOG
GRWS  .GAPI  : GAMMA RAY [GRNED, IN PSEUDO API UNIT]
ILDED .OHMM  : INDUCTION LOG DEEP RESISTIVITY FROM IEL
MCALED.IN    : CALIPER MICROLOG
NEUTED.CU    : NEUTRON FROM CASED HOLE NEUTRON GAMMA RAY LOG
NEUTWS.CU    : NEUTRON [NEUTED]
SNED  .OHMM  : 16 INCH SHORT NORMAL RESISTIVITY FROM IEL
SPRED .MV    : SPONTANEOUS POTENTIAL FROM RESISTIVITY LOG
SPWS  .MV    : SPONTANEOUS POTENTIAL [BASELINE 0 MV] [SPRED]
SRESWS.OHMM  : SHALLOW RESISTIVITY [SNED]
~Params ----------------------------------------------------
PD  .                     GL : PERMANENT DATUM
LMF .                     KB : LOG MEASURED FROM
DAPD.FT                   11 : FEET ABOVE PERMANENT DATUM
DMF .                     KB : DRILLING MEASURED FROM
EKB .FT                 2611 : KELLY BUSHING
EGL .FT                 2600 : GROUND LEVEL
DATE.               07/05/59 : RUN DATE
RUN .                      1 : RUN NUMBER
DD  .FT                10111 : DEPTH DRILLER
DL  .FT                10113 : DEPTH LOGGER
BLI .FT                10108 : BOTTOM LOG INTERVAL
TLI .FT                  633 : TOP LOG INTERVAL
CBD .FT                636.6 : CASING BOTTOM DRILLER
CBL .FT                  633 : CASING BOTTOM LOGGER
BS  .IN                6.125 : BIT SIZE
BSD .FT                10111 : BIT SIZE AT DEPTH
DFT .       GEL OIL EMULSION : DRILLING FLUID TYPE
DFD .                   10.4 : DRILLING FLUID DENSITY
DFV .                    122 : DRILLING FLUID VISCOSITY
DFPH.                    9.5 : DRILLING FLUID PH
DFL .                      7 : DRILLING FLUID LOSS
RMS .OHMM               2.13 : RESISTIVITY MUD SAMPLE
MST .DEGF                 83 : MUD SAMPLE TEMPERATURE
RMF .OHMM               1.99 : RESISTIVITY MUD FILTRATE SAMPLE
MFST.DEGF                 73 : MUD FILTRATE SAMPLE TEMPERATURE
RMC .OHMM               2.87 : RESISTIVITY MUD CAKE
MCST.DEGF                 72 : MUD CAKE SAMPLE TEMPERATURE
TCS .HRS                 3.5 : TIME CIRCULATED STOPPED
LUN .                  1573C : LOGGING UNIT NUMBER
LUL .                     WC : LOGGING UNIT LOCATION
ENGI.              HAUSEGGER : RECORDING ENGINEER
WITN.                  SMITH : WITNESSED BY
CLNT.                A2DTECH : CLIENT CODE
ORIG.            2" 5" PRINT : ORIGIN OF DATA
UWI .       100022706319W500 : UNIQUE WELL ID
DICO. A2D Technologies, Inc. : DIGITIZING COMPANY
~Other -----------------------------------------------------
ALL CURVES FROM IEL ARE FROM THE LINEAR SCALE OF 5" LOG IMAGE
CU=COMPANY UNIT (NO UNIT FOR GR & GRN CURVES IN THE LOG)
~ASCII -----------------------------------------------------
  650.00000    -999.25  166.30400  166.43920    6.00820    -999.25    -999.25    -999.25    6.00820    -999.25    -999.25    -999.25    7.89250 -199.53420   -2.96260    7.89250
  700.00000    -999.25  120.26040  120.20680    8.31900    -999.25    -999.25    -999.25    8.31900    -999.25    -999.25    -999.25    9.36810 -203.45910   -7.18410    9.36810
  750.00000    -999.25  233.63780  233.81970    4.27680    -999.25    -999.25    -999.25    4.27680    -999.25    -999.25    -999.25    5.10970 -200.81380   -4.83550    5.10970
  800.00000    -999.25  198.52600  198.69260    5.03290    -999.25    -999.25    -999.25    5.03290    -999.25    -999.25    -999.25    5.59270 -200.10950   -4.42790    5.59270
  850.00000    -999.25  390.44220  390.68600    2.55960    -999.25    -999.25    -999.25    2.55960    -999.25    -999.25    -999.25    3.75350 -198.47290   -3.08800    3.75350
  900.00000    -999.25  211.75400  210.57060    4.74900    -999.25    -999.25    -999.25    4.74900    -999.25    -999.25    -999.25    6.60380 -198.18660   -3.09830    6.60380
  950.00000    -999.25  202.03130  204.21500    4.89680    -999.25    -999.25    -999.25    4.89680    -999.25    -999.25    -999.25    7.40060 -199.14980   -4.35820    7.40060
 1000.00000    -999.25  237.96610  231.32620    4.32290    -999.25    -999.25    -999.25    4.32290    -999.25    -999.25    -999.25    5.17470 -198.13020   -3.63530    5.17470
 1050.00000    -999.25  184.51750  184.48140    5.42060    -999.25    -999.25    -999.25    5.42060    -999.25    -999.25    -999.25    7.01590 -197.75700   -3.55870    7.01590
 1100.00000    -999.25  271.50580  267.42260    3.73940    -999.25    -999.25    -999.25    3.73940    -999.25    -999.25    -999.25    5.60680 -197.16580   -3.26420    5.60680
 1150.00000    -999.25  288.14140  308.45160    3.24200    -999.25    -999.25    -999.25    3.24200    -999.25    -999.25    -999.25    4.50570 -196.51540   -2.91050    4.50570
 1200.00000    -999.25  272.39810  276.89330    3.61150    -999.25    -999.25    -999.25    3.61150    -999.25    -999.25    -999.25    4.60460 -195.63360   -2.32540    4.60460
 1250.00000    -999.25  326.82220  327.04320    3.05770    -999.25    -999.25    -999.25    3.05770    -999.25    -999.25    -999.25    3.98460 -194.27920   -1.26760    3.98460
 1300.00000    -999.25  289.93350  290.45280    3.44290    -999.25    -999.25    -999.25    3.44290    -999.25    -999.25    -999.25    4.33580 -194.18740   -1.47250    4.33580
 1350.00000    -999.25  256.81260  257.40030    3.88500    -999.25    -999.25    -999.25    3.88500    -999.25    -999.25    -999.25    5.54950 -193.62370   -1.20550    5.54950
 1400.00000    -999.25  313.60240  313.83380    3.18640    -999.25    -999.25    -999.25    3.18640    -999.25    -999.25    -999.25    4.29170 -194.61700   -2.49540    4.29170
 1450.00000    -999.25  166.03560  160.72520    6.22180    -999.25    -999.25    -999.25    6.22180    -999.25    -999.25    -999.25    7.19680 -194.75770   -2.93280    7.19680
 1500.00000    -999.25  320.13660  320.03070    3.12470    -999.25    -999.25    -999.25    3.12470    -999.25    -999.25    -999.25    4.89740 -194.39590   -2.86770    4.89740
 1550.00000    -999.25  117.85970  118.54520    8.43560    -999.25    -999.25    -999.25    8.43560    -999.25    -999.25    -999.25    9.61210 -193.89220   -2.66070    9.61210
 1600.00000    -999.25  384.38850  384.67460    2.59960    -999.25    -999.25    -999.25    2.59960    -999.25    -999.25    -999.25    3.69480 -192.61860   -1.68370    3.69480
 1650.00000    -999.25  233.70380  233.68310    4.27930    -999.25    -999.25    -999.25    4.27930    -999.25    -999.25    -999.25    5.24610 -191.94770   -1.30950    5.24610
 1700.00000    -999.25   95.39130   95.73040   10.44600    -999.25    -999.25    -999.25   10.44600    -999.25    -999.25    -999.25   13.32660 -200.64100  -10.29950   13.32660
 1750.00000    -999.25  435.26220  469.06520    2.13190    -999.25    -999.25    -999.25    2.13190    -999.25    -999.25    -999.25    3.18570 -191.75130   -1.70640    3.18570
 1800.00000    -999.25  734.74210  814.59760    1.22760    -999.25    -999.25    -999.25    1.22760    -999.25    -999.25    -999.25    2.38340 -190.42430   -0.67610    2.38340
 1850.00000    -999.25  343.02580  342.84150    2.91680    -999.25    -999.25    -999.25    2.91680    -999.25    -999.25    -999.25    3.82190 -191.04370   -1.59220    3.82190
 1900.00000   12.81080  406.17530  406.30590    2.46120    -999.25    -999.25    -999.25    2.46120   12.81080    -999.25    -999.25    3.51050 -191.23940   -2.08460    3.51050
 1950.00000   12.27940  395.71180  395.63220    2.52760    -999.25    -999.25    -999.25    2.52760   12.27940    -999.25    -999.25    3.76730 -191.46620   -2.60800    3.76730
 2000.00000   11.68030  262.26110  254.28470    3.93260    -999.25    -999.25    -999.25    3.93260   11.68030    -999.25    -999.25    5.01890 -192.00360   -3.44210    5.01890
 2050.00000   11.54400  343.14560  342.33680    2.92110    -999.25    -999.25    -999.25    2.92110   11.54400    -999.25    -999.25    4.00080 -190.74620   -2.48140    4.00080
 2100.00000   10.38120  278.72040  278.52830    3.59030    -999.25    -999.25    -999.25    3.59030   10.38120    -999.25    -999.25    4.70920 -190.69580   -2.63870    4.70920
 2150.00000   11.29620  257.99300  258.21110    3.87280    -999.25    -999.25    -999.25    3.87280   11.29620    -999.25    -999.25    5.04860 -190.53940   -2.64820    5.04860
 2200.00000   11.07690  369.03790  368.13430    2.71640    -999.25    -999.25    -999.25    2.71640   11.07690    -999.25    -999.25    3.88740 -189.92540   -2.20010    3.88740
 2250.00000   11.97020  315.10930  315.51710    3.16940    -999.25    -999.25    -999.25    3.16940   11.97020    -999.25    -999.25    4.26750 -190.86920   -3.30980    4.26750
 2300.00000   10.98580  154.49610  148.27780    6.74410    -999.25    -999.25    -999.25    6.74410   10.98580    -999.25    -999.25    8.25480 -190.01040   -2.61690    8.25480
 2350.00000   11.33570  132.59240  121.30180    8.24390    -999.25    -999.25    -999.25    8.24390   11.33570    -999.25    -999.25    9.69000 -192.14270   -4.91510    9.69000
 2400.00000    9.28760  107.54820  105.07180    9.51730    -999.25    -999.25    -999.25    9.51730    9.28760    -999.25    -999.25   10.80210 -200.27350  -13.21180   10.80210
 2450.00000   11.06560  308.91000  308.93760    3.23690    -999.25    -999.25    -999.25    3.23690   11.06560    -999.25    -999.25    4.09010 -189.03640   -2.14060    4.09010
 2500.00000   10.93830  245.17580  245.00800    4.08150    -999.25    -999.25    -999.25    4.08150   10.93830    -999.25    -999.25    5.46820 -189.59670   -2.86680    5.46820
 2550.00000    9.18110  148.94790  145.53290    6.87130    -999.25    -999.25    -999.25    6.87130    9.18110    -999.25    -999.25    9.44040 -191.90760   -5.34360    9.44040
 2600.00000    9.29930  294.25560  282.95750    3.53410    -999.25    -999.25    -999.25    3.53410    9.29930    -999.25    -999.25    4.96410 -188.29730   -1.89920    4.96410
 2650.00000    8.14460   45.56970   36.12300   27.68320    -999.25    -999.25    -999.25   27.68320    8.14460    -999.25    -999.25   25.31730 -200.52650  -14.29430   25.31730
 2700.00000   11.07250  238.82560  238.82880    4.18710    -999.25    -999.25    -999.25    4.18710   11.07250    -999.25    -999.25    6.33470 -188.58360   -2.51740    6.33470
 2750.00000    9.95390  290.71780  290.41910    3.44330    -999.25    -999.25    -999.25    3.44330    9.95390    -999.25    -999.25    4.88070 -187.13260   -1.23230    4.88070
 2800.00000    7.91420   75.54680   75.49620   13.24570    -999.25    -999.25    -999.25   13.24570    7.91420    -999.25    -999.25   15.96820 -207.17570  -21.44130   15.96820
 2850.00000    -999.25  167.77100  167.79930    5.95950    -999.25    -999.25    -999.25    5.95950    -999.25    -999.25    -999.25    7.74060 -188.37360   -2.80510    7.74060
 2900.00000    -999.25  155.19350  158.46100    6.31070    -999.25    -999.25    -999.25    6.31070    -999.25    -999.25    -999.25    8.05630 -186.60550   -1.20290    8.05630
