~Version ---------------------------------------------------
VERS.      2.0 : CWLS log ASCII Standard -VERSION 2.0
WRAP.       NO : One line per depth step
CREA. 11/22/17 : LAS Creation Date
~Well ------------------------------------------------------
STRT.FT                              300.0 : START DEPTH
STOP.FT                            16950.0 : STOP DEPTH
STEP.FT                           50.00000 : STEP LENGTH
NULL.                              -999.25 : NULL VALUE
COMP.                        BANFF OIL LTD : COMPANY
WELL. BANFF AQUIT SIEBENS RAMR 14-21-37-11 : WELL
FLD .                                      : FIELD
LOC .                                      : LOCATION
CTRY.                               CANADA : COUNTRY
SRVC.                         Schlumberger : SERVICE COMPANY
DATE.                          21-Oct-1970 : LOGDATE
PROV.                              Alberta : PROVINCE
UWI .                     100142103711W500 : UNIQUE WELL ID
SLAT.WGS84                        52.19912 : SURFACE LATITUDE
SLON.WGS84                       -115.5164 : SURFACE LONGITUDE
~Curve Information -----------------------------------------
DEPT    .FT    : Depth Curve
CALDED  .IN    : CALIPER FROM DENSITY LOG [DEP. ADJ. TO ILMED]
CALNED  .IN    : CALIPER FROM NEUTRON LOG [DEP. ADJ. TO ILMED]
CALSED  .IN    : CALIPER FROM SONIC LOG [DEP. ADJ. TO ILMED]
CALWS   .IN    : CALIPER 148' CALSED 13012' CALNED 13190' CALDED 14980' CALSED 15315' CALDED 16246' CALSED]
CONDWS  .MMHO  : DEEP CONDUCTIVITY [1000/DRESWS]
DCORWS  .G/C3  : DENSITY CORRECTION [DRHOED]
DENWS   .G/C3  : BULK DENSITY [M=2.71, F=1.00] [RHOBED]
DPHILSED.V/V   : DENSITY POROSITY [M=2.71, F=1.00] FROM DENSITY LOG [DEP. ADJ. TO ILMED]
DPOLSWS .V/V   : DENSITY POROSITY [M=2.71, F=1.00] [CAL. FROM DENWS]
DRESWS  .OHMM  : DEEP RESISTIVITY [ILDED]
DRHOED  .G/C3  : DENSITY CORRECTION FROM DENSITY LOG [DEP. ADJ. TO ILMED]
DTED    .US/F  : DELTA TIME FROM SONIC LOG [DEP. ADJ. TO ILMED]
DTWS    .US/F  : DELTA TIME [DTED]
GRDED   .GAPI  : GAMMA RAY FROM DENSITY LOG [DEP. ADJ. TO ILMED]
GRNED   .GAPI  : GAMMA RAY FROM NEUTRON LOG [DEP. ADJ. TO ILMED]
GRSED   .GAPI  : GAMMA RAY FROM SONIC LOG [DEP. ADJ. TO ILMED]
GRWS    .GAPI  : GAMMA RAY [GRSED]
ILDED   .OHMM  : INDUCTION LOG DEEP RESISTIVITY
ILMED   .OHMM  : INDUCTION LOG MEDIUM RESISTIVITY
LL8ED   .OHMM  : 8 INCH LATEROLOG RESISTIVITY
MRESWS  .OHMM  : MEDIUM RESISTIVITY [ILMED]
NPOLSWS .V/V   : NEUTRON POROSITY LIMESTONE [SNPLSED]
RHOBED  .G/C3  : BULK DENSITY FROM DENSITY LOG [DEP. ADJ. TO ILMED]
SNPLSED .V/V   : SIDEWALL NEUTRON POROSITY [LIMESTONE] [DEP. ADJ. TO ILMED]
SPRED   .MV    : SPONTANEOUS POTENTIAL FROM RESIST. LOG [DIVIDED BY 2 BELOW 13778'], SHIFTS REMOVED, PATCHED]
SPWS    .MV    : SPONTANEOUS POTENTIAL [BASELINE 0 MV] [SPRED][PL. USE W/ RESERVATION]
SRESWS  .OHMM  : SHALLOW RESISTIVITY [LL8ED]
~Params ----------------------------------------------------
PD  .                     GL : PERMANENT DATUM
EPD .FT                 4914 : ELEVATION PERMANENT DATUM
LMF .                     KB : LOG MEASURED FROM
DAPD.FT                 18.7 : FEET ABOVE PERMANENT DATUM
EKB .FT               4932.7 : KELLY BUSHING
EGL .FT                 4914 : GROUND LEVEL
DATE.               10/21/70 : RUN DATE
RUN .                      4 : RUN NUMBER
DD  .FT                16960 : DEPTH DRILLER
DL  .FT                16960 : DEPTH LOGGER
BLI .FT                16954 : BOTTOM LOG INTERVAL
TLI .FT                16000 : TOP LOG INTERVAL
BS  .IN                8.375 : BIT SIZE
BSD .FT                16960 : BIT SIZE AT DEPTH
DFT .                    GEL : DRILLING FLUID TYPE
DFD .                   10.1 : DRILLING FLUID DENSITY
DFV .                     61 : DRILLING FLUID VISCOSITY
DFPH.                     10 : DRILLING FLUID PH
DFL .                    8.4 : DRILLING FLUID LOSS
MSS .               FLOWLINE : MUD SAMPLE SOURCE
RMS .OHMM               1.51 : RESISTIVITY MUD SAMPLE
MST .DEGF                 66 : MUD SAMPLE TEMPERATURE
RMF .OHMM               1.11 : RESISTIVITY MUD FILTRATE SAMPLE
MFST.DEGF                 70 : MUD FILTRATE SAMPLE TEMPERATURE
TCS .HRS                   4 : TIME CIRCULATED STOPPED
LUN .                   7002 : LOGGING UNIT NUMBER
LUL .                     RD : LOGGING UNIT LOCATION
ENGI.                 TALBOT : RECORDING ENGINEER
WITN.          LEMEE BRINKER : WITNESSED BY
CLNT.                A2DTECH : CLIENT CODE
ORIG.            2" 5" PRINT : ORIGIN OF DATA
UWI .       100142103711W500 : UNIQUE WELL ID
DICO. A2D Technologies, Inc. : DIGITIZING COMPANY
~Other -----------------------------------------------------
~ASCII -----------------------------------------------------
# ...
 14600.00000    8.85750    8.66750    8.49260    8.85750    4.79790    0.06740    2.90620   -0.11480   -0.11470  208.42320    0.06740   63.38720   63.38720   10.33840   11.75120    9.81710    9.81710  208.42320  440.82100  391.27560  440.82100    0.00350    2.90620    0.00350   15.34400  -19.07680  391.27560
 14650.00000   11.41020   11.34300    8.60520   11.41020    1.92180    0.19390    2.66600    0.01890    0.02570  520.35160    0.19390   53.40100   53.40100    8.51100    9.43200    9.85170    9.85170  520.35160 1287.65250  996.28700 1287.65250    0.05210    2.66600    0.05210   -5.06690  -30.99130  996.28700
 14700.00000    9.13670    8.98490    8.31970    9.13670    2.07250    0.09400    2.81510   -0.07660   -0.06150  482.50250    0.09400   53.88230   53.88230   16.82270   19.22430   18.95280   18.95280  482.50250  211.30260 1105.39770  211.30260    0.02140    2.81510    0.02140   -1.10640  -18.53410 1105.39770
 14750.00000   11.88750   12.41180    8.18670   11.88750    0.75990    0.25890    2.56460    0.09620    0.08500 1315.95850    0.25890   53.58180   53.58180   12.53710   13.83450   14.60190   14.60190 1315.95850  261.18460  903.40660  261.18460    0.10240    2.56460    0.10240  -31.76160  -40.69270  903.40660
 14800.00000    8.81910    8.70620    7.67150    8.81910    2.72280    0.08270    2.73570   -0.01820   -0.01500  367.26760    0.08270   53.37880   53.37880    6.90000    8.57880    9.74930    9.74930  367.26760 1694.95030  945.38270 1694.95030    0.06010    2.73570    0.06010  -41.07740  -41.51200  945.38270
 14850.00000    8.19230    7.96230    7.46280    8.19230    5.15980    0.07620    2.78950   -0.05650   -0.04650  193.80710    0.07620   52.81250   52.81250    8.92120    8.30840   10.99310   10.99310  193.80710 1086.90530  326.14920 1086.90530    0.07850    2.78950    0.07850  -43.62380  -35.56170  326.14920
 14900.00000    8.16770    7.92480    7.50220    8.16770    9.11110    0.15240    2.75850   -0.03080   -0.02840  109.75640    0.15240   54.11690   54.11690   11.36600   11.93750   14.07280   14.07280  109.75640 1656.07760  726.58650 1656.07760    0.10070    2.75850    0.10070  -54.64860  -38.09000  726.58650
 14950.00000    8.32190    8.09200    7.66040    8.32190   28.73350    0.12350    2.69410    0.00300    0.00930   34.80260    0.12350   59.14580   59.14580    7.60330    5.33710    9.83320    9.83320   34.80260   66.02470  151.35360   66.02470    0.13110    2.69410    0.13110  -85.81790  -60.76270  151.35360
 15000.00000    -999.25    -999.25    8.80510    8.80510    6.60140    0.12820    2.55330    0.10000    0.09160  151.48190    0.12820   55.08030   55.08030    9.22800   10.63160   10.80340   10.80340  151.48190  111.11170  138.46640  111.11170    0.09470    2.55330    0.09470 -112.52320  -84.44140  138.46640
 15050.00000    -999.25    -999.25    8.31740    8.31740    1.46730    0.15980    2.60120    0.06560    0.06360  681.54370    0.15980   52.78810   52.78810   17.61760   20.67340   21.50700   21.50700  681.54370   64.16860  142.72680   64.16860    0.05460    2.60120    0.05460 -128.01240  -99.72180  142.72680
 15100.00000    9.98110    9.40650    8.20340    8.20340    0.56940    0.05730    2.89000   -0.10610   -0.10530 1756.21090    0.05730   51.28760   51.28760    9.92240    8.01600   11.07790   11.07790 1756.21090 1428.15670 1511.23580 1428.15670    0.02480    2.89000    0.02480    -999.25    -999.25 1511.23580
 15150.00000   10.78140   10.88910    8.51310    8.51310   15.77210    0.21650    2.66610    0.05280    0.02570   63.40290    0.21650   51.42320   51.42320    8.83670   13.71140   16.42170   16.42170   63.40290   29.57930  523.25050   29.57930    0.03290    2.66610    0.03290    -999.25    -999.25  523.25050
 15200.00000   10.87930   10.23580    8.81990    8.81990    0.54590    0.26170    2.69220    0.00170    0.01040 1831.82670    0.26170   56.67130   56.67130   29.68320   33.62960   31.47770   31.47770 1831.82670 1364.68350  660.89000 1364.68350    0.03280    2.69220    0.03280    -999.25    -999.25  660.89000
 15250.00000    -999.25    -999.25    9.01100    9.01100    0.65020    0.23920    2.41010    0.17450    0.17540 1537.92090    0.23920   59.97960   59.97960   30.38430   38.58680   36.54440   36.54440 1537.92090 1206.60300  208.52890 1206.60300    0.07270    2.41010    0.07270 -183.28630 -154.16060  208.52890
 15300.00000    -999.25    -999.25   14.98970   14.98970   17.75740   -0.04480    1.40510    -999.25    0.76310   56.31460   -0.04480   64.32730   64.32730   14.18750   15.32340   17.01290   17.01290   56.31460    2.32650    1.89390    2.32650    0.30040    1.40510    0.30040 -155.54620 -126.21170    1.89390
 15350.00000   10.65390   10.56860    8.34440   10.65390    0.52300    0.16100    2.70090    0.00100    0.00530 1911.95620    0.16100   52.56190   52.56190    8.90970    8.57620    9.55700    9.55700 1911.95620  386.15740  322.22110  386.15740    0.05870    2.70090    0.05870 -151.45800 -121.91480  322.22110
 15400.00000   10.07070    9.41440    8.23330   10.07070    3.96990    0.20360    2.79670   -0.05760   -0.05070  251.89420    0.20360   53.24840   53.24840    6.20810    7.39820    7.86260    7.86260  251.89420  275.28460  419.49440  275.28460    0.05420    2.79670    0.05420  -72.74470  -47.97300  419.49440
 15450.00000    9.76300    9.19600    8.25360    9.76300    8.70150    0.03030    2.86290   -0.08660   -0.08940  114.92240    0.03030   49.44870   49.44870    5.56660    7.78560    9.49770    9.49770  114.92240  719.32830  354.68270  719.32830    0.03160    2.86290    0.03160  -76.93430  -60.48960  354.68270
 15500.00000    9.02640    9.15770    8.68680    9.02640   54.02250    0.16110    2.64790    0.02370    0.03630   18.51080    0.16110   56.51440   56.51440    7.75430    7.20860   12.01730   12.01730   18.51080   25.16310  101.88060   25.16310    0.10110    2.64790    0.10110 -149.22510 -141.74810  101.88060
 15550.00000    9.26930    9.05830    9.21510    9.26930   42.44180    0.07780    2.81350   -0.06310   -0.06050   23.56170    0.07780   53.03040   53.03040    7.97190    9.31920    8.35800    8.35800   23.56170   34.97420  114.60780   34.97420    0.05670    2.81350    0.05670    -999.25    -999.25  114.60780
 15600.00000   11.76620   12.06620    9.67390   11.76620   28.53500    0.25770    2.70750   -0.00190    0.00150   35.04470    0.25770   60.42390   60.42390   51.22180   68.10380   66.85940   66.85940   35.04470   30.25330   47.08160   30.25330    0.08040    2.70750    0.08040    -999.25    -999.25   47.08160
 15650.00000    9.00780    8.78690    9.47690    9.00780    5.35890    0.07620    2.82360   -0.07090   -0.06640  186.60710    0.07620   55.24440   55.24440   31.87980   39.59900   40.52910   40.52910  186.60710  486.61020  281.10560  486.61020    0.00930    2.82360    0.00930    -999.25    -999.25  281.10560
 15700.00000   11.87150   11.85200    9.88690   11.87150   41.35910    0.24250    2.69330    0.00910    0.00980   24.17850    0.24250   65.04390   65.04390   69.50660   75.05400   72.91840   72.91840   24.17850   22.03770   29.88320   22.03770    0.08960    2.69330    0.08960    -999.25    -999.25   29.88320
 15750.00000    9.16320    9.33510    9.93510    9.16320   26.36150    0.04760    2.77940   -0.03910   -0.04060   37.93410    0.04760   60.43670   60.43670   54.49340   64.85950   67.35350   67.35350   37.93410   45.54070   53.99760   45.54070    0.03870    2.77940    0.03870    -999.25    -999.25   53.99760
 15800.00000    8.71240    9.13290    9.52590    8.71240   21.39880    0.04730    2.72830   -0.02720   -0.01070   46.73150    0.04730   59.27840   59.27840   51.49160   52.94210   56.63460   56.63460   46.73150   62.70240   65.67410   62.70240    0.02960    2.72830    0.02960  -72.24080 -118.56940   65.67410
 15850.00000   12.39330   12.49820    9.20130   12.39330   67.75570    0.22840    2.54220    0.09950    0.09810   14.75890    0.22840   69.00600   69.00600   79.80960   93.87450   95.76890   95.76890   14.75890   15.88390   19.85910   15.88390    0.14950    2.54220    0.14950   -3.79870  -59.09490   19.85910
