~Version ---------------------------------------------------
VERS.      2.0 : CWLS log ASCII Standard -VERSION 2.0
WRAP.       NO : One line per depth step
CREA. 10/06/17 : LAS Creation Date
~Well ------------------------------------------------------
STRT.FT                        650.0 : START DEPTH
STOP.FT                       4450.0 : STOP DEPTH
STEP.FT                     50.00000 : STEP LENGTH
NULL.                        -999.25 : NULL VALUE
COMP. NORTHWESTERN UTILITIES LIMITED : COMPANY
WELL.        NUL KINSELLA 7-23-48-11 : WELL
FLD .                                : FIELD
LOC .                                : LOCATION
CTRY.                         CANADA : COUNTRY
SRVC.                        Unknown : SERVICE COMPANY
DATE.                    19-Dec-1971 : LOGDATE
PROV.                        Alberta : PROVINCE
UWI .               100072304811W400 : UNIQUE WELL ID
SLAT.WGS84                  53.15128 : SURFACE LATITUDE
SLON.WGS84                 -111.4989 : SURFACE LONGITUDE
~Curve Information -----------------------------------------
DEPT  .FT    : Depth Curve
CALSED.IN    : CALIPER FROM SONIC LOG [ADJ. TO RESISTIVITY LOG]
CALWS .IN    : CALIPER [CALSED]
CILDED.MMHO  : CONDUCTIVITY FROM RESISTIVITY LOG
CONDWS.MMHO  : CONDUCTIVITY [1000/DRESWS]
DRESWS.OHMM  : DEEP RESISTIVITY [1000/CILDED, IF ILDED<2, ILDED]
DTED  .US/F  : DELTA TIME FROM SONIC LOG [ADJ. TO RESISTIVITY LOG]
DTWS  .US/F  : COMPRESSIONAL  SONIC [DTED]
GRSED .GAPI  : GAMMA RAY FROM SONIC LOG [ADJ. TO RESISTIVITY LOG]
GRWS  .GAPI  : GAMMA RAY [GRSED]
ILDED .OHMM  : DEEP INDUCTION FROM RESISTIVITY LOG
SNED  .OHMM  : 16 INCH SHORT NORMAL RESISTIVITY FROM RESISTIVITY LOG
SPRED .MV    : SPONTANEOUS POTENTIAL FROM RESISTIVITY LOG
SPWS  .MV    : SPONTANEOUS POTENTIAL [BASELINE 0 MV, SPRED]
SRESWS.OHMM  : SHALLOW RESISTIVITY [SNED]
~Params ----------------------------------------------------
PD  .                     GL : PERMANENT DATUM
EPD .FT                 2318 : ELEVATION PERMANENT DATUM
LMF .                     KB : LOG MEASURED FROM
DAPD.FT                   12 : FEET ABOVE PERMANENT DATUM
DMF .                     KB : DRILLING MEASURED FROM
EKB .FT                 2330 : KELLY BUSHING
EGL .FT                 2318 : GROUND LEVEL
DATE.               12/19/71 : RUN DATE
RUN .                      2 : RUN NUMBER
DD  .FT                 4463 : DEPTH DRILLER
DL  .FT                 4464 : DEPTH LOGGER
BLI .FT                 4463 : BOTTOM LOG INTERVAL
TLI .FT                 2669 : TOP LOG INTERVAL
CBD .FT                  625 : CASING BOTTOM DRILLER
CBL .FT                  625 : CASING BOTTOM LOGGER
BS  .IN                 8.75 : BIT SIZE
BSD .FT                 4463 : BIT SIZE AT DEPTH
DFT .               GEL CHEM : DRILLING FLUID TYPE
DFD .                    9.6 : DRILLING FLUID DENSITY
DFV .                     60 : DRILLING FLUID VISCOSITY
DFL .                     12 : DRILLING FLUID LOSS
RMS .OHMM               0.51 : RESISTIVITY MUD SAMPLE
MST .DEGF                 85 : MUD SAMPLE TEMPERATURE
RMF .OHMM               0.71 : RESISTIVITY MUD FILTRATE SAMPLE
MFST.DEGF                 82 : MUD FILTRATE SAMPLE TEMPERATURE
RMB .OHMM               0.38 : RESISTIVITY MUD AT BHT
TCS .HRS                   2 : TIME CIRCULATED STOPPED
LUN .                7502 RD : LOGGING UNIT NUMBER
ENGI.                   CHUK : RECORDING ENGINEER
WITN.                LOWTHES : WITNESSED BY
CLNT.                A2DTECH : CLIENT CODE
ORIG.            2" 5" PRINT : ORIGIN OF DATA
UWI .       100072304811W400 : UNIQUE WELL ID
DICO. A2D Technologies, Inc. : DIGITIZING COMPANY
~Other -----------------------------------------------------
IEL-BCS LOG RAN
~ASCII -----------------------------------------------------
  650.00000    9.00920    9.00920  105.73460   99.04910   10.09600  136.80980  136.80980   41.22480   41.22480   10.09600   12.76730  -17.85890   -2.63030   12.76730
  700.00000    9.77170    9.77170  319.54290  314.75240    3.17710  145.57730  145.57730   63.31430   63.31430    3.17710    3.88360  -22.45440   -4.95750    3.88360
  750.00000    9.70560    9.70560  231.81490  223.51860    4.47390  138.01230  138.01230   60.22920   60.22920    4.47390    5.29940  -23.07100   -5.03170    5.29940
  800.00000    9.50790    9.50790  254.99770  248.12660    4.03020  135.97840  135.97840   63.91520   63.91520    4.03020    4.69540  -24.61850   -6.66900    4.69540
  850.00000   10.13620   10.13620  202.45380  197.55040    5.06200  128.88850  128.88850   62.98440   62.98440    5.06200    5.54630  -24.40290   -6.54380    5.54630
  900.00000    9.36980    9.36980  268.18590  264.28460    3.78380  135.81500  135.81500   63.65300   63.65300    3.78380    4.44630  -23.47340   -5.70400    4.44630
  950.00000   10.14570   10.14570  228.83270  222.41990    4.49600  131.91140  131.91140   75.25290   75.25290    4.49600    5.22890  -24.53680   -6.85780    5.22890
 1000.00000   10.39080   10.39080  228.54630  222.21730    4.50010  127.73050  127.73050   72.46720   72.46720    4.50010    5.34420  -24.32090   -6.73160    5.34420
 1050.00000    9.20860    9.20860  262.88560  260.62030    3.83700  131.88740  131.88740  104.39860  104.39860    3.83700    4.77570  -24.18190   -6.68240    4.77570
 1100.00000    9.48340    9.48340  166.98380  161.66060    6.18580  117.99440  117.99440   93.16810   93.16810    6.18580    7.28570  -27.85070  -10.44160    7.28570
 1150.00000    9.30730    9.30730  178.28170  172.95650    5.78180  115.81580  115.81580   81.60980   81.60980    5.78180    6.87030  -26.90030   -9.58090    6.87030
 1200.00000    9.02990    9.02990  180.04690  175.47250    5.69890  121.30960  121.30960   91.42060   91.42060    5.69890    6.75110  -27.84210  -10.61310    6.75110
 1250.00000    9.26570    9.26570  190.71500  186.83910    5.35220  125.58380  125.58380   98.91070   98.91070    5.35220    6.48350  -27.16130  -10.02200    6.48350
 1300.00000    9.49190    9.49190  236.26350  230.08080    4.34630  129.02080  129.02080   98.00050   98.00050    4.34630    5.68310  -29.74080  -12.69130    5.68310
 1350.00000    9.59560    9.59560  190.23360  185.50810    5.39060  121.83420  121.83420  132.45990  132.45990    5.39060    7.46660  -28.00590  -11.04670    7.46660
 1400.00000    9.69160    9.69160  159.08760  153.23320    6.52600  136.69660  136.69660  108.10670  108.10670    6.52600    8.51710  -28.27450  -11.40510    8.51710
 1450.00000    9.48280    9.48280  180.70290  175.07620    5.71180  121.87110  121.87110  114.94720  114.94720    5.71180    7.20840  -26.54820   -9.76920    7.20840
 1500.00000    9.75320    9.75320  197.15430  193.88860    5.15760  129.87310  129.87310  133.43670  133.43670    5.15760    7.16840  -28.78050  -12.09120    7.16840
 1550.00000    9.68010    9.68010  153.34520  151.41420    6.60440  116.69370  116.69370  102.33330  102.33330    6.60440    8.24700  -32.67820  -16.07870    8.24700
 1600.00000    9.82140    9.82140  175.10080  169.32220    5.90590  120.06050  120.06050   92.15360   92.15360    5.90590    7.35900  -33.30910  -16.79990    7.35900
 1650.00000    9.93760    9.93760  154.58260  150.45290    6.64660  114.90060  114.90060   90.27670   90.27670    6.64660    8.50060  -31.30900  -14.88960    8.50060
 1700.00000    9.51300    9.51300  192.80240  189.72450    5.27080  117.28180  117.28180  107.78830  107.78830    5.27080    6.57800  -32.26010  -15.93110    6.57800
 1750.00000    9.73700    9.73700  229.89560  227.68150    4.39210  122.75700  122.75700   92.83960   92.83960    4.39210    5.96310  -21.90270   -5.66340    5.96310
 1800.00000    8.62520    8.62520  177.10400  172.99840    5.78040  112.55210  112.55210   92.56770   92.56770    5.78040    8.10700  -26.82990  -10.78790    8.10700
 1850.00000    9.42830    9.42830  177.47780  172.12590    5.80970  116.72490  116.72490  106.92140  106.92140    5.80970    8.24520  -28.90340  -13.20870    8.24520
 1900.00000    9.82180    9.82180  333.40800  326.82940    3.05970  123.34920  123.34920  119.07950  119.07950    3.05970    4.04300  -20.22270   -4.87310    4.04300
 1950.00000    9.63340    9.63340  361.77270  359.51820    2.78150  121.53430  121.53430   90.07630   90.07630    2.78150    3.49570  -18.90090   -3.89860    3.49570
 2000.00000    9.46050    9.46050  329.17240  325.79660    3.06940  102.09270  102.09270   69.61280   69.61280    3.06940    3.87710  -20.02940   -5.37220    3.87710
 2050.00000    9.95800    9.95800  408.32480  403.92620    2.47570  119.91050  119.91050  101.01660  101.01660    2.47570    3.25630  -19.60220   -5.29010    3.25630
 2100.00000    9.13650    9.13650  279.67000  277.13880    3.60830  112.79200  112.79200   91.07840   91.07840    3.60830    4.76470  -18.82370   -4.85890    4.76470
 2150.00000    9.96200    9.96200  290.60110  283.97800    3.52140  108.98200  108.98200   85.54980   85.54980    3.52140    4.44770  -21.75380   -8.13410    4.44770
 2200.00000   10.21710   10.21710  598.11040  598.11040    1.67190  128.47960  128.47960  112.84850  112.84850    1.75290    2.07440  -16.11060   -2.53950    2.07440
 2250.00000   10.27920   10.27920  423.34560  414.80010    2.41080  117.92640  117.92640  113.48430  113.48430    2.41080    3.04880  -19.92210   -4.02550    3.04880
 2300.00000    9.31980    9.31980  414.84880  406.15730    2.46210  103.15100  103.15100   91.74250   91.74250    2.46210    3.93740  -31.83800  -15.13660    3.93740
 2350.00000    9.07760    9.07760  214.25740  211.28690    4.73290  119.09050  119.09050   92.22490   92.22490    4.73290    6.95370  -24.87130   -7.57840    6.95370
 2400.00000    9.23830    9.23830  251.76830  250.07500    3.99880  104.42470  104.42470  107.20900  107.20900    3.99880    5.74470  -28.86140  -10.98080    5.74470
 2450.00000    9.16360    9.16360  242.69950  242.61830    4.12170   93.74330   93.74330  112.69700  112.69700    4.12170    5.31500  -30.80460  -12.85040    5.31500
 2500.00000    8.89710    8.89710  382.44060  374.71430    2.66870   92.11470   92.11470   71.79090   71.79090    2.66870    8.36920  -67.22680  -49.51340    8.36920
 2550.00000    9.02880    9.02880  654.14830  654.14830    1.52870   98.96780   98.96780   94.73950   94.73950    1.55170    3.85290  -68.48400  -51.01150    3.85290
 2600.00000    9.86740    9.86740  278.17560  273.45570    3.65690   95.72160   95.72160  112.30650  112.30650    3.65690    5.09530  -25.21220   -7.98220    5.09530
 2650.00000    9.69080    9.69080  171.27330  170.39840    5.86860   82.85070   82.85070   61.08460   61.08460    5.86860    8.89190  -26.76850   -9.62250    8.89190
 2700.00000    9.93850    9.93850  239.91420  243.42750    4.10800  100.47810  100.47810   72.11500   72.11500    4.10800    5.39310  -27.29790  -10.15190    5.39310
 2750.00000    9.04550    9.04550  190.64610  194.55250    5.14000   82.70580   82.70580   78.59970   78.59970    5.14000    7.38840  -24.65750   -7.51150    7.38840
 2800.00000   10.32250   10.32250  198.48870  207.28400    4.82430   89.32780   89.32780   71.94600   71.94600    4.82430    6.48690  -24.46260   -7.31660    6.48690
 2850.00000    9.59770    9.59770  258.99170  275.41380    3.63090   91.69570   91.69570   84.91500   84.91500    3.63090    5.38240  -25.81570   -8.66970    5.38240
 2900.00000   10.53470   10.53470  279.85620  297.39780    3.36250   98.22580   98.22580   90.45320   90.45320    3.36250    5.12010  -21.82390   -4.67780    5.12010
 2950.00000    9.93870    9.93870  259.42330  272.36820    3.67150   98.18260   98.18260   85.86030   85.86030    3.67150    5.65870  -19.97760   -3.29010    5.65870
 3000.00000    8.74770    8.74770   75.88590   69.99810   14.28610   61.70010   61.70010   24.56520   24.56520   14.28610   19.60630  -28.97260  -15.45310   19.60630
 3050.00000   10.16600   10.16600  152.32410  151.46470    6.60220   79.51600   79.51600   60.83210   60.83210    6.60220    9.26110  -17.98230   -7.63090    9.26110
