~Version ---------------------------------------------------
VERS.      2.0 : CWLS log ASCII Standard -VERSION 2.0
WRAP.       NO : One line per depth step
CREA. 08/31/17 : LAS Creation Date
~Well ------------------------------------------------------
STRT.FT                            1500.0 : START DEPTH
STOP.FT                           12250.0 : STOP DEPTH
STEP.FT                          50.00000 : STEP LENGTH
NULL.                             -999.25 : NULL VALUE
COMP.            CHEVRON STANDARD LIMITED : COMPANY
WELL. CHEVRON NORCEN PL BRAZEAU 7-4-49-12 : WELL
FLD .                                     : FIELD
LOC .                                     : LOCATION
CTRY.                              CANADA : COUNTRY
SRVC.                        Schlumberger : SERVICE COMPANY
DATE.                         05-Jun-1978 : LOGDATE
PROV.                             Alberta : PROVINCE
UWI .                    100070404912W500 : UNIQUE WELL ID
SLAT.WGS84                       53.19691 : SURFACE LATITUDE
SLON.WGS84                      -115.6898 : SURFACE LONGITUDE
~Curve Information -----------------------------------------
DEPT    .FT    : Depth Curve
CALDED  .IN    : CALIPER FROM CNFD LOG
CALSED  .IN    : CALIPER FROM SONIC LOG [ADJ.TO GRDED]
CALWS   .IN    : CALIPER [CALSED]
CONDWS  .MMHO  : CONDUCTIVITY [1000/DRESWS]
DCORED  .G/C3  : DENSITY CORRECTION FROM CNFD LOG
DCORWS  .G/C3  : DENSITY CORRECTION [DCORED]
DENWS   .G/C3  : FORMATION BULK DENSITY [CALCULATED FROM DPOLSWS, M=2.71, F=1.00]
DPHILSED.V/V   : DENSITY POROSITY LIMESTONE [M=2.71, F=1.0] FROM CNFD LOG [ADJ.TO RHOBED]
DPHISSED.V/V   : DENSITY POROSITY SANDSTONE [M=2.65, F=1.0] FROM CNFD LOG [ADJ.TO RHOBED]
DPOLSWS .V/V   : DENSITY POROSITY LIMESTONE [DPHISSED CONVERTED TO LIMESTONE MATRIX,M=2.71, F=1.0, SPL.TO DPHILSED @ 2605.3']
DRESWS  .OHMM  : DEEP RESISTIVITY [ILDED]
DTED    .US/F  : DELTA-T FROM BCS LOG [ADJ.TO GRDED]
DTWS    .US/F  : COMPRESSIONAL SONIC [DTED]
GRDED   .GAPI  : GAMMA RAY FROM CNFD LOG
GRSED   .GAPI  : GAMMA RAY FROM BCS LOG [ADJ.TO GRDED]
GRWS    .GAPI  : GAMMA RAY [GRSED]
ILDED   .OHMM  : DEEP INDUCTION FROM DIL-LAT LOG
ILMED   .OHMM  : MEDIUM INDUCTION FROM DIL-LAT LOG
LL8ED   .OHMM  : LATEROLOG-8 FROM DIL-LAT LOG
MRESWS  .OHMM  : MEDIUM RESISTIVITY [ILMED]
NPHILSED.V/V   : NEUTRON POROSITY LIMESTONE FROM CNFD LOG [ADJ.TO RHOBED]
NPHISSED.V/V   : NEUTRON POROSITY SANDSTONE FROM CNFD LOG [ADJ.TO RHOBED]
NPOLSWS .V/V   : NEUTRON POROSITY LIMESTONE [NPHISSED CONVERTED TO LIMESTONE MATRIX & SPL. TO NPHILSED @ 2605']
RHOBED  .G/C3  : FORMATION BULK DENSITY FROM CNFD LOG
SPRED   .MV    : SPONTANEOUS POTENTIAL FROM DIL-LAT LOG
SPWS    .MV    : SPONTANEOUS POTENTIAL [BASELINE 0 MV,SPRED]
SRESWS  .OHMM  : SHALLOW RESISTIVITY [LL8ED]
~Params ----------------------------------------------------
PD  .                     GL : PERMANENT DATUM
EPD .FT               3221.1 : ELEVATION PERMANENT DATUM
LMF .                     KB : LOG MEASURED FROM
DAPD.FT                 18.9 : FEET ABOVE PERMANENT DATUM
DMF .                     KB : DRILLING MEASURED FROM
EKB .FT                 3240 : KELLY BUSHING
EGL .FT               3221.1 : GROUND LEVEL
DATE.               06/05/78 : RUN DATE
RUN .                      1 : RUN NUMBER
DD  .FT                12300 : DEPTH DRILLER
DL  .FT                12303 : DEPTH LOGGER
BLI .FT                12297 : BOTTOM LOG INTERVAL
TLI .FT                 1518 : TOP LOG INTERVAL
CBD .FT                 1518 : CASING BOTTOM DRILLER
CBL .FT                 1518 : CASING BOTTOM LOGGER
BS  .IN                 8.75 : BIT SIZE
BSD .FT                12300 : BIT SIZE AT DEPTH
DFT .                    GEL : DRILLING FLUID TYPE
DFD .                     11 : DRILLING FLUID DENSITY
DFV .                     68 : DRILLING FLUID VISCOSITY
DFPH.                   10.5 : DRILLING FLUID PH
MSS .               FLOWLINE : MUD SAMPLE SOURCE
RMS .OHMM               3.34 : RESISTIVITY MUD SAMPLE
MST .DEGF                 68 : MUD SAMPLE TEMPERATURE
TCS .HRS                 350 : TIME CIRCULATED STOPPED
LUN .                   7802 : LOGGING UNIT NUMBER
LUL .                    EDM : LOGGING UNIT LOCATION
ENGI.            STEENBERGEN : RECORDING ENGINEER
WITN.             RICHARDSON : WITNESSED BY
CLNT.                A2DTECH : CLIENT CODE
ORIG.            2" 5" PRINT : ORIGIN OF DATA
UWI .       100070404912W500 : UNIQUE WELL ID
DICO. A2D Technologies, Inc. : DIGITIZING COMPANY
~Other -----------------------------------------------------
~ASCII -----------------------------------------------------
# ...
 9300.00000   12.32970    9.48880    9.48880    0.64920    0.03680    0.03680    2.56700    0.08360    -999.25    0.08360 1540.40260   49.77490   49.77490   18.18160   13.91260   13.91260 1540.40260  203.14770  390.30040  203.14770    0.01170    -999.25    0.01170    2.57190  -57.82240  -73.91610  390.30040
 9350.00000    9.85120    9.05230    9.05230    8.12740    0.07430    0.07430    2.93370   -0.13080    -999.25   -0.13080  123.04060   52.12900   52.12900   15.13770   12.66340   12.66340  123.04060  162.94240  658.62160  162.94240    0.02380    -999.25    0.02380    2.91510  -69.51570  -84.64390  658.62160
 9400.00000    8.89720    8.34030    8.34030  129.78920    0.05690    0.05690    2.67080    0.02290    -999.25    0.02290    7.70480   52.00730   52.00730   13.48820   17.94300   17.94300    7.70480   14.88190   68.73590   14.88190    0.10770    -999.25    0.10770    2.67530  -87.30400 -101.47300   68.73590
 9450.00000   10.01560    8.98920    8.98920   41.65710    0.10270    0.10270    2.58570    0.07270    -999.25    0.07270   24.01020   50.25610   50.25610   23.65760   27.21340   27.21340   24.01020   31.35360   76.51030   31.35360    0.03720    -999.25    0.03720    2.58760  -87.56680 -100.77030   76.51030
 9500.00000   10.42370    9.09860    9.09860    9.18880    0.09320    0.09320    2.70040    0.00560    -999.25    0.00560  108.82760   48.75240   48.75240   41.09490   44.50310   44.50310  108.82760  241.95960  262.03990  241.95960    0.00160    -999.25    0.00160    2.70150  -80.41970  -92.66390  262.03990
 9550.00000    9.79950    8.96140    8.96140   14.33490    0.01820    0.01820    2.73630   -0.01540    -999.25   -0.01540   69.76000   49.39390   49.39390   20.71800   20.19470   20.19470   69.76000  141.42510  349.65400  141.42510    0.01200    -999.25    0.01200    2.73220  -94.47210 -105.75710  349.65400
 9600.00000   12.88080   10.33940   10.33940    4.37170    0.06230    0.06230    2.58980    0.07030    -999.25    0.07030  228.74280   49.32370   49.32370   18.58730   20.57480   20.57480  228.74280   98.74570  194.75800   98.74570    0.01680    -999.25    0.01680    2.59230  -84.91410  -95.23360  194.75800
 9650.00000   12.61770    9.62770    9.62770    7.78130    0.08600    0.08600    2.70640    0.00210    -999.25    0.00210  128.51280   48.97000   48.97000   18.65290   22.49190   22.49190  128.51280  157.34870  319.74230  157.34870    0.00800    -999.25    0.00800    2.68090  -92.10760 -101.46790  319.74230
 9700.00000    9.27820    8.79240    8.79240   19.31070    0.05070    0.05070    2.76490   -0.03210    -999.25   -0.03210   51.79120   48.72030   48.72030   18.92050   18.14180   18.14180   51.79120   96.22460  222.76100   96.22460    0.05150    -999.25    0.05150    2.75100 -113.62070 -122.01540  222.76100
 9750.00000    9.98230    9.31030    9.31030    0.78370    0.00850    0.00850    2.94990   -0.14030    -999.25   -0.14030 1276.07920   48.65590   48.65590   12.40450   13.51350   13.51350 1276.07920 1774.48580 1481.36690 1774.48580   -0.00180    -999.25   -0.00180    2.94480  -75.13560  -82.57110 1481.36690
 9800.00000   10.99270    9.26660    9.26660   27.65440    0.12530    0.12530    2.67790    0.01880    -999.25    0.01880   36.16060   48.00950   48.00950   17.09240   24.17340   24.17340   36.16060  103.77350  225.53480  103.77350    0.04110    -999.25    0.04110    2.68890 -121.67880 -128.15510  225.53480
 9850.00000   10.87940    9.25750    9.25750    6.73530    0.17030    0.17030    2.77940   -0.04060    -999.25   -0.04060  148.47080   48.85610   48.85610   30.55080   32.77070   32.77070  148.47080  207.20640 1407.42830  207.20640    0.01550    -999.25    0.01550    2.76670  -74.81990  -80.33070 1407.42830
 9900.00000   10.74670    9.19250    9.19250    8.61650    0.09270    0.09270    2.74110   -0.01820    -999.25   -0.01820  116.05670   53.37240   53.37240   18.83410   21.81630   21.81630  116.05670  219.51850  295.73590  219.51850    0.06050    -999.25    0.06050    2.71750 -155.16990 -159.72140  295.73590
 9950.00000   13.14470    9.80210    9.80210    7.18230    0.11280    0.11280    2.60570    0.06100    -999.25    0.06100  139.23470   51.53410   51.53410   22.48260   21.96930   21.96930  139.23470  120.57840  244.29460  120.57840    0.05740    -999.25    0.05740    2.61390 -128.64740 -132.23340  244.29460
 10000.00000   12.43060    9.32900    9.32900    2.35050    0.11390    0.11390    2.56600    0.08420    -999.25    0.08420  425.45030   49.03040   49.03040   28.77180   26.11870   26.11870  425.45030  185.82870  192.68410  185.82870    0.03780    -999.25    0.03780    2.57460 -128.57380 -131.20060  192.68410
 10050.00000   11.97790    9.30580    9.30580   16.64270    0.19670    0.19670    2.69360    0.00960    -999.25    0.00960   60.08630   52.21590   52.21590   41.78050   39.73940   39.73940   60.08630   64.48760   94.84940   64.48760    0.04960    -999.25    0.04960    2.69250 -132.99810 -134.66570   94.84940
 10100.00000   10.61490    9.25090    9.25090   36.60880    0.10910    0.10910    2.65240    0.03370    -999.25    0.03370   27.31580   59.79430   59.79430   78.27790   83.71640   83.71640   27.31580   31.47480   44.94270   31.47480    0.09800    -999.25    0.09800    2.66210 -129.77160 -130.47360   44.94270
 10150.00000   10.35440    9.22900    9.22900   22.20130    0.00920    0.00920    2.71460   -0.00270    -999.25   -0.00270   45.04250   53.66070   53.66070   57.71700   60.12490   60.12490   45.04250   62.57110   76.21720   62.57110    0.04530    -999.25    0.04530    2.71400 -136.78000 -136.52280   76.21720
 10200.00000   10.20210    9.16100    9.16100   10.78880    0.00580    0.00580    2.72920   -0.01120    -999.25   -0.01120   92.74770   51.84870   51.84870   41.95360   38.86130   38.86130   92.74770  101.38090  172.66150  101.38090    0.02070    -999.25    0.02070    2.72620 -148.75630 -147.53360  172.66150
 10250.00000   11.07690    9.49910    9.49910   43.73020    0.09650    0.09650    2.70490    0.00300    -999.25    0.00300   22.86750   54.34760   54.34760   51.45200   56.11780   56.11780   22.86750   27.84520   62.17000   27.84520    0.03150    -999.25    0.03150    2.70130 -115.56100 -113.37910   62.17000
 10300.00000   11.97960    9.57580    9.57580   16.36360    0.07770    0.07770    2.71960   -0.00560    -999.25   -0.00560   61.11110   51.79820   51.79820   38.26480   40.64680   40.64680   61.11110   64.16620   67.12560   64.16620    0.00610    -999.25    0.00610    2.71760 -114.48510 -111.34390   67.12560
 10350.00000   11.50590    9.82700    9.82700   23.43760    0.04800    0.04800    2.78390   -0.04320    -999.25   -0.04320   42.66650   51.42110   51.42110   31.58330   40.56840   40.56840   42.66650   55.38390  123.77600   55.38390    0.00520    -999.25    0.00520    2.77280 -178.21840 -174.11170  123.77600
 10400.00000   13.73860   10.35580   10.35580  176.80960    0.13460    0.13460    2.52530    0.10800    -999.25    0.10800    5.65580   70.66600   70.66600    -999.25  100.41420  100.41420    5.65580    6.13410    7.37390    6.13410    0.19810    -999.25    0.19810    2.54370 -135.99730 -130.93140    7.37390
 10450.00000    -999.25   10.62690   10.62690  180.24900    -999.25    -999.25    -999.25    -999.25    -999.25    -999.25    5.54790   70.17610   70.17610    -999.25   82.68190   82.68190    5.54790    6.56610    7.89230    6.56610    -999.25    -999.25    -999.25    -999.25 -135.80320 -129.77170    7.89230
 10500.00000    -999.25   10.58500   10.58500  163.84310    -999.25    -999.25    -999.25    -999.25    -999.25    -999.25    6.10340   67.31860   67.31860    -999.25   78.36880   78.36880    6.10340    7.03710    8.77320    7.03710    -999.25    -999.25    -999.25    -999.25  -92.78370  -85.79300    8.77320
 10550.00000    -999.25   10.61620   10.61620  190.61780    -999.25    -999.25    -999.25    -999.25    -999.25    -999.25    5.24610   73.63370   73.63370    -999.25  101.64360  101.64360    5.24610    5.94680    7.30070    5.94680    -999.25    -999.25    -999.25    -999.25  -49.82410  -41.87420    7.30070
