~Version ---------------------------------------------------
VERS.      2.0 : CWLS log ASCII Standard -VERSION 2.0
WRAP.       NO : One line per depth step
CREA. 11/16/17 : LAS Creation Date
~Well ------------------------------------------------------
STRT.FT                          800.0 : START DEPTH
STOP.FT                        13150.0 : STOP DEPTH
STEP.FT                       50.00000 : STEP LENGTH
NULL.                          -999.25 : NULL VALUE
COMP. SOCONY MOBIL OIL OF CANADA, LTD. : COMPANY
WELL.     MOBIL CHEDDERVILLE 4-22-37-7 : WELL
FLD .                                  : FIELD
LOC .                                  : LOCATION
CTRY.                           CANADA : COUNTRY
SRVC.                     Schlumberger : SERVICE COMPANY
DATE.                      02-Jun-1964 : LOGDATE
PROV.                          Alberta : PROVINCE
UWI .                 100042203707W500 : UNIQUE WELL ID
SLAT.WGS84                    52.18951 : SURFACE LATITUDE
SLON.WGS84                   -114.9248 : SURFACE LONGITUDE
~Curve Information -----------------------------------------
DEPT  .FT    : Depth Curve
CALDED.IN    : CALIPER FROM FDL LOG [ADJ. TO RESISTIVITY LOG]
CALSED.IN    : CALIPER FROM SONIC LOG [ADJ. TO RESISTIVITY LOG]
CALWS .IN    : CALIPER [CALDED]
CILDED.MMHO  : CONDUCTIVITY FROM IEL LOG
CONDWS.MMHO  : CONDUCTIVITY [1000/DRESWS]
DRESWS.OHMM  : DEEP RESISTIVITY [1000/CILDED IF ILDED < 1, ILDED]
DT1ED .US/F  : DELTA TIME (1' SPACING) FROM SONIC LOG [ADJ. TO RESISTIVITY]
DTED  .US/F  : DELTA TIME (3' SPACING) FROM SONIC LOG [ADJ. TO RESISTIVITY]
DTWS  .US/F  : COMPRESSIONAL SONIC [DTED]
FDENED.CPS   : FORMATION DENSITY FROM FDL LOG [ADJ. TO RESISTIVITY]
GRDED .GAPI  : GAMMA RAY  FROM FDL LOG [ADJ. TO RESISTIVITY]
GRSED .GAPI  : GAMMA RAY FROM SONIC LOG [ADJ. TO RESISTIVITY]
GRWS  .GAPI  : GAMMA RAY [GRSED]
ILDED .OHMM  : INDUCTION DEEP RESISTIVITY FROM IEL LOG
SNED  .OHMM  : SHORT NORMAL RESISTIVITY FROM IEL LOG
SPRED .MV    : SPONTANEOUS POTENTIAL FROM IEL LOG
SPWS  .MV    : SPONTANEOUS POTENTIAL [BASELINE 0 MV, SPRED]
SRESWS.OHMM  : SHALLOW RESISTIVITY [SNED]
~Params ----------------------------------------------------
PD  .                     GL : PERMANENT DATUM
EPD .FT                 3420 : ELEVATION PERMANENT DATUM
LMF .                     KB : LOG MEASURED FROM
DAPD.FT                   15 : FEET ABOVE PERMANENT DATUM
EKB .FT                 3435 : KELLY BUSHING
EGL .FT                 3420 : GROUND LEVEL
DATE.               06/02/64 : RUN DATE
RUN .                      2 : RUN NUMBER
DD  .FT                13163 : DEPTH DRILLER
DL  .FT                13169 : DEPTH LOGGER
BLI .FT                13168 : BOTTOM LOG INTERVAL
TLI .FT                 9963 : TOP LOG INTERVAL
CBD .FT                 1290 : CASING BOTTOM DRILLER
CBL .FT                 1290 : CASING BOTTOM LOGGER
BS  .IN                    9 : BIT SIZE
BSD .FT                13163 : BIT SIZE AT DEPTH
DFT .              LIME BASE : DRILLING FLUID TYPE
DFD .                    9.2 : DRILLING FLUID DENSITY
DFV .                    165 : DRILLING FLUID VISCOSITY
DFPH.                     13 : DRILLING FLUID PH
DFL .                      5 : DRILLING FLUID LOSS
RMF .OHMM               0.44 : RESISTIVITY MUD FILTRATE SAMPLE
MFST.DEGF                 82 : MUD FILTRATE SAMPLE TEMPERATURE
RMC .OHMM               0.97 : RESISTIVITY MUD CAKE
MCST.DEGF                 80 : MUD CAKE SAMPLE TEMPERATURE
RMB .OHMM               0.29 : RESISTIVITY MUD AT BHT
TCS .HRS                   2 : TIME CIRCULATED STOPPED
LUN .                   1576 : LOGGING UNIT NUMBER
LUL .                     DV : LOGGING UNIT LOCATION
ENGI.               WILLIAMS : RECORDING ENGINEER
WITN.               LONGMORE : WITNESSED BY
CLNT.                A2DTECH : CLIENT CODE
ORIG.            2" 5" PRINT : ORIGIN OF DATA
UWI .       100042203707W500 : UNIQUE WELL ID
DICO. A2D Technologies, Inc. : DIGITIZING COMPANY
~Other -----------------------------------------------------
~ASCII -----------------------------------------------------
# ...
 8600.00000   10.01690   10.45590   10.45590   91.41480   91.85600   10.88660    -999.25   71.55540   71.55540  507.93260   71.88290   74.06090   74.06090   10.88660   14.00940  -57.75770   -6.17730   14.00940
 8650.00000   10.28000   10.44580   10.44580   78.07050   79.19220   12.62750    -999.25   70.52570   70.52570  489.82440   70.70980   68.07200   68.07200   12.62750   15.71900  -55.97420   -5.01500   15.71900
 8700.00000   12.26500   10.96490   10.96490  110.76200  106.75550    9.36720    -999.25   78.02140   78.02140 1998.05310   82.07330   79.47830   73.46580    9.36720   16.82020  -54.18690   -3.84890   16.82020
 8750.00000   10.52510   10.75410   10.75410  118.46410  119.35450    8.37840    -999.25   87.00150   87.00150 2002.75630   84.61530   84.16620   85.52400    8.37840   13.57400  -53.42370   -3.70690   13.57400
 8800.00000    9.80420   10.43850   10.43850   85.89030   82.86860   12.06730    -999.25   70.01320   70.01320  550.81010   72.20980   69.87190   69.87190   12.06730   14.94380  -50.84650   -1.75090   14.94380
 8850.00000   10.12620   11.37840   11.37840   78.94360   76.73480   13.03190    -999.25   72.34940   72.34940  657.69710   53.76850   54.74910   52.36420   13.03190   14.96740  -54.82140  -11.21330   14.96740
 8900.00000   12.78450   13.59380   13.59380   24.48210   23.16490   43.16880    -999.25  144.34670  144.34670 1998.96460   31.53830   31.45150   31.45150   43.16880   34.87300  -53.79760  -15.92380   34.87300
 8950.00000   10.72260   11.01890   11.01890  105.38290  101.90360    9.81320    -999.25   72.31680   72.31680 1412.54300   85.32330   86.52410   86.52410    9.81320   17.16320  -34.47720   -2.33780   17.16320
 9000.00000   10.30120    9.43870    9.43870   23.27500   22.90800   43.65290    -999.25   67.62720   67.62720  981.60080   48.48520   48.60790   48.60790   43.65290   54.57980  -42.82940  -15.45000   54.57980
 9050.00000   10.69050    9.73560    9.73560   35.52960   34.01280   29.40070    -999.25   62.00140   62.00140  906.85470   65.81960   66.68090   65.49580   29.40070   39.76290  -38.03740  -15.04480   39.76290
 9100.00000   11.25180    8.99240    8.99240   27.62940   28.94900   34.54350    -999.25   69.90180   69.90180 1519.39210   94.29140   93.18520   93.18520   34.54350   49.84220  -32.70680  -14.10090   49.84220
 9150.00000   10.58090    9.57240    9.57240   37.91660   36.26330   27.57610   69.37550   71.55560   71.55560  888.89320   81.28070   81.49510   81.49510   27.57610   39.08940  -24.26380   -8.09400   39.08940
 9200.00000   11.31300    9.80650    9.80650   35.33460   35.39050   28.25620   69.93560   70.60560   70.60560 1095.34900   72.39280   71.30340   71.30340   28.25620   35.69830  -49.14110  -31.41790   35.69830
 9250.00000   10.58960    9.35670    9.35670   23.25420   22.10770   45.23320   69.14900   70.46260   70.46260 1083.22080   64.58580   63.51050   63.51050   45.23320   48.00050  -42.31970  -23.04320   48.00050
 9300.00000   11.75700    9.40510    9.40510   54.37610   53.80190   18.58670   76.14030   74.75390   74.75390 1996.26440  100.21400  100.23170  100.23170   18.58670   29.09770  -26.01490   -5.18510   29.09770
 9350.00000   10.59090    9.28690    9.28690   23.80530   23.85510   41.91970   70.01020   69.60770   69.60770 1233.65860   30.45980   31.10240   31.52630   41.91970   51.34600  -72.98060  -50.59740   51.34600
 9400.00000   10.06050    9.23360    9.23360   60.59470   35.06180   28.52110   39.81700   50.63740   50.63740  363.57990   40.88990   35.15190   35.15190   28.52110   28.85230  -37.13490  -13.19840   28.85230
 9450.00000    9.27160    8.93520    8.93520    1.48280    1.99260  501.84870   53.79740   55.21330   55.21330  601.91180   22.85960   21.78170   21.78170  501.84870  212.79940  -68.37600  -42.88610  212.79940
 9500.00000    8.79330    8.95550    8.95550   35.13760   33.32570   30.00690   55.89960   56.78750   56.78750  634.76920   59.50720   58.19260   58.19260   30.00690   39.30860  -71.49130  -44.44810   39.30860
 9550.00000    8.90160    9.16990    9.16990   20.46830   20.37690   49.07520   55.38190   57.65200   57.65200  393.08440   46.46690   48.41360   48.41360   49.07520   47.70270  -56.44870  -27.85210   47.70270
 9600.00000    8.97340    8.88970    8.88970   11.77310   11.43750   87.43190   52.22980   53.07340   53.07340  312.58840   64.15530   63.62480   63.62480   87.43190   87.43190  -33.48010   -3.29800   87.43190
 9650.00000    9.14540    8.66670    8.66670   11.50540   11.42320   87.54140   50.24600   52.90330   52.90330  280.09870   10.95750   13.13930   12.03280   87.54140  160.75770 -174.50220 -146.54000  160.75770
 9700.00000    9.48130    8.80000    8.80000    4.19530    4.23020  236.39540   49.48420   49.89300   49.89300  349.16450   12.63060   13.77380   13.77380  236.39540  167.55470 -152.11950 -126.63380  167.55470
 9750.00000    9.30160    8.83050    8.83050   55.91620   55.95780   17.87060   59.24080   59.62510   59.62510  788.26290   93.83540   92.99590   92.99590   17.87060   38.71940  -38.27800  -15.26880   38.71940
 9800.00000    9.91310    8.79440    8.79440   58.03200   57.83020   17.29200   49.70760   50.70940   50.70940  383.81450   29.73330   29.69360   33.89550   17.29200   31.96780  -92.30970  -71.77690   31.96780
 9850.00000   11.01860    9.09440    9.09440    0.80410    1.43450  697.11470   49.75190   49.52280   49.52280  993.99620   33.00930   33.87610   33.87610  697.11470  296.52800  -27.53780   -9.48150  296.52800
 9900.00000   10.90090    8.94040    8.94040    0.94420    1.41940  704.54650   49.02730   49.40100   49.40100  558.78080   29.90810   30.24990   29.63020  704.54650  345.92320  -36.63180  -18.35500  345.92320
 9950.00000    9.39000    8.71180    8.71180    4.52760    5.37110  186.18210   51.92230   50.77970   50.77970  288.95890   34.36820   32.55710   32.55710  186.18210  124.21590  -78.12850  -58.51060  124.21590
 10000.00000   10.81750    9.55930    9.55930    7.99320    7.64160  130.86340   49.97900   50.27140   50.27140  764.23870   26.68140   26.06970   25.99550  130.86340  187.85030  -69.61070  -48.65180  187.85030
 10050.00000   11.02800    9.49720    9.49720    5.45950    7.07590  141.32500   50.65790   50.95070   50.95070  831.34780   28.84660   28.60840   28.79330  141.32500  161.70680  -64.31100  -42.01100  161.70680
 10100.00000   10.41760    9.52130    9.52130    9.26300    9.18730  108.84550   51.53730   51.24960   51.24960  866.63540   26.54920   27.27730   26.00250  108.84550  184.01320  -65.78100  -42.14000  184.01320
 10150.00000    9.45960    9.14770    9.14770    8.94610    8.50870  117.52670   50.54670   50.72670   50.72670  521.43840   24.74020   24.45670   25.00420  117.52670  185.50800  -62.93920  -37.95710  185.50800
 10200.00000    9.46730    9.18390    9.18390    8.06380    8.67130  115.32250   49.60700   49.35520   49.35520  938.63760   28.29610   28.51010   28.12220  115.32250  196.78200  -60.34300  -34.01980  196.78200
 10250.00000    9.28060    9.22270    9.22270    8.14790    8.07150  123.89240   51.26610   51.51770   51.51770  354.69390   31.63080   30.87700   30.70520  123.89240  188.13740  -59.02810  -31.36390  188.13740
 10300.00000    9.26080    8.99110    8.99110    7.97920    8.63220  115.84570   51.47530   51.84520   51.84520  258.89410   30.36960   31.00110   31.30480  115.84570  170.41780  -63.36740  -34.36210  170.41780
 10350.00000    9.12010    9.13890    9.13890    7.78440    8.76190  114.13080   51.91070   52.09660   52.09660  296.82050   33.75180   36.50350   36.50350  114.13080  172.02670  -76.69300  -46.34660  172.02670
 10400.00000   11.82200    9.68020    9.68020   11.17720   11.61550   86.09170   50.96610   50.73270   50.73270  643.86330   23.57650   24.25160   24.25160   86.09170  103.91730  -97.96640  -66.27900  103.91730
 10450.00000    9.10050    9.25480    9.25480   12.83790   13.78650   72.53470   51.44030   51.89940   51.89940  210.47450   29.76120   29.68300   29.31170   72.53470  102.65310  -87.90630  -54.87780  102.65310
 10500.00000    9.43280    9.19140    9.19140    5.96730    6.39380  156.40110   46.97960   47.61840   47.61840  195.57970   19.58660   20.69650   21.80050  156.40110  130.93000  -69.13180  -34.76220  130.93000
