~Version ---------------------------------------------------
VERS.      2.0 : CWLS log ASCII Standard -VERSION 2.0
WRAP.       NO : One line per depth step
CREA. 09/16/14 : LAS Creation Date
~Well ------------------------------------------------------
STRT.FT                         1450.0 : START DEPTH
STOP.FT                        13550.0 : STOP DEPTH
STEP.FT                       50.00000 : STEP LENGTH
NULL.                          -999.25 : NULL VALUE
COMP. AMOCO CANADA PETROLEUM CO., LTD. : COMPANY
WELL.            AMOCO TONY 7-16-62-24 : WELL
FLD .                                  : FIELD
LOC .                                  : LOCATION
CTRY.                           CANADA : COUNTRY
SRVC.                     Schlumberger : SERVICE COMPANY
DATE.                      27-Nov-1977 : LOGDATE
PROV.                          Alberta : PROVINCE
UWI .                 100071606224W500 : UNIQUE WELL ID
SLAT.WGS84                    54.36239 : SURFACE LATITUDE
SLON.WGS84                   -117.5361 : SURFACE LONGITUDE
~Curve Information -----------------------------------------
DEPT   .FT    : DEPTH FEET
CALD   .IN    : CALIPER FROM DENSITY LOG
CALS   .IN    : CALIPER FROM SONIC LOG
DPHI_LS.V/V   : DENSITY POROSITY LIMESTONE [M=2.71,F=1.0] FROM DENSITY LOG
DPHI_SS.V/V   : DENSITY POROSITY SANDSTONE [M=2.65,F=1.0] FROM DENSITY LOG
DRHO   .G/C3  : DENSITY CORRECTION FROM DENSITY LOG
DT     .US/F  : DELTA TIME FROM SONIC LOG
GRD    .GAPI  : GAMMA RAY FROM DENSITY LOG
GRS    .GAPI  : GAMMA RAY FROM SONIC LOG
ILD    .OHMM  : DEEP INDUCTION FROM RESISTIVITY LOG
ILM    .OHMM  : MEDIUM INDUCTION FROM RESISTIVITY LOG
LL8    .OHMM  : 8 INCH LATEROLOG RESISTIVITY FROM RESISTIVITY LOG
NPHI_LS.V/V   : NEUTRON POROSITY LIMESTONE FROM DENSITY LOG
NPHI_SS.V/V   : NEUTRON POROSITY SANDSTONE FROM DENSITY LOG
RHOB   .G/C3  : BULK DENSITY FROM DENSITY LOG
SPR    .MV    : SPONTANEOUS POTENTIAL FROM RESISTIVITY LOG
~Params ----------------------------------------------------
PD  .                     GL : PERMANENT DATUM
EPD .FT                 5402 : ELEVATION PERMANENT DATUM
LMF .                     KB : LOG MEASURED FROM
DAPD.FT                   17 : FEET ABOVE PERMANENT DATUM
DATE.               11/27/77 : RUN DATE
RUN .                      2 : RUN NUMBER
DD  .FT                13685 : DEPTH DRILLER
DL  .FT                13579 : DEPTH LOGGER
BLI .FT                13573 : BOTTOM LOG INTERVAL
TLI .FT                 8448 : TOP LOG INTERVAL
CBD .FT                 8448 : CASING BOTTOM DRILLER
CBL .FT                 8448 : CASING BOTTOM LOGGER
BSD .FT                13685 : BIT SIZE AT DEPTH
DFT .                    8.6 : DRILLING FLUID TYPE
DFD .                     86 : DRILLING FLUID DENSITY
CLNT.                A2DTECH : CLIENT CODE
ORIG.          1" 2.5" PRINT : ORIGIN OF DATA
UWI .       100071606224W500 : UNIQUE WELL ID
DICO. A2D Technologies, Inc. : DIGITIZING COMPANY
~Other -----------------------------------------------------
~ASCII -----------------------------------------------------
# ...
 6050.00000   12.92670   12.35930    -999.25    0.20560    0.23040   92.07580  131.15170  138.01200   20.63810   16.93860   24.28200    -999.25    0.42050    2.31820  -60.95130
 6100.00000   13.12120   12.49320    -999.25    0.30260    0.21440   87.15990  105.77130  119.93560   14.48010   12.59500   17.86850    -999.25    0.38300    2.16740  -60.49070
 6150.00000   12.00110   12.61220    -999.25    0.15990    0.14420   88.36790  101.91760  106.16990   11.24250    9.79080   13.81340    -999.25    0.45840    2.38980  -60.46910
 6200.00000   11.54440   12.43720    -999.25    0.13690    0.03300   92.95650  150.50850  152.93860   20.00420   16.99630   25.00420    -999.25    0.48940    2.41830  -60.71140
 6250.00000   11.69940   12.52400    -999.25    0.11080    0.09260   73.91400   89.17590   96.67460   12.97920   11.40130   13.62060    -999.25    0.30060    2.43010  -62.64060
 6300.00000   13.68220   12.59350    -999.25    0.25170    0.20380   73.45070   87.92600   86.81280   12.40860   11.34720   13.14440    -999.25    0.30160    2.24490  -62.69550
 6350.00000   13.83000   12.57070    -999.25    0.29810    0.21390   79.24930  103.89190  114.71300    9.60900    8.52480   10.07610    -999.25    0.36780    2.12060  -60.23400
 6400.00000   13.49310   12.40070    -999.25    0.28770    0.21330   78.07320   99.71210   95.48170   10.72680    9.67790   11.05410    -999.25    0.37750    2.17690  -61.08560
 6450.00000   13.22510   12.49340    -999.25    0.16990    0.18380   83.07550  108.57070  108.78970    7.93340    6.90250    8.86150    -999.25    0.40550    2.38610  -60.63950
 6500.00000   12.61580   12.37910    -999.25    0.16040    0.21050   71.28190   85.39030   89.41720   11.69290   10.91020   12.07820    -999.25    0.26350    2.38370  -61.13560
 6550.00000   13.73760   12.52580    -999.25    0.23720    0.19200   79.43310   99.93490  101.02830    7.04270    6.41820    7.34650    -999.25    0.38420    2.23960  -60.29790
 6600.00000   13.70670   12.53410    -999.25    0.29900    0.23630   77.92040  106.53110  111.95540    8.96750    8.28080    9.94850    -999.25    0.33830    2.16640  -59.22240
 6650.00000   14.58900   12.15220    -999.25    0.25490    0.25020   80.76000  103.78440  108.66730    7.77820    7.10140    9.36550    -999.25    0.39410    2.21880  -59.07840
 6700.00000   13.73860   12.10840    -999.25    0.26200    0.16320   90.64440  115.20870  117.76680    5.39550    5.12720    6.79820    -999.25    0.40150    2.25120  -59.33710
 6750.00000   16.90880   12.49740    -999.25    0.22010    0.15540   90.67970  101.69110  113.20910    3.98590    3.51970    5.03670    -999.25    0.45970    2.31150  -59.95910
 6800.00000   17.16340   12.67550    -999.25    0.27530    0.16930   93.93020   98.56630  107.05490    4.31800    3.91020    5.74340    -999.25    0.48950    2.17180  -58.93540
 6850.00000   14.94200   12.30020    -999.25    0.34960    0.20480   86.74070   99.34410  107.21460    6.11170    5.57470    7.07600    -999.25    0.43750    2.07030  -57.81900
 6900.00000   12.38910   12.41220    -999.25    0.10730    0.07750   81.73530  107.21370  108.70020   10.74140    8.15660   10.62830    -999.25    0.35300    2.51020  -55.35840
 6950.00000   12.00710   11.81180    -999.25    0.05990    0.03800   73.90120   62.90110   65.48520   22.25200   16.90360   17.96240    -999.25    0.18430    2.54690  -71.29310
 7000.00000   10.86560   11.42430    -999.25    0.10100    0.18650   65.81590   31.74000   33.38540   21.89620   24.87970   41.62460    -999.25    0.16140    2.48770 -131.26850
 7050.00000   13.77970   12.27310    -999.25    0.32770    0.21490   72.69760   84.06830   91.25740   14.75650   13.53280   15.54720    -999.25    0.37120    2.18830  -56.99350
 7100.00000   12.75020   12.08090    -999.25    0.14890    0.19570   71.48390   87.50670   92.90970   13.35960   11.98670   16.16180    -999.25    0.31510    2.39600  -55.24870
 7150.00000   13.68420   12.14720    -999.25    0.24590    0.16310   73.11540   84.46330   90.87310   12.08010   10.96700   14.39880    -999.25    0.34900    2.21500  -56.94840
 7200.00000   14.06140   12.46820    -999.25    0.39270    0.25220   79.65730   90.73030   97.72100   12.44380   11.19520   17.25260    -999.25    0.38250    2.09740  -60.07850
 7250.00000   12.97950   12.09880    -999.25    0.17150    0.13340   73.05990   84.13520   91.70110   13.62590   11.81480   14.19050    -999.25    0.33820    2.37290  -54.73520
 7300.00000   12.25350   11.96460    -999.25    0.04570    0.05840   69.31040   72.66090   71.39350   25.38300   20.35820   24.13490    -999.25    0.24230    2.57720  -59.27450
 7350.00000   12.14990   12.00770    -999.25    0.00790    0.02470   71.56660   83.50480   94.44890   19.86800   17.27150   21.81240    -999.25    0.28880    2.62400  -61.14330
 7400.00000   12.02620   11.95280    -999.25   -0.00650    0.06320   65.79300   66.21670   69.49740   23.61540   20.21330   24.43860    -999.25    0.23830    2.65610  -59.33240
 7450.00000   13.98860   12.76120    -999.25    0.60020    0.08160  110.66430   59.69260   69.78220   16.16440   15.76290   20.74460    -999.25    0.62480    1.45710  -57.59280
 7500.00000   13.25800   12.30920    -999.25    0.19490    0.04240   81.40010   73.97430   81.95540   32.34850   25.69780   44.17320    -999.25    0.42670    2.29780  -58.49110
 7550.00000   12.44600   12.28740    -999.25    0.06330    0.20890   73.16470   83.47300   96.01020   19.26210   16.15220   19.55810    -999.25    0.26680    2.54250  -55.79750
 7600.00000   14.16600   12.78090    -999.25    0.60050    0.03600  119.46140   41.57890   40.35760   23.23820   19.44270   24.49090    -999.25    0.63790    1.45320  -54.60930
 7650.00000   13.79010   12.69130    -999.25    0.60090    0.00070  108.23680   49.80320   56.26800   54.72840   24.64260  186.70360    -999.25    0.63960    1.62080  -47.41680
 7700.00000   12.71330   12.26420    -999.25    0.01130    0.04910   59.08080   42.21580   42.52560   21.30290   15.51920   17.61500    -999.25    0.23070    2.61920  -58.78140
 7750.00000   12.32710   12.08910    -999.25    0.03730    0.04720   70.92660   85.29420   89.50330   21.21160   17.90390   20.21630    -999.25    0.29990    2.54700  -40.24700
 7800.00000   13.09630   12.23400    -999.25    0.14180    0.09780   65.08560   90.46130   95.31440   11.80550   10.59880   24.28670    -999.25    0.24460    2.41410  -45.74920
 7850.00000   13.25220   12.09950    -999.25    0.13350    0.24780   71.43800   86.76100   97.98430   22.22760   19.59170   23.61420    -999.25    0.26520    2.41190  -43.06750
 7900.00000   12.21440   11.95010    -999.25    0.00500    0.01680   60.60190   55.55180   57.57670  173.62610   76.29660  115.61970    -999.25    0.13230    2.61770  -47.65880
 7950.00000   11.92060   11.99180    -999.25    0.09070    0.07240   68.49090   77.70930   83.08130   51.96090   33.41930   26.41060    -999.25    0.25800    2.51730  -53.11860
 8000.00000   12.92810   11.46330    -999.25    0.01860    0.04190   65.91920   83.80690  100.06900   37.47700   27.20180   31.26120    -999.25    0.23350    2.60360  -59.19290
 8050.00000   12.52810   11.40390    -999.25    0.04420    0.09640   70.14820   71.77470   74.17950   21.77540   16.66230   21.26570    -999.25    0.23360    2.56490  -65.65440
 8100.00000   11.63040   10.94870    -999.25   -0.00800    0.05210   64.47410   74.93820   83.81740   32.44560   23.62610   29.19940    -999.25    0.20890    2.66200  -55.31230
 8150.00000   11.70170   10.98120    -999.25   -0.01100    0.05770   65.16450   81.78030   81.85330   42.18070   32.45440   43.38190    -999.25    0.22660    2.66700  -42.37700
 8200.00000   11.99820   11.01110    -999.25    0.03240    0.05520   69.01860  103.37470  123.97790   21.12350   19.46920   23.32990    -999.25    0.24450    2.59780  -43.05310
 8250.00000   12.02590   11.09290    -999.25    0.15440    0.13170   62.39940   62.02650   59.78030   25.82460   23.28980   24.58410    -999.25    0.15590    2.45130  -51.96860
 8300.00000   11.69170   10.96710    -999.25    0.07070    0.04320   65.30570   49.47340   50.20260   25.49180   24.17610   33.21980    -999.25    0.22560    2.51560  -69.25740
