~Version ---------------------------------------------------
VERS.      2.0 : CWLS log ASCII Standard -VERSION 2.0
WRAP.       NO : One line per depth step
CREA. 01/03/18 : LAS Creation Date
~Well ------------------------------------------------------
STRT.FT                 1000.0 : START DEPTH
STOP.FT                12750.0 : STOP DEPTH
STEP.FT               50.00000 : STEP LENGTH
NULL.                  -999.25 : NULL VALUE
COMP.      TALISMAN ENERGY INC : COMPANY
WELL. TALISMAN EDSON 6-8-52-17 : WELL
FLD .                          : FIELD
LOC .                          : LOCATION
CTRY.                   CANADA : COUNTRY
SRVC.   Schlumberger of Canada : SERVICE COMPANY
DATE.              06-May-1978 : LOGDATE
PROV.                  Alberta : PROVINCE
UWI .         100060805217W500 : UNIQUE WELL ID
SLAT.WGS84            53.47276 : SURFACE LATITUDE
SLON.WGS84           -116.4739 : SURFACE LONGITUDE
~Curve Information -----------------------------------------
DEPT    .FT    : Depth Curve
CALDED  .IN    : CALIPER FROM DENSITY LOG [ADJ. TO RESISTIVITY LOG]
CALSED  .IN    : CALIPER FROM SONIC LOG
CALWS   .IN    : CALIPER [CALSED]
CILDED  .MMHO  : DEEP CONDUCTIVITY FROM RESISTIVITY LOG
CONDWS  .MMHO  : CONDUCTIVITY [1000/DRESWS]
DCORED  .G/C3  : DENSITY CORRECTION FROM DENSITY LOG
DCORWS  .G/C3  : DENSITY CORRECTION [DCORED]
DENWS   .G/C3  : FORMATION BULK DENSITY [CALC. FROM DPOLSWS , M=2.71 F=1.00]
DPHILSED.V/V   : DENSITY POROSITY LIMESTONE [M=2.71 F=1.00] FROM DENSITY LOG [ADJ. TO RESISTIVITY LOG]
DPHISSED.V/V   : DENSITY POROSITY SANDSTONE [M=2.71 F=1.00] FROM DENSITY LOG [ADJ. TO RESISTIVITY LOG]
DPOLSWS .V/V   : DENSITY POROSITY LIMESTONE [DPHISSED MATRIX CONVERSION FOR LIMESTONE , M=2.71 F=1.00 & SPL TO DPHILSED @ 9209']
DRESWS  .OHMM  : DEEP RESISTIVITY [1000/CILDED IF ILDED<1, ILDED & SPL. TO ILDED 6256']
DTED    .US/F  : DELTA TIME FROM SONIC LOG
DTWS    .US/F  : COMPRESSIONAL SONIC [DTED]
GRDED   .GAPI  : GAMMA RAY FROM DENSITY LOG [ADJ. TO RESISTIVITY LOG]
GRSED   .GAPI  : GAMMA RAY FROM SONIC LOG
GRWS    .GAPI  : GAMMA RAY [GRSED]
ILDED   .OHMM  : DEEP INDUCTION RESISTIVITY FROM RESISTIVITY LOG
ILMED   .OHMM  : MEDIUM INDUCTION RESISTIVITY FROM RESISTIVITY LOG
LL8ED   .OHMM  : LATEROLOG 8 RESISTIVITY FROM RESISTIVITY LOG
MRESWS  .OHMM  : MEDIUM RESISTIVITY [ILMED]
NPHILSED.V/V   : NEUTRON POROSITY LIMESTONE FROM DENSITY LOG [ADJ. TO RESISTIVITY LOG]
NPHISSED.V/V   : NEUTRON POROSITY  SANDSTONE FROM DENSITY LOG [ADJ. TO RESISTIVITY LOG]
NPOLSWS .V/V   : NEUTRON POROSITY LIMESTONE [NPHISSED MATRIX CONVERSION FOR LIMESTONE & SPL. TO NPHILSED @ 9198']
RHOBED  .G/C3  : FORMATION BULK DENSITY  FROM DENSITY LOG[ADJ. TO RESISTIVITY LOG]
SPRED   .MV    : SPONTANEOUS POTENTIAL FROM RESISTIVITY LOG
SPWS    .MV    : SPONTANEOUS POTENTIAL [BASELINE 0 MV. SPRED]
SRESWS  .OHMM  : SHALLOW RESISTIVITY [LL8ED]
~Params ----------------------------------------------------
PD  .                     GL : PERMANENT DATUM
EPD .FT               3147.2 : ELEVATION PERMANENT DATUM
LMF .                     KB : LOG MEASURED FROM
DAPD.FT                 22.3 : FEET ABOVE PERMANENT DATUM
EKB .FT               3169.5 : KELLY BUSHING
EGL .FT               3147.2 : GROUND LEVEL
DATE.               05/31/78 : RUN DATE
RUN .                      2 : RUN NUMBER
DD  .FT                12769 : DEPTH DRILLER
DL  .FT                12757 : DEPTH LOGGER
BLI .FT                12751 : BOTTOM LOG INTERVAL
TLI .FT                 9616 : TOP LOG INTERVAL
CBD .FT                 9625 : CASING BOTTOM DRILLER
BS  .IN                  8.5 : BIT SIZE
BSD .FT                12769 : BIT SIZE AT DEPTH
DFT .                    GEL : DRILLING FLUID TYPE
DFD .                    9.1 : DRILLING FLUID DENSITY
DFV .                     51 : DRILLING FLUID VISCOSITY
DFPH.                     10 : DRILLING FLUID PH
DFL .                     22 : DRILLING FLUID LOSS
MSS .               FLOWLINE : MUD SAMPLE SOURCE
RMF .OHMM              0.809 : RESISTIVITY MUD FILTRATE SAMPLE
MFST.DEGF                 63 : MUD FILTRATE SAMPLE TEMPERATURE
TCS .HRS                  12 : TIME CIRCULATED STOPPED
LUN .                   7800 : LOGGING UNIT NUMBER
LUL .                    EDM : LOGGING UNIT LOCATION
ENGI.               BERNISKY : RECORDING ENGINEER
WITN.               BRINKMAN : WITNESSED BY
CLNT.                A2DTECH : CLIENT CODE
ORIG.            2" 5" PRINT : ORIGIN OF DATA
UWI .       100060805217W500 : UNIQUE WELL ID
DICO. A2D Technologies, Inc. : DIGITIZING COMPANY
~Other -----------------------------------------------------
~ASCII -----------------------------------------------------
# ...
 11000.00000   14.35640    9.30540    9.30540    -999.25    6.72920    0.22880    0.22880    2.52860    0.10610    -999.25    0.10610  148.60680   48.36030   48.36030   24.54990   20.83080   20.83080  148.60680   99.40780  289.91960   99.40780    0.06710    -999.25    0.06710    2.53110 -385.00920  -77.35800  289.91960
 11050.00000   15.00000    9.61620    9.61620    -999.25   12.09290    0.24010    0.24010    2.33220    0.22090    -999.25    0.22090   82.85640   50.41710   50.41710   29.22890   28.00650   28.00650   82.85640  119.59330   90.64030  119.59330    0.06760    -999.25    0.06760    2.33140 -347.48690 -118.01560   90.64030
 11100.00000   10.83860    9.34120    9.34120    -999.25   16.97760    0.24160    0.24160    2.69320    0.00980    -999.25    0.00980   58.90120   54.83420   54.83420   52.56420   47.76830   47.76830   58.90120   87.83030  118.69360   87.83030    0.06930    -999.25    0.06930    2.70320 -315.93370 -152.72470  118.69360
 11150.00000    9.55160    9.18250    9.18250    -999.25   21.20310    0.02560    0.02560    2.72620   -0.00950    -999.25   -0.00950   47.16300   53.75560   53.75560   55.88640   51.58660   51.58660   47.16300   66.53170   85.89810   66.53170    0.07020    -999.25    0.07020    2.73040 -286.53310 -185.26060   85.89810
 11200.00000    9.53610    9.25980    9.25980    -999.25   26.41650    0.01850    0.01850    2.70450    0.00320    -999.25    0.00320   37.85520   55.32770   55.32770   54.17330   54.00850   54.00850   37.85520   48.29530   64.90650   48.29530    0.09200    -999.25    0.09200    2.70340 -244.16480 -230.78480   64.90650
 11250.00000   13.92700    9.99590    9.99590    -999.25   79.10390    0.26560    0.26560    2.40370    0.17910    -999.25    0.17910   12.64160   65.44160   65.44160   82.67560   72.87150   72.87150   12.64160   13.57510   17.42210   13.57510    0.17530    -999.25    0.17530    2.41430 -244.16480 -233.92010   17.42210
 11300.00000    9.74760    9.10940    9.10940    -999.25   41.03760    0.04360    0.04360    2.75510   -0.02640    -999.25   -0.02640   24.37000   58.85510   58.85510   70.24380   57.05860   57.05860   24.37000   30.53990   39.99860   30.53990    0.09550    -999.25    0.09550    2.75270 -267.50360 -213.71660   39.99860
 11350.00000   15.00000   12.15020   12.15020    -999.25  130.27790    0.17220    0.17220    1.99350    0.41900    -999.25    0.41900    7.67590   74.98490   74.98490  107.34410   89.70940   89.70940    7.67590    6.81090    9.96340    6.81090    0.27370    -999.25    0.27370    1.98610 -262.61980 -221.75630    9.96340
 11400.00000   10.63050    9.44640    9.44640    -999.25   47.68100    0.01330    0.01330    2.69050    0.01140    -999.25    0.01140   20.97270   64.53430   64.53430  106.80330   93.31550   93.31550   20.97270   22.29780   33.03560   22.29780    0.16300    -999.25    0.16300    2.69290 -240.45680 -247.05460   33.03560
 11450.00000   11.04750    9.85410    9.85410    -999.25   51.13130   -0.00780   -0.00780    2.63150    0.04590    -999.25    0.04590   19.55750   58.48930   58.48930   67.43010   52.84420   52.84420   19.55750   25.33420   39.40310   25.33420    0.11780    -999.25    0.11780    2.64170 -331.98140 -158.68590   39.40310
 11500.00000   11.07310    9.40190    9.40190    -999.25   26.48310    0.10800    0.10800    2.64950    0.03540    -999.25    0.03540   37.75990   53.32200   53.32200   49.14240   49.12020   49.12020   37.75990   57.04340   74.09420   57.04340    0.03950    -999.25    0.03950    2.66840 -326.11350 -167.68910   74.09420
 11550.00000    9.91280    9.46840    9.46840    -999.25   88.18500    0.01440    0.01440    2.71530   -0.00310    -999.25   -0.00310   11.33980   66.95830   66.95830  115.15350   99.67530   99.67530   11.33980   11.91200   15.64480   11.91200    0.17740    -999.25    0.17740    2.71660 -287.68540 -209.25250   15.64480
 11600.00000   10.03640    9.55390    9.55390    -999.25   70.15380    0.03030    0.03030    2.73620   -0.01530    -999.25   -0.01530   14.25440   63.75240   63.75240   91.46690   84.35810   84.35810   14.25440   15.99090   19.83480   15.99090    0.14680    -999.25    0.14680    2.73030 -322.11040 -177.98340   19.83480
 11650.00000   10.25990    9.63240    9.63240    -999.25   64.12350    0.00030    0.00030    2.73000   -0.01170    -999.25   -0.01170   15.59490   62.13910   62.13910   85.88290   76.01560   76.01560   15.59490   17.61990   21.45270   17.61990    0.11590    -999.25    0.11590    2.73000 -409.57910  -93.65000   21.45270
 11700.00000   12.08910   10.79620   10.79620    -999.25   97.06660    0.21430    0.21430    2.56290    0.08600    -999.25    0.08600   10.30220   69.48440   69.48440  116.50160   97.96270   97.96270   10.30220   10.86500   13.83820   10.86500    0.19770    -999.25    0.19770    2.57040 -388.32780 -118.05720   13.83820
 11750.00000   13.12320   10.77990   10.77990    -999.25   98.40490    0.25520    0.25520    2.55880    0.08840    -999.25    0.08840   10.16210   69.23270   69.23270  118.14460  100.48980  100.48980   10.16210   10.68170   13.35530   10.68170    0.20130    -999.25    0.20130    2.58700 -340.36990 -169.15040   13.35530
 11800.00000   10.71580   10.05520   10.05520    -999.25   85.00830    0.23870    0.23870    2.73970   -0.01740    -999.25   -0.01740   11.76600   66.83530   66.83530  110.51510   95.01120   95.01120   11.76600   12.75780   15.89120   12.75780    0.16760    -999.25    0.16760    2.73590 -372.69910 -139.95640   15.89120
 11850.00000   10.38460    9.58630    9.58630    -999.25   71.28140    0.01730    0.01730    2.72570   -0.00920    -999.25   -0.00920   14.02890   64.90930   64.90930  107.88450   93.29100   93.29100   14.02890   15.48790   20.53070   15.48790    0.15260    -999.25    0.15260    2.73100 -323.10610 -192.70540   20.53070
 11900.00000   10.40380    9.52160    9.52160    -999.25   81.08330    0.01280    0.01280    2.73070   -0.01210    -999.25   -0.01210   12.33300   66.39570   66.39570  108.10460   95.57230   95.57230   12.33300   13.42230   17.68060   13.42230    0.17030    -999.25    0.17030    2.72710 -400.50480 -118.44190   17.68060
 11950.00000   10.46040    9.42560    9.42560    -999.25   89.50150    0.06250    0.06250    2.71120   -0.00070    -999.25   -0.00070   11.17300   67.97170   67.97170  116.07700   97.21510   97.21510   11.17300   12.81990   14.93720   12.81990    0.18490    -999.25    0.18490    2.71100 -424.08340  -98.01930   14.93720
 12000.00000   10.35770    9.45560    9.45560    -999.25   97.70970    0.08980    0.08980    2.67020    0.02330    -999.25    0.02330   10.23440   67.57410   67.57410  103.52230   94.51500   94.51500   10.23440   11.59820   15.65130   11.59820    0.16730    -999.25    0.16730    2.66340 -353.21180 -172.02610   15.65130
 12050.00000    9.52080    8.95570    8.95570    -999.25   50.98980    0.01250    0.01250    2.70920    0.00050    -999.25    0.00050   19.61210   62.06310   62.06310   85.26370   73.50220   73.50220   19.61210   21.90200   35.65120   21.90200    0.12250    -999.25    0.12250    2.70430 -361.23970 -167.13350   35.65120
 12100.00000   10.04360    9.62210    9.62210    -999.25   58.39140    0.05290    0.05290    2.68230    0.01620    -999.25    0.01620   17.12580   67.53970   67.53970   95.74740   88.15630   88.15630   17.12580   18.15910   26.41610   18.15910    0.13570    -999.25    0.13570    2.68170 -372.74520 -158.78390   26.41610
 12150.00000    8.94140    8.59200    8.59200    -999.25    2.68580    0.01930    0.01930    2.57080    0.08140    -999.25    0.08140  372.33520   61.32970   61.32970  103.73370   87.86500   87.86500  372.33520 1448.43870  890.11960 1448.43870    0.07060    -999.25    0.07060    2.57320 -304.86450 -229.79990  890.11960
 12200.00000   11.04420    9.08390    9.08390    -999.25   31.62060    0.24320    0.24320    2.57060    0.08150    -999.25    0.08150   31.62500   75.00400   75.00400  138.64770  118.21160  118.21160   31.62500   28.43510   53.15800   28.43510    0.18290    -999.25    0.18290    2.56940 -436.53380 -101.28650   53.15800
