~Version ---------------------------------------------------
VERS. 2.0 : CWLS log ASCII Standard -VERSION 2.0
WRAP.  NO : ONE LINE PER DEPTH STEP
~Well ------------------------------------------------------
STRT.F                      1350.0 : START DEPTH
STOP.F                     12700.0 : STOP DEPTH
STEP.F                    50.00000 : STEP LENGTH
NULL.                      -999.25 : NULL VALUE
COMP. TRANS-PRAIRIES PIPELINES LTD : COMPANY
WELL. TPPL DEEP VALLEY 11-21-64-25 : WELL
FLD .                              : FIELD
LOC .                              : LOCATION
CTRY.                       CANADA : COUNTRY
SRVC.                 Schlumberger : SERVICE COMPANY
DATE.                  04-Jan-1974 : LOGDATE
PROV.                      Alberta : PROVINCE
UWI .             100112106425W500 : UNIQUE WELL ID
SLAT.WGS84                54.55513 : SURFACE LATITUDE
SLON.WGS84               -117.7228 : SURFACE LONGITUDE
~Curve Information -----------------------------------------
DEPT   .F    0   1   0  0 : 1 MEASURED DEPTH
SPR    .MV   05 010 01 00 : SPONTANEOUS POTENTIAL FROM RESISTIVITY LOG
ILD    .OHMM 05 120 46 00 : INDUCTION DEEP RESISTIVITY
CILD   .MMHO 05 110 46 00 : INDUCTION DEEP CONDUCTIVITY
SN     .OHMM 05 040 16 00 : SHORT NORMAL RESISTIVITY
GRS    .GAPI 60 310 01 00 : GAMMA RAY FROM SONIC LOG
DT     .US/F 60 500 00 00 : DELTA-T (INTERVAL TRANSIT TIME)
CALS   .IN   60 280 50 00 : CALIPER FROM SONIC LOG
GRD    .GAPI 45 310 01 00 : GAMMA RAY FROM DENSITY LOG
CALD   .IN   45 280 60 00 : CALIPER FROM DENSITY LOG
RHOB   .G/C3 45 350 01 00 : BULK DENSITY
DRHO   .G/C3 45 356 01 00 : BULK DENSITY CORRECTION
NPHI_SS.DEC  42 890 03 00 : NEUTRON POROSITY SANDSTONE
DPHI_SS.DEC  45 890 12 00 : DENSITY POROSITY SANDSTONE
DPHI_LS.DEC  45 890 10 00 : DENSITY POROSITY LIMESTONE
NPHI_LS.DEC  42 890 01 00 : NEUTRON POROSITY LIMESTONE
~Params ----------------------------------------------------
PD  .                     GL : PERMANENT DATUM
EPD .FT                 2726 : ELEVATION PERMANENT DATUM
LMF .                     KB : LOG MEASURED FROM
DAPD.FT                   22 : FEET ABOVE PERMANENT DATUM
EKB .FT                 2748 : KELLY BUSHING
EDF .FT                 2726 : DRILLING FLOOR
DATE.               01/04/74 : RUN DATE
RUN .                      3 : RUN NUMBER
DD  .FT                12720 : DEPTH DRILLER
DL  .FT                12719 : DEPTH LOGGER
BLI .FT                12713 : BOTTOM LOG INTERVAL
TLI .FT                11088 : TOP LOG INTERVAL
CBD .FT                 1313 : CASING BOTTOM DRILLER
CBL .FT                 1314 : CASING BOTTOM LOGGER
BS  .IN                 8.75 : BIT SIZE
BSD .FT                12720 : BIT SIZE AT DEPTH
DFT .               GEL CHEM : DRILLING FLUID TYPE
DFD .                    9.6 : DRILLING FLUID DENSITY
DFV .                     97 : DRILLING FLUID VISCOSITY
DFL .                   10.9 : DRILLING FLUID LOSS
RMS .OHMM               2.08 : RESISTIVITY MUD SAMPLE
MST .DEGF                 50 : MUD SAMPLE TEMPERATURE
RMF .OHMM               1.51 : RESISTIVITY MUD FILTRATE SAMPLE
MFST.DEGF                 58 : MUD FILTRATE SAMPLE TEMPERATURE
RMC .OHMM               2.27 : RESISTIVITY MUD CAKE
MCST.DEGF                 52 : MUD CAKE SAMPLE TEMPERATURE
TCS .HRS                 2.5 : TIME CIRCULATED STOPPED
LUN .                   7691 : LOGGING UNIT NUMBER
LUL .                    EDM : LOGGING UNIT LOCATION
ENGI.                  LEITH : RECORDING ENGINEER
WITN.        SLOAN MCDONNELL : WITNESSED BY
CLNT.                A2DTECH : CLIENT CODE
ORIG.            2" 5" PRINT : ORIGIN OF DATA
UWI .       100112106425W500 : UNIQUE WELL ID
DICO. A2D Technologies, Inc. : DIGITIZING COMPANY
~Other -----------------------------------------------------
~ASCII -----------------------------------------------------
# ...
 8250.00000 -149.38110   43.40000   27.93770   83.22520    -999.25   51.39940    8.99260   14.74330    8.91990    2.96390    0.06130    -999.25    -999.25   -0.15970    -999.25
 8300.00000 -108.80500   20.13240   49.55920   24.39450    -999.25   52.23610    9.40770   25.29680   10.27690    2.59680    0.24680    -999.25    -999.25    0.07720    -999.25
 8350.00000 -145.23120    3.21010  370.80230   44.11890    -999.25   55.72620    9.17330   22.29120    8.85460    2.66850    0.02830    -999.25    -999.25   -0.00350    -999.25
 8400.00000 -137.11170   35.87480   35.51690   66.45390    -999.25   48.53050    9.03250   15.18440    8.85920    2.77460    0.07820    -999.25    -999.25   -0.04290    -999.25
 8450.00000 -109.28210    -999.25    8.23720  183.32750    -999.25   49.38800    9.35690   13.35170   10.27400    2.47690    0.20990    -999.25    -999.25    0.14650    -999.25
 8500.00000  -60.55740   55.54250   28.33890   54.05900    -999.25   51.06150    8.85970   12.51800    8.83930    2.73570   -0.00180    -999.25    -999.25   -0.01830    -999.25
 8550.00000  -86.24760   48.88600   34.13970   49.81410    -999.25   50.48140    8.86900   27.09070    8.87610    2.78050    0.03350    -999.25    -999.25   -0.04290    -999.25
 8600.00000 -132.99670   15.93410   63.14940   38.72330    -999.25   51.00670    9.09950   27.37490    9.39490    2.68940    0.20890    -999.25    -999.25   -0.02350    -999.25
 8650.00000 -118.64520    6.23400  171.57360   19.44570    -999.25   56.95380    8.88740   58.69180    9.05960    2.81070    0.06650    -999.25    -999.25   -0.05250    -999.25
 8700.00000  -90.05430   15.57840   68.51850   34.73780    -999.25   56.06120    9.10260   40.35410    9.11880    2.78200    0.00650    -999.25    -999.25   -0.06770    -999.25
 8750.00000 -139.81050  313.49000   10.29910  204.32880    -999.25   51.67430    9.42530   10.16770   11.39160    2.47670    0.23960    -999.25    -999.25    0.13870    -999.25
 8800.00000 -178.85050   35.48470   38.56360   72.47860    -999.25   59.98910    8.39610   12.39170    8.84130    2.73730    0.02170    -999.25    -999.25   -0.00230    -999.25
 8850.00000 -169.52710    -999.25    7.00680  177.14860    -999.25   49.53190    9.21760   12.21620    9.56490    2.74540    0.02890    -999.25    -999.25   -0.00620    -999.25
 8900.00000  -80.12440   19.35910   55.85780   27.04350    -999.25   57.20070    9.28650   71.52590    9.33480    2.76210    0.02410    -999.25    -999.25   -0.01990    -999.25
 8950.00000  -74.85470    4.76960  217.11230    7.70920    -999.25   66.95350    9.20750   69.80520    9.34730    2.71810    0.02670    -999.25    -999.25    0.00110    -999.25
 9000.00000  -44.89480   96.09840   19.45200   65.31610    -999.25   53.48130    9.14170   44.56220    9.08790    2.73790    0.02020    -999.25    -999.25   -0.02390    -999.25
 9050.00000  -47.95020   29.13220   38.70580   38.37760    -999.25   53.44930    9.09330   41.21610    9.23510    2.73770    0.01010    -999.25    -999.25   -0.00800    -999.25
 9100.00000  -47.23050   27.27180   40.36910   34.63900    -999.25   58.17520    9.32670   40.13140    9.70950    2.78390    0.21030    -999.25    -999.25   -0.04280    -999.25
 9150.00000  -29.31420   20.82810   57.71370   26.94200    -999.25   61.25740    9.09840   54.85680    9.20810    2.73850    0.03260    -999.25    -999.25   -0.01400    -999.25
 9200.00000  -66.98280  242.83770    8.82590  121.98470    -999.25   53.80790    9.19230   11.58480    9.58120    2.69410    0.10440    -999.25    -999.25    0.02340    -999.25
 9250.00000  -36.56900  417.83570    7.77860  127.97160    -999.25   52.60770    8.74860   29.33710    8.83310    2.75520    0.03390    -999.25    -999.25   -0.04090    -999.25
 9300.00000  -19.25070  128.09970   13.38890   80.84320    -999.25   53.64820    8.90760   31.51000    8.90890    2.71100    0.00390    -999.25    -999.25    0.00140    -999.25
 9350.00000   -4.48990   33.88650   35.23160   37.22050    -999.25   58.09070    8.89420   52.27740    8.97200    2.72690    0.01640    -999.25    -999.25   -0.01270    -999.25
 9400.00000   -3.18750   20.13310   55.69840   25.39820    -999.25   60.64530    8.97610   63.48860    9.00590    2.73610    0.03210    -999.25    -999.25   -0.00690    -999.25
 9450.00000  -22.48920   58.10320   25.40650   53.48330    -999.25   57.23720    8.84420   49.19020    8.96460    2.74470    0.02250    -999.25    -999.25   -0.02030    -999.25
 9500.00000    7.18530    -999.25    6.37970  162.96330    -999.25   53.18560    8.76980   31.49400    8.85240    2.72810    0.03030    -999.25    -999.25   -0.00290    0.02160
 9550.00000    1.90070  470.91050    9.25760  104.37790    -999.25   63.05490    8.89700   81.20850    9.03530    2.69550    0.04020    -999.25    -999.25    0.00830    0.09380
 9600.00000    2.66630   48.22390   32.29720   56.57660    -999.25   85.87510    8.82220  262.59450    8.91330    2.45900    0.02460    -999.25    -999.25    0.14610    0.23040
 9650.00000  -36.41200    -999.25    0.94100  433.99380    -999.25   48.07480    9.34590   12.95610    9.89840    2.73130    0.18830    -999.25    -999.25   -0.00790    0.00050
 9700.00000  -44.11540    -999.25    1.92960  390.93060    -999.25   48.03320    9.50930   11.41450   10.79030    2.71130    0.18070    -999.25    -999.25   -0.02220   -0.00330
 9750.00000  -53.91010    -999.25    2.14130  283.25100    -999.25   48.45270    9.65480    7.94060   10.38070    2.71090    0.18520    -999.25    -999.25   -0.01810   -0.00280
 9800.00000  -55.28480    -999.25    0.25600  269.37220    -999.25   47.92000    9.47670    6.61230    9.69810    2.79270    0.14410    -999.25    -999.25   -0.03550    0.00200
 9850.00000  -76.63450    -999.25    1.76620  195.84690    -999.25   47.93820    9.00720   10.30900    8.91370    2.77110    0.03400    -999.25    -999.25   -0.03110    0.00170
 9900.00000 -130.09260  499.64440    7.49090  114.87520    -999.25   48.84610    8.76260    8.02340    8.74200    2.73730    0.01410    -999.25    -999.25   -0.02040    0.00810
 9950.00000 -123.67960  576.63820    7.53440  123.85720    -999.25   48.98650    8.77720    7.04580    8.80180    2.76630    0.01450    -999.25    -999.25   -0.05040    0.00710
 10000.00000 -103.83880    -999.25    5.30030  127.10710    -999.25   49.28910    8.70290   11.35700    8.84390    2.77650    0.04210    -999.25    -999.25   -0.03590    0.01200
 10050.00000 -157.01550  209.25500    8.23170   94.06720    -999.25   49.88180    8.79400    9.91390    8.74720    2.72260    0.00710    -999.25    -999.25    0.00140    0.01280
 10100.00000 -198.09410   29.51820   39.04420   83.58790    -999.25   53.68820    8.21390   10.53440    8.49940    2.69190    0.05420    -999.25    -999.25    0.02000    0.06450
 10150.00000 -174.62730   52.09490   22.65270   41.01710    -999.25   94.70720    8.57390   11.10730    8.52750    2.45310    0.09280    -999.25    -999.25    0.13880    0.26100
 10200.00000 -173.14340   39.97830   30.41200   60.83450    -999.25   51.97540    8.53330    9.30320    8.59260    2.74800    0.04950    -999.25    -999.25   -0.02660    0.10000
 10250.00000 -165.55630    9.61540  107.82560   42.72770    -999.25   49.10370    8.56100    9.79010    8.78220    2.84430    0.06010    -999.25    -999.25   -0.09310    0.08010
 10300.00000 -127.13400    7.55020  135.41210   20.02730    -999.25   81.08470    8.39610   11.78550    8.57090    2.62610    0.07710    -999.25    -999.25    0.00720    0.16780
 10350.00000 -171.91020    3.22640  326.40580   18.91730    -999.25   54.34530    8.68150   27.60080    8.55140    2.78020    0.10020    -999.25    -999.25   -0.03520    0.14240
 10400.00000 -154.96850   11.07460  117.74230   48.28920    -999.25   46.73160    8.53170   13.62980    8.71860    2.78700    0.05890    -999.25    -999.25   -0.05290    0.08980
 10450.00000 -175.63130   14.77260   77.70980   46.48920    -999.25   49.86560    8.68230   14.24190    8.68420    2.77020    0.09160    -999.25    -999.25   -0.00190    0.12640
 10500.00000 -180.56430  108.44440   18.80210   93.08890    -999.25   47.74800    8.98070   19.13240    8.98020    2.83630    0.24190    -999.25    -999.25   -0.05310    0.05970
