~Version ---------------------------------------------------
VERS.      2.0 : CWLS log ASCII Standard -VERSION 2.0
WRAP.       NO : One line per depth step
CREA. 11/10/17 : LAS Creation Date
~Well ------------------------------------------------------
STRT.FT                          1150.0 : START DEPTH
STOP.FT                         11400.0 : STOP DEPTH
STEP.FT                        50.00000 : STEP LENGTH
NULL.                           -999.25 : NULL VALUE
COMP.              PETROFINA CANADA LTD : COMPANY
WELL. FINA AMOCO HB KAYBOBS 11-33-60-20 : WELL
FLD .                                   : FIELD
LOC .                                   : LOCATION
CTRY.                            CANADA : COUNTRY
SRVC.                      Schlumberger : SERVICE COMPANY
DATE.                       07-Apr-1977 : LOGDATE
PROV.                           Alberta : PROVINCE
UWI .                  100113306020W500 : UNIQUE WELL ID
SLAT.WGS84                     54.23446 : SURFACE LATITUDE
SLON.WGS84                    -116.9427 : SURFACE LONGITUDE
~Curve Information -----------------------------------------
DEPT    .FT    : Depth Curve
CALDED  .IN    : CALIPER CNFD LOG
CALSED  .IN    : CALIPER FROM BCS LOG [ADJ. TO GRDED]
CALWS   .IN    : CALIPER [CALSED]
CONDWS  .MMHO  : CONDUCTIVITY [1000/DRESWS]
DCORWS  .G/C3  : DENSITY CORRECTION [DRHOED]
DENWS   .G/C3  : FORMATION BULK DENSITY [RHOBED]
DPHILSED.V/V   : DENSITY POROSITY LIMESTONE [M=2.71, F=1.00] FROM CNFD LOG [ADJ. TO RHOBED]
DPHISSED.V/V   : DENSITY POROSITY SANDSTONE [M=2.65, F=1.00] FROM CNFD LOG [ADJ. TO RHOBED]
DPOLSWS .V/V   : DENSITY POROSITY LIMESTONE [CALCULATED FROM DENWS, M=2.71, F=1.00]
DRESWS  .OHMM  : DEEP RESISTIVITY [ILDED]
DRHOED  .G/C3  : DENSITY CORRECTION FROM CNFD LOG
DTED    .US/F  : INTERVAL TRANSIT TIME FROM BCS LOG [ADJ. TO GRDED]
DTWS    .US/F  : COMPRESSIONAL SONIC [DTWS]
GRDED   .GAPI  : GAMMA RAY FROM CNFD LOG
GRSED   .GAPI  : GAMMA RAY FROM BCS LOG [ADJ. TO GRDED]
GRWS    .GAPI  : GAMMA RAY [GRSED]
ILDED   .OHMM  : DEEP INDUCTION FROM DILL LOG
ILMED   .OHMM  : MEDIUM INDUCTION FROM DILL LOG
LL8ED   .OHMM  : LATEROLOG FROM DILL LOG
MRESWS  .OHMM  : MEDIUM RESISTIVITY [ILMED]
NPHILSED.V/V   : NEUTRON POROSITY LIMESTONE FROM CNFD LOG [ADJ. TO RHOBED]
NPHISSED.V/V   : NEUTRON POROSITY SANDSTONE FROM CNFD LOG [ADJ. TO RHOBED]
NPOLSWS .V/V   : NEUTRON POROSITY LIMESTONE [NPHISSED MATRIX CONVERSION FOR LIMESTONE, SPL. TO NPHILSED @ 7450']
RHOBED  .G/C3  : BULK DENSITY FROM CNFD LOG
SPRED   .MV    : SPONTANEOUS POTENTIAL FROM DILL LOG
SPWS    .MV    : SPONTANEOUS POTENTIAL [BASELINE 0 MV, SPRED]
SRESWS  .OHMM  : SHALLOW RESISTIVITY [LL8ED]
~Params ----------------------------------------------------
PD  .                     GL : PERMANENT DATUM
EPD .FT                 2961 : ELEVATION PERMANENT DATUM
LMF .                     KB : LOG MEASURED FROM
DAPD.FT                   18 : FEET ABOVE PERMANENT DATUM
EKB .FT                 2979 : KELLY BUSHING
EGL .FT                 2961 : GROUND LEVEL
DATE.               04/07/77 : RUN DATE
RUN .                      1 : RUN NUMBER
DD  .FT                11429 : DEPTH DRILLER
DL  .FT                11423 : DEPTH LOGGER
BLI .FT                11417 : BOTTOM LOG INTERVAL
TLI .FT                 1195 : TOP LOG INTERVAL
CBD .FT                 1195 : CASING BOTTOM DRILLER
CBL .FT                 1195 : CASING BOTTOM LOGGER
BS  .IN                 8.75 : BIT SIZE
BSD .FT                11429 : BIT SIZE AT DEPTH
DFT .               GEL CHEM : DRILLING FLUID TYPE
DFD .                      9 : DRILLING FLUID DENSITY
DFV .                     98 : DRILLING FLUID VISCOSITY
DFPH.                    9.5 : DRILLING FLUID PH
MSS .               FLOWLINE : MUD SAMPLE SOURCE
RMS .OHMM               1.54 : RESISTIVITY MUD SAMPLE
MST .DEGF                 65 : MUD SAMPLE TEMPERATURE
RMB .OHMM               0.51 : RESISTIVITY MUD AT BHT
TCS .HRS                   4 : TIME CIRCULATED STOPPED
LUN .             OSU C 3704 : LOGGING UNIT NUMBER
LUL .                    EDM : LOGGING UNIT LOCATION
ENGI.               MCDONALD : RECORDING ENGINEER
WITN.               BOLEANTU : WITNESSED BY
CLNT.                A2DTECH : CLIENT CODE
ORIG.            2" 5" PRINT : ORIGIN OF DATA
UWI .       100113306020W500 : UNIQUE WELL ID
DICO. A2D Technologies, Inc. : DIGITIZING COMPANY
~Other -----------------------------------------------------
~ASCII -----------------------------------------------------
# ...
 5050.00000    8.80770    9.41380    9.41380   91.89670    0.21910    2.11000    -999.25    0.16350    0.35090   10.88180    0.21910   80.35810   80.35810  128.61090  107.09280  108.83490   10.88180   10.35190   11.28960   10.35190    -999.25    0.21210    0.16850    2.11000 -274.72500   -3.64210   11.28960
 5100.00000    8.70260    9.79980    9.79980  117.08510    0.23810    2.11280    -999.25    0.15830    0.34920    8.54080    0.23810   81.82240   81.82240  138.97860  117.24250  116.68300    8.54080    8.11880    9.70510    8.11880    -999.25    0.21750    0.17390    2.11280 -274.70820   -4.14200    9.70510
 5150.00000    8.91160    9.92110    9.92110  115.17690    0.23400    2.17120    -999.25    0.12950    0.31510    8.68230    0.23400   83.90190   83.90190  134.52150  111.51570  116.54340    8.68230    8.16540    9.92830    8.16540    -999.25    0.21510    0.17150    2.17120 -273.74130   -3.68910    9.92830
 5200.00000    9.01050    9.38780    9.38780   96.58100    0.21080    2.27270    -999.25    0.06650    0.25570   10.35400    0.21080   87.33170   87.33170  154.80440  120.63230  127.35030   10.35400   10.08070   11.61980   10.08070    -999.25    0.25550    0.21160    2.27270 -274.59090   -5.05280   11.61980
 5250.00000    9.03810    9.37930    9.37930   93.27400    0.25120    2.26570    -999.25    0.06740    0.25980   10.72110    0.25120   87.50720   87.50720  143.08920  127.84200  129.47490   10.72110   10.43610   12.61000   10.43610    -999.25    0.25320    0.20930    2.26570 -271.47390   -2.44990   12.61000
 5300.00000    9.01440    9.29720    9.29720   97.84510    0.19210    2.43160    -999.25   -0.03020    0.16280   10.22100    0.19210   86.41820   86.41820  138.67840  129.10080  127.59430   10.22100    9.76510   12.22890    9.76510    -999.25    0.26870    0.22470    2.43160 -271.73450   -3.22200   12.22890
 5350.00000    8.82250    9.00540    9.00540   57.80680    0.09290    2.56970    -999.25   -0.11980    0.08200   17.29900    0.09290   80.90020   80.90020  139.91960  122.91840  122.91840   17.29900   18.70350   21.40370   18.70350    -999.25    0.20240    0.15890    2.56970 -270.39790   -2.40200   21.40370
 5400.00000    8.74700    9.13590    9.13590   79.79950    0.17020    2.42510    -999.25   -0.04170    0.16660   12.53140    0.17020   89.24070   89.24070  152.87710  128.42500  128.42500   12.53140   11.95000   15.90940   11.95000    -999.25    0.23710    0.19320    2.42510 -271.33570   -3.85390   15.90940
 5450.00000    8.87300    8.79340    8.79340   45.86020    0.01730    2.54680    -999.25   -0.09900    0.09540   21.80540    0.01730   94.62600   94.62600  158.42290  142.63920  143.59050   21.80540   23.47290   32.51450   23.47290    -999.25    0.24900    0.20510    2.54680 -265.94690    1.02090   32.51450
 5500.00000    9.13740    8.99330    8.99330   98.53480    0.20630    2.13320    -999.25    0.15430    0.33730   10.14870    0.20630   91.92320   91.92320  141.73550  122.01590  119.88900   10.14870    9.73140   12.42860    9.73140    -999.25    0.28920    0.24520    2.13320 -270.19920   -3.74550   12.42860
 5550.00000    9.08910    9.25740    9.25740  107.85400    0.20760    2.17470    -999.25    0.12330    0.31300    9.27710    0.20760   85.31980   85.31980  133.42740  112.88610  112.88610    9.27710    9.79530   10.27130    9.79530    -999.25    0.24600    0.20220    2.17470 -272.34100   -6.39880   10.27130
 5600.00000    9.24100   10.49710   10.49710  138.50990    0.19380    2.05090    -999.25    0.19420    0.38540    7.21970    0.19380   81.45420   81.45420  111.67280  108.15320  108.15320    7.21970    6.56630    7.82730    6.56630    -999.25    0.25470    0.21080    2.05090 -272.99800   -7.57250    7.82730
 5650.00000    9.01190   10.57710   10.57710  111.34620    0.16670    2.05580    -999.25    0.20730    0.38260    8.98100    0.16670   90.32140   90.32140  109.22490   95.92720   95.92720    8.98100    8.55450   10.16480    8.55450    -999.25    0.26290    0.21890    2.05580 -274.49360   -9.58210   10.16480
 5700.00000    8.78810    9.77400    9.77400  126.35680    0.26050    2.17510    -999.25    0.13060    0.31280    7.91410    0.26050   79.88900   79.88900  127.16820  105.94950  105.94950    7.91410    7.68690    8.53970    7.68690    -999.25    0.19820    0.15480    2.17510 -271.79140   -7.39400    8.53970
 5750.00000    8.62920    9.09960    9.09960   31.01780    0.01750    2.62500    -999.25   -0.13670    0.04970   32.23960    0.01750   64.09480   64.09480   60.75910   54.25970   54.25970   32.23960   30.67630   35.37220   30.67630    -999.25    0.01970   -0.00600    2.62500 -284.71480  -20.83150   35.37220
 5800.00000    8.75040    9.62940    9.62940   82.35000    0.18160    2.67960    -999.25   -0.14300    0.01780   12.14340    0.18160   71.25940   71.25940  118.42780   98.69920   98.69920   12.14340   12.82660   13.85650   12.82660    -999.25    0.10800    0.06620    2.67960 -269.35510   -5.98330   13.85650
 5850.00000    9.10360   11.08240   11.08240  179.41730    0.22950    2.49030    -999.25   -0.05900    0.12850    5.57360    0.22950   81.16230   81.16230  135.04360   94.78530   98.10540    5.57360    5.17570    6.80190    5.17570    -999.25    0.24070    0.19690    2.49030 -268.34850   -5.49330    6.80190
 5900.00000   10.85610   10.74060   10.74060  134.96190    0.14030    2.55160    -999.25   -0.11840    0.09260    7.40950    0.14030   82.37030   82.37030  152.01140  116.80250  109.48190    7.40950    7.12030    8.67140    7.12030    -999.25    0.23870    0.19490    2.55160 -267.94470   -5.60360    8.67140
 5950.00000   10.75290   11.10600   11.10600  178.90050    0.10360    2.49030    -999.25   -0.05940    0.12850    5.58970    0.10360   93.80190   93.80190  164.11680  126.73620  129.84520    5.58970    5.15980    6.77020    5.15980    -999.25    0.25400    0.21010    2.49030 -266.17270   -4.34560    6.77020
 6000.00000   10.89610   11.18670   11.18670  237.54660    0.13200    2.32210    -999.25    0.03340    0.22680    4.20970    0.13200   94.51140   94.51140  136.22540  110.56470  112.13290    4.20970    3.71970    4.97270    3.71970    -999.25    0.35200    0.30840    2.32210 -268.66020   -7.34720    4.97270
 6050.00000   11.69350   10.76030   10.76030  191.84470    0.11500    1.70030    -999.25    0.40310    0.59050    5.21260    0.11500   84.03690   84.03690  101.21600   90.84430   86.98770    5.21260    4.42000    5.43870    4.42000    -999.25    0.43450    0.39240    1.70030 -268.58080   -7.77930    5.43870
 6100.00000   10.75130   10.68060   10.68060  164.26570    0.16260    1.89210    -999.25    0.28840    0.47830    6.08770    0.16260   81.87300   81.87300  125.50090  106.50790  104.57480    6.08770    6.38060    7.13400    6.38060    -999.25    0.24410    0.20020    1.89210 -267.58640   -7.30150    7.13400
 6150.00000    9.58550    9.15510    9.15510   42.79590    0.06930    2.58580    -999.25   -0.13130    0.07260   23.36670    0.06930   66.79090   66.79090   77.14220   67.12460   59.15240   23.36670   26.32510   31.27300   26.32510    -999.25    0.07250    0.03410    2.58580 -266.47590   -6.70510   31.27300
 6200.00000    9.98930   10.59220   10.59220   88.81390    0.22600    2.33960    -999.25    0.02200    0.21660   11.25950    0.22600   73.68360   73.68360  106.58500   96.22970   93.50680   11.25950   11.70690   12.50830   11.70690    -999.25    0.12120    0.07890    2.33960 -264.64380   -5.38710   12.50830
 6250.00000   10.03990   10.25000   10.25000   97.28860    0.23620    2.41120    -999.25   -0.01540    0.17470   10.27870    0.23620   78.78510   78.78510  120.64170   99.77340  103.13280   10.27870   10.87610   12.63080   10.87610    -999.25    0.28160    0.23760    2.41120 -266.82830   -8.08570   12.63080
 6300.00000    9.79740    9.96380    9.96380   62.59890    0.03410    2.64540    -999.25   -0.15440    0.03780   15.97580    0.03410   70.34240   70.34240   67.72960   65.61700   63.15760   15.97580   15.53220   16.80480   15.53220    -999.25    0.08590    0.04590    2.64540 -272.32300  -15.81490   16.80480
