~Version ---------------------------------------------------
VERS.      2.0 : CWLS log ASCII Standard -VERSION 2.0
WRAP.       NO : One line per depth step
CREA. 01/03/18 : LAS Creation Date
~Well ------------------------------------------------------
STRT.FT                             300.0 : START DEPTH
STOP.FT                            8850.0 : STOP DEPTH
STEP.FT                          50.00000 : STEP LENGTH
NULL.                             -999.25 : NULL VALUE
COMP.            HOME OIL COMPANY LIMITED : COMPANY
WELL. HOME FPC ET AL MORSE RIVER 4-2-66-9 : WELL
FLD .                                     : FIELD
LOC .                                     : LOCATION
CTRY.                              CANADA : COUNTRY
SRVC.              Schlumberger of Canada : SERVICE COMPANY
DATE.                         16-Jan-1959 : LOGDATE
PROV.                             Alberta : PROVINCE
UWI .                    100040206609W500 : UNIQUE WELL ID
SLAT.WGS84                       54.67779 : SURFACE LATITUDE
SLON.WGS84                      -115.2573 : SURFACE LONGITUDE
~Curve Information -----------------------------------------
DEPT  .FT     : Depth Curve
CALDED.IN     : CALIPER FROM DENSITY LOG [ADJ TO MCALED]
CALWS .IN     : CALIPER [MCALED]
CILDED.MMHO   : CONDUCTIVITY FROM IE LOG
CONDWS.MMHO   : CONDUCTIVITY [1000/DRESWS]
DENED .KG/M3  : DENSITY FROM DENSITY LOG [ADJ TO MCALED]
DRESWS.OHMM   : DEEP RESISTIVITY [ILDED]
DTED  .US/F   : DELTA TIME FROM SONIC LOG [ADJ TO SPRED]
DTWS  .US/F   : DELTA TIME [DTED]
GRED  .CU     : GAMMA RAY FROM GR LOG
GRWS  .CU     : GAMMA RAY [GRED]
ILDED .OHMM   : INDUCTION LOG DEEP RESISTIVITY FROM IE LOG
LLED  .OHMM   : LATEROLOG RESISTIVITY FROM LATEROLOG
MCALED.IN     : CALIPER MICROLOG
SNED  .OHMM   : 16 INCH SHORT NORMAL RESISTIVITY FROM IE LOG
SPRED .MV     : SPONTANEOUS POTENTIAL FROM IE LOG
SPSED .MV     : SPONTANEOUS POTENTIAL FROM SONIC LOG [ADJ TO SPRED]
SPWS  .MV     : SPONTANEOUS POTENTIAL [BASELINE 0 MV] [SPRED]
SRESWS.OHMM   : SHALLOW RESISTIVITY [SNED]
~Params ----------------------------------------------------
LMF .                     KB : LOG MEASURED FROM
DMF .                     KB : DRILLING MEASURED FROM
EKB .FT                 3358 : KELLY BUSHING
EGL .FT                 3345 : GROUND LEVEL
DATE.               01/16/59 : RUN DATE
RUN .                      2 : RUN NUMBER
DD  .FT                 8880 : DEPTH DRILLER
DL  .FT                 8891 : DEPTH LOGGER
BLI .FT                 8886 : BOTTOM LOG INTERVAL
TLI .FT                 5006 : TOP LOG INTERVAL
BS  .IN                    9 : BIT SIZE
BSD .FT                 8880 : BIT SIZE AT DEPTH
DFT .                    GEL : DRILLING FLUID TYPE
DFD .                   10.3 : DRILLING FLUID DENSITY
DFV .                    109 : DRILLING FLUID VISCOSITY
DFPH.                    9.5 : DRILLING FLUID PH
DFL .                    6.2 : DRILLING FLUID LOSS
RMS .OHMM                3.2 : RESISTIVITY MUD SAMPLE
MST .DEGF                 54 : MUD SAMPLE TEMPERATURE
RMF .OHMM                2.4 : RESISTIVITY MUD FILTRATE SAMPLE
MFST.DEGF                 64 : MUD FILTRATE SAMPLE TEMPERATURE
RMC .OHMM                3.4 : RESISTIVITY MUD CAKE
MCST.DEGF                 56 : MUD CAKE SAMPLE TEMPERATURE
RMB .OHMM                1.1 : RESISTIVITY MUD AT BHT
TCS .HRS                 2.5 : TIME CIRCULATED STOPPED
LUN .                   2765 : LOGGING UNIT NUMBER
LUL .                     SH : LOGGING UNIT LOCATION
ENGI.                  KEYES : RECORDING ENGINEER
WITN.                  BEARD : WITNESSED BY
CLNT.                A2DTECH : CLIENT CODE
ORIG.            2" 5" PRINT : ORIGIN OF DATA
UWI .       100040206609W500 : UNIQUE WELL ID
DICO. A2D Technologies, Inc. : DIGITIZING COMPANY
~Other -----------------------------------------------------
IE-LL-ML-GR-DEN-SONIC LOGS RUN
~ASCII -----------------------------------------------------
# ...
 2250.00000    -999.25    -999.25  307.74430  307.74430 2002.90000    3.24950    -999.25    -999.25   27.59980   27.59980    2.44920    -999.25    -999.25    3.55480 -100.76850    -999.25   -4.14650    3.55480
 2300.00000    -999.25    -999.25  102.17180   96.67320 2170.30000   10.39030    -999.25    -999.25   22.62740   22.62740   10.39030    -999.25    -999.25    9.62260 -131.74230    -999.25  -35.34710    9.62260
 2350.00000    -999.25    -999.25  243.36110  243.36110 2234.90000    4.10910    -999.25    -999.25   24.68760   24.68760    3.19660    -999.25    -999.25    4.14450 -100.33780    -999.25   -4.17170    4.14450
 2400.00000    -999.25    -999.25  266.72830  266.72830 2300.60000    3.74940    -999.25    -999.25   33.32630   33.32630    2.99200    -999.25    -999.25    3.61080  -98.35280    -999.25   -2.41340    3.61080
 2450.00000    -999.25    -999.25  256.88090  256.88090 2187.60000    3.89290    -999.25    -999.25   34.88880   34.88880    3.14210    -999.25    -999.25    3.95690  -98.51780    -999.25   -2.80750    3.95690
 2500.00000    -999.25    -999.25  202.97340  219.92520 2132.00000    4.54700    -999.25    -999.25   42.63520   42.63520    4.54700    -999.25    -999.25    4.95920  -99.66550    -999.25   -4.24600    4.95920
 2550.00000    -999.25    -999.25  177.84270  186.02700 2217.10000    5.37570    -999.25    -999.25   48.10610   48.10610    5.37570    -999.25    -999.25    5.95640 -105.48920    -999.25  -10.45290    5.95640
 2600.00000    -999.25    -999.25  183.75140  192.93100 2268.80000    5.18320    -999.25    -999.25   53.46840   53.46840    5.18320    -999.25    -999.25    6.14470 -106.43070    -999.25  -11.78140    6.14470
 2650.00000    -999.25    -999.25  209.17330  232.29940 2262.95000    4.30490    -999.25    -999.25   54.58760   54.58760    4.30490    -999.25    -999.25    5.24650 -106.29300    -999.25  -12.02670    5.24650
 2700.00000    -999.25    -999.25  154.11420  150.63640 2199.70000    6.63850    -999.25    -999.25   82.71100   82.71100    6.63850    -999.25    -999.25    7.96960 -103.70100    -999.25   -9.82180    7.96960
 2750.00000    -999.25    -999.25  156.82500  154.28770 2118.00000    6.48140    -999.25    -999.25   65.07600   65.07600    6.48140    -999.25    -999.25    7.31740 -100.35220    -999.25   -6.85810    7.31740
 2800.00000    -999.25    -999.25  169.58780  170.00210 2177.30000    5.88240    -999.25    -999.25   49.51100   49.51100    5.88240    -999.25    -999.25    6.62290 -106.00800    -999.25  -12.89700    6.62290
 2850.00000    -999.25    -999.25  190.55290  198.59400 2211.60000    5.03540    -999.25    -999.25   54.68030   54.68030    5.03540    -999.25    -999.25    5.68580 -109.06840    -999.25  -16.34440    5.68580
 2900.00000    -999.25    -999.25  122.51500  120.53320 2204.70000    8.29700    -999.25    -999.25   46.81820   46.81820    8.29700    -999.25    -999.25    8.61370 -106.44520    -999.25  -14.10430    8.61370
 2950.00000    -999.25    -999.25  160.83310  156.24270 2179.50000    6.40030    -999.25    -999.25   53.73010   53.73010    6.40030    -999.25    -999.25    6.95390 -108.12500    -999.25  -16.17110    6.95390
 3000.00000    -999.25    -999.25  163.43300  157.43320 2133.60000    6.35190    -999.25    -999.25   47.35650   47.35650    6.35190    -999.25    -999.25    6.63540 -108.00560    -999.25  -16.43680    6.63540
 3050.00000    -999.25    -999.25  201.55710  225.74710 2193.30000    4.42990    -999.25    -999.25   55.67810   55.67810    4.42990    -999.25    -999.25    5.30250 -106.76130    -999.25  -15.57560    5.30250
 3100.00000    -999.25    -999.25  137.11370  134.52610 2172.30000    7.43350    -999.25    -999.25   44.21760   44.21760    7.43350    -999.25    -999.25    7.78180 -109.74060    -999.25  -18.94190    7.78180
 3150.00000    -999.25    -999.25  154.92670  152.02700 2166.60000    6.57780    -999.25    -999.25   52.08550   52.08550    6.57780    -999.25    -999.25    7.03520 -108.89720    -999.25  -18.48170    7.03520
 3200.00000    -999.25    -999.25  166.26310  166.70280 2185.30000    5.99870    -999.25    -999.25   48.35010   48.35010    5.99870    -999.25    -999.25    6.56450 -104.85950    -999.25  -14.83090    6.56450
 3250.00000    -999.25    -999.25  205.19180  220.58990 2173.80000    4.53330    -999.25    -999.25   56.41190   56.41190    4.53330    -999.25    -999.25    5.46780 -100.69060    -999.25  -11.04710    5.46780
 3300.00000    -999.25    -999.25  181.30820  192.61360 2243.55000    5.19190    -999.25    -999.25   59.23510   59.23510    5.19190    -999.25    -999.25    6.57380  -99.56580    -999.25  -10.30540    6.57380
 3350.00000    -999.25    -999.25  170.82440  171.19770 2314.20000    5.84120    -999.25    -999.25   59.06480   59.06480    5.84120    -999.25    -999.25    7.10660  -96.46930    -999.25   -7.59590    7.10660
 3400.00000    -999.25    -999.25  131.96130  124.74740 2264.75000    8.01620    -999.25    -999.25   83.63430   83.63430    8.01620    -999.25    -999.25   11.59460  -93.89540    -999.25   -5.41800   11.59460
 3450.00000    -999.25    -999.25  205.23240  230.62730 2310.60000    4.33600    -999.25    -999.25   43.08630   43.08630    4.33600    -999.25    -999.25    5.38630  -97.45940    -999.25   -9.73590    5.38630
 3500.00000    -999.25    -999.25  173.04500  177.78410 2263.30000    5.62480    -999.25    -999.25   49.87830   49.87830    5.62480    -999.25    -999.25    6.46610  -95.86460    -999.25   -8.89120    6.46610
 3550.00000    -999.25    -999.25  167.92510  169.35910 2201.85000    5.90470    -999.25    -999.25   51.51860   51.51860    5.90470    -999.25    -999.25    6.85310  -94.86790    -999.25   -8.64090    6.85310
 3600.00000    -999.25    -999.25  204.21590  222.41500 2328.90000    4.49610    -999.25    -999.25   56.78710   56.78710    4.49610    -999.25    -999.25    5.76480  -93.62270    -999.25   -8.14970    5.76480
 3650.00000    -999.25    -999.25  251.26820  251.26820 2283.90000    3.97980    -999.25    -999.25   57.69700   57.69700    3.25740    -999.25    -999.25    4.64210  -94.62110    -999.25   -9.89450    4.64210
 3700.00000    -999.25    -999.25  233.00070  233.00070 2247.30000    4.29180    -999.25    -999.25   55.15080   55.15080    3.57730    -999.25    -999.25    5.03540  -91.74450    -999.25   -7.77180    5.03540
 3750.00000    -999.25    -999.25  422.20450  422.20450 2245.70000    2.36850    -999.25    -999.25   68.38480   68.38480    1.41160    -999.25    -999.25    2.56920  -85.44160    -999.25   -2.21910    2.56920
 3800.00000    -999.25    -999.25  479.05710  479.05710 2210.50000    2.08750    -999.25    -999.25   47.27120   47.27120    1.35430    -999.25    -999.25    2.29970  -85.19460    -999.25   -2.76860    2.29970
 3850.00000    -999.25    -999.25  308.19480  308.19480 2374.30000    3.24470    -999.25    -999.25   50.89020   50.89020    2.41560    -999.25    -999.25    3.59970  -85.65190    -999.25   -4.05130    3.59970
 3900.00000    -999.25    -999.25  332.50850  332.50850 2374.25000    3.00750    -999.25    -999.25   54.16980   54.16980    2.04280    -999.25    -999.25    3.18070  -88.50480    -999.25   -7.72130    3.18070
 3950.00000    -999.25    -999.25  211.84840  237.71040 2373.10000    4.20680    -999.25    -999.25   68.24800   68.24800    4.20680    -999.25    -999.25    5.44650  -84.27440    -999.25   -4.31630    5.44650
 4000.00000    -999.25    9.99540  436.62590  436.62590 2359.40000    2.29030    -999.25    -999.25   47.16620   47.16620    1.53760    -999.25    9.99540    2.40710  -84.39510    -999.25   -5.25830    2.40710
 4050.00000    9.21380    9.15040  292.96860  292.96860 2303.30000    3.42080    -999.25    -999.25   35.36480   35.36480    2.51680    -999.25    9.15040    4.72900 -105.04760    -999.25  -26.72790    4.72900
 4100.00000    8.75800    8.72490  209.72790  228.73870 2256.90000    4.37180    -999.25    -999.25   32.72670   32.72670    4.37180    -999.25    8.72490   10.25340 -144.78380    -999.25  -67.28950   10.25340
 4150.00000    9.27730    9.08200  213.61640  238.21550 2355.85000    4.19810    -999.25    -999.25   33.00480   33.00480    4.19810    -999.25    9.08200    5.83920 -121.50870    -999.25  -44.83150    5.83920
