~Version ---------------------------------------------------
VERS.      2.0 : CWLS log ASCII Standard -VERSION 2.0
WRAP.       NO : One line per depth step
CREA. 09/23/14 : LAS Creation Date
~Well ------------------------------------------------------
STRT.M                           500.0 : START DEPTH
STOP.M                          4800.0 : STOP DEPTH
STEP.M                        50.00000 : STEP LENGTH
NULL.                          -999.25 : NULL VALUE
COMP. AMOCO CANADA PETROLEUM CO., LTD. : COMPANY
WELL.      AMOCO BLACKSTONE 3-12-45-17 : WELL
FLD .                                  : FIELD
LOC .                                  : LOCATION
CTRY.                           CANADA : COUNTRY
SRVC.           Schlumberger of Canada : SERVICE COMPANY
DATE.                      19-Sep-1980 : LOGDATE
PROV.                          Alberta : PROVINCE
UWI .                 100031204517W500 : UNIQUE WELL ID
SLAT.WGS84                    52.86072 : SURFACE LATITUDE
SLON.WGS84                    -116.338 : SURFACE LONGITUDE
~Curve Information -----------------------------------------
DEPT    .M      : DEPTH METER
CALDED  .MM     : CALIPER FROM DENSITY LOG [ADJ. TO DIL LOG]
CALRED  .MM     : CALIPER FROM DLL LOG
CALSED  .MM     : CALIPER FROM SONIC LOG
CALWS   .MM     : CALIPER [CALSED SPL. TO CALRED @ 4812.5 M]
CONDWS  .MMHO   : CONDUCTIVITY [1000/DRESWS]
DCORWS  .KG/M3  : DENSITY  CORRECTION [DRHOED]
DENWS   .KG/M3  : FORMATION BULK DENSITY [CALC. FROM DPOLSWS, M=2710, F=1000]
DPHILSED.V/V    : DENSITY POROSITY LIMESTONE [M=2710, F=1000] FROM DENSITY LOG [ADJ. TO DIL LOG]
DPHISSED.V/V    : DENSITY POROSITY SANDSTONE [M=2650, F=1000] FROM DENSITY LOG [ADJ. TO DPHILSED/DIL LOG]
DPOLSWS .V/V    : DENSITY POROSITY LIMESTONE [DPHISSSED CONVERTED TO LIMESTONE MATRIX , M=2710, F=1000, SPL. TO DPHILSED @ 3731.7 M]
DRESWS  .OHMM   : DEEP RESISTIVITY [ILDED]
DRHOED  .KG/M3  : DENSITY CORRECTION FROM DENSITY LOG [ADJ. TO DPHISSED/DPHILSED/DIL LOG]
DTED    .US/M   : DELTA TIME FROM SONIC LOG
DTWS    .US/M   : COMPRESSIONAL SONIC [DTED]
GRDED   .GAPI   : GAMMA RAY FROM DENSITY LOG [ADJ. TO DIL LOG]
GRRED   .GAPI   : GAMMA RAY FROM DLL LOG
GRSED   .GAPI   : GAMMA RAY FROM SONIC LOG
GRWS    .GAPI   : GAMMA RAY [GRSED SPL. TO GRRED @ 4811.2 M]
ILDED   .OHMM   : DEEP INDUCTION LOG RESISTIVITY FROM DIL LOG
ILMED   .OHMM   : MEDIUM  INDUCTION LOG RESISTIVITY FROM DIL LOG
LLDED   .OHMM   : DEEP LATEROLOG RESISTIVITY FROM DLL LOG
LLSED   .OHMM   : SHALLOW LATEROLOG RESISTIVITY FROM DLL LOG
MRESWS  .OHMM   : MEDIUM RESISTIVITY [ILMED]
MSFLED  .OHMM   : MICROSPHERICALLY FOCUSED LOG RESISTIVITY FROM DLL LOG
NPHILSED.V/V    : NEUTRON POROSITY LIMESTONE FROM DENSITY LOG [ADJ. TO DIL LOG]
NPHISSED.V/V    : NEUTRON POROSITY SANDSTONE FROM DENSITY LOG [ADJ. TO DPHILSED/DIL LOG]
NPOLSWS .V/V    : NEUTRON POROSITY LIMESTONE [NPHISSED MATRIX CONVERSION FOR LIMESTONE, SPL. TO NPHILSED @ 3733 M]
RHOBED  .KG/M3  : BULK DENSITY FROM DENSITY LOG [ADJ. TO DPHISSED/DPHILSED/DIL LOG]
SFLED   .OHMM   : SHALLOW FOCUSED LOG RESISTIVITY FROM DIL LOG
SPRED   .MV     : SPONTANEOUS POTENTIAL FROM DIL LOG
SPWS    .MV     : SPONTANEOUS POTENTIAL [BASELINE  0 MV, SPRED]
SRESWS  .OHMM   : SHALLOW RESISTIVITY [SFLED]
~Params ----------------------------------------------------
PD  .                         GL : PERMANENT DATUM
EPD .M                    1169.9 : ELEVATION PERMANENT DATUM
LMF .                         KB : LOG MEASURED FROM
DAPD.M                       8.3 : FEET ABOVE PERMANENT DATUM
DMF .                         KB : DRILLING MEASURED FROM
EKB .M                    1178.2 : KELLY BUSHING
EGL .M                    1169.9 : GROUND LEVEL
DATE.                   09/19/80 : RUN DATE
RUN .                          2 : RUN NUMBER
DD  .M                      4833 : DEPTH DRILLER
DL  .M                      4829 : DEPTH LOGGER
BLI .M                      4828 : BOTTOM LOG INTERVAL
TLI .M                      2931 : TOP LOG INTERVAL
CS  .MM                      244 : CASING SIZE
CBD .M                      2934 : CASING BOTTOM DRILLER
CBL .M                      2931 : CASING BOTTOM LOGGER
BS  .MM                      216 : BIT SIZE
BSD .M                      4833 : BIT SIZE AT DEPTH
DFT .                   GEL CHEM : DRILLING FLUID TYPE
DFD .                       1115 : DRILLING FLUID DENSITY
DFV .                         70 : DRILLING FLUID VISCOSITY
DFPH.                       10.5 : DRILLING FLUID PH
DFL .                          6 : DRILLING FLUID LOSS
MSS .                CIRCULATION : MUD SAMPLE SOURCE
RMF .OHMM                   1.16 : RESISTIVITY MUD FILTRATE SAMPLE
MFST.DEGC                   14.4 : MUD FILTRATE SAMPLE TEMPERATURE
RMC .OHMM                   1.96 : RESISTIVITY MUD CAKE
MCST.DEGC                     10 : MUD CAKE SAMPLE TEMPERATURE
MFSS.                     FILTER : MUD FILTRATE SAMPLE SOURCE
MCSS.                      PRESS : MUD CAKE SAMPLE SOURCE
RMB .OHMM                   0.34 : RESISTIVITY MUD AT BHT
TCS .HRS                     245 : TIME CIRCULATED STOPPED
TLAB.HRS                     115 : TIME LOGGER AT BOTTOM
LUN .                       8125 : LOGGING UNIT NUMBER
LUL .                         RD : LOGGING UNIT LOCATION
ENGI.                   GONNASON : RECORDING ENGINEER
WITN.                     NEWELL : WITNESSED BY
CLNT.                    A2DTECH : CLIENT CODE
ORIG. 6.5"/100M 16.5"/100M PRINT : ORIGIN OF DATA
UWI .           100031204517W500 : UNIQUE WELL ID
DICO.     A2D Technologies, Inc. : DIGITIZING COMPANY
~Other -----------------------------------------------------
DIL-DLL-BHC RUN IN COMBO & FDC-CNL-LOG RUN
RHOB AND DRHO CURVES DATA VERIFY FROM SMALL SECTION
~ASCII -----------------------------------------------------
# ...
 2700.00000  310.56270    -999.25  318.72740  318.72740  104.60800    6.36410 2576.74000    -999.25    0.04440    0.07790    9.55950    6.36410  253.72890  253.72890  100.36820    -999.25   81.17770   81.17770    9.55950    9.72300    -999.25    -999.25    9.72300    -999.25    -999.25    0.31990    0.27600 2579.15600   10.75900 -145.66130   -6.43400   10.75900
 2750.00000  308.28030    -999.25  319.87870  319.87870   79.97380   -2.35600 2598.35500    -999.25    0.03130    0.06530   12.50410   -2.35600  231.35780  231.35780   91.71220    -999.25   72.67170   72.67170   12.50410   12.86120    -999.25    -999.25   12.86120    -999.25    -999.25    0.25080    0.20690 2601.07570   15.50170 -144.80870   -5.43190   15.50170
 2800.00000  317.01260    -999.25  335.08210  335.08210  118.75220    8.19700 2605.12000    -999.25    0.02720    0.06130    8.42090    8.19700  247.31240  247.31240   98.90290    -999.25   82.89950   82.89950    8.42090    9.03250    -999.25    -999.25    9.03250    -999.25    -999.25    0.27840    0.23440 2600.98580    9.59070 -144.39790   -4.87150    9.59070
 2850.00000  316.09290    -999.25  325.86860  325.86860   58.44540    1.78500 2605.45000    -999.25    0.02700    0.06110   17.11000    1.78500  231.19200  231.19200   94.11910    -999.25   76.62340   76.62340   17.11000   17.54170    -999.25    -999.25   17.54170    -999.25    -999.25    0.22910    0.18530 2607.53610   21.19260 -142.21570   -2.53970   21.19260
 2900.00000  314.22670    -999.25  315.12870  315.12870   52.03320   49.97840 2560.07500    -999.25    0.05450    0.08770   19.21850   49.97840  232.74800  232.74800   97.78400    -999.25   83.97690   83.97690   19.21850   17.31970    -999.25    -999.25   17.31970    -999.25    -999.25    0.21070    0.16710 2556.80960   18.47800 -146.79910   -9.01250   18.47800
 2950.00000  255.03590  209.18500  208.94740  208.94740   70.17590  164.82930 2524.93000    -999.25    0.07580    0.10820   14.24990  164.82930  235.47510  235.47510   99.50360   99.44310   98.76840   98.76840   14.24990   15.06170   16.65640   17.30090   15.06170   18.55270    -999.25    0.19900    0.15560 2524.48270   15.87120 -140.17760   -4.90130   15.87120
 3000.00000  237.14130  211.07710  211.68960  211.68960   82.60300  241.19650 2434.67500    -999.25    0.13050    0.16100   12.10610  241.19650  250.30070  250.30070  106.33020  101.67490  102.21830  102.21830   12.10610   12.51950   14.87680   14.31520   12.51950   16.34160    -999.25    0.26240    0.21840 2434.98930   13.15540 -139.86020   -5.10780   13.15540
 3050.00000  273.23620  212.47690  211.99320  211.99320   81.76150   70.38740 2454.14500    -999.25    0.11870    0.14960   12.23070   70.38740  278.41930  278.41930  116.88340  111.89070  112.08790  112.08790   12.23070   12.52750   13.45120   13.96920   12.52750    7.75230    -999.25    0.28850    0.24450 2457.35160   11.86510 -138.04610   -3.81770   11.86510
 3100.00000  286.17410  212.33570  211.89660  211.89660   74.51180  139.34650 2242.28500    -999.25    0.24710    0.27350   13.42070  139.34650  304.87070  304.87070  116.31830  108.72860  109.06950  109.06950   13.42070   11.41550   14.67400   13.95450   11.41550    5.38270    -999.25    0.31940    0.27550 2255.66850   14.70330 -137.54080   -3.83630   14.70330
 3150.00000  304.29800  214.31750  214.51500  214.51500  131.72630   21.13190 2606.27500    -999.25    0.02650    0.06070    7.59150   21.13190  276.22780  276.22780   97.90750  108.96620  112.12400  112.12400    7.59150    7.16570    8.51160    8.97870    7.16570    2.96320    -999.25    0.28300    0.23900 2604.14480    8.75640 -135.79440   -2.69180    8.75640
 3200.00000  434.33610  205.15360  203.84450  203.84450  151.99650  150.43660 2368.51000    -999.25    0.17060    0.19970    6.57910  150.43660  378.58870  378.58870  114.72610  121.67550  121.63740  121.63740    6.57910    5.69210    6.29710    6.82540    5.69210    3.44940    -999.25    0.29070    0.24670 2369.07620    6.16680 -137.06280   -5.35120    6.16680
 3250.00000  302.94350  225.34280  225.51510  225.51510  102.12310  242.90750 2407.78000    -999.25    0.14680    0.17670    9.79210  242.90750  262.27740  262.27740  140.88080  145.51820  145.44950  145.44950    9.79210    8.26890    8.93740    9.97080    8.26890    5.75700    -999.25    0.29810    0.25410 2452.97830   10.39530 -133.50610   -3.18560   10.39530
 3300.00000  312.65470  197.05780  196.17420  196.17420   69.07600  207.47120 2554.13500    -999.25    0.05810    0.09110   14.47680  207.47120  220.27960  220.27960   59.74410   69.66270   70.52880   70.52880   14.47680   19.70080    6.23690    6.74960   19.70080   13.14490    -999.25    0.16100    0.11820 2548.76250   35.51980 -132.45290   -3.52340   35.51980
 3350.00000  230.35310  210.04050  209.17370  209.17370   59.96930    5.81080 2682.34000    -999.25   -0.01960    0.01620   16.67520    5.81080  224.72170  224.72170   66.46450   65.23780   65.58740   65.58740   16.67520   15.54850   15.62760   16.02760   15.54850   14.87920    -999.25    0.24020    0.19640 2680.68770   17.71210 -129.35080   -1.81240   17.71210
 3400.00000  232.50420  217.53090  218.00650  218.00650   64.31280    1.93080 2601.32500    -999.25    0.02950    0.06360   15.54900    1.93080  221.32510  221.32510   59.42380   60.87550   60.69130   60.69130   15.54900   17.13330   22.61010   19.81690   17.13330   21.94270    -999.25    0.18070    0.13760 2609.46310   16.31990 -127.92880   -0.79260   16.31990
 3450.00000  227.42210  209.63080  209.44070  209.44070   82.16320  126.10640 2465.69500    -999.25    0.11170    0.14290   12.17090  126.10640  300.21730  300.21730   89.89410   98.06650   97.81550   97.81550   12.17090   12.78090   11.53060   14.75860   12.78090    7.52650    -999.25    0.31930    0.27540 2471.45120   14.40470 -129.88290   -3.07900   14.40470
 3500.00000  290.49410  213.42330  212.82200  212.82200   64.37530  249.94430 2645.71000    -999.25    0.00260    0.03760   15.53390  249.94430  213.99700  213.99700   54.84730   59.95370   60.23780   60.23780   15.53390   16.69920   21.84290   19.64480   16.69920   16.25800    -999.25    0.16120    0.11840 2644.47220   15.43900 -127.90170   -1.43010   15.43900
 3550.00000  245.45850  211.79420  211.96760  211.96760   44.09370   34.45490 2646.53500    -999.25    0.00210    0.03710   22.67900   34.45490  210.38580  210.38580   87.29190   65.93960   65.90780   65.90780   22.67900   25.06090   38.78500   37.90290   25.06090   21.98150    -999.25    0.17880    0.13570 2648.29640   33.26170 -128.03990   -1.90060   33.26170
 3600.00000  229.89950  214.83250  214.88060  214.88060   34.60870   19.87890 2625.08500    -999.25    0.01510    0.04970   28.89450   19.87890  221.11330  221.11330   81.66370   85.62120   83.90040   83.90040   28.89450   31.27970   32.05010   35.57200   31.27970   11.41850    -999.25    0.18850    0.14520 2619.47140   39.48490 -130.76800   -4.96090   39.48490
 3650.00000  299.92010  144.57700  132.54440  132.54440   52.74370  181.23080 2164.90000    -999.25    0.29400    0.31880   18.95960  181.23080  228.69970  228.69970   98.87040  100.74470  100.49640  100.49640   18.95960   20.14700    -999.25    -999.25   20.14700    3.11680    -999.25    0.20600    0.16250 2167.96680   27.44030 -131.81200   -6.33720   27.44030
 3700.00000  274.94390  209.02340  208.76590  208.76590   63.08550  154.85100 2298.71500    -999.25    0.21290    0.24050   15.85150  154.85100  259.53500  259.53500   74.49760   78.85880   79.32720   79.32720   15.85150   16.48030   22.99670   20.29300   16.48030   20.04990    -999.25    0.16700    0.12410 2321.76030   19.62530 -126.48430   -5.59540   19.62530
 3750.00000  220.70710  200.91380  201.12720  201.12720   13.89470   63.39670 2728.63900   -0.01090   -0.06460   -0.01090   71.96970   73.40220  158.25600  158.25600   36.99440   38.44430   37.99800   37.99800   71.96970  172.39280  422.99700  357.64550  172.39280   42.26850    0.06090    0.09110    0.06090 2761.02470  351.19570 -186.28740  -76.10540  351.19570
