~Version ---------------------------------------------------
VERS.      2.0 : CWLS log ASCII Standard -VERSION 2.0
WRAP.       NO : One line per depth step
CREA. 01/05/18 : LAS Creation Date
~Well ------------------------------------------------------
STRT.FT                          300.0 : START DEPTH
STOP.FT                         9300.0 : STOP DEPTH
STEP.FT                       50.00000 : STEP LENGTH
NULL.                          -999.25 : NULL VALUE
COMP.     PAN AMERICAN PETROLEUM CORP. : COMPANY
WELL. PAN AM A-1 HOPE CREEK 6-36-62-13 : WELL
FLD .                                  : FIELD
LOC .                                  : LOCATION
CTRY.                           CANADA : COUNTRY
SRVC.                     Schlumberger : SERVICE COMPANY
DATE.                      21-Feb-1958 : LOGDATE
PROV.                          Alberta : PROVINCE
UWI .                 100063606213W500 : UNIQUE WELL ID
SLAT.WGS84                    54.40496 : SURFACE LATITUDE
SLON.WGS84                   -115.8159 : SURFACE LONGITUDE
~Curve Information -----------------------------------------
DEPT  .FT     : Depth Curve
CALMED.IN     : CALIPER FROM MLL
CALWS .IN     : CALIPER [SPL. MCALED<6136'>CALMED]
CILDED.MMHO   : CONDUCTIVITY FROM RESISTIVITY IEL LOG
CONDWS.MMHO   : CONDUCTIVITY [1000/DRESWS]
DRESWS.OHMM   : DEEP RESISTIVITY [SPL. ILDED/LNED]
GRED  .UR/HR  : GAMMA RAY FROM CBL LOG [DAJ. TO RESISTIVITY]
GRWS  .GAPI   : GAMMA RAY [GRED*10.4]
ILDED .OHMM   : DEEP INDUCTION FROM RESISTIVITY LOG
LL7ED .OHMM   : LATEROLOG 7 FROM RESISTIVITY LL LOG
LNED  .OHMM   : LONG NORMAL RESISTIVITY FROM EL
LT18ED.OHMM   : LATERAL 18' FROM EL
MCALED.IN     : MLT CALIPER FROM CALIPER LOG
MLLED .OHMM   : MICRO FOCUSED LATEROLOG FROM MLL
SN1ED .OHMM   : SHORT NORMAL FROM RESISTIVITY IEL
SNED  .OHMM   : SHORT NORMAL 18" FROM RESISTIVITY LOG
SPR1ED.MV     : SPONTANEOUS POTENTIAL FROM RESISTIVITY
SPRED .MV     : SPONTANEOUS POTENTIAL FROM EL LOG
SPWS  .MV     : SPONTANEOUS POTENTIAL [BASELINE 0 MV, SPRED]
SRESWS.OHMM   : SHALLOW RESISTIVITY [SNED]
~Params ----------------------------------------------------
LMF .                     KB : LOG MEASURED FROM
DMF .                     KB : DRILLING MEASURED FROM
EKB .FT                 3030 : KELLY BUSHING
DATE.               02/21/58 : RUN DATE
RUN .                      2 : RUN NUMBER
DD  .FT                 9350 : DEPTH DRILLER
DL  .FT                 9344 : DEPTH LOGGER
BLI .FT                 9343 : BOTTOM LOG INTERVAL
TLI .FT                 6108 : TOP LOG INTERVAL
BS  .IN                    9 : BIT SIZE
BSD .FT                 9350 : BIT SIZE AT DEPTH
DFT .                    GEL : DRILLING FLUID TYPE
DFD .                    9.9 : DRILLING FLUID DENSITY
DFV .                    102 : DRILLING FLUID VISCOSITY
DFPH.                    9.5 : DRILLING FLUID PH
DFL .                    5.1 : DRILLING FLUID LOSS
RMS .OHMM                3.1 : RESISTIVITY MUD SAMPLE
MST .DEGF                 60 : MUD SAMPLE TEMPERATURE
RMF .OHMM                1.8 : RESISTIVITY MUD FILTRATE SAMPLE
MFST.DEGF                 70 : MUD FILTRATE SAMPLE TEMPERATURE
RMC .OHMM                2.7 : RESISTIVITY MUD CAKE
MCST.DEGF                 71 : MUD CAKE SAMPLE TEMPERATURE
RMB .OHMM                1.1 : RESISTIVITY MUD AT BHT
TCS .HRS                 6.5 : TIME CIRCULATED STOPPED
LUN .                   1785 : LOGGING UNIT NUMBER
ENGI.                LAVERTY : RECORDING ENGINEER
WITN.                JACKSON : WITNESSED BY
CLNT.                A2DTECH : CLIENT CODE
ORIG.            2" 5" PRINT : ORIGIN OF DATA
UWI .       100063606213W500 : UNIQUE WELL ID
DICO. A2D Technologies, Inc. : DIGITIZING COMPANY
~Other -----------------------------------------------------
ALL CURVES APPEAR ON DEPTH ACCEPTED CBL LOG. MERGED LNED TO ILDED AROUND:5727'-5792' 5981'-5993', 6608'-7339', 8756'-8854', 9075'-9296'.
~ASCII -----------------------------------------------------
# ...
 5850.00000    9.04400    9.23970   16.43710    9.43060  106.03800    1.39430   14.50070  106.03800  160.40470   62.46770   14.21910    9.23970  997.86350   73.99200   99.26940  -99.43860  -99.79750  -40.73370   99.26940
 5900.00000    8.97700    8.14950   33.10010   29.14550   34.31060    1.47330   15.32230   34.31060   84.17730   73.18800    4.65910    8.14950   69.03230   83.84430   67.82430 -190.14610 -217.03210 -157.98840   67.82430
 5950.00000    9.01890    8.28840    9.15400    3.41340  292.96280    1.24310   12.92820  292.96280  613.77890  364.36660  449.46230    8.28840  201.43320  183.75440  198.53780 -241.24960 -237.19680 -178.17320  198.53780
 6000.00000    9.08150    9.22640  120.57910  119.27200    8.38420    4.20710   43.75380    8.38420   32.49940   12.67670  149.22090    9.22640   99.13900   20.49570   13.01480 -113.77500 -117.59350  -58.58990   13.01480
 6050.00000    9.12190    9.09820  124.80930  119.95440    8.33650    6.31390   65.66460    8.33650    9.70220    7.84310    3.89950    9.09820   52.06220   12.12220   10.27040  -83.78910  -86.90710  -27.92360   10.27040
 6100.00000    9.12840    8.65650  193.09590  171.22110    5.84040    6.71050   69.78920    5.84040    5.23270    5.51170    5.12200    8.65650   17.54050    7.31080    6.00110  -92.82640  -97.08280  -38.11940    6.00110
 6150.00000    9.12270    9.12270   76.20610   67.97540   14.71120    3.55300   36.95120   14.71120   34.12300   21.59600   29.39850    -999.25  271.12970   33.37050   24.87330 -100.71530 -109.39590  -50.45260   24.87330
 6200.00000    9.06600    9.06600    9.87110    4.09510  244.19450    2.84540   29.59220  244.19450  235.92050  303.58360  163.78770    -999.25  463.92160  119.35490  137.09820  -96.26150  -81.61080  -22.68760  137.09820
 6250.00000    9.09640    9.09640   21.61120   17.80930   56.15040    4.49900   46.78960   56.15040   59.69540  126.60620   98.37920    -999.25  125.05630   60.37890   73.00410  -77.86040  -72.40110  -13.49800   73.00410
 6300.00000    9.02760    9.02760   25.22730   17.55700   56.95750    2.67080   27.77630   56.95750   64.90030   97.18400   70.12970    -999.25  104.30630   55.31690   63.50900  -89.42700  -87.93440  -29.05130   63.50900
 6350.00000    9.01990    9.01990   20.71930   16.03830   62.35090    2.75290   28.63020   62.35090   86.54750    -999.25    -999.25    -999.25  101.02640   67.21600   74.98810  -84.87570  -83.54740  -24.68440   74.98810
 6400.00000    9.07520    9.07520   23.92550   20.27150   49.33030    4.13280   42.98110   49.33030   55.41130   88.60830  132.80050    -999.25  200.39060   50.83490   52.38220  -73.22780  -71.41220  -12.56930   52.38220
 6450.00000    9.06470    9.06470   19.78880   14.15770   70.63280    3.07010   31.92900   70.63280   83.71650    -999.25  123.68300    -999.25  124.74210   64.61040   72.81140  -82.36040  -86.02820  -27.20540   72.81140
 6500.00000    9.11730    9.11730   76.51880   73.98420   13.51640    6.92870   72.05850   13.51640   20.33150   15.59040   28.12460    -999.25   29.71960   16.82200   16.36810  -60.04530  -61.58980   -2.78710   16.36810
 6550.00000    9.10750    9.10750   75.76010   64.03610   15.61620    7.65100   79.57040   15.61620   14.18300   39.50790   12.83600    -999.25   17.48350   26.01340   31.78260  -77.93070  -84.94360  -26.16100   31.78260
 6600.00000    9.20200    9.20200   91.94940   83.56870   11.96620   11.64300  121.08720   11.96620   12.53200   22.88750   22.49980    -999.25   11.09490   16.45200   17.91170  -59.59400  -60.05740   -1.29480   17.91170
 6650.00000    9.05870    9.05870    5.08490    2.08540  479.52260    2.64080   27.46430  500.00000 1018.24790  479.52260  316.00610    -999.25  797.01720  161.10940  197.59640 -102.19550 -108.27250  -49.53000  197.59640
 6700.00000    9.08080    9.08080    4.79400    1.73060  577.83990    2.76220   28.72690  500.00000 1009.76060  577.83990  718.04290    -999.25  996.25060  165.06720  200.46370 -113.34020 -117.39880  -58.67640  200.46370
 6750.00000    9.05720    9.05720    8.00400    2.75000  363.63180    1.83150   19.04760  437.36610  204.92980  363.63180  912.76540    -999.25  384.63300  124.43470  130.78400 -134.37020 -150.68160  -91.97930  130.78400
 6800.00000    9.10130    9.10130    7.96860    2.59250  385.72250    1.97400   20.52960  500.00000  277.20820  385.72250  623.96250    -999.25  817.96340  127.01550  150.34470 -139.81030 -152.34620  -93.66400  150.34470
 6850.00000    9.08550    9.08550    3.73310    2.28300  438.02650    1.96630   20.44950  500.00000 1123.53090  438.02650  395.61720    -999.25  691.95040  163.94200  186.52100 -140.65030 -147.66170  -88.99960  186.52100
 6900.00000    9.06340    9.06340   18.59000    3.22660  309.92660    1.34460   13.98380   66.49380  224.34060  309.92660  717.22600    -999.25   24.20590  114.16020  134.33390 -175.29680 -207.08950 -148.44740  134.33390
 6950.00000    9.05450    9.05450   51.26730    4.19290  238.49560    2.05800   21.40320   23.15990  151.27830  238.49560  226.30660    -999.25   17.38170   97.75380  133.92850 -195.49200 -226.71710 -168.09510  133.92850
 7000.00000    9.07070    9.07070   12.52680    2.56170  390.35950    1.36320   14.17730  140.76310  255.31970  390.35950  961.03980    -999.25  429.76700  119.90940  142.38660 -176.73280 -202.46330 -143.86140  142.38660
 7050.00000    9.08000    9.08000    4.88610    1.50480  664.53560    1.66960   17.36380  500.00000  957.46310  664.53560  593.61740    -999.25  590.56490  185.03810  231.61440 -157.07920 -162.22520 -103.64340  231.61440
 7100.00000    9.06380    9.06380    7.00710    1.56010  640.97750    1.81770   18.90410  500.00000  473.68750  640.97750 1122.07260    -999.25  706.88570  161.60590  195.13130 -139.36230 -143.81700  -85.25530  195.13130
 7150.00000    9.08030    9.08030    6.25910    1.75740  569.03400    1.74710   18.16980  500.00000  862.35100  569.03400  492.00180    -999.25  450.32650  172.24730  208.37080 -145.31980 -147.05270  -88.51110  208.37080
 7200.00000    9.01350    9.01350   48.57950    4.17060  239.77350    1.75430   18.24470   23.91070  177.24550  239.77350  333.64870    -999.25   15.78210  102.60010  136.58780 -193.49560 -228.92970 -170.40810  136.58780
 7250.00000    9.09540    9.09540   13.68860    2.89100  345.90270    1.72810   17.97220  183.26690  193.56440  345.90270  342.21190    -999.25  201.37420  116.55080  147.05130 -175.96390 -183.26400 -124.76250  147.05130
 7300.00000    8.99890    8.99890   14.43440    5.47700  182.58090    1.78110   18.52340   99.66450  286.40630  182.58090  139.49670    -999.25   19.91670  106.05980  100.00000 -150.39080 -160.40830 -101.92690  100.00000
 7350.00000    9.14320    9.14320  120.59820  120.14320    8.32340    7.38620   76.81650    8.32340   16.43070   14.03260   32.57550    -999.25   14.09840   12.03650   12.48060  -68.33500  -64.75970   -6.29840   12.48060
 7400.00000    9.06200    9.06200   24.46750   20.71330   48.27820    2.53720   26.38690   48.27820  130.34220  117.31290  126.68540    -999.25   59.63760   75.23650   89.43360 -137.81950 -143.42610  -88.87270   89.43360
 7450.00000    9.07920    9.07920   44.99390   41.02820   24.37350    3.25030   33.80310   24.37350   28.29240   55.03250  246.52330    -999.25  316.69460   42.17750   41.29170 -109.64230 -115.62040  -65.45550   41.29170
 7500.00000    9.11000    9.11000   47.40070   44.37250   22.53650    2.59080   26.94430   22.53650   26.32910   31.84260   12.05890    -999.25   38.00450   30.40720   32.34400 -103.79880 -110.44170  -64.66530   32.34400
 7550.00000    9.10960    9.10960   23.72820   18.75060   53.33160    3.80980   39.62190   53.33160   56.97450    -999.25  149.80740    -999.25   81.61770   52.06310   57.04180  -59.36620  -48.12970   -6.74180   57.04180
 7600.00000    9.12200    9.12200   17.99710   14.45550   69.17760    3.47610   36.15140   69.17760   80.76520  101.85180  224.55740    -999.25   77.16900   57.35160   64.39180  -52.66240  -38.94920   -1.94970   64.39180
 7650.00000    9.10770    9.10770   30.03620   24.33560   41.09200    3.42500   35.62000   41.09200   48.75950   51.64070   77.96140    -999.25   38.04810   41.19690   42.56450  -53.85880  -38.46520   -5.85420   42.56450
