~Version ---------------------------------------------------
VERS.      2.0 : CWLS log ASCII Standard -VERSION 2.0
WRAP.       NO : One line per depth step
CREA. 08/27/13 : LAS Creation Date
~Well ------------------------------------------------------
STRT.M                  300.0 : START DEPTH
STOP.M                 2650.0 : STOP DEPTH
STEP.M               50.00000 : STEP LENGTH
NULL.                 -999.25 : NULL VALUE
COMP.    MOBIL OIL CANADA LTD : COMPANY
WELL. MOBIL CARSON 2-13-61-13 : WELL
FLD .                         : FIELD
LOC .                         : LOCATION
CTRY.                  CANADA : COUNTRY
SRVC.                 Unknown : SERVICE COMPANY
DATE.             20-May-1980 : LOGDATE
PROV.                 Alberta : PROVINCE
UWI .        100021306113W500 : UNIQUE WELL ID
SLAT.WGS84           54.27195 : SURFACE LATITUDE
SLON.WGS84          -115.8074 : SURFACE LONGITUDE
~Curve Information -----------------------------------------
DEPT    .M      : DEPTH METER
ACED    .US/M   : ACOUSTIC FROM SONIC LOG [ADJ. TO RESISTIVITY LOG]
CALDED  .MM     : CALIPER FROM DENSITY LOG [ADJ. TO RESISTIVITY LOG]
CALSED  .MM     : CALIPER FROM SONIC LOG [ADJ. TO RESISTIVITY LOG]
CALWS   .MM     : CALIPER [CALSED]
CILDED  .MMHO   : DEEP INDUCTION CONDUCTIVITY FROM RESISTIVITY LOG
CONDWS  .MMHO   : CONDUCTIVITY [1000/DRESWS]
CORRED  .KG/M3  : DENSITY CORRECTION FROM DENSITY LOG [ADJ. TO RESISTIVITY LOG/DPHILSED]
DCORWS  .KG/M3  : DENSITY CORRECTION [CORRED]
DENWS   .KG/M3  : FORMATION BULK DENSITY [CALC. FROM DPOLSWS M=2710,F=1000]
DPHILSED.V/V    : DENSITY POROSITY LIMESTONE [M=2710,F=1000] FROM DENSITY LOG [ADJ. TO RESISTIVITY LOG]
DPOLSWS .V/V    : DENSITY POROSITY LIMESTONE [DPHILSED]
DRESWS  .OHMM   : DEEP RESISTIVITY [1000/CILDED IF ILDED < 1, ILDED]
DTWS    .US/M   : COMPRESSIONAL SONIC [ACED]
GRDED   .GAPI   : GAMMA RAY FROM DENSITY LOG [ADJ. TO RESISTIVITY LOG]
GRSED   .GAPI   : GAMMA RAY FROM SONIC LOG [ADJ. TO RESISTIVITY LOG]
GRWS    .GAPI   : GAMMA RAY [GRSED]
ILDED   .OHMM   : DEEP INDUCTION FROM RESISTIVITY LOG
NPHILSED.V/V    : NEUTRON POROSITY LIMESTONE FROM DENSITY LOG [ADJ. TO RESISTIVITY LOG]
NPOLSWS .V/V    : NEUTRON POROSITY LIMESTONE [NPHILSED]
RHOBED  .KG/M3  : BULK DENSITY FROM DENSITY LOG [ADJ. TO RESISTIVITY LOG/DPHILSED]
SNED    .OHMM   : SHORT NORMAL FROM RESISTIVITY LOG
SPRED   .MV     : SPONTANEOUS POTENTIAL FROM RESISTIVITY LOG
SPWS    .MV     : SPONTANEOUS POTENTIAL [BASELINE 0 MV, SPRED]
SRESWS  .OHMM   : SHALLOW RESISTIVITY [SNED]
TENDED  .N      : TENSION FROM DENSITY LOG [ADJ. TO RESISTIVITY LOG]
TENSED  .N      : TENSION FROM SONIC LOG [ADJ. TO RESISTIVITY LOG]
~Params ----------------------------------------------------
PD  .                         GL : PERMANENT DATUM
EPD .M                     806.3 : ELEVATION PERMANENT DATUM
LMF .                         KB : LOG MEASURED FROM
DAPD.M                       5.7 : FEET ABOVE PERMANENT DATUM
DMF .                         KB : DRILLING MEASURED FROM
EKB .M                       812 : KELLY BUSHING
EGL .M                     806.3 : GROUND LEVEL
DATE.                   05/20/80 : RUN DATE
RUN .                          1 : RUN NUMBER
DD  .M                      2670 : DEPTH DRILLER
DL  .M                      2670 : DEPTH LOGGER
BLI .M                      2669 : BOTTOM LOG INTERVAL
TLI .M                       308 : TOP LOG INTERVAL
CS  .MM                      244 : CASING SIZE
CBD .M                       307 : CASING BOTTOM DRILLER
CBL .M                       308 : CASING BOTTOM LOGGER
BS  .MM                      222 : BIT SIZE
BSD .M                      2670 : BIT SIZE AT DEPTH
DFT .                   GEL CHEM : DRILLING FLUID TYPE
DFD .                       1165 : DRILLING FLUID DENSITY
DFV .                         76 : DRILLING FLUID VISCOSITY
DFPH.                          9 : DRILLING FLUID PH
MSS .                   FLOWLINE : MUD SAMPLE SOURCE
RMS .OHMM                    2.2 : RESISTIVITY MUD SAMPLE
MST .DEGC                     20 : MUD SAMPLE TEMPERATURE
RMF .OHMM                    2.7 : RESISTIVITY MUD FILTRATE SAMPLE
MFST.DEGC                     20 : MUD FILTRATE SAMPLE TEMPERATURE
MFSS.                       MEAS : MUD FILTRATE SAMPLE SOURCE
MCSS.                       MEAS : MUD CAKE SAMPLE SOURCE
RMB .OHMM                    0.8 : RESISTIVITY MUD AT BHT
TCS .HRS                       7 : TIME CIRCULATED STOPPED
LUN .                    HL 6163 : LOGGING UNIT NUMBER
LUL .                        EDM : LOGGING UNIT LOCATION
ENGI.                       STEC : RECORDING ENGINEER
WITN.           FRASER NICHOLSON : WITNESSED BY
CLNT.                    A2DTECH : CLIENT CODE
ORIG. 6.5"/100M 16.5"/100M PRINT : ORIGIN OF DATA
UWI .           100021306113W500 : UNIQUE WELL ID
DICO.     A2D Technologies, Inc. : DIGITIZING COMPANY
~Other -----------------------------------------------------
IEL-CND-BHC SONIC LOG RUN
~ASCII -----------------------------------------------------
  300.00000    -999.25    -999.25    -999.25    -999.25    -999.25    -999.25    -999.25    -999.25    -999.25    -999.25    -999.25    -999.25    -999.25    -999.25   74.26150   74.26150    -999.25    -999.25    -999.25    -999.25    -999.25    -999.25    -999.25    -999.25    -999.25    -999.25
  350.00000  353.96020    -999.25  302.06850  302.06850  217.46000  238.53250    -999.25    -999.25    -999.25    -999.25    -999.25    4.19230  353.96020    -999.25   83.35020   83.35020    4.19230    -999.25    -999.25    -999.25    5.14480  -59.26410   -7.05870    5.14480    -999.25 40131.13000
  400.00000  390.69030    -999.25  274.72140  274.72140  279.33460  320.12290    -999.25    -999.25    -999.25    -999.25    -999.25    3.12380  390.69030    -999.25   87.71990   87.71990    3.12380    -999.25    -999.25    -999.25    4.59430  -57.20060   -5.54620    4.59430    -999.25 40218.94760
  450.00000  321.27500    -999.25  264.08640  264.08640  169.09290  166.23720    -999.25    -999.25    -999.25    -999.25    -999.25    6.01550  321.27500    -999.25   78.67480   78.67480    6.01550    -999.25    -999.25    -999.25    7.14060  -53.78210   -2.67870    7.14060    -999.25 40067.92520
  500.00000  386.19810    -999.25  316.06200  316.06200  461.84420  610.87350    -999.25    -999.25    -999.25    -999.25    -999.25    1.63700  386.19810    -999.25  119.97300  119.97300    1.63700    -999.25    -999.25    -999.25    2.57870  -55.37750   -4.31530    2.57870    -999.25 40194.94280
  550.00000  346.50150    -999.25  252.54180  252.54180  301.77090  354.96240    -999.25    -999.25    -999.25    -999.25    -999.25    2.81720  346.50150    -999.25   93.95590   93.95590    2.81720    -999.25    -999.25    -999.25    3.91220  -56.40550   -4.02030    3.91220    -999.25 40043.57740
  600.00000  305.93590    -999.25  229.08460  229.08460  156.54660  139.89540    -999.25    -999.25    -999.25    -999.25    -999.25    7.14820  305.93590    -999.25   79.09190   79.09190    7.14820    -999.25    -999.25    -999.25    6.54500  -57.06250   -3.03680    6.54500    -999.25 40180.07330
  650.00000  270.33740    -999.25  231.13360  231.13360   89.09250   89.11070    -999.25    -999.25    -999.25    -999.25    -999.25   11.22200  270.33740    -999.25   66.50020   66.50020   11.22200    -999.25    -999.25    -999.25   15.50750  -68.24150   -9.65400   15.50750    -999.25 39879.79700
  700.00000  293.45850    -999.25  226.28320  226.28320  154.06580  155.77540    -999.25    -999.25    -999.25    -999.25    -999.25    6.41950  293.45850    -999.25   74.70570   74.70570    6.41950    -999.25    -999.25    -999.25    7.53670  -70.43130   -7.28190    7.53670    -999.25 40306.04870
  750.00000  333.55700    -999.25  238.11730  238.11730  225.73630  251.62300    -999.25    -999.25    -999.25    -999.25    -999.25    3.97420  333.55700    -999.25   75.49540   75.49540    3.97420    -999.25    -999.25    -999.25    4.85440  -73.75970   -6.04850    4.85440    -999.25 40033.23880
  800.00000  304.36360    -999.25  239.08140  239.08140  129.43230  116.34810    -999.25    -999.25    -999.25    -999.25    -999.25    8.59490  304.36360    -999.25   78.31960   78.31960    8.59490    -999.25    -999.25    -999.25    9.92890  -81.68650   -9.41340    9.92890    -999.25 40056.62670
  850.00000  327.36540    -999.25  239.26840  239.26840  269.34050  314.41600    -999.25    -999.25    -999.25    -999.25    -999.25    3.18050  327.36540    -999.25   87.78520   87.78520    3.18050    -999.25    -999.25    -999.25    4.45180  -79.45430   -2.80460    4.45180    -999.25 40047.99090
  900.00000  330.07310    -999.25  224.65090  224.65090  187.69850  203.37190    -999.25    -999.25    -999.25    -999.25    -999.25    4.91710  330.07310    -999.25  117.60980  117.60980    4.91710    -999.25    -999.25    -999.25    6.44800  -90.61330  -12.83300    6.44800    -999.25 40059.46330
  950.00000  299.63790    -999.25  266.64830  266.64830  118.42400  126.42700    -999.25    -999.25    -999.25    -999.25    -999.25    7.90970  299.63790    -999.25  115.18210  115.18210    7.90970    -999.25    -999.25    -999.25    8.97280  -86.88980   -7.97890    8.97280    -999.25 40094.52780
 1000.00000  313.80940    -999.25  271.25730  271.25730  168.15220  187.50120    -999.25    -999.25    -999.25    -999.25    -999.25    5.33330  313.80940    -999.25  108.74330  108.74330    5.33330    -999.25    -999.25    -999.25    8.05870  -86.09610   -6.05460    8.05870    -999.25 40045.93630
 1050.00000  297.61450    -999.25  233.25610  233.25610  133.44050  141.82390    -999.25    -999.25    -999.25    -999.25    -999.25    7.05100  297.61450    -999.25  123.48480  123.48480    7.05100    -999.25    -999.25    -999.25    8.16970  -84.88320   -3.71110    8.16970    -999.25 39997.73980
 1100.00000  297.01790    -999.25  235.12730  235.12730  142.52990  155.40740    -999.25    -999.25    -999.25    -999.25    -999.25    6.43470  297.01790    -999.25  141.57930  141.57930    6.43470    -999.25    -999.25    -999.25    7.46470  -82.31820   -5.04840    7.46470    -999.25 39873.45470
 1150.00000  335.17320    -999.25  233.84220  233.84220  120.14870  125.33840    -999.25    -999.25    -999.25    -999.25    -999.25    7.97840  335.17320    -999.25  139.22570  139.22570    7.97840    -999.25    -999.25    -999.25    8.88170  -82.52860  -10.31110    8.88170    -999.25 40358.55820
 1200.00000  316.98480    -999.25  232.75020  232.75020  144.06740  150.27880    -999.25    -999.25    -999.25    -999.25    -999.25    6.65430  316.98480    -999.25  134.18170  134.18170    6.65430    -999.25    -999.25    -999.25    8.18780  -68.82650   -1.66130    8.18780    -999.25 39837.94720
 1250.00000  287.39840    -999.25  238.03970  238.03970  164.98680  179.75270    -999.25    -999.25    -999.25    -999.25    -999.25    5.56320  287.39840    -999.25  112.49140  112.49140    5.56320    -999.25    -999.25    -999.25    6.52290  -70.93880   -4.08830    6.52290    -999.25 39725.91610
 1300.00000  324.47230    -999.25  275.63700  275.63700  199.89940  225.04780    -999.25    -999.25    -999.25    -999.25    -999.25    4.44350  324.47230    -999.25  116.79150  116.79150    4.44350    -999.25    -999.25    -999.25    5.66230  -77.01470   -7.15930    5.66230    -999.25 40167.54130
 1350.00000  321.32070    -999.25  287.19900  287.19900  256.66800  319.80560    -999.25    -999.25    -999.25    -999.25    -999.25    3.12690  321.32070    -999.25  111.60590  111.60590    3.12690    -999.25    -999.25    -999.25    4.50910  -79.61140   -6.75120    4.50910    -999.25 39961.48500
 1400.00000  263.07070    -999.25  262.36800  262.36800  132.29440  146.98100    -999.25    -999.25    -999.25    -999.25    -999.25    6.80360  263.07070    -999.25   70.54270   70.54270    6.80360    -999.25    -999.25    -999.25    7.44730  -85.20590   -9.34080    7.44730    -999.25 40010.79800
 1450.00000  296.34480    -999.25  317.23170  317.23170   86.66740   79.38650    -999.25    -999.25    -999.25    -999.25    -999.25   12.59660  296.34480    -999.25  100.00650  100.00650   12.59660    -999.25    -999.25    -999.25   20.06020  -89.10020  -10.23030   20.06020    -999.25 39954.87810
 1500.00000  237.08130    -999.25  237.07760  237.07760   94.98500   96.58010    -999.25    -999.25    -999.25    -999.25    -999.25   10.35410  237.08130    -999.25   64.59330   64.59330   10.35410    -999.25    -999.25    -999.25   18.90030 -149.07820  -70.86360   18.90030    -999.25 40044.49420
 1550.00000  244.37370    -999.25  257.92260  257.92260  101.55100  103.04500    -999.25    -999.25    -999.25    -999.25    -999.25    9.70450  244.37370    -999.25   92.94200   92.94200    9.70450    -999.25    -999.25    -999.25   12.17950  -82.10110   -5.44540   12.17950    -999.25 39934.11820
 1600.00000  205.25380    -999.25  268.32790  268.32790   27.36190   25.90270    -999.25    -999.25    -999.25    -999.25    -999.25   38.60600  205.25380    -999.25   78.23890   78.23890   38.60600    -999.25    -999.25    -999.25   41.48400  -87.11120  -10.54580   41.48400    -999.25 39942.19350
