~Version ---------------------------------------------------
VERS.      2.0 : CWLS log ASCII Standard -VERSION 2.0
WRAP.       NO : One line per depth step
CREA. 09/29/17 : LAS Creation Date
~Well ------------------------------------------------------
STRT.FT                         1450.0 : START DEPTH
STOP.FT                        11100.0 : STOP DEPTH
STEP.FT                       50.00000 : STEP LENGTH
NULL.                          -999.25 : NULL VALUE
COMP. AMOCO CANADA PETROLEUM CO., LTD. : COMPANY
WELL.       AMOCO PEX TONY 10-16-64-22 : WELL
FLD .                                  : FIELD
LOC .                                  : LOCATION
CTRY.                           CANADA : COUNTRY
SRVC.           Schlumberger of Canada : SERVICE COMPANY
DATE.                      08-Apr-1978 : LOGDATE
PROV.                          Alberta : PROVINCE
UWI .                 100101606422W500 : UNIQUE WELL ID
SLAT.WGS84                    54.53914 : SURFACE LATITUDE
SLON.WGS84                   -117.2632 : SURFACE LONGITUDE
~Curve Information -----------------------------------------
DEPT    .FT    : Depth Curve
CALDED  .IN    : CALIPER FROM DENSITY LOG [ADJ. TO RESISTIVITY LOG]
CALSED  .IN    : CALIPER FROM SONIC LOG [ADJ. TO RESISTIVITY LOG]
CALWS   .IN    : CALIPER [CALDED]
CONDWS  .MMHO  : CONDUCTIVITY [1000/DRESWS]
DCORWS  .G/C3  : DENSITY CORRECTION [DRHOED]
DENWS   .G/C3  : BULK DENSITY [RHOBED]
DPHILSED.V/V   : DENSITY POROSITY LIMESTONE [M=2710,F=1000] FROM DENSITY LOG [ADJ. TO RESISTIVITY LOG]
DPHISSED.V/V   : DENSITY POROSITY SANDSTONE [M=2650,F=1000] FROM DENSITY LOG [ADJ. TO RESISTIVITY LOG]
DPOLSWS .V/V   : DENSITY POROSITY LIMESTONE [CALC. FROM DENWS,M=2710,F=1000]
DRESWS  .OHMM  : DEEP RESISTIVITY [ILDED]
DRHOED  .G/C3  : BULK DENSITY CORRECTION FROM DENSITY LOG [ADJ. TO RESISTIVITY LOG]
DTED    .US/F  : DELTA -T FROM SONIC LOG [ADJ. TO RESISTIVITY LOG]
DTWS    .US/F  : COMPRESSIONAL SONIC [DTED]
GRDED   .GAPI  : GAMMA RAY FROM DENSITY LOG [ADJ. TO RESISTIVITY LOG]
GRED    .GAPI  : GAMMA RAY FROM CBL LOG [ADJ. TO RESISTIVITY LOG]
GRSED   .GAPI  : GAMMA RAY FROM SONIC LOG [ADJ. TO RESISTIVITY LOG]
GRWS    .GAPI  : GAMMA RAY [GRED SPL. TO GRDED SPL. TO 458M]
ILDED   .OHMM  : DEEP INDUCTION RESISTIVITY FROM RESISTIVITY LOG
ILMED   .OHMM  : MEDIUM INDUCTION RESISTIVITY FROM RESISTIVITY LOG
LL8ED   .OHMM  : LATEROLOG-8 RESISTIVITY FROM RESISTIVITY LOG
MRESWS  .OHMM  : MEDIUM RESISTIVITY [ILMED]
NEUTED  .NAPI  : NEUTRON FROM CBL LOG [ADJ. TO RESISTIVITY LOG
NEUTWS  .NAPI  : NEUTRON [NEUTED]
NPHILSED.V/V   : NEUTRON POROSITY LIMESTONE FROM DENSITY LOG [ADJ. TO RESISTIVITY LOG]
NPHISSED.V/V   : NEUTRON POROSITY SANDSTONE FROM DENSITY LOG [ADJ. TO RESISTIVITY LOG]
NPOLSWS .V/V   : NEUTRON POROSITY LIMESTONE [NPHISSED CONVERTED TO LIMESTONE MATRIX,SPL. TO NPHILSED @2035M ]
RHOBED  .G/C3  : BULK DENSITYFROM DENSITY LOG [ADJ. TO RESISTIVITY LOG]
SPRED   .MV    : SPONTANEOUS POTENTIAL FROM RESISTIVITY LOG
SPWS    .MV    : SPONTANEOUS POTENTIAL [BASELINE 0 MV,SPRED]
SRESWS  .OHMM  : SHALLOW RESISTIVITY [LL8ED]
~Params ----------------------------------------------------
PD  .                     GL : PERMANENT DATUM
EPD .FT               2639.4 : ELEVATION PERMANENT DATUM
LMF .                     KB : LOG MEASURED FROM
DAPD.FT                 21.4 : FEET ABOVE PERMANENT DATUM
EKB .FT               2660.8 : KELLY BUSHING
EGL .FT               2639.4 : GROUND LEVEL
DATE.               04/08/78 : RUN DATE
RUN .                      2 : RUN NUMBER
DD  .FT                11105 : DEPTH DRILLER
DL  .FT                11103 : DEPTH LOGGER
BLI .FT                11099 : BOTTOM LOG INTERVAL
TLI .FT                 6000 : TOP LOG INTERVAL
CBD .FT                 1528 : CASING BOTTOM DRILLER
CBL .FT                 1528 : CASING BOTTOM LOGGER
BS  .IN                 8.75 : BIT SIZE
BSD .FT                11105 : BIT SIZE AT DEPTH
DFT .              GEL GELEX : DRILLING FLUID TYPE
DFD .                      9 : DRILLING FLUID DENSITY
DFV .                     92 : DRILLING FLUID VISCOSITY
DFPH.                      9 : DRILLING FLUID PH
DFL .                    9.8 : DRILLING FLUID LOSS
MSS .               FLOWLINE : MUD SAMPLE SOURCE
RMS .OHMM               1.91 : RESISTIVITY MUD SAMPLE
MST .DEGF                 52 : MUD SAMPLE TEMPERATURE
RMF .OHMM               1.45 : RESISTIVITY MUD FILTRATE SAMPLE
MFST.DEGF                 60 : MUD FILTRATE SAMPLE TEMPERATURE
TCS .HRS                 2.5 : TIME CIRCULATED STOPPED
LUN .              OSU C 244 : LOGGING UNIT NUMBER
LUL .                    EDM : LOGGING UNIT LOCATION
ENGI.                   GUNN : RECORDING ENGINEER
WITN.                   WALL : WITNESSED BY
CLNT.                A2DTECH : CLIENT CODE
ORIG.            2" 5" PRINT : ORIGIN OF DATA
UWI .       100101606422W500 : UNIQUE WELL ID
DICO. A2D Technologies, Inc. : DIGITIZING COMPANY
~Other -----------------------------------------------------
~ASCII -----------------------------------------------------
# ...
 3850.00000   15.02690   10.47610   15.02690  126.61270    0.12510    1.98650    -999.25    0.40210    0.42310    7.89810    0.12510   88.87430   88.87430   95.04120    -999.25  114.92700   95.04120    7.89810    8.42020    9.42000    8.42020    -999.25    -999.25    -999.25    0.36410    0.32060    2.02580 -126.56060   -4.82450    9.42000
 3900.00000    9.93510    8.86640    9.93510   96.62770    0.04420    2.53950    -999.25    0.06700    0.09970   10.34900    0.04420   80.70960   80.70960   88.50650    -999.25  104.68770   88.50650   10.34900   11.03040   15.76730   11.03040    -999.25    -999.25    -999.25    0.25180    0.20790    2.53930 -135.65380  -15.23220   15.76730
 3950.00000   14.32290    9.70680   14.32290  104.83940    0.15740    2.11660    -999.25    0.34450    0.34700    9.53840    0.15740   86.99310   86.99310  107.09740    -999.25  123.46750  107.09740    9.53840   10.03570   11.82850   10.03570    -999.25    -999.25    -999.25    0.25460    0.21070    2.11660 -123.84510   -4.74650   11.82850
 4000.00000   12.50540    9.46970   12.50540   90.14040    0.19230    2.28880    -999.25    0.22040    0.24630   11.09380    0.19230   83.57480   83.57480  104.60720    -999.25  129.00540  104.60720   11.09380   11.59190   14.90580   11.59190    -999.25    -999.25    -999.25    0.25900    0.21510    2.28880 -123.73860   -5.95440   14.90580
 4050.00000   11.19030    9.38430   11.19030  109.51350    0.08060    2.32510    -999.25    0.18630    0.22510    9.13130    0.08060   82.39740   82.39740   93.53950    -999.25  120.53690   93.53950    9.13130    9.48630   12.35220    9.48630    -999.25    -999.25    -999.25    0.31800    0.27400    2.32500 -129.47810   -2.45350   12.35220
 4100.00000   10.45050    8.82640   10.45050  136.00450    0.03610    2.34310    -999.25    0.18600    0.21460    7.35270    0.03610   88.49090   88.49090  111.29680    -999.25  142.19740  111.29680    7.35270    7.85670    9.55790    7.85670    -999.25    -999.25    -999.25    0.33760    0.29380    2.34490 -120.43010   -2.08220    9.55790
 4150.00000   14.52160   10.08000   14.52160  150.19750    0.11170    1.90490    -999.25    0.45160    0.47080    6.65790    0.11170   89.01580   89.01580  106.98760    -999.25  134.86340  106.98760    6.65790    6.91360    8.37160    6.91360    -999.25    -999.25    -999.25    0.39090    0.34790    1.99670 -120.50500   -3.38030    8.37160
 4200.00000   10.48810    9.56170   10.48810  137.61590    0.08770    2.49460    -999.25    0.09420    0.12600    7.26660    0.08770   87.69420   87.69420  108.83420    -999.25  135.09370  108.83420    7.26660    7.54910   10.04450    7.54910    -999.25    -999.25    -999.25    0.35530    0.31170    2.49400 -117.48600   -1.59250   10.04450
 4250.00000   11.00800    9.75770   11.00800  150.24720    0.06960    2.51850    -999.25    0.07970    0.11200    6.65570    0.06960   93.43900   93.43900  118.42970    -999.25  146.71120  118.42970    6.65570    6.90920    9.07230    6.90920    -999.25    -999.25    -999.25    0.37850    0.33520    2.51470 -122.61700   -7.94670    9.07230
 4300.00000   10.72630    9.46950   10.72630  124.39400    0.00650    2.52390    -999.25    0.07640    0.10880    8.03900    0.00650   91.21760   91.21760  129.29410    -999.25  158.32770  129.29410    8.03900    8.34540   11.67570    8.34540    -999.25    -999.25    -999.25    0.35600    0.31240    2.53370 -117.73680   -4.28960   11.67570
 4350.00000   10.51170    9.39130   10.51170  130.85580    0.05770    2.51450    -999.25    0.08210    0.11430    7.64200    0.05770   92.09930   92.09930  119.98150    -999.25  140.79810  119.98150    7.64200    7.93460   10.79060    7.93460    -999.25    -999.25    -999.25    0.37790    0.33460    2.52110 -116.83720   -4.62120   10.79060
 4400.00000   10.49800    9.01220   10.49800   98.99910   -0.00550    2.49460    -999.25    0.09420    0.12600   10.10110   -0.00550   95.59070   95.59070  137.48940    -999.25  174.75720  137.48940   10.10110   10.51630   15.63780   10.51630    -999.25    -999.25    -999.25    0.36010    0.31660    2.48760 -116.58310   -5.59030   15.63780
 4450.00000   12.19080    9.29910   12.19080  127.63730    0.19830    2.35630    -999.25    0.17800    0.20680    7.83470    0.19830   90.34240   90.34240  115.86240    -999.25  144.76690  115.86240    7.83470    8.30110   11.51190    8.30110    -999.25    -999.25    -999.25    0.33170    0.28790    2.35190 -115.88520   -6.12360   11.51190
 4500.00000   10.14720    8.90470   10.14720   99.62740    0.01950    2.45050    -999.25    0.12090    0.15170   10.03740    0.01950   94.27950   94.27950  132.70130    -999.25  162.44750  132.70130   10.03740   10.42380   16.09300   10.42380    -999.25    -999.25    -999.25    0.37930    0.33610    2.45440 -113.09570   -4.55730   16.09300
 4550.00000   11.39950    9.39540   11.39950  140.07660    0.18760    2.21310    -999.25    0.26480    0.29060    7.13900    0.18760   93.13520   93.13520  112.09900    -999.25  136.74950  112.09900    7.13900    7.41220   10.53110    7.41220    -999.25    -999.25    -999.25    0.37960    0.33640    2.22840 -113.04370   -5.37490   10.53110
 4600.00000   10.14950    9.04440   10.14950   83.80750   -0.01480    2.39290    -999.25    0.15580    0.18540   11.93210   -0.01480   92.89250   92.89250  143.30550    -999.25  181.31850  143.30550   11.93210   12.28650   19.15510   12.28650    -999.25    -999.25    -999.25    0.33740    0.29360    2.40980 -117.54990  -10.28000   19.15510
 4650.00000   10.25970    9.48500   10.25970  137.03890    0.05540    2.44970    -999.25    0.12140    0.15220    7.29720    0.05540   82.59560   82.59560   95.55300    -999.25  116.48250   95.55300    7.29720    7.57440    9.74860    7.57440    -999.25    -999.25    -999.25    0.29300    0.24900    2.46430 -112.99090   -6.11730    9.74860
 4700.00000   10.50630    9.36510   10.50630  188.29200    0.03950    2.47790    -999.25    0.10430    0.13570    5.31090    0.03950   89.98970   89.98970  107.02960    -999.25  132.07950  107.02960    5.31090    5.57560    7.03150    5.57560    -999.25    -999.25    -999.25    0.36430    0.32080    2.47690 -112.74220   -6.26750    7.03150
 4750.00000   10.52710    9.10010   10.52710  142.75110    0.02750    2.54510    -999.25    0.06360    0.09650    7.00520    0.02750   84.74610   84.74610  115.69770    -999.25  141.88720  115.69770    7.00520    7.29820    9.45660    7.29820    -999.25    -999.25    -999.25    0.31560    0.27170    2.54260 -114.36470   -8.28630    9.45660
 4800.00000   10.29090    9.10450   10.29090  150.75720    0.05970    2.57760    -999.25    0.04390    0.07740    6.63320    0.05970   83.45450   83.45450  108.71640    -999.25  141.36600  108.71640    6.63320    6.88600    8.75270    6.88600    -999.25    -999.25    -999.25    0.32130    0.27740    2.57400 -111.73500   -6.05290    8.75270
 4850.00000   11.12420    9.29030   11.12420  161.31370    0.15870    2.30710    -999.25    0.20780    0.23560    6.19910    0.15870   85.33040   85.33040  107.44600    -999.25  139.83380  107.44600    6.19910    6.44230    8.14620    6.44230    -999.25    -999.25    -999.25    0.36130    0.31770    2.32120 -111.41260   -6.12940    8.14620
 4900.00000   12.46390    9.34210   12.46390  205.48650    0.14130    2.05630    -999.25    0.35980    0.38230    4.86650    0.14130   85.62390   85.62390  104.62890    -999.25  136.27410  104.62890    4.86650    5.05640    6.43100    5.05640    -999.25    -999.25    -999.25    0.38330    0.34010    2.11660 -111.73050   -6.84360    6.43100
 4950.00000   11.29650    9.28970   11.29650  141.77160    0.10420    2.24790    -999.25    0.24370    0.27020    7.05360    0.10420   79.19100   79.19100   93.77490    -999.25  115.01530   93.77490    7.05360    7.30140    9.21700    7.30140    -999.25    -999.25    -999.25    0.29500    0.25100    2.26240 -110.05850   -5.57060    9.21700
 5000.00000   12.49200    9.49110   12.49200  187.56450    0.14890    2.21610    -999.25    0.26300    0.28890    5.33150    0.14890   85.33330   85.33330  109.08190    -999.25  142.57100  109.08190    5.33150    5.64300    7.59800    5.64300    -999.25    -999.25    -999.25    0.38530    0.34220    2.21710 -110.88520   -6.83180    7.59800
