~Version ---------------------------------------------------
VERS.      2.0 : CWLS log ASCII Standard -VERSION 2.0
WRAP.       NO : One line per depth step
CREA. 08/22/14 : LAS Creation Date
~Well ------------------------------------------------------
STRT.FT                 1143.82546 : START DEPTH
STOP.FT                11159.82546 : STOP DEPTH
STEP.FT                    0.50000 : STEP LENGTH
NULL.                      -999.25 : NULL VALUE
COMP.            TRIAD OIL CO. LTD : COMPANY
WELL. TRIAD PAN AM ANTE 2-27-66-25 : WELL
FLD .                              : FIELD
LOC .                              : LOCATION
CTRY.                       CANADA : COUNTRY
SRVC.                   Lane Wells : SERVICE COMPANY
DATE.                  15-Aug-1967 : LOGDATE
PROV.                      Alberta : PROVINCE
UWI .             100022706625W500 : UNIQUE WELL ID
SLAT.WGS84                54.73614 : SURFACE LATITUDE
SLON.WGS84                 -117.69 : SURFACE LONGITUDE
~Curve Information -----------------------------------------
DEPT.FT    : DEPTH FEET
CALS.IN    : CALIPER FROM SONIC LOG
DT  .US/F  : DELTA TIME FROM SONIC LOG
GRS .GAPI  : GAMMA RAY FROM SONIC LOG
ILD .OHMM  : INDUCTION LOG DEEP RESISTIVITY
SN  .OHMM  : 16 INCH SHORT NORMAL RESISTIVITY FROM IEL
SPR .MV    : SPONTANEOUS POTENTIAL FROM RESISTIVITY LOG
~Params ----------------------------------------------------
PD  .                     GL : PERMANENT DATUM
EPD .FT               2399.7 : ELEVATION PERMANENT DATUM
LMF .                     KB : LOG MEASURED FROM
DAPD.FT                   15 : FEET ABOVE PERMANENT DATUM
DMF .                     KB : DRILLING MEASURED FROM
EKB .FT               2414.7 : KELLY BUSHING
EGL .FT               2399.7 : GROUND LEVEL
DATE.               08/15/67 : RUN DATE
RUN .                      1 : RUN NUMBER
DD  .FT                11172 : DEPTH DRILLER
DL  .FT                11160 : DEPTH LOGGER
BLI .FT                11156 : BOTTOM LOG INTERVAL
TLI .FT                 1144 : TOP LOG INTERVAL
CS  .IN                9.625 : CASING SIZE
CBD .FT                 1145 : CASING BOTTOM DRILLER
CBL .FT                 1144 : CASING BOTTOM LOGGER
BS  .IN                7.625 : BIT SIZE
BSD .FT                11172 : BIT SIZE AT DEPTH
DFT .                MUD GEL : DRILLING FLUID TYPE
DFD .                    9.9 : DRILLING FLUID DENSITY
DFV .                     89 : DRILLING FLUID VISCOSITY
DFPH.                      9 : DRILLING FLUID PH
DFL .                    7.2 : DRILLING FLUID LOSS
MSS .                   CIRC : MUD SAMPLE SOURCE
RMS .OHMM                3.0 : RESISTIVITY MUD SAMPLE
MST .DEGF                 86 : MUD SAMPLE TEMPERATURE
RMF .OHMM                2.4 : RESISTIVITY MUD FILTRATE SAMPLE
MFST.DEGF                 86 : MUD FILTRATE SAMPLE TEMPERATURE
RMC .OHMM                3.2 : RESISTIVITY MUD CAKE
MCST.DEGF                 86 : MUD CAKE SAMPLE TEMPERATURE
MFSS.                   MEAS : MUD FILTRATE SAMPLE SOURCE
MCSS.                   MEAS : MUD CAKE SAMPLE SOURCE
RMB .OHMM                1.2 : RESISTIVITY MUD AT BHT
TCS .HRS                   6 : TIME CIRCULATED STOPPED
LUN .                   1256 : LOGGING UNIT NUMBER
LUL .                    EDM : LOGGING UNIT LOCATION
ENGI.      KOWALCHUK DOMSTAD : RECORDING ENGINEER
WITN.            DANIELEWICZ : WITNESSED BY
CLNT.                A2DTECH : CLIENT CODE
ORIG.            2" 5" PRINT : ORIGIN OF DATA
UWI .       100022706625W500 : UNIQUE WELL ID
DICO. A2D Technologies, Inc. : DIGITIZING COMPANY
~Other -----------------------------------------------------
~ASCII -----------------------------------------------------
# ...
 5160.82546   10.81860   89.46190  104.89040   11.33090   14.32580  -81.05700
 5161.32546   10.74130   92.90640  103.77110   10.45530   14.05750  -80.00220
 5161.82546   10.66330   93.55360  102.84020    9.97570   13.78980  -79.41790
 5162.32546   10.50130  105.28720  100.81870    9.01360   13.17760  -78.93520
 5162.82546   10.42620  108.69040   99.87680    8.53650   12.95970  -78.97470
 5163.32546   10.26450  103.61810  100.21580    7.91660   13.06640  -79.11220
 5163.82546   10.27610  100.97520  101.24560    7.88450   13.49150  -79.18550
 5164.32546   10.61510   98.50340  103.20640    8.64900   14.98010  -79.33190
 5164.82546   10.86120   98.55140  102.47630    9.29360   15.88290  -79.40500
 5165.32546   11.08610  102.93370   99.34190   10.42050   17.68960  -79.55060
 5165.82546   11.07570  103.86670   97.92310   11.13270   18.44420  -79.62380
 5166.32546   11.23350  106.77010   92.39980   12.92710   19.50640  -79.77020
 5166.82546   11.45680  114.47840   87.17320   13.83060   19.61760  -79.84300
 5167.32546   12.07500  133.23800   75.87650   15.65450   19.03910  -79.98930
 5167.82546   12.85600  143.98800   69.51900   16.05700   17.68600  -80.14000
 5168.32546   12.83270  145.56180   70.20270   14.75660   16.93350  -80.20820
 5168.82546   12.41800  139.85000   73.85900   11.62600   15.32100  -80.36300
 5169.32546   12.10680  137.16150   76.44270   11.06430   15.01570  -80.42830
 5169.82546   11.36300  126.35700   83.81200    9.74600   14.26000  -80.51400
 5170.32546   11.22030  121.46300   87.80160    9.48640   14.06820  -80.51230
 5170.82546   11.12040  109.81130   97.31300    9.09630   13.60380  -80.60680
 5171.32546   11.13860  103.98340  100.49130    8.96510   13.36850  -80.65890
 5171.82546   11.15220   93.82270  103.08110    8.75520   12.88830  -80.49670
 5172.32546   11.12760   91.46520  101.99610    8.74860   12.55520  -80.33400
 5172.82546   11.05720   91.98950   98.17600    8.42890   11.81210  -80.00320
 5173.32546   11.03910   92.48160   96.71990    8.15360   11.45310  -79.83880
 5173.82546   11.02950   92.08850   97.04910    7.60140   10.92050  -79.50990
 5174.32546   11.03960   92.12390   98.23660    7.42320   10.71660  -79.34570
 5174.82546   11.07830   91.02460   98.23820    7.26460   10.52940  -79.01680
 5175.32546   11.10040   90.43660   97.21770    7.22260   10.52720  -78.85260
 5175.82546   11.13720   90.00290   95.09470    7.19490   10.58340  -78.52380
 5176.32546   11.15090   90.09600   93.98070    7.32720   10.75780  -78.35940
 5176.82546   11.17580   90.09380   94.52510    7.78640   11.30290  -78.03070
 5177.32546   11.18800   89.64060   96.07470    8.01040   11.57290  -77.86630
 5177.82546   11.18780   88.54310   98.50010    8.42120   12.10970  -77.53700
 5178.32546   11.12700   89.07500  100.34500    8.80800   12.62100  -77.33800
 5178.82546   11.09220   89.56170   98.96700    8.98290   12.83740  -77.36120
 5179.32546   11.06500   89.76800   94.31100    9.04900   12.93500  -77.64200
 5179.82546   11.06270   89.52550   92.62570    8.99270   13.05280  -77.79520
 5180.32546   11.05500   90.45000   92.81700    8.85300   13.25200  -78.17000
 5180.82546   11.05230   90.06600   92.21350    8.79920   13.05890  -78.31480
 5181.32546   11.04570   89.06110   89.56440    8.67060   12.61500  -78.66130
 5181.82546   11.04240   88.11860   90.23150    8.60630   12.47490  -78.83350
 5182.32546   11.03590   86.72980   91.20640    8.47770   12.25680  -79.18650
 5182.82546   11.03210   86.24570   91.48920    8.41290   12.15430  -79.07180
 5183.32546   11.02020   85.37450   93.33650    8.33970   11.92240  -78.37120
 5183.82546   11.01210   85.85290   93.59740    8.33350   11.79280  -77.93010
 5184.32546   10.99430   87.85930   96.22060    8.33300   11.40940  -77.16330
 5184.82546   11.00030   89.87340   96.54480    8.33340   11.14760  -77.26270
 5185.32546   11.03500   93.63200   97.06820    8.33180   10.59240  -77.78670
 5185.82546   11.05360   94.40790   97.54550    8.24890   10.30980  -77.97930
 5186.32546   11.09250  100.42610   96.39430    7.95780    9.80020  -78.35730
 5186.82546   11.11140  106.18640   96.71940    7.80590    9.56970  -78.47360
 5187.32546   11.09440  117.53600   99.05330    7.50350    9.10380  -78.53070
 5187.82546   11.05830  121.69180   99.22730    7.35220    8.87020  -78.48480
 5188.32546   10.98730  116.35760   98.05440    7.05040    8.42160  -78.25990
 5188.82546   10.90700  100.35000   96.16200    6.73800    8.17100  -77.98700
 5189.32546   10.89670   98.09740   94.54380    6.74170    8.08640  -77.86520
 5189.82546   10.87000   87.15000   92.65800    6.86100    7.89100  -77.58500
 5190.32546   10.88790   83.97510   94.52720    6.98050    7.85980  -77.46260
 5190.82546   10.94200   84.85000   93.45100    7.27900    7.91100  -77.62900
 5191.32546   11.03380   87.14380   91.39960    7.39420    7.95410  -77.84090
 5191.82546   11.31860   88.53500   90.54640    7.67020    8.12990  -78.35170
 5192.32546   11.49550   89.17200   91.04100    7.80750    8.19980  -78.60770
 5192.82546   11.78960   91.83140   91.78420    8.01320    8.74170  -79.11940
 5193.32546   11.56890   93.42600   93.48040    8.01950    9.15510  -79.37490
 5193.82546   11.30420   96.96410   94.01680    7.94340    9.99730  -79.88930
 5194.32546   11.33080   97.86380   92.84600    7.89460   10.17460  -80.01200
 5194.82546   11.27470   98.88490   92.65720    7.79670   10.23080  -79.99960
 5195.32546   11.18040   99.48900   93.14190    7.74710   10.23060  -79.94310
 5195.82546   10.98380   99.61070   89.93260    7.66270   10.23150  -79.82830
 5196.32546   10.91800   97.77640   86.45720    7.75360   10.27900  -79.77120
 5196.82546   10.76470   91.92440   80.65770    8.11340   10.54500  -79.65710
 5197.32546   10.72940   91.51320   78.91980    8.29370   10.72370  -79.59960
 5197.82546   10.76410   92.51680   78.45300    8.65750   11.08080  -79.48470
 5198.32546   10.80100   92.15400   78.45030    8.81900   11.25990  -79.42860
 5198.82546   10.91910   92.33890   77.49050    9.13870   11.61750  -79.42620
 5199.32546   11.02000   91.37800   78.67000    9.51300   11.98900  -79.73600
 5199.82546   11.04490   90.73160   78.33280    9.67980   12.07210  -79.90400
 5200.32546   11.04500   89.15000   76.84800   10.01200   12.12600  -80.29100
 5200.82546   11.01970   87.82790   76.10360    9.96080   12.12600  -80.45140
 5201.32546   10.95000   86.08600   76.65900    9.87800   12.10500  -80.84800
 5201.82546   10.92940   85.95780   77.81400    9.86060   12.01480  -80.99690
 5202.32546   10.93080   87.04760   80.58480    9.74510   11.77130  -81.23660
 5202.82546   10.94580   87.61840   82.14060    9.63790   11.61250  -81.15720
 5203.32546   10.97270   88.59370   82.74840    9.35340   11.20460  -80.90890
 5203.82546   10.99090   89.09090   82.27590    9.19480   10.96400  -80.78570
 5204.32546   11.04190   90.47220   83.74840    8.87710   10.49380  -80.53890
 5204.82546   11.05280   91.39450   85.32610    8.71880   10.29180  -80.41560
 5205.32546   11.03520   92.82370   88.46230    8.40170    9.89900  -80.17040
 5205.82546   11.01900   93.15670   89.22730    8.24340    9.69740  -80.12310
 5206.32546   10.99410   93.34570   89.41900    7.92640    9.33480  -80.12190
 5206.82546   10.99620   93.18360   89.07470    7.76760    9.20680  -80.11530
 5207.32546   11.01510   92.47270   87.89670    7.44860    9.00140  -79.67990
 5207.82546   11.02360   92.01350   87.08790    7.37220    8.90970  -79.27060
 5208.32546   11.04070   91.07900   85.76570    7.41700    8.84100  -78.43070
 5208.82546   11.04920   91.79260   86.00750    7.46650    8.87060  -78.00720
 5209.32546   11.06560   95.16910   87.72630    7.56630    8.98480  -77.15290
 5209.82546   11.04300   96.15000   89.28300    7.66900    9.15800  -76.92800
 5210.32546   11.02910   95.96890   91.53230    7.71490    9.24130  -76.99260
 5210.82546   10.99500   94.99100   96.68900    7.82000    9.43300  -77.15200
 5211.32546   10.98070   94.54800   96.22490    7.86350    9.48510  -77.21950
 5211.82546   10.97500   93.55000   96.40200    7.93300    9.34000  -77.33600
