~Version ---------------------------------------------------
VERS.      2.0 : CWLS log ASCII Standard -VERSION 2.0
WRAP.       NO : One line per depth step
CREA. 10/15/14 : LAS Creation Date
~Well ------------------------------------------------------
STRT.M                       300.0 : START DEPTH
STOP.M                      3850.0 : STOP DEPTH
STEP.M                    50.00000 : STEP LENGTH
NULL.                      -999.25 : NULL VALUE
COMP.                   SUNCOR INC : COMPANY
WELL. SUNCOR PINE CREEK 10-1-56-19 : WELL
FLD .                              : FIELD
LOC .                              : LOCATION
CTRY.                       CANADA : COUNTRY
SRVC.                 Schlumberger : SERVICE COMPANY
DATE.                  11-Sep-1992 : LOGDATE
PROV.                      Alberta : PROVINCE
UWI .             100100105619W500 : UNIQUE WELL ID
SLAT.WGS84                53.81139 : SURFACE LATITUDE
SLON.WGS84               -116.6829 : SURFACE LONGITUDE
~Curve Information -----------------------------------------
DEPT    .M      : Depth Curve
CAL2DED .MM     : CALIPER FROM DENSITY LOG
CALD1ED .MM     : CALIPER FROM DENSITY LOG
CALD2ED .MM     : CALIPER FROM DENSITY LOG
CALDED  .MM     : CALIPER FROM DENSITY LOG
CALWS   .MM     : CALIPER [CALD1ED SPL. TO CAL2DED @ 3631 M]
CONDWS  .MMHO   : CONDUCTIVITY [1000/DRESWS]
DCORWS  .KG/M3  : DENSITY CORRECTION [DRHOED]
DENWS   .KG/M3  : FORMATION BULK DENSITY [CALC. FROM DPOLSWS, M=2710, F=1000]
DPHILSED.V/V    : DENSITY POROSITY [M=2710, F=1000] FROM DENSITY LOG
DPHISSED.V/V    : DENSITY POROSITY [M=2650, F=1000] FROM DENSITY LOG
DPOLSWS .V/V    : DENSITY POROSITY [DPHISSED CONVERT TO LIMESTONE, M=2710, F=1000 & SPL. TO DPHILSED @ 2614M]
DRESWS  .OHMM   : DEEP RESISTIVITY [IDPHED]
DRHOED  .KG/M3  : DENSITY CORRECTION FROM DENSITY LOG
DTED    .US/M   : DELTA TIME FROM SONIC LOG [ADJ. TO RESISTIVITY LOG]
DTWS    .US/M   : COMPRESSIONAL SONIC [DTED]
ENPHLSED.V/V    : EPITHERMAL NEUTRON POROSITY LIMESTONE FROM DENSITY LOG
ENPHSSED.V/V    : EPITHERMAL NEUTRON POROSITY SANDSTONE FROM DENSITY LOG
GRDED   .GAPI   : GAMMA RAY FROM DENSITY LOG
GRED    .GAPI   : GAMMA RAY FROM CBL LOG [ADJ. TO RESISTIVITY LOG]
GRNED   .GAPI   : GAMMA RAY FROM CNL LOG [ADJ. TO RESISTIVITY LOG]
GRRED   .GAPI   : GAMMA RAY FROM RESISTIVITY LOG
GRSED   .GAPI   : GAMMA RAY FROM SONIC LOG [ADJ. TO RESISTIVITY LOG]
GRWS    .GAPI   : GAMMA RAY [GRED SPL. TO GRSED @ 84 M]
HDED    .MM     : HORIZONTAL HOLE DIAMETER FROM SONIC LOG
IDPHED  .OHMM   : DEEP INDUCTION PHASOR RESISTIVITY FROM RESISTIVITY LOG
IMPHED  .OHMM   : MEDIUM INDUCTION PHASOR RESISTIVITY FROM RESISTIVITY LOG
MRESWS  .OHMM   : MEDIUM RESISTIVITY [IMPHED]
NPHILSED.V/V    : NEUTRON POROSITY  SANDSTONE FROM CNL LOG [ADJ. TO RESISTIVITY LOG]
NPOLSWS .V/V    : NEUTRON POROSITY LIMESTONE [NPORSSED CONVERT TO LIMESTONE & SPL. TO NPORLSED @ 2614 M & NPHILSED BELOOW 3612 M]
NPORLSED.V/V    : NEUTRON POROSITY LIMESTONE FROM DENSITY LOG
NPORSSED.V/V    : NEUTRON POROSITY SANDSTONE FROM DENSITY LOG
PEFED   .B/E    : PHOTOELECTRIC FACTOR FROM DENSITY LOG
PEFWS   .B/E    : PHOTOELECTRIC FACTOR [PEFED]
RHOBED  .KG/M3  : BULK DENSITY FROM DENSITY LOG
SFLUED  .OHMM   : SHALLOW FOCUS RESISTIVITY FROM RESISTIVITY LOG
SPRED   .MV     : SPONTANEOUS POTENTIAL FROM RESISTIVITY LOG
SPWS    .MV     : SPONTANEOUS POTENTIAL [BASELINE TO 0 MV, SPRED]
SRESWS  .OHMM   : SHALLOW RESISTIVITY [SFLUED]
TENDED  .N      : TENSION FROM DENSITY LOG
TENRED  .N      : TENSION FROM RESISTIVITY LOG
TENSED  .N      : TENSION FROM SONIC LOG [ADJ. TO RESISTIVITY LOG]
~Params ----------------------------------------------------
PD  .                         GL : PERMANENT DATUM
EPD .M                    1104.6 : ELEVATION PERMANENT DATUM
LMF .                         KB : LOG MEASURED FROM
DAPD.M                       6.4 : FEET ABOVE PERMANENT DATUM
DMF .                         KB : DRILLING MEASURED FROM
EKB .M                      1111 : KELLY BUSHING
EDF .M                    1110.6 : DRILLING FLOOR
EGL .M                    1104.6 : GROUND LEVEL
DATE.                   09/11/92 : RUN DATE
RUN .                          2 : RUN NUMBER
DD  .M                      3670 : DEPTH DRILLER
DL  .M                      3871 : DEPTH LOGGER
BLI .M                    3868.1 : BOTTOM LOG INTERVAL
TLI .M                    3837.5 : TOP LOG INTERVAL
CS  .MM                    177.8 : CASING SIZE
CBD .M                      3639 : CASING BOTTOM DRILLER
CBL .M                    3637.5 : CASING BOTTOM LOGGER
BS  .MM                      152 : BIT SIZE
BSD .M                      3670 : BIT SIZE AT DEPTH
DFT .                   GEL CHEM : DRILLING FLUID TYPE
DFD .                       1045 : DRILLING FLUID DENSITY
DFV .                         47 : DRILLING FLUID VISCOSITY
DFPH.                         16 : DRILLING FLUID PH
DFL .                       10.5 : DRILLING FLUID LOSS
MSS .                   FLOWLINE : MUD SAMPLE SOURCE
RMS .OHMM                   1.41 : RESISTIVITY MUD SAMPLE
MST .DEGC                     16 : MUD SAMPLE TEMPERATURE
RMF .OHMM                   1.32 : RESISTIVITY MUD FILTRATE SAMPLE
MFST.DEGC                     12 : MUD FILTRATE SAMPLE TEMPERATURE
RMC .OHMM                   1.37 : RESISTIVITY MUD CAKE
MCST.DEGC                     14 : MUD CAKE SAMPLE TEMPERATURE
MFSS.                   MEASURED : MUD FILTRATE SAMPLE SOURCE
MCSS.                   MEASURED : MUD CAKE SAMPLE SOURCE
RMB .OHMM                  0.402 : RESISTIVITY MUD AT BHT
TCS .HRS                     500 : TIME CIRCULATED STOPPED
TLAB.HRS                    1440 : TIME LOGGER AT BOTTOM
LUN .                       2012 : LOGGING UNIT NUMBER
LUL .                   EDMONTON : LOGGING UNIT LOCATION
ENGI.                       HOLT : RECORDING ENGINEER
WITN.                     HESTER : WITNESSED BY
CLNT.                    A2DTECH : CLIENT CODE
ORIG. 6.5"/100M 16.5"/100M PRINT : ORIGIN OF DATA
UWI .           100100105619W500 : UNIQUE WELL ID
DICO.     A2D Technologies, Inc. : DIGITIZING COMPANY
~Other -----------------------------------------------------
~ASCII -----------------------------------------------------
  300.00000    -999.25    -999.25    -999.25    -999.25    -999.25    -999.25    -999.25    -999.25    -999.25    -999.25    -999.25    -999.25    -999.25    -999.25    -999.25    -999.25    -999.25    -999.25   38.28210    -999.25    -999.25   57.36010   57.36010    -999.25    -999.25    -999.25    -999.25    -999.25    -999.25    -999.25    -999.25    -999.25    -999.25    -999.25    -999.25    -999.25    -999.25    -999.25    -999.25    -999.25    -999.25
  350.00000    -999.25    -999.25    -999.25    -999.25    -999.25    -999.25    -999.25    -999.25    -999.25    -999.25    -999.25    -999.25    -999.25    -999.25    -999.25    -999.25    -999.25    -999.25   20.25960    -999.25    -999.25   33.52400   33.52400    -999.25    -999.25    -999.25    -999.25    -999.25    -999.25    -999.25    -999.25    -999.25    -999.25    -999.25    -999.25    -999.25    -999.25    -999.25    -999.25    -999.25    -999.25
  400.00000    -999.25    -999.25    -999.25    -999.25    -999.25    -999.25    -999.25    -999.25    -999.25    -999.25    -999.25    -999.25    -999.25    -999.25    -999.25    -999.25    -999.25    -999.25   34.14420    -999.25    -999.25   62.04630   62.04630    -999.25    -999.25    -999.25    -999.25    -999.25    -999.25    -999.25    -999.25    -999.25    -999.25    -999.25    -999.25    -999.25    -999.25    -999.25    -999.25    -999.25    -999.25
  450.00000    -999.25    -999.25    -999.25    -999.25    -999.25    -999.25    -999.25    -999.25    -999.25    -999.25    -999.25    -999.25    -999.25    -999.25    -999.25    -999.25    0.60250   50.00360   46.31300    -999.25   49.97340   49.19190   49.19190    -999.25    -999.25    -999.25    -999.25    -999.25    0.47310    -999.25    0.51230    -999.25    -999.25    -999.25    -999.25    -999.25    -999.25    -999.25    -999.25    -999.25    -999.25
  500.00000    -999.25  307.48090  227.99700    -999.25  307.48090  128.72170  -11.98060 1730.12500    -999.25    0.55750    0.57300    7.76870  -11.98060  407.89180  407.89180    -999.25    0.47060  143.98150   87.44010    -999.25  144.63660  125.55470  125.55470  252.04960    7.76870    4.87430    4.87430    -999.25    0.44600    -999.25    0.48640    4.12980    4.12980 1754.68360    4.40650  -94.19560   -9.73240    4.40650 10160.66500 10296.18650 7193.48780
  550.00000    -999.25  297.79110  247.68760    -999.25  297.79110   60.38030   74.55440 2325.61000    -999.25    0.19660    0.22480   16.56170   74.55440  297.23240  297.23240    -999.25    0.27460   47.63600   25.18250    -999.25   48.05060   47.30410   47.30410  273.07930   16.56170   15.17660   15.17660    -999.25    0.24760    -999.25    0.29160    3.14440    3.14440 2311.48780   12.70400 -109.79560  -26.29740   12.70400 10666.80760 10757.31740 7506.22070
  600.00000    -999.25  314.80140  225.40650    -999.25  314.80140   64.21990  192.17980 2512.39000    -999.25    0.08340    0.11560   15.57150  192.17980  253.62920  253.62920    -999.25    0.24130   68.77960   37.54460    -999.25   69.17460   64.34300   64.34300  250.10190   15.57150   15.32280   15.32280    -999.25    0.18890    -999.25    0.23270    4.22740    4.22740 2502.82080   18.89260 -115.14920  -32.67550   18.89260 11123.77930 11169.44530 7824.45460
  650.00000    -999.25  326.54910  222.81890    -999.25  326.54910  186.58460   37.69840 1722.86500    -999.25    0.56190    0.57730    5.35950   37.69840  302.82210  302.82210    -999.25    0.39220   80.63100   60.25640    -999.25   80.13730   73.34990   73.34990  254.46080    5.35950    4.76600    4.76600    -999.25    0.32040    -999.25    0.36390    4.64570    4.64570 1729.61350    4.93250 -122.57810  -41.12890    4.93250 11411.39840 11475.10740 8056.76370
  700.00000    -999.25  449.13060  295.75130    -999.25  449.13060  259.17480    3.16090 1548.62500    -999.25    0.66750    0.67920    3.85840    3.16090  340.98480  340.98480    -999.25    0.64030   70.43810   68.65510    -999.25   70.66760   75.28260   75.28260  386.83000    3.85840    3.15690    3.15690    -999.25    0.46230    -999.25    0.50200    2.64810    2.64810 1551.03420    2.95930 -120.56900  -40.14420    2.95930 12233.19730 12179.42770 8584.36720
  750.00000    -999.25  296.22950  218.01990    -999.25  296.22950  101.74490   50.87340 2001.22000    -999.25    0.39320    0.41450    9.82850   50.87340  327.39090  327.39090    -999.25    0.35090   81.53310   67.33620    -999.25   81.64590   79.80790   79.80790  259.67270    9.82850    7.43810    7.43810    -999.25    0.28330    -999.25    0.32710    3.19580    3.19580 2002.19650    8.01680 -123.54870  -44.14840    8.01680 11727.71090 11651.96190 8777.54200
  800.00000    -999.25  315.63290  214.92390    -999.25  315.63290  168.99890  173.11420 2260.93000    -999.25    0.23580    0.26260    5.91720  173.11420  284.78280  284.78280    -999.25    0.31620   74.58310   57.63720    -999.25   75.28950   77.91280   77.91280  268.75720    5.91720    5.60900    5.60900    -999.25    0.27130    -999.25    0.31520    4.01420    4.01420 2256.27050    5.54480 -121.24450  -42.86870    5.54480 12236.98140 12146.15330 8708.13180
  850.00000    -999.25  246.10490  285.49210    -999.25  246.10490  105.12930    2.88860 2492.26000    -999.25    0.09560    0.12730    9.51210    2.88860  263.50260  263.50260    -999.25    0.23970   81.04880   69.22050    -999.25   80.63050   74.41950   74.41950  264.44390    9.51210    9.04400    9.04400    -999.25    0.26450    -999.25    0.30840    3.35460    3.35460 2493.86790    8.62590 -121.82930  -44.47790    8.62590 11827.23730 11745.71580 8892.58300
  900.00000    -999.25  284.39980  289.29860    -999.25  284.39980  155.31810   34.71290 2426.09500    -999.25    0.13570    0.16600    6.43840   34.71290  308.76850  308.76850    -999.25    0.36240   75.78370   52.25790    -999.25   77.10230   77.61860   77.61860  306.61050    6.43840    5.85820    5.85820    -999.25    0.30810    -999.25    0.35170    4.17290    4.17290 2426.62500    5.31520 -115.17400  -38.84710    5.31520 13204.63280 13081.21970 9371.86330
  950.00000    -999.25  233.12490  336.35070    -999.25  233.12490  247.06000   33.83260 2362.24000    -999.25    0.17440    0.20340    4.04760   33.83260  313.50700  313.50700    -999.25    0.36080   85.89410   72.30450    -999.25   86.28690   76.76640   76.76640  257.10840    4.04760    3.90510    3.90510    -999.25    0.33050    -999.25    0.37380    3.76280    3.76280 2368.11040    3.62390 -114.96560  -39.66320    3.62390 12580.72660 12503.90430 9276.19040
 1000.00000    -999.25  274.44730  353.92790    -999.25  274.44730  285.41260   52.03740 2353.66000    -999.25    0.17960    0.20840    3.50370   52.03740  372.02520  372.02520    -999.25    0.45270   76.68370   50.01070    -999.25   75.86720   68.89650   68.89650  284.51120    3.50370    3.38790    3.38790    -999.25    0.40200    -999.25    0.44390    3.83230    3.83230 2365.56590    3.63540 -113.94980  -39.67180    3.63540 12642.82130 12465.22270 9641.24610
 1050.00000    -999.25  252.30490  334.56140    -999.25  252.30490  196.90080    8.15090 2445.40000    -999.25    0.12400    0.15470    5.07870    8.15090  288.46480  288.46480    -999.25    0.27150   79.25920   53.93050    -999.25   80.37940   77.55550   77.55550  282.91790    5.07870    6.15120    6.15120    -999.25    0.36190    -999.25    0.40470    3.53120    3.53120 2439.19780    4.44670 -111.59700  -38.34350    4.44670 13773.15920 13752.29000 10135.40040
 1100.00000    -999.25  235.44520  246.90430    -999.25  235.44520  229.57370   47.28390 2382.20500    -999.25    0.16230    0.19170    4.35590   47.28390  312.98790  312.98790    -999.25    0.31600   84.19620   75.50760    -999.25   84.10110   78.41200   78.41200  253.82930    4.35590    3.86420    3.86420    -999.25    0.32850    -999.25    0.37190    3.89560    3.89560 2385.03590    3.56200 -108.38120  -36.15220    3.56200 12873.55660 12909.40530 9741.33790
 1150.00000    -999.25  267.42320  384.55380    -999.25  267.42320  162.80020    2.94220 2261.92000    -999.25    0.23520    0.26200    6.14250    2.94220  336.03130  336.03130    -999.25    0.42580   90.01930   80.59470    -999.25   89.73280   78.72660   78.72660  302.49020    6.14250    5.24360    5.24360    -999.25    0.31170    -999.25    0.35530    4.61170    4.61170 2264.64620    4.45540 -106.88800  -35.68340    4.45540 13318.20210 13338.56450 10137.87210
