~Version ---------------------------------------------------
VERS. 2.0 : CWLS log ASCII Standard -VERSION 2.0
WRAP.  NO : ONE LINE PER DEPTH STEP
~Well ------------------------------------------------------
STRT.F                         1200.0 : START DEPTH
STOP.F                        11700.0 : STOP DEPTH
STEP.F                       50.00000 : STEP LENGTH
NULL.                         -999.25 : NULL VALUE
COMP.            MOBIL OIL CANADA LTD : COMPANY
WELL. MOBIL ICG MARSH HEAD 11-3-60-20 : WELL
FLD .                                 : FIELD
LOC .                                 : LOCATION
CTRY.                          CANADA : COUNTRY
SRVC.                    Schlumberger : SERVICE COMPANY
DATE.                     05-Jan-1976 : LOGDATE
PROV.                         Alberta : PROVINCE
UWI .                100110306020W500 : UNIQUE WELL ID
SLAT.WGS84                   54.15991 : SURFACE LATITUDE
SLON.WGS84                  -116.9171 : SURFACE LONGITUDE
~Curve Information -----------------------------------------
DEPT   .F                 : 
CALD   .IN   70 280 01 00 : CALIPER FROM DENSITY LOG
GRD    .GAPI              : GAMMA RAY FROM DENSITY LOG
ILD    .OHMM 07 120 46 00 : DEEP INDUCTION RESISTIVITY
ILM    .OHMM 07 120 44 00 : INDUCTION LOG MEDIUM RESISTIVITY
LL8    .OHMM              : LATEROLOG-8 RESISTIVITY
SPR    .MV                : SPONTANEOUS POTENTIAL FROM RESISTIVITY
DT     .US/F 60 532 00 00 : 3-4 FT COMPENSATED SONIC
DRHO   .G/C3 00 000 00 01 : DENSITY CORRECTION
RHOB   .G/C3 45 350 01 00 : BULK DENSITY
NPHI_LS.DEC               : ENCHANCED THERMAL NEUTRON POROSITY IN SELECTED LITHOLOGY SANDSTONE
DPHI_LS.DEC  45 890 10 00 : DENSITY POROSITY LIMESTONE
CALS   .IN                : CALIPER FROM SONIC LOG
GRS    .GAPI              : GAMMA RAY FROM SONIC LOG
~Params ----------------------------------------------------
PD  .                     GL : PERMANENT DATUM
EPD .FT               3132.5 : ELEVATION PERMANENT DATUM
LMF .                     KB : LOG MEASURED FROM
DAPD.FT                 14.5 : FEET ABOVE PERMANENT DATUM
EKB .FT                 3147 : KELLY BUSHING
EGL .FT               3132.5 : GROUND LEVEL
DATE.               01/05/76 : RUN DATE
RUN .                      1 : RUN NUMBER
DD  .FT                11725 : DEPTH DRILLER
DL  .FT                11730 : DEPTH LOGGER
BLI .FT                11724 : BOTTOM LOG INTERVAL
TLI .FT                 1203 : TOP LOG INTERVAL
CBD .FT                 1203 : CASING BOTTOM DRILLER
CBL .FT                 1203 : CASING BOTTOM LOGGER
BS  .IN                 8.75 : BIT SIZE
BSD .FT                11725 : BIT SIZE AT DEPTH
DFT .                    GEL : DRILLING FLUID TYPE
DFD .                    9.6 : DRILLING FLUID DENSITY
DFV .                    110 : DRILLING FLUID VISCOSITY
DFPH.                   10.5 : DRILLING FLUID PH
DFL .                    9.8 : DRILLING FLUID LOSS
MSS .               FLOWLINE : MUD SAMPLE SOURCE
RMS .OHMM               2.42 : RESISTIVITY MUD SAMPLE
MST .DEGF                 74 : MUD SAMPLE TEMPERATURE
RMF .OHMM               1.63 : RESISTIVITY MUD FILTRATE SAMPLE
MFST.DEGF                 74 : MUD FILTRATE SAMPLE TEMPERATURE
RMB .OHMM               0.67 : RESISTIVITY MUD AT BHT
TCS .HRS                   3 : TIME CIRCULATED STOPPED
LUN .                   7658 : LOGGING UNIT NUMBER
LUL .                     RD : LOGGING UNIT LOCATION
ENGI.              DODSWORTH : RECORDING ENGINEER
WITN.   OLINYK LINDENSCHMIDT : WITNESSED BY
CLNT.                A2DTECH : CLIENT CODE
ORIG.            2" 5" PRINT : ORIGIN OF DATA
UWI .       100110306020W500 : UNIQUE WELL ID
DICO. A2D Technologies, Inc. : DIGITIZING COMPANY
~Other -----------------------------------------------------
~ASCII -----------------------------------------------------
 1200.00000    -999.25   35.58340    -999.25    -999.25    -999.25    -999.25    -999.25    -999.25    -999.25    0.40020    -999.25    -999.25   39.78980
 1250.00000   11.02860   57.78070   11.51540    9.77470   10.22980 -101.80810   91.82490    0.04010    2.34230    0.25020    0.22250   10.63590   56.13550
 1300.00000   12.64900   74.70230    5.62840    4.48670   11.69330 -101.53080  137.14450    0.04690    1.64720    0.38650    -999.25   12.50030   85.28510
 1350.00000   10.67610   71.41630    4.41960    3.55490    5.77390 -103.80350  120.84600    0.06760    1.80600    0.29560    0.40470    9.86880   78.35040
 1400.00000   10.73490   66.76070    7.15660    5.55000    5.89160 -104.39690   87.12520    0.12700    2.26130    0.25030    0.27890    9.71830   62.84790
 1450.00000   13.84540   80.00740    7.42310    6.23300    6.70650 -104.24680   97.16000    0.16680    1.98110    0.29480    0.44200   11.77650   71.86270
 1500.00000   11.10330   87.13170    2.86000    2.31370    2.96110 -103.44100  120.67810    0.08320    1.70260    0.43280    -999.25   12.88610   91.48150
 1550.00000   10.42080   60.72780   10.95570   10.41640   10.12980 -102.04730   92.74310    0.06230    2.29860    0.23640    0.22480    9.60910   58.41750
 1600.00000   10.15230   40.72770   19.54010   14.98290   13.92250 -106.54610   75.35890    0.01910    2.30140    0.24080    0.22510    9.74750   50.34360
 1650.00000   12.45840   81.88600    8.47890    6.48100    6.85990 -102.27710  102.43090    0.18550    2.06900    0.32030    0.41430   11.78330   77.54680
 1700.00000   11.66560   78.67280    4.74450    3.60830    5.92740 -101.99210  101.00680    0.08970    1.89450    0.29460    -999.25   12.07970   62.37650
 1750.00000   11.37120   98.30980    6.48830    5.35720    6.87380 -103.40160   94.59970    0.14440    2.09410    0.26970    0.37090   10.75840   89.48080
 1800.00000   12.00660   71.56610    7.03650    5.79420    7.86320 -103.38060   93.88290    0.14460    1.93980    0.37940    0.45060    9.74700   93.61730
 1850.00000   10.05570   83.68290   11.68860   13.78310   20.10360 -102.42450   86.72530    0.02130    2.37210    0.24400    0.21000    9.55610   66.07360
 1900.00000   10.45790   60.45880   12.53560   12.20650   13.46260 -101.15690   84.66640    0.01010    2.35620    0.22440    0.21520    9.67250   58.22590
 1950.00000   13.81870   80.10040    5.54680    4.56440    5.05380 -101.99620   95.90090    0.13910    1.94320    0.26940    0.44160   10.13250   77.19240
 2000.00000   10.51240   71.40430   13.57240   12.92590   15.24090 -100.02350   86.90360    0.06290    2.38470    0.23580    0.20430    9.80810   60.67770
 2050.00000   12.65130   83.54570    3.80080    3.36360    4.16310  -99.33050  105.17630    0.15040    2.03720    0.25960    0.36580   10.89650   84.43280
 2100.00000   14.73000   75.54570    4.24760    3.40270    4.26600  -99.66710   93.63490    0.14280    1.82200    0.34690    -999.25   12.39370   77.95960
 2150.00000   13.71190   75.86470    7.10110    5.77280    5.98080  -98.72570   91.29480    0.12340    2.01300    0.31850    0.43490   12.19090   68.54470
 2200.00000   12.53560   84.58740    4.76070    4.07480    5.86220  -99.22790   99.76590    0.13220    2.02650    0.26660    0.35110   11.78010   83.35780
 2250.00000   11.64130  107.48670    4.73020    4.18310    5.08790  -99.96000  103.42800    0.12030    2.11070    0.28210    0.38980   11.38840   84.59640
 2300.00000   11.12350   69.52920   16.01510   12.67590   15.37800 -101.67080   87.54540    0.02750    2.36660    0.21700    0.20730   10.36740   59.19290
 2350.00000   11.62290   91.61470    3.80280    2.90580    3.67750  -96.27600   94.33650   -0.00040    2.24650    0.27370    0.25130   11.09820   92.45640
 2400.00000   11.91860   77.74960    5.49980    4.58730    5.14020  -95.72940   93.86770    0.13330    1.94780    0.27960    0.42590   11.89160   77.61870
 2450.00000   12.16120   79.36110    4.01330    3.23180    3.69600  -96.59330   92.78430    0.12080    2.01350    0.26580    0.40780   13.10810   70.69820
 2500.00000   14.80110   73.28110    5.17070    4.11830    4.87000  -98.20650  108.54770    0.07980    1.71740    0.35200    -999.25   13.82210   78.85630
 2550.00000   13.33340   70.35910    5.17940    4.41510    4.84150  -99.39570   98.62310    0.12170    1.78280    0.39490    0.44990   14.26460   73.01120
 2600.00000   10.02320   51.90870    3.13240    2.62360    3.42640  -98.17930   92.07210   -0.03990    2.16550    0.27300    0.26530   10.79210   68.14050
 2650.00000   11.13850   60.81420   17.10830   16.20530   23.19830 -101.84920   87.08710    0.16700    1.98510    0.36460    0.43430   13.67310   73.07770
 2700.00000   14.09210   71.58450    3.77090    3.18720    3.73570  -99.07300   98.44680    0.14700    1.85060    0.34940    0.45040   13.24700   80.25960
 2750.00000   11.37610   89.53460    4.04520    3.59090    4.30140  -98.35920   98.90800    0.12580    1.84110    0.39110    0.44950   11.22950   87.67880
 2800.00000   12.43950   74.52800    5.27810    4.23190    4.62240  -97.90170   93.80090    0.15390    1.96060    0.36570    0.45000   13.80510   88.35390
 2850.00000   13.30030   80.89020   11.20050    9.16770   10.35690  -96.70310   90.85560    0.15910    1.84880    0.33890    0.44960   14.78240   75.85490
 2900.00000   14.29890   91.03140    4.66970    3.96160    4.31580  -98.06130   93.47400    0.15560    1.95000    0.26180    0.44940   14.85110   93.46020
 2950.00000    9.58390   50.74960    3.84090    3.39870    8.10720 -100.16400   85.79310    0.09350    2.16510    0.24760    0.31220   10.59240   67.36400
 3000.00000   12.51920   95.30600    5.13060    4.37980    4.87110  -96.93750   96.24600    0.11250    1.81840    0.28520    0.45030   14.55920   93.38590
 3050.00000   10.17370   67.22640   25.99630   23.76530   27.43160 -103.43440   81.68300    0.00110    2.35540    0.17200    0.18760   10.51010   69.00810
 3100.00000   12.86540   80.37460    4.85620    3.97680    4.65770  -94.97170   94.17070    0.13300    1.99920    0.27440    0.40800   10.72910   83.36770
 3150.00000   12.98950   93.03490    4.92680    4.16480    4.54990  -92.85700   90.37610    0.17010    2.00710    0.30190    0.43330   14.58170   89.45100
 3200.00000    9.08590   51.48800    5.86270    4.47070    5.09620  -95.23530   88.15120    0.09900    2.09360    0.29750    0.35150    9.76680   76.94550
 3250.00000   10.31410   50.64140    9.24830    8.61530    9.66410  -97.58760   83.27010    0.04770    2.28360    0.23950    0.23570   10.48400   49.50950
 3300.00000   11.04790   79.00630    5.07170    4.10440    3.90960  -95.03260   79.13790    0.11190    2.20830    0.32280    0.38800    9.43190   91.74180
 3350.00000   12.70160   64.57350    6.45560    5.07480    5.27450  -96.04150   95.81900    0.11430    1.84090    0.39970    -999.25   10.40940   69.08000
 3400.00000   10.82730   69.30070    4.53460    3.93380    4.31140  -95.54580   90.50120    0.01550    2.20490    0.27480    0.29620    9.84220   70.70980
 3450.00000   10.55430   84.61470    6.90430    5.89080    6.12050  -98.33830   94.61210    0.12470    2.01190    0.30530    0.37730    9.47260   75.08010
 3500.00000   10.10590   58.18800   17.41430   15.67130   20.85980  -99.53010   80.17380    0.02240    2.42480    0.22840    0.17330    9.48560   53.35840
 3550.00000   12.66550   69.85920   13.57440   11.68940   12.92900  -98.92010   85.87390    0.16990    2.24290    0.29720    0.31900    9.48770   63.25150
 3600.00000   10.03350   46.38820   11.43620    9.12350   10.44670  -96.96740   80.37810    0.09220    2.41020    0.20660    0.19420    9.51880   63.88830
 3650.00000   10.31520   50.48610   19.01260   18.25830   21.01520  -94.83600   77.60760    0.02450    2.43420    0.20810    0.17110    9.49390   48.89380
 3700.00000   11.28610   60.81300    7.48530    6.57080    7.31410  -94.94400   82.49080    0.20630    2.25150    0.26660    0.27990    9.62300   64.69890
 3750.00000   12.41550   70.68720    6.64460    5.49760    5.78160  -99.35590   89.54510    0.15410    2.04100    0.29530    0.39410    9.57900   77.85900
