~Version ---------------------------------------------------
VERS.      2.0 : CWLS log ASCII Standard -VERSION 2.0
WRAP.       NO : One line per depth step
CREA. 11/03/17 : LAS Creation Date
~Well ------------------------------------------------------
STRT.FT                            1050.0 : START DEPTH
STOP.FT                            9900.0 : STOP DEPTH
STEP.FT                          50.00000 : STEP LENGTH
NULL.                             -999.25 : NULL VALUE
COMP.       HUDSON'S BAY OIL & GAS CO LTD : COMPANY
WELL. HB QUINTANA GULF EAGLET 16-13-64-17 : WELL
FLD .                                     : FIELD
LOC .                                     : LOCATION
CTRY.                              CANADA : COUNTRY
SRVC.                        Schlumberger : SERVICE COMPANY
DATE.                         24-Mar-1972 : LOGDATE
PROV.                             Alberta : PROVINCE
UWI .                    100161306417W500 : UNIQUE WELL ID
SLAT.WGS84                       54.54267 : SURFACE LATITUDE
SLON.WGS84                      -116.4235 : SURFACE LONGITUDE
~Curve Information -----------------------------------------
DEPT  .FT    : Depth Curve
CALSED.IN    : CALIPER FROM SONIC LOG
CALWS .IN    : CALIPER [CALRED]
CONDWS.MMHO  : CONDUCTIVITY [1000/DRESWS]
DRESWS.OHMM  : DEEP RESISTIVITY [ILDED]
DTED  .US/F  : DELTA-T FROM SONIC LOG
DTWS  .US/F  : COMPRESSIONAL SONIC [DTED]
GRSED .GAPI  : GAMMA RAY FROM SONIC LOG
GRWS  .GAPI  : GAMMA RAY [GRSED]
ILDED .OHMM  : DEEP INDUCTION RESISTIVITY FROM RESISTIVITY LOG
ILMED .OHMM  : MEDIUM INDUCTION RESISTIVITY FROM RESISTIVITY LOG
LL8ED .OHMM  : LATEROLOG 8 FROM RESISTIVITY LOG
MRESWS.OHMM  : MEDIUM RESISTIVITY [ILMED]
SPRED .MV    : SPONTANEOUS POTENTIAL FROM RESISTIVITY LOG
SPWS  .MV    : SPONTANEOUS POTENTIAL [BASELINE 0 MV,SPRED]
SRESWS.OHMM  : SHALLOW RESISTIVITY [LL8ED]
~Params ----------------------------------------------------
PD  .                     GL : PERMANENT DATUM
EPD .FT                 3075 : ELEVATION PERMANENT DATUM
LMF .                     KB : LOG MEASURED FROM
DAPD.FT                 13.5 : FEET ABOVE PERMANENT DATUM
DMF .                     KB : DRILLING MEASURED FROM
EKB .FT               3088.5 : KELLY BUSHING
EGL .FT                 3075 : GROUND LEVEL
DATE.               03/24/72 : RUN DATE
RUN .                      1 : RUN NUMBER
DD  .FT                 9942 : DEPTH DRILLER
DL  .FT                 9942 : DEPTH LOGGER
BLI .FT                 9936 : BOTTOM LOG INTERVAL
TLI .FT                 1030 : TOP LOG INTERVAL
CBD .FT                 1030 : CASING BOTTOM DRILLER
CBL .FT                 1030 : CASING BOTTOM LOGGER
BS  .IN                7.875 : BIT SIZE
BSD .FT                 9942 : BIT SIZE AT DEPTH
DFT .               CHEM GEL : DRILLING FLUID TYPE
DFD .                    9.4 : DRILLING FLUID DENSITY
DFV .                    147 : DRILLING FLUID VISCOSITY
DFPH.                    9.5 : DRILLING FLUID PH
DFL .                    9.4 : DRILLING FLUID LOSS
MSS .             CIRCULATED : MUD SAMPLE SOURCE
RMS .OHMM                2.4 : RESISTIVITY MUD SAMPLE
MST .DEGF                 84 : MUD SAMPLE TEMPERATURE
TCS .HRS                   3 : TIME CIRCULATED STOPPED
LUN .                   5670 : LOGGING UNIT NUMBER
LUL .                    EDM : LOGGING UNIT LOCATION
ENGI.        IBSEN SUNDQUIST : RECORDING ENGINEER
WITN.      POCHE FITZSIMMONS : WITNESSED BY
CLNT.                A2DTECH : CLIENT CODE
ORIG.            2" 5" PRINT : ORIGIN OF DATA
UWI .       100161306417W500 : UNIQUE WELL ID
DICO. A2D Technologies, Inc. : DIGITIZING COMPANY
~Other -----------------------------------------------------
~ASCII -----------------------------------------------------
# ...
 5650.00000    8.65140    8.65140  152.43670    6.56010   76.73910   76.73910   79.32400   79.32400    6.56010    7.19440    8.33170    7.19440   47.47330  -13.87460    8.33170
 5700.00000    8.41300    8.41300   91.61650   10.92600   62.13110   62.13110   40.04440   40.04440   10.92600   13.31490   32.25860   13.31490   11.41520  -51.59500   32.25860
 5750.00000    8.45800    8.45800  124.12180    8.05660   74.16370   74.16370   89.17320   89.17320    8.05660    9.39130   12.50130    9.39130   57.43020   -7.22570   12.50130
 5800.00000    7.63660    7.63660   55.16660   18.12690  118.69040  118.69040   34.06420   34.06420   18.12690   23.22610   42.90640   23.22610  -11.22640  -76.49940   42.90640
 5850.00000   12.09300   12.09300  370.85940    2.69640  105.07970  105.07970   88.75690   88.75690    2.69640    2.92500    3.82910    2.92500   54.12320  -11.10370    3.82910
 5900.00000    9.12870    9.12870  104.73510    9.54790   92.14160   92.14160   90.66950   90.66950    9.54790   10.49820   14.11350   10.49820   64.13230   -0.65770   14.11350
 5950.00000   10.67440   10.67440  231.68030    4.31690   91.43690   91.43690   91.90150   91.90150    4.31690    4.70450    6.17630    4.70450   60.06220   -3.72540    6.17630
 6000.00000    8.15390    8.15390   47.90070   20.87650   67.58500   67.58500   56.38670   56.38670   20.87650   25.17240   93.12080   25.17240   55.23260   -7.56360   93.12080
 6050.00000    7.38710    7.38710    2.95690  338.19540   66.91210   66.91210  121.11510  121.11510  338.19540  347.65700  818.41920  347.65700   30.40130  -31.39860  818.41920
 6100.00000    8.36460    8.36460  254.28990    3.93900   67.87120   67.87120   64.86760   64.86760    3.93900    5.30480   23.97180    5.30480  -12.22960  -73.02810   23.97180
 6150.00000    7.62200    7.62200   62.52930   15.99250   82.77380   82.77380   29.78710   29.78710   15.99250   20.80870   29.21250   20.80870  -89.16410 -148.97130   29.21250
 6200.00000    8.01700    8.01700   91.76810   10.93200   61.96440   61.96440   46.10120   46.10120   10.93200   11.81540   16.34810   11.81540   21.05270  -37.75320   16.34810
 6250.00000    8.17720    8.17720    5.64520  177.14080   49.22780   49.22780   27.23030   27.23030  177.14080  261.82790 1056.48900  261.82790  -17.78780  -73.30140 1056.48900
 6300.00000    8.27090    8.27090  191.29240    5.22760   55.78500   55.78500   40.11550   40.11550    5.22760    6.19040   23.25780    6.19040    2.62250  -47.85800   23.25780
 6350.00000    8.35760    8.35760   49.00810   20.91570   62.34720   62.34720   36.18970   36.18970   20.91570   36.82280  151.61200   36.82280    7.81880  -37.60350  151.61200
 6400.00000    8.26920    8.26920   51.86020   19.28260   54.75010   54.75010   37.20380   37.20380   19.28260   24.03480   47.21440   24.03480   38.73980   -1.67460   47.21440
 6450.00000    7.80010    7.80010   91.28590   10.95500   53.60990   53.60990   17.28630   17.28630   10.95500   19.22850  139.24220   19.22850  -94.07130 -129.68610  139.24220
 6500.00000    7.97730    7.97730   31.17430   32.07770   53.70930   53.70930   13.99530   13.99530   32.07770   42.67020  250.43400   42.67020  -84.84080 -115.73220  250.43400
 6550.00000    8.34170    8.34170   13.46230   74.28160   50.32900   50.32900   16.20440   16.20440   74.28160  118.39240 1370.49380  118.39240  -92.03200 -118.17610 1370.49380
 6600.00000    8.54690    8.54690  579.96760    1.72650   68.82270   68.82270   51.36230   51.36230    1.72650    1.87360    4.95100    1.87360  -44.99220  -71.19630    4.95100
 6650.00000    8.18300    8.18300  155.92600    6.41330   56.24310   56.24310   58.05930   58.05930    6.41330    6.80320   12.38310    6.80320    9.57080  -19.72580   12.38310
 6700.00000    8.14720    8.14720   97.11930   10.33030   56.17700   56.17700   39.28630   39.28630   10.33030   11.50940   14.68440   11.50940   19.93570  -12.48440   14.68440
 6750.00000    8.26840    8.26840   43.11650   23.19300   55.73730   55.73730   43.53690   43.53690   23.19300   24.95810   26.55840   24.95810   25.73690   -9.77570   26.55840
 6800.00000    8.25110    8.25110   83.22930   12.01500   63.65920   63.65920   75.21380   75.21380   12.01500   10.82740   22.29360   10.82740   37.43850   -1.18210   22.29360
 6850.00000    7.92130    7.92130    3.48030  287.33540   52.87090   52.87090   26.86290   26.86290  287.33540  334.41500  665.29460  334.41500   12.20180  -29.98500  665.29460
 6900.00000    7.93350    7.93350    7.83350  127.65700   51.53040   51.53040   17.45770   17.45770  127.65700  147.37010  239.76070  147.37010  -32.57340  -78.34750  239.76070
 6950.00000    7.93620    7.93620   14.11410   70.85140   53.20700   53.20700   25.93640   25.93640   70.85140   73.88130  107.76890   73.88130   19.97190  -29.42550  107.76890
 7000.00000    7.98090    7.98090   13.83080   72.30230   52.73740   52.73740   32.16160   32.16160   72.30230   75.25980   93.56430   75.25980   19.11420  -33.87050   93.56430
 7050.00000    7.99370    7.99370    1.00150  998.50460   51.08070   51.08070   19.94440   19.94440  998.50460 1639.80150 1291.23440 1639.80150  -36.31960  -92.90970 1291.23440
 7100.00000    8.11760    8.11760    7.10100  140.83680   55.37880   55.37880   43.44410   43.44410  140.83680  169.29230  167.73880  169.29230   34.51580  -25.69760  167.73880
 7150.00000    8.11830    8.11830    6.96860  143.50170   55.33210   55.33210   50.07430   50.07430  143.50170  174.69430  199.10040  174.69430   43.68470  -20.11600  199.10040
 7200.00000    8.23190    8.23190   55.62250   17.97850   59.73930   59.73930   84.99400   84.99400   17.97850   18.76760   23.46690   18.76760   42.03940  -18.18550   23.46690
 7250.00000    8.26330    8.26330    6.54660  152.75040   48.39030   48.39030   19.66440   19.66440  152.75040  172.90140  222.96520  172.90140   14.72390  -44.42510  222.96520
 7300.00000    8.29360    8.29360    4.00630  249.60790   49.06650   49.06650   12.98660   12.98660  249.60790  262.16640  277.16950  262.16640  -69.42590 -128.64220  277.16950
 7350.00000    8.28120    8.28120    1.96500  510.95320   48.54100   48.54100   16.38560   16.38560  510.95320 1361.95110 1181.07320 1361.95110  -51.88250 -111.16640 1181.07320
 7400.00000    8.40130    8.40130    6.22000  160.77060   50.25200   50.25200   12.92080   12.92080  160.77060  247.69340  275.68690  247.69340  -82.62160 -141.97250  275.68690
 7450.00000    8.02010    8.02010    3.87540  258.04120   48.79610   48.79610   14.40030   14.40030  258.04120  341.85580  295.76290  341.85580  -82.55280 -141.97130  295.76290
 7500.00000    8.33540    8.33540   12.47560   80.15650   50.17290   50.17290   10.25330   10.25330   80.15650  106.37150  269.33280  106.37150 -173.88860 -233.37410  269.33280
 7550.00000    7.72290    7.72290   28.12310   35.55790   52.32640   52.32640   14.24700   14.24700   35.55790   57.12820  340.58450   57.12820 -193.19410 -252.74690  340.58450
 7600.00000    7.94440    7.94440    9.96580  100.99460   51.07550   51.07550    9.80140    9.80140  100.99460  123.48750  228.40050  123.48750 -123.64880 -183.26920  228.40050
 7650.00000    8.28270    8.28270    2.44810  408.47660   48.52890   48.52890   11.38860   11.38860  408.47660  613.92520  440.70420  613.92520  -95.42110 -155.10850  440.70420
 7700.00000    8.24240    8.24240    0.62970 1588.17790   48.13720   48.13720   12.94180   12.94180 1588.17790 1549.99760 1444.82460 1549.99760 -100.41360 -160.16870 1444.82460
 7750.00000    8.31130    8.31130    1.40230  713.12220   47.65950   47.65950   14.61970   14.61970  713.12220  801.14760  975.13760  801.14760  -88.12000 -147.94200  975.13760
 7800.00000    8.25570    8.25570    3.94490  253.49330   48.49470   48.49470   10.81170   10.81170  253.49330  294.40590  454.05480  294.40590 -106.81240 -166.70170  454.05480
 7850.00000    8.14020    8.14020    9.38770  106.67960   49.82780   49.82780    9.18000    9.18000  106.67960  117.22170  161.89210  117.22170 -126.25140 -186.20840  161.89210
 7900.00000    7.81800    7.81800   47.23240   21.17190   53.06010   53.06010    7.81410    7.81410   21.17190   27.95730  170.52620   27.95730 -185.84770 -245.87160  170.52620
