~Version ---------------------------------------------------
VERS.      2.0 : CWLS log ASCII Standard -VERSION 2.0
WRAP.       NO : One line per depth step
CREA. 08/24/13 : LAS Creation Date
~Well ------------------------------------------------------
STRT.M                           450.0 : START DEPTH
STOP.M                          2950.0 : STOP DEPTH
STEP.M                        50.00000 : STEP LENGTH
NULL.                          -999.25 : NULL VALUE
COMP. AMOCO CANADA PETROLEUM CO., LTD. : COMPANY
WELL.   PROGRESS BRIALTO TWO CK 6-6-65 : WELL
FLD .                                  : FIELD
LOC .                                  : LOCATION
CTRY.                           CANADA : COUNTRY
SRVC.                          Unknown : SERVICE COMPANY
DATE.                      07-Jan-1980 : LOGDATE
PROV.                          Alberta : PROVINCE
UWI .                 100060606515W500 : UNIQUE WELL ID
SLAT.WGS84                    54.59579 : SURFACE LATITUDE
SLON.WGS84                   -116.2612 : SURFACE LONGITUDE
~Curve Information -----------------------------------------
DEPT    .M      : DEPTH METER
CALDED  .MM     : CALIPER FROM DENSITY LOG [ADJ. TO RESISTIVITY LOG]
CALSED  .MM     : CALIPER FROM SONIC LOG [ADJ. TO RESISTIVITY LOG]
CALWS   .MM     : CALIPER [CALSED]
CONDWS  .MMHO   : CONDUCTIVITY [1000/DRESWS]
DCORED  .KG/M3  : DENSITY CORRECTION FROM DENSITY LOG [ADJ. TO DPHISSED/DPHILSED/RESISTIVITY LOG]
DCORWS  .KG/M3  : DENSITY CORRECTION [DCORED]
DENWS   .KG/M3  : FORMATION BULK DENSITY [CALC. FROM DPOLSWS, M=2710, F=1000]
DPHILSED.V/V    : DENSITY POROSITY LIMESTONE [M=2710, F=1000] FROM DENSITY LOG [ADJ. TO RESISTIVITY LOG]
DPHISSED.V/V    : DENSITY POROSITY SANDSTONE [M=2650, F=1000] FROM DENSITY LOG [ADJ. TO RESISTIVITY LOG]
DPOLSWS .V/V    : DENSITY POROSITY LIMESTONE [DPHISSED CONVERTED TO LIMESTONE MATRIX, M=2710, F=1000, SPL. TO DPHILSED @ 1800 M]
DRESWS  .OHMM   : DEEP RESISTIVITY [ILDED]
DTED    .US/M   : DELTA T FROM SONIC LOG [ADJ. TO RESISTIVITY LOG]
DTWS    .US/M   : COMPRESSIONAL SONIC [DTED]
GRDED   .GAPI   : GAMMA RAY FROM DENSITY LOG [ADJ. TO RESISTIVITY LOG]
GRED    .GAPI   : GAMMA RAY FROM CBL LOG [ADJ. TO RESISTIVITY LOG]
GRSED   .GAPI   : GAMMA RAY FROM SONIC LOG [ADJ. TO RESISTIVITY LOG]
GRWS    .GAPI   : GAMMA RAY [GRSED]
ILDED   .OHMM   : DEEP INDUCTION FROM RESISTIVITY LOG
ILMED   .OHMM   : MEDIUM INDUCTION FROM RESISTIVITY LOG
MRESWS  .OHMM   : MEDIUM RESISTIVITY [ILMED]
NPHILSED.V/V    : NEUTRON POROSITY LIMESTONE FROM DENSITY LOG [ADJ. TO RESISTIVITY LOG]
NPHISSED.V/V    : NEUTRON POROSITY SANDSTONE FROM DENSITY LOG [ADJ. TO RESISTIVITY LOG]
NPOLSWS .V/V    : NEUTRON POROSITY LIMESTONE [NPHISSED CONVERTED TO LIMESTONE MATRIX, SPL. TO NPHILSED @ 1808.3 M]
RHOBED  .KG/M3  : BULK DENSITY FROM DENSITY LOG [ADJ. TO DPHISSED/DPHILSED/RESISTIVITY LOG]
SFLED   .OHMM   : SPHERICALLY FOCUSED FROM RESISTIVITY LOG
SPRED   .MV     : SPONTANEOUS POTENTIAL FROM RESISTIVITY LOG
SPWS    .MV     : SPONTANEOUS POTENTIAL [BASELINE 0 MV, SPRED]
SRESWS  .OHMM   : SHALLOW RESISTIVITY [SFLED]
TENED   .N      : TENSION FROM CBL LOG [ADJ. TO RESISTIVITY LOG]
~Params ----------------------------------------------------
PD  .                         GL : PERMANENT DATUM
EPD .M                    1014.4 : ELEVATION PERMANENT DATUM
LMF .                         KB : LOG MEASURED FROM
DAPD.M                         5 : FEET ABOVE PERMANENT DATUM
DMF .                         KB : DRILLING MEASURED FROM
EKB .M                    1019.4 : KELLY BUSHING
EGL .M                    1014.4 : GROUND LEVEL
DATE.                   01/07/80 : RUN DATE
RUN .                          1 : RUN NUMBER
DD  .M                      2995 : DEPTH DRILLER
DL  .M                      2993 : DEPTH LOGGER
BLI .M                      2992 : BOTTOM LOG INTERVAL
TLI .M                       457 : TOP LOG INTERVAL
CS  .MM                    244.5 : CASING SIZE
CBD .M                       457 : CASING BOTTOM DRILLER
CBL .M                       457 : CASING BOTTOM LOGGER
BS  .MM                      200 : BIT SIZE
BSD .M                      2995 : BIT SIZE AT DEPTH
DFT .                  GEL BENEX : DRILLING FLUID TYPE
DFD .                       1110 : DRILLING FLUID DENSITY
DFV .                         85 : DRILLING FLUID VISCOSITY
DFPH.                         10 : DRILLING FLUID PH
DFL .                        8.8 : DRILLING FLUID LOSS
MSS .                   FLOWLINE : MUD SAMPLE SOURCE
RMS .OHMM                   1.92 : RESISTIVITY MUD SAMPLE
MST .DEGC                   8.33 : MUD SAMPLE TEMPERATURE
RMF .OHMM                   1.57 : RESISTIVITY MUD FILTRATE SAMPLE
MFST.DEGC                   8.89 : MUD FILTRATE SAMPLE TEMPERATURE
MFSS.                       MEAS : MUD FILTRATE SAMPLE SOURCE
RMB .OHMM                   0.45 : RESISTIVITY MUD AT BHT
TCS .HRS                    1915 : TIME CIRCULATED STOPPED
TLAB.HRS                     400 : TIME LOGGER AT BOTTOM
LUN .                       7783 : LOGGING UNIT NUMBER
LUL .                       5270 : LOGGING UNIT LOCATION
ENGI.                  MIDDLETON : RECORDING ENGINEER
WITN.                      LARIO : WITNESSED BY
CLNT.                    A2DTECH : CLIENT CODE
ORIG. 6.5"/100M 16.5"/100M PRINT : ORIGIN OF DATA
UWI .           100060606515W500 : UNIQUE WELL ID
DICO.     A2D Technologies, Inc. : DIGITIZING COMPANY
~Other -----------------------------------------------------
CNFD-DIL-SFL-BCS-CBL LOG RAN.
RHOB & DCOR FROM SMALL SECTION.
~ASCII -----------------------------------------------------
  450.00000    -999.25    -999.25    -999.25    -999.25    -999.25    -999.25    -999.25    -999.25    -999.25    -999.25    -999.25    -999.25    -999.25   33.07240   28.84640   39.34150   39.34150    -999.25    -999.25    -999.25    -999.25    0.55850    0.51680    -999.25    -999.25    -999.25    -999.25    -999.25    -999.25
  500.00000  334.37140  257.20500  257.20500  309.62630   75.47140   75.47140 2249.87500    -999.25    0.24250    0.26910    3.22970  628.32410  628.32410   75.68940   47.11120   68.77520   68.77520    3.22970    2.94360    2.94360    -999.25    0.38650    0.34340 2265.97630    3.33720 -129.77110   -2.79660    3.33720 3253.85720
  550.00000  344.53950  252.45940  252.45940  475.05940    9.93980    9.93980 2175.62500    -999.25    0.28750    0.31250    2.10500  386.92510  386.92510   82.01080   62.30880   81.21970   81.21970    2.10500    1.96070    1.96070    -999.25    0.42100    0.37860 2144.63090    2.23270 -128.97340   -2.51000    2.23270 3438.51590
  600.00000  251.84650  237.63610  237.63610  139.40390   31.89430   31.89430 2206.81000    -999.25    0.26860    0.29430    7.17340  345.49880  345.49880   55.76800   44.20840   54.27250   54.27250    7.17340    6.83300    6.83300    -999.25    0.36670    0.32320 2221.73530    7.97000 -142.30660  -16.34600    7.97000 3604.63960
  650.00000  289.18110  285.03910  285.03910  303.84050  123.68770  123.68770 2077.78000    -999.25    0.34680    0.36970    3.29120  420.70500  420.70500   58.73680   43.55480   52.68520   52.68520    3.29120    3.04890    3.04890    -999.25    0.44980    0.40810 2044.08460    2.27180 -129.16620   -3.70850    2.27180 3739.23460
  700.00000  254.93930  249.72240  249.72240   85.25590    3.54140    3.54140 2448.04000    -999.25    0.12240    0.15320   11.72940  293.07110  293.07110   42.00710    -999.25   48.02990   48.02990   11.72940   10.26720   10.26720    -999.25    0.25290    0.20900 2454.33760   13.38410 -131.78810   -6.83330   13.38410    -999.25
  750.00000  255.72750  255.73750  255.73750  320.20490   12.13050   12.13050 2255.48500    -999.25    0.23910    0.26580    3.12300  371.65180  371.65180   56.92410    -999.25   53.70860   53.70860    3.12300    2.92860    2.92860    -999.25    0.43950    0.39750 2208.19140    2.76190 -126.43210   -1.98020    2.76190    -999.25
  800.00000  293.18650  254.31970  254.31970  275.34560   50.57720   50.57720 2223.80500    -999.25    0.25830    0.28430    3.63180  347.30290  347.30290   73.02010    -999.25   54.40120   54.40120    3.63180    3.42440    3.42440    -999.25    0.39670    0.35380 2249.50370    3.72350 -126.63610   -2.68700    3.72350    -999.25
  850.00000  250.49770  236.24660  236.24660  283.14980   14.69200   14.69200 2242.45000    -999.25    0.24700    0.27340    3.53170  389.66840  389.66840   67.22980    -999.25   61.49520   61.49520    3.53170    3.26430    3.26430    -999.25    0.44420    0.40240 2234.73440    3.32400 -125.64120   -2.19510    3.32400    -999.25
  900.00000  255.54400  242.83500  242.83500  147.88090   21.36670   21.36670 2266.37500    -999.25    0.23250    0.25940    6.76220  349.41380  349.41380   46.80820    -999.25   43.37650   43.37650    6.76220    6.40290    6.40290    -999.25    0.33340    0.28960 2269.36210    7.63070 -138.69600  -16.00300    7.63070    -999.25
  950.00000  329.49540  254.19490  254.19490  267.20820   50.89390   50.89390 2399.53000    -999.25    0.15180    0.18160    3.74240  334.20690  334.20690   70.77670    -999.25   61.62370   61.62370    3.74240    3.91760    3.91760    -999.25    0.41860    0.37610 2401.82590    4.35310 -123.85360   -2.32910    4.35310    -999.25
 1000.00000  319.13640  239.71110  239.71110  200.66620  117.37550  117.37550 2059.79500    -999.25    0.35770    0.38020    4.98340  318.38650  318.38650   90.36500    -999.25   89.23060   89.23060    4.98340    4.28920    4.28920    -999.25    0.51450    0.47280 2056.89550    5.45700 -129.39660   -9.04060    5.45700    -999.25
 1050.00000  285.92790  265.59720  265.59720  146.78470  157.28620  157.28620 2170.84000    -999.25    0.29040    0.31530    6.81270  282.53780  282.53780   81.38590    -999.25   73.64210   73.64210    6.81270    7.12920    7.12920    -999.25    0.37400    0.33070 2181.58670    8.20890 -126.46570   -6.59970    8.20890    -999.25
 1100.00000  336.30300  320.85970  320.85970  186.20590   46.98560   46.98560 2421.97000    -999.25    0.13820    0.16840    5.37040  287.91370  287.91370   85.83440    -999.25   87.87520   87.87520    5.37040    5.61240    5.61240    -999.25    0.31670    0.27280 2428.92160    6.23580 -125.60490   -6.11470    6.23580    -999.25
 1150.00000    -999.25  262.17380  262.17380  178.04680   45.68720   45.68720 2411.57500    -999.25    0.14450    0.17450    5.61650  310.24090  310.24090   99.23740    -999.25   92.30360   92.30360    5.61650    5.34960    5.34960    -999.25    0.37280    0.32950 2411.69120    5.92050 -124.98040   -5.86600    5.92050    -999.25
 1200.00000  334.15320  255.14960  255.14960  166.59450   27.08490   27.08490 2280.40000    -999.25    0.22400    0.25120    6.00260  317.41870  317.41870  112.28940    -999.25  102.09080  102.09080    6.00260    5.82270    5.82270    -999.25    0.37040    0.32700 2291.72000    5.33140 -122.53900   -3.80040    5.33140    -999.25
 1250.00000  224.95600  230.29370  230.29370  170.05070  170.97450  170.97450 2408.93500    -999.25    0.14610    0.17610    5.88060  327.11540  327.11540  113.94040    -999.25  110.91820  110.91820    5.88060    6.28220    6.28220    -999.25    0.40430    0.36150 2413.94460    7.57470 -117.92020   -2.38430    7.57470    -999.25
 1300.00000  257.07020  247.44890  247.44890  124.62150   16.94870   16.94870 2452.82500    -999.25    0.11950    0.15040    8.02430  309.06740  309.06740  132.38210    -999.25  123.30390  123.30390    8.02430    8.61210    8.61210    -999.25    0.38050    0.33730 2459.71480   13.39170 -113.57100   -1.76030   13.39170    -999.25
 1350.00000  238.46400  241.20210  241.20210  264.38240   41.20070   41.20070 2371.81000    -999.25    0.16860    0.19780    3.78240  305.12210  305.12210  103.46140    -999.25  100.63250  100.63250    3.78240    4.13760    4.13760    -999.25    0.38220    0.33900 2382.38770    5.10240 -111.30050   -2.99390    5.10240    -999.25
 1400.00000  328.84970  304.99790  304.99790  268.86060   74.66790   74.66790 2481.37000    -999.25    0.10220    0.13370    3.71940  317.16570  317.16570  109.85960    -999.25  100.72720  100.72720    3.71940    4.01090    4.01090    -999.25    0.37360    0.33030 2480.73020    4.52430 -109.26080   -4.30350    4.52430    -999.25
 1450.00000  333.23420  267.81420  267.81420  313.90280   19.86500   19.86500 2404.31500    -999.25    0.14890    0.17880    3.18570  311.46500  311.46500   95.52460    -999.25   90.88760   90.88760    3.18570    3.37810    3.37810    -999.25    0.35330    0.30970 2412.70920    3.90360 -104.84570   -3.23770    3.90360    -999.25
 1500.00000  277.77760  262.41950  262.41950  151.95490   15.20610   15.20610 2480.54500    -999.25    0.10270    0.13420    6.58090  264.24560  264.24560   88.75660   63.53190   81.77190   81.77190    6.58090    7.02090    7.02090    -999.25    0.23680    0.19300 2496.25810    8.08940 -103.72680   -4.89960    8.08940 6223.32030
 1550.00000  233.28630  239.73950  239.73950  155.86030   51.19660   51.19660 2448.53500    -999.25    0.12210    0.15290    6.41600  266.53310  266.53310   73.83750   55.11530   67.34800   67.34800    6.41600    6.96280    6.96280    -999.25    0.30070    0.25670 2461.15530    8.35760 -106.74670  -10.53790    8.35760 6333.51120
 1600.00000  266.58910  257.27000  257.27000  157.54480    1.85700    1.85700 2500.34500    -999.25    0.09070    0.12260    6.34740  253.24280  253.24280   80.54260   52.65860   75.48210   75.48210    6.34740    7.12050    7.12050    -999.25    0.25870    0.21480 2509.03780    8.62580 -111.58880  -17.99850    8.62580 6625.53420
 1650.00000  227.77280  230.16520  230.16520  166.86690  262.59130  262.59130 2625.25000    -999.25    0.01500    0.04960    5.99280  255.10390  255.10390   58.66230   33.64020   49.55780   49.55780    5.99280    8.33360    8.33360    -999.25    0.27980    0.23580 2620.49560   15.49420 -132.67650  -41.65430   15.49420 6727.29300
