~Version ---------------------------------------------------
VERS.      2.0 : CWLS log ASCII Standard -VERSION 2.0
WRAP.       NO : One line per depth step
CREA. 08/17/13 : LAS Creation Date
~Well ------------------------------------------------------
STRT.M                        400.0 : START DEPTH
STOP.M                       2850.0 : STOP DEPTH
STEP.M                     50.00000 : STEP LENGTH
NULL.                       -999.25 : NULL VALUE
COMP.        DOME PETROLEUM LIMITED : COMPANY
WELL. DOME ET AL MEEKWAP 9-29-65-15 : WELL
FLD .                               : FIELD
LOC .                               : LOCATION
CTRY.                        CANADA : COUNTRY
SRVC.                       Unknown : SERVICE COMPANY
DATE.                   31-Mar-1984 : LOGDATE
PROV.                       Alberta : PROVINCE
UWI .              100092906515W500 : UNIQUE WELL ID
SLAT.WGS84                 54.65763 : SURFACE LATITUDE
SLON.WGS84                -116.2239 : SURFACE LONGITUDE
~Curve Information -----------------------------------------
DEPT    .M      : DEPTH METER
CALDED  .MM     : CALIPER FROM DENSITY LOG [ADJ. TO RESISTIVITY LOG]
CALSED  .MM     : CALIPER FROM SONIC LOG
CALWS   .MM     : CALIPER [CALDED]
CONDWS  .MMHO   : CONDUCTIVITY [1000/DRESWS]
DCORWS  .KG/M3  : DENSITY CORRECTION [DRHOED]
DENWS   .KG/M3  : FORMATION BULK DENSITY [CALC FROM DPOLSWS, M=2710,F=1000]
DPHILSED.V/V    : DENSITY POROSITY LIMESTONE [M=2710,F=1000] FROM DENSITY LOG [ADJ. TO RESISTIVITY LOG]
DPHISSED.V/V    : DENSITY POROSITY SANDSTONE [M=2650,F=1000] FROM DENSITY LOG [ADJ. TO RESISTIVITY LOG]
DPOLSWS .V/V    : DENSITY POROSITY LIMESTONE [DPHISSED MATRIX CONVERTED TO LS & SPL. TO DPHILSED @ 1675M]
DRESWS  .OHMM   : DEEP RESISTIVITY [ILDED]
DRHOED  .KG/M3  : DENSITY CORRECTION FROM DENSITY LOG [ADJ. TO RESISTIVITY LOG]
DTED    .US/M   : DELTA TIME FROM SONIC LOG
DTWS    .US/M   : COMPRESSIONAL SONIC [DTED]
GRDED   .GAPI   : GAMMA RAY FROM DENSITY LOG [ADJ. TO RESISTIVITY LOG]
GRRED   .GAPI   : GAMMA RAY FROM RESISTIVITY LOG
GRWS    .GAPI   : GAMMA RAY [GRRED SPL. TO GRDED @ 2868M]
ILDED   .OHMM   : DEEP INDUCTION RESISTIVITY FROM RESISTIVITY LOG
ILMED   .OHMM   : MEDIUM INDUCTION RESISTIVITY FROM RESISTIVITY LOG
MRESWS  .OHMM   : MEDIUM RESISTIVITY [ILMED]
NPHILSED.V/V    : NEUTRON POROSITY LIMESTONE FROM DENSITY LOG [ADJ. TO RESISTIVITY LOG]
NPHISSED.V/V    : NEUTRON POROSITY SANDSTONE FROM DENSITY LOG [ADJ. TO RESISTIVITY LOG]
NPOLSWS .V/V    : NEUTRON POROSITY LIMESTONE [NPHISSED MATRIX CONVERTED TO LS & SPL. TO NPHILSED @ 1675M]
RHOBED  .KG/M3  : BULK DENSITY FROM DENSITY LOG [ADJ. TO RESISTIVITY LOG]
SFLUED  .OHMM   : SPHERICALLY FOCUSED LOG RESISTIVITY FROM RESISTIVITY LOG
SPRED   .MV     : SPONTANEOUS POTENTIAL FROM RESISTIVITY LOG
SPWS    .MV     : SPONTANEOUS POTENTIAL [BASELINE 0 MV, SPRED]
SRESWS  .OHMM   : SHALLOW RESISTIVITY [SFLUED]
TENDED  .N      : TENSION FROM DENSITY LOG [ADJ. TO RESISTIVITY LOG]
TENRED  .N      : TENSION FROM RESISTIVITY LOG
~Params ----------------------------------------------------
PD  .                         GL : PERMANENT DATUM
EPD .M                    939.22 : ELEVATION PERMANENT DATUM
LMF .                         KB : LOG MEASURED FROM
DAPD.M                      6.78 : FEET ABOVE PERMANENT DATUM
DMF .                         KB : DRILLING MEASURED FROM
EKB .M                       946 : KELLY BUSHING
EDF .M                     945.7 : DRILLING FLOOR
EGL .M                    939.22 : GROUND LEVEL
DATE.                   03/31/84 : RUN DATE
RUN .                          1 : RUN NUMBER
DD  .M                      2890 : DEPTH DRILLER
DL  .M                      2889 : DEPTH LOGGER
BLI .M                      2890 : BOTTOM LOG INTERVAL
TLI .M                       423 : TOP LOG INTERVAL
CS  .MM                      244 : CASING SIZE
CBD .M                       423 : CASING BOTTOM DRILLER
CBL .M                       423 : CASING BOTTOM LOGGER
BS  .MM                      222 : BIT SIZE
BSD .M                      2890 : BIT SIZE AT DEPTH
DFT .                   GEL CHEM : DRILLING FLUID TYPE
DFD .                       1100 : DRILLING FLUID DENSITY
DFV .                         80 : DRILLING FLUID VISCOSITY
DFPH.                       10.5 : DRILLING FLUID PH
DFL .                        8.5 : DRILLING FLUID LOSS
MSS .                   FLOWLINE : MUD SAMPLE SOURCE
RMS .OHMM                   1.67 : RESISTIVITY MUD SAMPLE
MST .DEGC                     19 : MUD SAMPLE TEMPERATURE
RMF .OHMM                   1.43 : RESISTIVITY MUD FILTRATE SAMPLE
MFST.DEGC                     21 : MUD FILTRATE SAMPLE TEMPERATURE
RMC .OHMM                  0.481 : RESISTIVITY MUD CAKE
MCST.DEGC                    105 : MUD CAKE SAMPLE TEMPERATURE
MFSS.                      PRESS : MUD FILTRATE SAMPLE SOURCE
MCSS.                      PRESS : MUD CAKE SAMPLE SOURCE
RMB .OHMM                  0.536 : RESISTIVITY MUD AT BHT
TCS .HRS                    1300 : TIME CIRCULATED STOPPED
TLAB.HRS                    1800 : TIME LOGGER AT BOTTOM
LUN .                       8163 : LOGGING UNIT NUMBER
LUL .                        EDM : LOGGING UNIT LOCATION
ENGI.                     SMILEY : RECORDING ENGINEER
WITN.                       BOYD : WITNESSED BY
CLNT.                    A2DTECH : CLIENT CODE
ORIG. 6.5"/100M 16.5"/100M PRINT : ORIGIN OF DATA
UWI .           100092906515W500 : UNIQUE WELL ID
DICO.     A2D Technologies, Inc. : DIGITIZING COMPANY
~Other -----------------------------------------------------
DIL-SFL-BHC RUN IN COMBO & CNL-FDC LOG RUN
RHOB FROM SMALL SCALE LOG
NEUTRON CONVERSION: SCHLUMBERGER, CNL(NPHI)
~ASCII -----------------------------------------------------
  400.00000    -999.25    -999.25    -999.25    -999.25    -999.25    -999.25    -999.25    -999.25    -999.25    -999.25    -999.25    -999.25    -999.25    -999.25   38.11470   38.11470    -999.25    -999.25    -999.25    -999.25    -999.25    -999.25    -999.25    -999.25    -999.25    -999.25    -999.25    -999.25    -999.25
  450.00000  251.79820  261.19340  251.79820  306.26930  131.49290 1987.19500    -999.25    0.40170    0.42270    3.26510  131.49290  382.55650  382.55650   82.89740   81.50240   81.50240    3.26510    2.86410    2.86410    -999.25    0.43720    0.39520 1999.03100    2.60760  -69.46610   -1.48820    2.60760 47112.23630 55294.30470
  500.00000  257.27550  258.73740  257.27550  177.28300   86.10120 2368.84000    -999.25    0.17040    0.19950    5.64070   86.10120  287.34520  287.34520   64.95370   68.19170   68.19170    5.64070    5.12910    5.12910    -999.25    0.25620    0.21230 2337.28490    4.81790  -71.28150   -3.77870    4.81790 52132.62560 56181.52250
  550.00000  315.17870  256.18220  315.17870  327.09670   53.15820 2162.92000    -999.25    0.29520    0.31990    3.05720   53.15820  391.45750  391.45750   66.83840   65.00910   65.00910    3.05720    2.78610    2.78610    -999.25    0.50580    0.46410 2160.98070    2.78010  -69.41300   -2.44120    2.78010 51638.98540 58222.49540
  600.00000  226.35520  247.66290  226.35520  265.93620   82.42090 2174.63500    -999.25    0.28810    0.31310    3.76030   82.42090  386.16330  386.16330   67.01750   69.71370   69.71370    3.76030    3.42280    3.42280    -999.25    0.51210    0.47040 2168.56910    3.29500  -69.11750   -2.67670    3.29500 52675.88400 60393.26580
  650.00000  318.55800  233.76040  318.55800  314.09990  129.32570 1956.67000    -999.25    0.42020    0.44050    3.18370  129.32570  363.15540  363.15540   51.31280   55.48510   55.48510    3.18370    3.13690    3.13690    -999.25    0.40250    0.35970 2033.16800    3.88840  -69.51970   -3.61000    3.88840 56378.82770 63516.04960
  700.00000  298.85380  236.22420  298.85380  136.68110   60.99830 2282.54500    -999.25    0.22270    0.25000    7.31630   60.99830  338.37560  338.37560   51.99490   52.53730   52.53730    7.31630    6.49900    6.49900    -999.25    0.34030    0.29660 2283.66820    7.11480  -73.35690   -7.97810    7.11480 58306.06050 63889.54650
  750.00000  325.79310  253.34940  325.79310  270.67260   46.52540 2370.49000    -999.25    0.16940    0.19850    3.69450   46.52540  346.74350  346.74350   57.21100   51.00910   51.00910    3.69450    3.36600    3.36600    -999.25    0.36390    0.32040 2351.24850    3.23160  -66.11850   -1.27070    3.23160 60886.71740 70186.29480
  800.00000  260.04840  239.85340  260.04840  204.18160   38.84840 2313.56500    -999.25    0.20390    0.23180    4.89760   38.84840  332.92530  332.92530   60.16360   65.30390   65.30390    4.89760    4.76360    4.76360    -999.25    0.36550    0.32210 2311.41280    5.36690  -70.29540   -5.32670    5.36690 63062.80440 72105.75930
  850.00000  305.94890  283.70250  305.94890  169.23050   26.74980 2143.45000    -999.25    0.30700    0.33130    5.90910   26.74980  365.01350  365.01350   84.11270   78.50650   78.50650    5.90910    5.08850    5.08850    -999.25    0.47150    0.42980 2138.75150    5.36020  -71.16750   -6.05920    5.36020 64459.00140 73070.24680
  900.00000  285.17660  265.57750  285.17660  185.93580   60.49600 2409.26500    -999.25    0.14590    0.17590    5.37820   60.49600  364.96120  364.96120  151.74910  149.54070  149.54070    5.37820    5.04580    5.04580    -999.25    0.44580    0.40400 2412.15940    5.98530  -69.56610   -4.31810    5.98530 66020.29000 72974.36020
  950.00000  292.43030  269.62680  292.43030  173.17820   71.33610 2392.43500    -999.25    0.15610    0.18570    5.77440   71.33610  307.30940  307.30940  100.32350   98.13350   98.13350    5.77440    5.00110    5.00110    -999.25    0.42960    0.38740 2397.71140    5.13500  -71.66810   -6.28040    5.13500 68811.02270 74150.95310
 1000.00000  342.53170  294.38760  342.53170  143.26850   45.47440 2430.71500    -999.25    0.13290    0.16330    6.97990   45.47440  303.99990  303.99990  104.47500   98.45860   98.45860    6.97990    6.62290    6.62290    -999.25    0.32760    0.28380 2434.83350    6.26700  -72.54710   -7.01970    6.26700 70130.70450 77697.02250
 1050.00000  290.18810  280.83360  290.18810  121.81160   86.74110 2423.78500    -999.25    0.13710    0.16740    8.20940   86.74110  297.49420  297.49420   93.32120  101.99390  101.99390    8.20940    7.30090    7.30090    -999.25    0.35930    0.31580 2428.96190    7.58520  -71.06250   -5.92490    7.58520 73529.79640 78348.03990
 1100.00000  254.07880  256.18590  254.07880  180.07640   81.17910 2406.29500    -999.25    0.14770    0.17760    5.55320   81.17910  333.33000  333.33000  112.94690  109.91980  109.91980    5.55320    5.31850    5.31850    -999.25    0.42410    0.38170 2411.82640    5.74920  -67.30640   -3.71500    5.74920 72882.50600 80243.66070
 1150.00000  254.04250  237.74560  254.04250  160.75100   64.21490 2424.44500    -999.25    0.13670    0.16700    6.22080   64.21490  336.54060  336.54060  121.61590  113.63960  113.63960    6.22080    6.04940    6.04940    -999.25    0.42370    0.38130 2426.55370    7.28870  -65.85690   -4.45810    7.28870 74989.06460 82339.80180
 1200.00000  305.21220  254.27740  305.21220  205.66400  110.85240 2343.43000    -999.25    0.18580    0.21440    4.86230  110.85240  319.35210  319.35210   97.35860  105.10530  105.10530    4.86230    4.79080    4.79080    -999.25    0.39460    0.35160 2342.87300    5.11660  -64.22620   -5.18550    5.11660 75334.02100 84578.08890
 1250.00000  338.02800  264.35980  338.02800  235.43260  125.59060 2462.06500    -999.25    0.11390    0.14500    4.24750  125.59060  283.55760  283.55760   90.42310  101.00110  101.00110    4.24750    4.15730    4.15730    -999.25    0.40790    0.36520 2454.26810    5.38920  -59.64660   -2.96400    5.38920 77315.39810 87294.14730
 1300.00000  286.70910  259.11980  286.70910  402.75480   89.40120 2233.87000    -999.25    0.25220    0.27840    2.48290   89.40120  354.77840  354.77840  125.47160  118.88200  118.88200    2.48290    2.40760    2.40760    -999.25    0.41680    0.37430 2220.90230    2.94830  -55.53530   -1.21080    2.94830 80050.87280 86703.30940
 1350.00000  374.82210  274.61570  374.82210  200.22020  120.06550 2362.90000    -999.25    0.17400    0.20300    4.99450  120.06550  292.59070  292.59070  102.57970   99.09970   99.09970    4.99450    4.87670    4.87670    -999.25    0.29050    0.24650 2361.92140    5.15720  -58.13220   -5.24940    5.15720 84193.17760 91459.52340
 1400.00000  253.50300  244.79760  253.50300   99.84720   30.77420 2398.70500    -999.25    0.15230    0.18200   10.01530   30.77420  258.04700  258.04700   52.05540   53.46180   53.46180   10.01530   12.97910   12.97910    -999.25    0.26920    0.22520 2408.16240   19.01750  -96.95430  -45.14460   19.01750 85462.63950 93332.17170
 1450.00000  315.91040  296.77080  315.91040  166.26210    9.82800 2407.78000    -999.25    0.14680    0.17670    6.01460    9.82800  271.45770  271.45770   53.75030   48.15900   48.15900    6.01460    6.18600    6.18600    -999.25    0.26620    0.22220 2410.09960    6.96970  -77.16920  -26.43270    6.96970 88220.44000 96568.58780
 1500.00000  259.30200  253.76000  259.30200  157.70630   87.24410 2540.60500    -999.25    0.06630    0.09910    6.34090   87.24410  268.46600  268.46600   85.45070   82.88150   82.88150    6.34090    6.55710    6.55710    -999.25    0.35150    0.30790 2539.99070    8.91130  -64.08430  -14.42090    8.91130 90143.43390 95898.89960
 1550.00000  262.96830  258.49450  262.96830  171.84790   20.90780 2583.50500    -999.25    0.04030    0.07400    5.81910   20.90780  269.49800  269.49800   86.98660   86.28670   86.28670    5.81910    6.46050    6.46050    -999.25    0.30080    0.25680 2581.15970    6.84870  -54.13500   -5.70420    6.84870 93513.69790 97873.20010
 1600.00000  284.08120  288.45550  284.08120  173.21720   84.68400 2539.94500    -999.25    0.06670    0.09940    5.77310   84.68400  271.00550  271.00550   88.22700   90.47800   90.47800    5.77310    6.24090    6.24090    -999.25    0.34550    0.30180 2539.17800    6.42700  -56.90770  -12.39740    6.42700 99346.03810 102109.76590
