~Version ---------------------------------------------------
VERS.      2.0 : CWLS log ASCII Standard -VERSION 2.0
WRAP.       NO : One line per depth step
CREA. 11/17/17 : LAS Creation Date
~Well ------------------------------------------------------
STRT.FT                        700.0 : START DEPTH
STOP.FT                       6450.0 : STOP DEPTH
STEP.FT                     50.00000 : STEP LENGTH
NULL.                        -999.25 : NULL VALUE
COMP.        J. M. HUBER CORPORATION : COMPANY
WELL. HUBER 10E WESTLOCK 10-27-60-27 : WELL
FLD .                                : FIELD
LOC .                                : LOCATION
CTRY.                         CANADA : COUNTRY
SRVC.                   Schlumberger : SERVICE COMPANY
DATE.                    12-Nov-1965 : LOGDATE
PROV.                        Alberta : PROVINCE
UWI .               100102706027W400 : UNIQUE WELL ID
SLAT.WGS84                   54.2195 : SURFACE LATITUDE
SLON.WGS84                  -113.959 : SURFACE LONGITUDE
~Curve Information -----------------------------------------
DEPT  .FT    : Depth Curve
CALMED.IN    : CALIPER FROM MICROLOG
CALWS .IN    : CALIPER [CALMED]
CILDED.MMHO  : CONDUCTIVITY FROM RESISTIVITY LOG
CONDWS.MMHO  : CONDUCTIVITY [CILDED]
DRESWS.OHMM  : DEEP RESISTIVITY [1000/CILDED]
DTED  .US/F  : DELTA TIME FROM SONIC LOG
DTWS  .US/F  : DELTA TIME [DTED]
GRNED .GAPI  : GAMMA RAY FROM NEUTRON LOG
GRSED .GAPI  : GAMMA RAY FROM SONIC LOG
GRWS  .GAPI  : GAMMA RAY [2132' GRNED 2211' GRSED]
ILDED .OHMM  : INDUCTION LOG DEEP RESISTIVITY
NEUTED.NAPI  : NEUTRON FROM NEUTRON LOG
NEUTWS.NAPI  : NEUTRON [NEUTED]
SNED  .OHMM  : 16 INCH SHORT NORMAL RESISTIVITY FROM IEL
SPRED .MV    : SPONTANEOUS POTENTIAL FROM RESISTIVITY LOG [SHIFT IS REMOVED]
SPWS  .MV    : SPONTANEOUS POTENTIAL [BASELINE 0 MV] [SPRED]
SRESWS.OHMM  : SHALLOW RESISTIVITY [SNED]
~Params ----------------------------------------------------
PD  .                     GL : PERMANENT DATUM
EPD .FT               2028.3 : ELEVATION PERMANENT DATUM
LMF .                     KB : LOG MEASURED FROM
DAPD.FT                11.75 : FEET ABOVE PERMANENT DATUM
EKB .FT              2040.05 : KELLY BUSHING
EGL .FT               2028.3 : GROUND LEVEL
DATE.               11/12/65 : RUN DATE
RUN .                      1 : RUN NUMBER
DD  .FT                 6460 : DEPTH DRILLER
DL  .FT                 6455 : DEPTH LOGGER
BLI .FT                 6454 : BOTTOM LOG INTERVAL
TLI .FT                  657 : TOP LOG INTERVAL
CBD .FT                  655 : CASING BOTTOM DRILLER
CBL .FT                  657 : CASING BOTTOM LOGGER
BS  .IN                7.875 : BIT SIZE
BSD .FT                 6460 : BIT SIZE AT DEPTH
DFT .                    GEL : DRILLING FLUID TYPE
DFD .                    9.8 : DRILLING FLUID DENSITY
DFV .                    100 : DRILLING FLUID VISCOSITY
DFPH.                    9.0 : DRILLING FLUID PH
DFL .                    7.4 : DRILLING FLUID LOSS
RMS .OHMM               1.32 : RESISTIVITY MUD SAMPLE
MST .DEGF                 73 : MUD SAMPLE TEMPERATURE
RMF .OHMM              0.822 : RESISTIVITY MUD FILTRATE SAMPLE
MFST.DEGF                 82 : MUD FILTRATE SAMPLE TEMPERATURE
RMC .OHMM               1.63 : RESISTIVITY MUD CAKE
MCST.DEGF                 80 : MUD CAKE SAMPLE TEMPERATURE
RMB .OHMM              0.754 : RESISTIVITY MUD AT BHT
TCS .HRS                   2 : TIME CIRCULATED STOPPED
LUN .                   3523 : LOGGING UNIT NUMBER
LUL .                    EDM : LOGGING UNIT LOCATION
ENGI.              SWINARTON : RECORDING ENGINEER
WITN.                 KENZIE : WITNESSED BY
CLNT.                A2DTECH : CLIENT CODE
ORIG.            2" 5" PRINT : ORIGIN OF DATA
UWI .       100102706027W400 : UNIQUE WELL ID
DICO. A2D Technologies, Inc. : DIGITIZING COMPANY
~Other -----------------------------------------------------
~ASCII -----------------------------------------------------
# ...
 4800.00000    -999.25    -999.25   58.47000   58.47000   17.10280   57.55880   57.55880    -999.25   29.84630   29.84630   17.84490    -999.25    -999.25   23.61700  -33.79660  -17.77960   23.61700
 4850.00000    -999.25    -999.25   61.22220   61.22220   16.33390   56.50720   56.50720    -999.25   25.58600   25.58600   19.39690    -999.25    -999.25   25.42290  -26.92750  -11.25370   25.42290
 4900.00000    -999.25    -999.25   86.70850   86.70850   11.53290   66.79750   66.79750    -999.25   44.48610   44.48610   12.68220    -999.25    -999.25   15.48920  -26.81110  -11.47710   15.48920
 4950.00000    -999.25    -999.25   93.05840   93.05840   10.74590   58.45420   58.45420    -999.25   45.85360   45.85360   11.51030    -999.25    -999.25    9.98640  -41.85850  -26.86780    9.98640
 5000.00000    -999.25    -999.25  275.61700  275.61700    3.62820   89.58580   89.58580    -999.25   63.83860   63.83860    3.20100    -999.25    -999.25    4.99290  -39.02270  -24.37360    4.99290
 5050.00000    -999.25    -999.25  157.29060  157.29060    6.35770   88.00490   88.00490    -999.25   72.73180   72.73180    6.87260    -999.25    -999.25   10.49490  -34.19250  -19.88330   10.49490
 5100.00000    -999.25    -999.25  266.57090  266.57090    3.75130   87.37240   87.37240    -999.25   65.21410   65.21410    3.32410    -999.25    -999.25    4.82260  -43.76310  -29.79710    4.82260
 5150.00000    -999.25    -999.25  204.17150  204.17150    4.89780   83.63150   83.63150    -999.25   56.36720   56.36720    4.57530    -999.25    -999.25    6.71590  -39.22050  -25.59430    6.71590
 5200.00000    9.56170    9.56170  109.70480  109.70480    9.11540   90.24620   90.24620    -999.25   59.09210   59.09210   10.21220    -999.25    -999.25   16.22990  -38.18330  -24.90040   16.22990
 5250.00000    9.18030    9.18030   96.45420   96.45420   10.36760   65.20830   65.20830    -999.25   44.62090   44.62090   11.45200    -999.25    -999.25   17.17250  -23.00290  -10.06160   17.17250
 5300.00000   16.03780   16.03780  153.65720  153.65720    6.50800   73.17080   73.17080    -999.25   59.04790   59.04790    7.20820    -999.25    -999.25    9.09150  -29.86880  -17.26730    9.09150
 5350.00000    8.87350    8.87350   64.18350   64.18350   15.58030   54.48910   54.48910    -999.25   11.06030   11.06030   16.89880    -999.25    -999.25   69.92690 -122.10410 -109.84590   69.92690
 5400.00000    8.59000    8.59000   36.33630   36.33630   27.52070   53.43050   53.43050    -999.25   12.87270   12.87270   29.11650    -999.25    -999.25   44.31310  -65.95430  -54.03590   44.31310
 5450.00000    8.55000    8.55000   27.12300   27.12300   36.86910   52.41260   52.41260    -999.25   16.01470   16.01470   38.58110    -999.25    -999.25   58.15490  -73.51170  -61.93660   58.15490
 5500.00000    9.16760    9.16760   67.51390   67.51390   14.81180   62.12200   62.12200    -999.25   38.48150   38.48150   16.06500    -999.25    -999.25   27.62010  -23.74330  -12.50970   27.62010
 5550.00000    9.88310    9.88310   83.73840   83.73840   11.94200   62.77070   62.77070    -999.25   49.19080   49.19080   13.21840    -999.25    -999.25   18.39070  -18.74080   -7.84710   18.39070
 5600.00000    9.70840    9.70840   89.04540   89.04540   11.23020   62.83470   62.83470    -999.25   49.51580   49.51580   12.40540    -999.25    -999.25   17.58020  -15.66710   -5.02400   17.58020
 5650.00000    8.56830    8.56830   21.79040   21.79040   45.89180   52.36090   52.36090    -999.25   12.93800   12.93800   49.81290    -999.25    -999.25   77.47360  -56.27130  -45.39180   77.47360
 5700.00000    9.18520    9.18520   87.77440   87.77440   11.39280   64.61810   64.61810    -999.25   60.06640   60.06640   12.63610    -999.25    -999.25   18.97230  -17.71880   -6.60050   18.97230
 5750.00000    8.76560    8.76560   60.69530   60.69530   16.47570   57.99190   57.99190    -999.25   38.99860   38.99860   18.23570    -999.25    -999.25   30.01490  -21.42670  -10.07080   30.01490
 5800.00000    9.69100    9.69100  122.33420  122.33420    8.17430   69.29800   69.29800    -999.25   56.68470   56.68470    9.28830    -999.25    -999.25   15.04750  -17.19990   -5.60770   15.04750
 5850.00000    8.85470    8.85470   23.95110   23.95110   41.75170   51.17660   51.17660    -999.25   17.34740   17.34740   44.56350    -999.25    -999.25   89.48180  -35.43950  -23.37140   89.48180
 5900.00000    9.92940    9.92940  349.43160  349.43160    2.86180   69.40320   69.40320    -999.25   78.04490   78.04490    2.76520    -999.25    -999.25    5.80420  -38.97590  -26.14720    5.80420
 5950.00000    9.26780    9.26780  139.98990  139.98990    7.14340   65.83940   65.83940    -999.25   65.86130   65.86130    8.00460    -999.25    -999.25   12.74790  -35.46500  -21.86810   12.74790
 6000.00000    8.80520    8.80520  191.14110  191.14110    5.23170   75.94750   75.94750    -999.25   73.01200   73.01200    5.38890    -999.25    -999.25   11.07250  -44.29740  -29.93610   11.07250
 6050.00000    8.53570    8.53570  197.50640  197.50640    5.06310   72.27680   72.27680    -999.25   97.85880   97.85880    5.05600    -999.25    -999.25   13.93610  -40.47450  -23.91920   13.93610
 6100.00000    9.21100    9.21100  200.95780  200.95780    4.97620   57.18050   57.18050    -999.25   52.03910   52.03910    4.84240    -999.25    -999.25    8.43610  -56.87190  -37.71330    8.43610
 6150.00000    8.67280    8.67280  142.68960  142.68960    7.00820   63.19220   63.19220    -999.25  107.61790  107.61790    7.92500    -999.25    -999.25   12.95190  -44.87420  -23.13810   12.95190
 6200.00000    9.80430    9.80430  179.81120  179.81120    5.56140   77.83190   77.83190    -999.25  105.54660  105.54660    5.79700    -999.25    -999.25    8.32510  -47.73800  -23.39850    8.32510
 6250.00000    8.18380    8.18380   23.46890   23.46890   42.60960   49.82980   49.82980    -999.25   21.17030   21.17030   43.97560    -999.25    -999.25   79.25150  -83.29890  -57.58650   79.25150
 6300.00000    8.05350    8.05350  185.41310  185.41310    5.39340   57.14990   57.14990    -999.25   74.01420   74.01420    5.31150    -999.25    -999.25   15.03820  -64.01900  -38.30660   15.03820
 6350.00000    7.95310    7.95310   80.52270   80.52270   12.41890   51.33470   51.33470    -999.25   28.96980   28.96980   14.10140    -999.25    -999.25   18.68180  -72.58740  -46.87500   18.68180
 6400.00000    7.92230    7.92230   44.94120   44.94120   22.25130   48.42130   48.42130    -999.25   28.45460   28.45460   24.06320    -999.25    -999.25   37.64690  -95.32250  -69.61010   37.64690
 6450.00000    7.92070    7.92070   90.04890   90.04890   11.10510    -999.25    -999.25    -999.25    -999.25    -999.25   12.16750    -999.25    -999.25   15.88490  -62.70540  -36.99300   15.88490
