~Version ---------------------------------------------------
VERS.      2.0 : CWLS log ASCII Standard -VERSION 2.0
WRAP.      YES : Multiple lines per depth step
CREA. 09/25/17 : LAS Creation Date
~Well ------------------------------------------------------
STRT.FT                      300.0 : START DEPTH
STOP.FT                    12100.0 : STOP DEPTH
STEP.FT                   50.00000 : STEP LENGTH
NULL.                      -999.25 : NULL VALUE
COMP. TRANS-PRAIRIES PIPELINES LTD : COMPANY
WELL.  TPPL DEEP VALLEY 7-11-64-25 : WELL
FLD .                              : FIELD
LOC .                              : LOCATION
CTRY.                       CANADA : COUNTRY
SRVC.       Schlumberger of Canada : SERVICE COMPANY
DATE.                  16-Mar-1975 : LOGDATE
PROV.                      Alberta : PROVINCE
UWI .             100071106425W500 : UNIQUE WELL ID
SLAT.WGS84                54.52029 : SURFACE LATITUDE
SLON.WGS84               -117.6631 : SURFACE LONGITUDE
~Curve Information -----------------------------------------
DEPT    .FT    : Depth Curve
CALDED  .IN    : CALIPER FROM DENSITY LOG
CALSED  .IN    : CALIPER FROM SONIC LOG
CALWS   .IN    : CALIPER [CALSED]
CILDED  .MMHO  : CONDUCTIVITY FROM RESISTIVITY LOG
CONDWS  .MMHO  : CONDUCTIVITY [1000/DRESWS]
DCORED  .G/C3  : DENSITY CORRECTION FROM DENSITY LOG
DCORWS  .G/C3  : DENSITY CORRECTION [DCORED]
DENWS   .G/C3  : FORMATION BULK DENSITY [RHOBED]
DPHILSED.V/V   : DENSITY POROSITY LIME [M=2.71, F=1.0] FROM DENSITY LOG [ADJ. TO RHOBED]
DPHISSED.V/V   : DENSITY POROSITY SAND [M=2.65, F=1.0] FROM DENSITY LOG [ADJ. TO RHOBED]
DPOLSWS .V/V   : DENSITY POROSITY LIME [CALC. FROM DENWS, M=2.71, F=1.0]
DRESWS  .OHMM  : DEEP RESISTIVITY [1000/CILDED, IF ILDED < 1, ILDED]
DTED    .US/F  : DELTA-T FROM SONIC LOG
DTWS    .US/F  : COMPRESSIONAL SONIC [DTED]
GRDED   .GAPI  : GAMMA RAY FROM DENSITY LOG
GRWS    .GAPI  : GAMMA RAY [GRDED]
ILDED   .OHMM  : DEEP INDUCTION FROM RESISTIVITY LOG
ILMED   .OHMM  : MEDIUM INDUCTION FROM RESISTIVITY LOG
LL8ED   .OHMM  : LATEROLOG FROM RESISTIVITY LOG
MRESWS  .OHMM  : MEDIUM RESISTIVITY [ILMED]
NPHILSED.V/V   : NEUTRON POROSITY LIME FROM DENSITY LOG [ADJ. TO RHOBED]
NPHISSED.V/V   : NEUTRON POROSITY SAND FROM DENSITY LOG [ADJ. TO RHOBED]
NPOLSWS .V/V   : NEUTRON POROSITY LIME [SS MATRIX CONVERTED TO LS & SPL. TO NPHILSED @ 7950']
RHOBED  .G/C3  : BULK DENSITY FROM DENSITY LOG
SPRED   .MV    : SPONTANEOUS POTENTIAL FROM RESISTIVITY LOG
SPWS    .MV    : SPONTANEOUS POTENTIAL [BASELINE 0 MV,SPRED]
SRESWS  .OHMM  : SHALLOW RESISTIVITY [LL8ED]
~Params ----------------------------------------------------
EKB .FT                 2835 : KELLY BUSHING
EGL .FT                 2813 : GROUND LEVEL
DATE.               03/16/75 : RUN DATE
RUN .                      1 : RUN NUMBER
DD  .FT                12140 : DEPTH DRILLER
DL  .FT                12139 : DEPTH LOGGER
BLI .FT                12133 : BOTTOM LOG INTERVAL
TLI .FT                 1603 : TOP LOG INTERVAL
CBD .FT                 1603 : CASING BOTTOM DRILLER
CBL .FT                 1604 : CASING BOTTOM LOGGER
BS  .IN                  8.5 : BIT SIZE
BSD .FT                12140 : BIT SIZE AT DEPTH
DFT .               GEL CHEM : DRILLING FLUID TYPE
DFD .                    9.3 : DRILLING FLUID DENSITY
DFV .                    109 : DRILLING FLUID VISCOSITY
DFPH.                    9.5 : DRILLING FLUID PH
DFL .                    7.8 : DRILLING FLUID LOSS
MSS .               FLOWLINE : MUD SAMPLE SOURCE
RMS .OHMM               1.57 : RESISTIVITY MUD SAMPLE
MST .DEGF                 61 : MUD SAMPLE TEMPERATURE
RMF .OHMM               1.19 : RESISTIVITY MUD FILTRATE SAMPLE
MFST.DEGF                 63 : MUD FILTRATE SAMPLE TEMPERATURE
RMC .OHMM               2.57 : RESISTIVITY MUD CAKE
MCST.DEGF                 60 : MUD CAKE SAMPLE TEMPERATURE
TCS .HRS                   4 : TIME CIRCULATED STOPPED
LUN .                   7691 : LOGGING UNIT NUMBER
LUL .                    EDM : LOGGING UNIT LOCATION
ENGI.                  BORLE : RECORDING ENGINEER
WITN.                 TAYLOR : WITNESSED BY
CLNT.                A2DTECH : CLIENT CODE
ORIG.            2" 5" PRINT : ORIGIN OF DATA
UWI .       100071106425W500 : UNIQUE WELL ID
DICO. A2D Technologies, Inc. : DIGITIZING COMPANY
~Other -----------------------------------------------------
~ASCII -----------------------------------------------------
# ...
 8100.00000    8.78320    8.61320    8.61320    -999.25   24.10090   -0.52990   -0.52990    2.80620   -0.05530    -999.25   -0.05630   41.49230   47.69470   47.69470   53.47240   53.47240   41.49230   44.69830   91.83710   44.69830    0.08280    -999.25    0.08280    2.80620 -172.74190  -75.60840   91.83710
 8150.00000    8.75370    8.45130    8.45130    -999.25   10.09220   -0.52870   -0.52870    2.70020    0.00440    -999.25    0.01930   99.08690   50.41550   50.41550   28.39780   28.39780   99.08690  124.07010  383.13960  124.07010    0.08140    -999.25    0.08140    2.70020 -231.95820 -134.84210  383.13960
 8200.00000    9.18890    8.87110    8.87110    -999.25    2.09570   -0.76020   -0.76020    2.69430    0.00990    -999.25    0.02130  477.17300   46.84580   46.84580   23.85900   23.85900  477.17300  679.18540 1471.13850  679.18540    0.04350    -999.25    0.04350    2.69430 -256.80300 -159.70430 1471.13850
 8250.00000    8.76490    8.50390    8.50390    -999.25    3.96380   -0.53210   -0.53210    2.89250   -0.12110    -999.25   -0.09390  252.28460   51.25380   51.25380   16.76350   16.76350  252.28460  301.76980 1470.30690  301.76980    0.00910    -999.25    0.00910    2.89250 -206.36180 -109.28040 1470.30690
 8300.00000    8.69930    8.47490    8.47490    -999.25    2.70500   -0.57610   -0.57610    2.88830   -0.10080    -999.25   -0.09180  369.68130   47.02340   47.02340   22.58180   22.58180  369.68130  995.97800 1470.13500  995.97800    0.02750    -999.25    0.02750    2.88830 -228.08310 -131.01910 1470.13500
 8350.00000    8.98470    8.14500    8.14500    -999.25   81.84440   -0.69600   -0.69600    2.64070    0.04290    -999.25    0.04050   12.21830   55.14540   55.14540   27.30110   27.30110   12.21830   19.24440   66.51700   19.24440    0.09710    -999.25    0.09710    2.64070 -253.85030 -156.80370   66.51700
 8400.00000    8.57200    8.22980    8.22980    -999.25   32.01930   -0.53110   -0.53110    2.91290   -0.13370    -999.25   -0.11870   31.23120   56.75790   56.75790   15.48140   15.48140   31.23120   45.36550  787.36460   45.36550    0.01890    -999.25    0.01890    2.91290 -268.34370 -171.31450  787.36460
 8450.00000    9.81130    8.53180    8.53180    -999.25   52.66840   -0.70430   -0.70430    2.69190    0.03810    -999.25    0.01060   18.98670   51.37480   51.37480   23.60180   23.60180   18.98670   21.26100   41.94590   21.26100    0.02280    -999.25    0.02280    2.69190 -244.39220 -147.38030   41.94590
 8500.00000    8.93690    8.46340    8.46340    -999.25   33.40980   -0.54040   -0.54040    2.64810    0.05860    -999.25    0.03620   29.93130   54.94000   54.94000   64.63490   64.63490   29.93130   35.04100   58.40930   35.04100    0.03290    -999.25    0.03290    2.64810 -169.91330  -72.91880   58.40930
 8550.00000    9.45450    8.54000    8.54000    -999.25   40.90250   -0.74720   -0.74720    2.67920    0.01670    -999.25    0.01800   24.44840   58.83770   58.83770   33.51260   33.51260   24.44840   30.73930  317.50010   30.73930    0.01280    -999.25    0.01280    2.67920 -218.98620 -122.00910  317.50010
 8600.00000   10.15440    8.59410    8.59410    -999.25   42.94350   -0.71220   -0.71220    2.66390    0.03250    -999.25    0.02700   23.28640   48.80230   48.80230   14.10290   14.10290   23.28640   32.58910   54.40260   32.58910    0.04570    -999.25    0.04570    2.66390 -298.04080 -201.08110   54.40260
 8650.00000    8.90260    8.31110    8.31110    -999.25  146.22230   -0.64790   -0.64790    2.74850   -0.00740    -999.25   -0.02250    6.83890   53.04310   53.04310   26.37180   26.37180    6.83890    9.83400   45.43270    9.83400    0.07450    -999.25    0.07450    2.74850 -200.78500 -103.84260   45.43270
 8700.00000    8.76760    8.56640    8.56640    -999.25   27.50730   -0.53210   -0.53210    2.79550   -0.02570    -999.25   -0.05000   36.35400   51.91930   51.91930   53.78280   53.78280   36.35400   38.49230   78.54950   38.49230    0.04410    -999.25    0.04410    2.79550 -175.51010  -78.58510   78.54950
 8750.00000   11.20810    8.85640    8.85640    -999.25   11.82530   -0.71260   -0.71260    2.39880    0.18380    -999.25    0.18200   84.56460   51.64560   51.64560   33.80420   33.80420   84.56460  150.58830  651.67760  150.58830    0.03050    -999.25    0.03050    2.39880 -127.34710  -30.43950  651.67760
 8800.00000    9.60890    8.57340    8.57340    -999.25    5.41080   -0.75550   -0.75550    2.67710    0.02450    -999.25    0.01920  184.81430   50.31370   50.31370   20.58700   20.58700  184.81430  237.39660  348.87840  237.39660    0.02160    -999.25    0.02160    2.67710 -209.67810 -112.78790  348.87840
 8850.00000    8.88520    8.81310    8.81310    -999.25    8.62040   -0.56610   -0.56610    2.69340    0.00660    -999.25    0.00970  116.00420   48.93670   48.93670   16.18000   16.18000  116.00420  251.09700  789.86210  251.09700    0.01110    -999.25    0.01110    2.69340 -231.13760 -134.26470  789.86210
 8900.00000   10.97980    8.57380    8.57380    -999.25    6.16980   -0.74830   -0.74830    2.52310    0.12720    -999.25    0.10930  162.07950   49.36200   49.36200   19.16040   19.16040  162.07950  222.84090 1472.68030  222.84090   -0.00080    -999.25   -0.00080    2.52310 -190.77240  -93.91690 1472.68030
 8950.00000    8.72480    8.55280    8.55280    -999.25   36.02640   -0.53770   -0.53770    2.72820   -0.01920    -999.25   -0.01060   27.75740   62.05930   62.05930   58.03660   58.03660   27.75740   36.90660  135.06700   36.90660    0.02980    -999.25    0.02980    2.72820 -127.30270  -30.46460  135.06700
 9000.00000    8.69640    8.35860    8.35860    -999.25  404.61260   -0.53130   -0.53130    2.67210    0.02160    -999.25    0.02220    2.47150   64.59630   64.59630   50.46570   50.46570    2.47150    2.75240    4.82150    2.75240    0.18870    -999.25    0.18870    2.67210 -193.19470  -96.37400    4.82150
 9050.00000    8.60850    9.27520    9.27520    -999.25   47.56130   -0.51910   -0.51910    2.71260    0.00350    -999.25   -0.00150   21.02550   67.73550   67.73550   57.31160   57.31160   21.02550   23.79870   68.11100   23.79870    0.07960    -999.25    0.07960    2.71260 -160.43900  -63.63560   68.11100
 9100.00000    9.28040    8.42040    8.42040    -999.25   10.82230   -0.69670   -0.69670    2.77690   -0.04330    -999.25   -0.03910   92.40180   51.03830   51.03830   30.83460   30.83460   92.40180  157.10210  427.50750  157.10210    0.01340    -999.25    0.01340    2.77690 -151.37220  -54.58620  427.50750
 9150.00000    8.91200    8.58060    8.58060    -999.25   21.98680   -0.51720   -0.51720    2.71950   -0.00630    -999.25   -0.00560   45.48180   53.09090   53.09090   37.02710   37.02710   45.48180   51.50760   95.24260   51.50760    0.03980    -999.25    0.03980    2.71950 -168.52100  -71.75240   95.24260
 9200.00000    8.88700    8.63840    8.63840    -999.25   23.41170   -0.54680   -0.54680    2.70230    0.00830    -999.25    0.00450   42.71360   53.02680   53.02680   34.78540   34.78540   42.71360   45.82180   84.98010   45.82180    0.03940    -999.25    0.03940    2.70230 -160.43080  -63.67960   84.98010
 9250.00000    8.78850    8.50130    8.50130    -999.25   16.96660   -0.54300   -0.54300    2.71120    0.00730    -999.25   -0.00070   58.93950   53.14050   53.14050   31.53760   31.53760   58.93950   74.75730  188.96300   74.75730    0.02570    -999.25    0.02570    2.71120 -207.21690 -110.48300  188.96300
 9300.00000    8.75140    8.45530    8.45530    -999.25   11.34210   -0.56300   -0.56300    2.75860   -0.02390    -999.25   -0.02840   88.16710   52.86300   52.86300   33.39930   33.39930   88.16710  113.62530  150.45230  113.62530    0.03130    -999.25    0.03130    2.75860 -163.82630  -67.10980  150.45230
 9350.00000    8.82040    8.46040    8.46040    -999.25   14.21290   -0.51360   -0.51360    2.67950    0.02050    -999.25    0.01780   70.35840   54.21210   54.21210   36.52200   36.52200   70.35840   77.97860  123.63420   77.97860    0.04030    -999.25    0.04030    2.67950 -145.19110  -48.49200  123.63420
