~Version ---------------------------------------------------
VERS. 2.0 : CWLS log ASCII Standard -VERSION 2.0
WRAP.  NO : ONE LINE PER DEPTH STEP
~Well ------------------------------------------------------
STRT.F                        1050.0 : START DEPTH
STOP.F                       10150.0 : STOP DEPTH
STEP.F                      50.00000 : STEP LENGTH
NULL.                        -999.25 : NULL VALUE
COMP.           CHEVRON STANDARD LTD : COMPANY
WELL. CHEVRON GULF FOXCK 12-35-61-18 : WELL
FLD .                      FOX CREEK : FIELD
LOC .                                : LOCATION
CTRY.                         CANADA : COUNTRY
SRVC.                   Schlumberger : SERVICE COMPANY
DATE.                    30-Mar-1976 : LOGDATE
PROV.                        Alberta : PROVINCE
UWI .               100123506118W500 : UNIQUE WELL ID
SLAT.WGS84                  54.32239 : SURFACE LATITUDE
SLON.WGS84                 -116.5968 : SURFACE LONGITUDE
~Curve Information -----------------------------------------
DEPT   .F    0   1   0  0 : 1 MEASURED DEPTH
SPR    .MV   07 010 01 00 : SPONTANEOUS POTENTIAL FROM RESISTIVITY LOG
ILD    .OHMM 07 120 46 00 : INDUCTION DEEP RESISTIVITY
ILM    .OHMM 07 120 44 00 : INDUCTION MEDIUM RESISTIVITY
LL8    .OHMM 07 220 08 00 : LATEROLOG 8
CALD   .IN   45 280 60 00 : CALIPER FROM DENSITY LOG
DCOR   .G/C3 45 356 01 00 : DENSITY CORRECTION
GRD    .GAPI 45 310 01 00 : GAMMA RAY FROM DENSITY LOG
TEND   .LB   45 635 00 00 : TENSION FROM DENSITY LOG
RHOB   .G/C3 45 350 01 00 : BULK DENSITY
DPHI_SS.DEC  45 890 12 00 : DENSITY POROSITY SANDSTONE
NPHI_SS.DEC  42 890 03 00 : NEUTRON POROSITY SANDSTONE
DPHI_LS.DEC  45 890 10 00 : DENSITY POROSITY LIMESTONE
NPHI_LS.DEC  42 890 01 00 : NEUTRON POROSITY LIMESTONE
GRS    .GAPI 60 310 01 00 : GAMMA RAY FROM SONIC LOG
TENS   .LB   60 635 00 00 : TENSION FROM SONIC LOG
CALS   .IN   60 280 50 00 : CALIPER FROM SONIC LOG
DT     .US/F 60 500 00 00 : DELTA-T (INTERVAL TRANSIT TIME)
~Params ----------------------------------------------------
PD  .                     GL : PERMANENT DATUM
EPD .FT               2712.6 : ELEVATION PERMANENT DATUM
LMF .                     KB : LOG MEASURED FROM
DAPD.FT                 16.4 : FEET ABOVE PERMANENT DATUM
DMF .                     KB : DRILLING MEASURED FROM
EKB .FT                 2729 : KELLY BUSHING
EDF .FT               2712.6 : DRILLING FLOOR
DATE.               03/30/76 : RUN DATE
RUN .                      1 : RUN NUMBER
DD  .FT                10180 : DEPTH DRILLER
DL  .FT                10178 : DEPTH LOGGER
BLI .FT                10176 : BOTTOM LOG INTERVAL
TLI .FT                 1117 : TOP LOG INTERVAL
CBD .FT                 1117 : CASING BOTTOM DRILLER
CBL .FT              1116.91 : CASING BOTTOM LOGGER
BS  .IN                 8.75 : BIT SIZE
BSD .FT                10180 : BIT SIZE AT DEPTH
DFT .               GEL CHEM : DRILLING FLUID TYPE
DFD .                    9.6 : DRILLING FLUID DENSITY
DFV .                    110 : DRILLING FLUID VISCOSITY
DFPH.                   10.5 : DRILLING FLUID PH
DFL .                      9 : DRILLING FLUID LOSS
RMF .OHMM               1.22 : RESISTIVITY MUD FILTRATE SAMPLE
MFST.DEGF                 68 : MUD FILTRATE SAMPLE TEMPERATURE
TCS .HRS                   3 : TIME CIRCULATED STOPPED
LUN .                   7691 : LOGGING UNIT NUMBER
LUL .                    WCT : LOGGING UNIT LOCATION
ENGI.                 KOVACS : RECORDING ENGINEER
WITN.            WONG MCLEOD : WITNESSED BY
CLNT.                A2DTECH : CLIENT CODE
ORIG.            2" 5" PRINT : ORIGIN OF DATA
UWI .       100123506118W500 : UNIQUE WELL ID
DICO. A2D Technologies, Inc. : DIGITIZING COMPANY
~Other -----------------------------------------------------
~ASCII -----------------------------------------------------
# ...
 5150.00000  -85.66820    2.77900    3.02130    3.61000   12.95490    0.08040  100.37430 1573.80410    2.41130    0.14410    0.36850    -999.25    -999.25   96.89850 2081.00460   10.56770   96.75330
 5200.00000  -86.08540    4.46160    4.60960    5.10320   11.90250    0.08490  100.24020 2035.38790    2.39740    0.13930    0.34390    -999.25    -999.25   94.56900 3539.50540   11.09610   86.66330
 5250.00000  -86.19920    6.05940    6.29970    8.07130    9.88400    0.14490   85.12260 4239.33790    2.43340    0.15810    0.34730    -999.25    -999.25   86.76780 1579.01200   10.35940   85.65750
 5300.00000  -87.54070    5.76560    5.95390    6.01090   12.53350    0.18420   77.29460 3081.55880    2.14000    0.34110    0.30490    -999.25    -999.25   73.66930 1720.99650   10.62540   81.78640
 5350.00000  -87.98970    7.05480    8.47490   13.24810   11.55000    0.08160   74.65790 3682.88380    2.49150    0.11850    0.27220    -999.25    -999.25   71.33200    -999.25   11.09440   75.93730
 5400.00000  -92.85730   15.59540   14.12500   26.36910   11.77990    0.04750   77.50350 5306.63040    2.42430    0.07910    0.19960    -999.25    -999.25   67.35680  819.64760   11.08700   68.28230
 5450.00000  -83.80840    7.78760    8.09280   10.19310   12.21740    0.21240   75.01400 3794.57670    2.16620    0.33320    0.34580    -999.25    -999.25   68.68330   86.10420   12.18680   80.95740
 5500.00000  -84.99630   11.43340   14.47620   15.70200   14.97110    0.08110   78.23500 3978.00710    1.72340    0.58450    0.52750    -999.25    -999.25   65.38200  415.12930   13.30510  126.28800
 5550.00000  -88.39670   11.28080   12.26640   13.25980   11.49590    0.03480   86.67760 3722.34250    2.60840    0.04650    0.24420    -999.25    -999.25   82.80400  307.17560   11.24950   74.79100
 5600.00000 -109.46710   10.47160   11.76440   14.00620   11.89690    0.04670   45.49620 4547.47070    2.49600    0.10650    0.21170    -999.25    -999.25   42.24850  380.78090   11.66760   72.75940
 5650.00000 -100.88150   12.34070   13.27990   17.00680   11.58730    0.04280   51.59740 4849.62450    2.35830    0.08120    0.32000    -999.25    -999.25   48.14020  895.04690   11.13900   78.10200
 5700.00000  -90.01530   14.19570   14.72400   17.11570   11.84100    0.01650   73.51050 1818.10940    2.60330    0.03090    0.23890    -999.25    -999.25   70.50390 1365.35360   11.12660   71.62060
 5750.00000  -88.19150   14.41410   14.77940   16.98570   11.28980    0.03660   77.14230 3707.94680    2.58300    0.05380    0.23020    -999.25    -999.25   66.85580 2802.07250   10.74040   70.98140
 5800.00000  -98.78800   12.00370   13.58440   14.45640   11.37820    0.03610   54.25450 3904.18070    2.54920    0.08450    0.16920    -999.25    -999.25   50.43400 3216.73100   10.46000   68.54970
 5850.00000 -117.46550    5.42960    7.22350   10.82680    9.88510    0.19810   49.51280 3321.77560    2.27590    0.23920    0.29860    -999.25    -999.25   51.67520 2846.45530    9.74370   73.95950
 5900.00000  -66.07530   11.73450   12.50060   13.44160   10.32750    0.00110   80.81820 3200.35110    2.58280    0.02870    0.28180    -999.25    -999.25   79.83020 3879.67140   10.08040   73.01720
 5950.00000  -66.05530   11.81970   12.91810   16.08150   10.68970    0.00050   74.58830 3260.64380    2.53760    0.05430    0.25350    -999.25    -999.25   76.80320 1934.76550   10.37630   75.77560
 6000.00000  -63.01620    7.68110    7.95810   11.61050   11.09220    0.11560   83.43870 3646.27880    2.53260    0.00160    0.24570    -999.25    -999.25   73.38990   33.42540   10.61700   72.69240
 6050.00000  -71.02880   21.67570   22.99120   29.63200   10.69110    0.00890   66.04230 3896.24610    2.61170    0.02740    0.16120    -999.25    -999.25   65.78650   22.66490   10.30550   66.34180
 6100.00000  -84.48760   10.46020   12.91380   16.53980   10.97770    0.02280   58.59650 5014.87990    2.56230    0.06170    0.26070    -999.25    -999.25   57.76450 1541.06480   10.58890   63.67480
 6150.00000 -154.71800    5.52560    7.34280   15.05780   12.11570    0.16590   40.54850 2855.84110    2.32220    0.18810    0.17530    -999.25    -999.25   41.62290 1672.03040   10.22260   79.75240
 6200.00000  -79.84390   17.24300   18.57050   27.75340   12.32590    0.23530   77.46750 3424.24460    2.38000    0.14630    0.21210    -999.25    -999.25   75.90900 2143.72610   10.41100   75.99340
 6250.00000  -75.54790    3.55040    3.78950    4.74500   13.53520    0.15040   94.33920 3698.56300    2.13910    0.30560    0.45190    -999.25    -999.25   84.10400 2952.44730   12.35150   90.60470
 6300.00000  -68.56070    4.62730    5.18740    5.36130   14.99670    0.18640   88.86770 3595.59840    2.14800    0.25680    0.42360    -999.25    -999.25   81.47100 2655.02000   12.81480   85.42140
 6350.00000  -66.14990    3.45000    4.99030    7.05770   14.71050    0.11170   99.62070 4333.39450    2.12520    0.44600    0.58110    -999.25    -999.25   92.94690 3013.25150   11.48360  135.80830
 6400.00000  -63.00960   17.89730   25.60960   37.02220   10.61580    0.04560   81.86860 4280.22410    2.36990    0.53500    0.57390    -999.25    -999.25   80.30730    9.57150   10.68350   90.84340
 6450.00000  -75.92330  232.46550  218.32630  435.25510    9.65420    0.01870   76.08740 4218.06010    2.65360    0.20950    0.22940    -999.25    -999.25   72.50830 1469.99660    9.29330   60.00810
 6500.00000  -73.73220   22.53910   23.46750   29.89340   10.85460    0.00810   84.60750 3793.70340    2.58580    0.20790    0.23090    -999.25    -999.25   79.34390 2179.34770   10.42340   64.52680
 6550.00000  -79.56390   22.63290   23.78710   29.27110   10.59510    0.00730   80.75200 4031.48000    2.61440    0.21910    0.22800    -999.25    -999.25   79.06160  759.43690   10.30140   64.80050
 6600.00000  -85.86080   19.11670   19.80620   24.10050   10.69510   -0.00080   76.57570 4771.41260    2.64800    0.18280    0.23480    -999.25    -999.25   69.68870 2158.24630   10.70470   61.57630
 6650.00000 -110.55020   16.92390   17.33430   26.47870   12.90480    0.16900   43.50130 4696.67530    2.28050    0.35700    0.23740    -999.25    -999.25   39.92460 1184.13270   10.55680   55.02430
 6700.00000  -84.91410   84.58670  361.19590  300.61110   11.30070    0.16360   50.01710 5522.29690    2.39160    0.34060    0.21040    -999.25    -999.25   42.18320 2214.56230   10.29100   53.86760
 6750.00000 -129.51960   10.28440    8.34710   47.79440   10.25220   -0.01970   51.03620 2766.82810    2.67340    -999.25    -999.25    0.03170    0.06440   39.72560  915.33140    9.24540   57.87970
 6800.00000 -121.12040    9.07000    8.28120   26.77860   10.22260   -0.00720   57.89190 3334.05200    2.70840    -999.25    -999.25   -0.01070    0.05470   58.76820 3589.99120    9.99000   56.99420
 6850.00000 -123.50720    5.29540    4.90960   10.43420   10.55510    0.01680   63.12590 3307.25200    2.69020    -999.25    -999.25    0.01550    0.07700   59.23960  665.26730   10.24890   61.12300
 6900.00000 -138.43570  230.66990  226.46690  583.25520   11.38570    0.00540   13.46210 4378.84030    2.87300    -999.25    -999.25   -0.12210   -0.00520   12.67840 2295.40620   10.25420   50.15210
 6950.00000 -165.21580   15.24210   27.20960   49.48510    9.15430    0.19390   19.73700 2291.25320    2.42820    -999.25    -999.25    0.17180    0.14200   19.81970   35.45940    9.13350   59.29180
 7000.00000 -144.29380   39.09400   47.58660  161.82410    9.88790    0.02030   12.60930 3888.23170    2.61990    -999.25    -999.25    0.04680    0.01280   11.28140 1548.59750    9.89700   50.07000
 7050.00000  -82.83320    4.01840    4.39510    5.35990   10.28260    0.00890   60.31610 4282.25780    2.65360    -999.25    -999.25    0.04220    0.13950   57.71240 4352.57910   10.33600   63.98720
 7100.00000  -45.33360   11.48570   12.58030   16.64320    9.99840    0.00770   71.13010 4359.11040    2.66170    -999.25    -999.25    0.02680    0.09320   62.18540  -41.31870    9.85080   57.08950
 7150.00000  -54.64170    6.91230    7.20600    7.96440   11.03960   -0.00450   64.58800  655.10080    2.66720    -999.25    -999.25    0.02640    0.13670   55.40680  430.05640   10.88180   64.13260
