~Version ---------------------------------------------------
VERS.      2.0 : CWLS log ASCII Standard -VERSION 2.0
WRAP.       NO : One line per depth step
CREA. 08/01/17 : LAS Creation Date
~Well ------------------------------------------------------
STRT.FT                      1100.0 : START DEPTH
STOP.FT                     10300.0 : STOP DEPTH
STEP.FT                    50.00000 : STEP LENGTH
NULL.                       -999.25 : NULL VALUE
COMP.        DOME PETROLEUM LIMITED : COMPANY
WELL. DOME ET AL EAGLE T10-18-63-16 : WELL
FLD .                            WC : FIELD
LOC .                               : LOCATION
CTRY.                        CANADA : COUNTRY
SRVC.                  Schlumberger : SERVICE COMPANY
DATE.                   02-Apr-1968 : LOGDATE
PROV.                       Alberta : PROVINCE
UWI .              100101806316W500 : UNIQUE WELL ID
SLAT.WGS84                 54.45347 : SURFACE LATITUDE
SLON.WGS84                -116.4023 : SURFACE LONGITUDE
~Curve Information -----------------------------------------
DEPT  .FT    : Depth Curve
CALSED.IN    : CALIPER FROM BCS LOG [ADJ. TO ILDED]
CALWS .IN    : CALIPER [CALSED]
CILDED.MMHO  : DEEP INDUCTION CONDUCTIVITY FROM IEL LOG
CONDWS.MMHO  : CONDUCTIVITY [CILDED]
DRESWS.OHMM  : DEEP RESISTIVITY [1000/CILDED IF ILDED <1, ILDED]
DTED  .US/F  : ACOUSTIC TRANSIT TIME SLOWNESS, DELTA T FROM BCS LOG [ADJ. TO ILDED]
DTWS  .US/F  : COMPRESSIONAL SONIC [DTED]
GRSED .GAPI  : GAMMA RAY FROM BCS LOG [ADJ. TO ILDED]
GRWS  .GAPI  : GAMMA RAY [GRSED]
ILDED .OHMM  : DEEP INDUCTION RESISTIVITY FROM IEL LOG
SNED  .OHMM  : SHORT NORMAL FROM IEL LOG
SPRED .MV    : SPONTANEOUS POTENTIAL FROM IEL LOG
SPWS  .MV    : SPONTANEOUS POTENTIAL [BASELINED 0 MV, SPRED]
SRESWS.OHMM  : SHALLOW RESISTIVITY [SNED]
~Params ----------------------------------------------------
PD  .                     GL : PERMANENT DATUM
EPD .FT                 3417 : ELEVATION PERMANENT DATUM
LMF .                     KB : LOG MEASURED FROM
DAPD.FT                   13 : FEET ABOVE PERMANENT DATUM
DMF .                     KB : DRILLING MEASURED FROM
EKB .FT                 3430 : KELLY BUSHING
EGL .FT                 3417 : GROUND LEVEL
DATE.               04/02/68 : RUN DATE
RUN .                      1 : RUN NUMBER
DD  .FT                10343 : DEPTH DRILLER
DL  .FT                10341 : DEPTH LOGGER
BLI .FT                10340 : BOTTOM LOG INTERVAL
TLI .FT                 1104 : TOP LOG INTERVAL
CBD .FT                 1103 : CASING BOTTOM DRILLER
CBL .FT                 1104 : CASING BOTTOM LOGGER
BS  .IN                7.875 : BIT SIZE
BSD .FT                10343 : BIT SIZE AT DEPTH
DFT .               GEL CHEM : DRILLING FLUID TYPE
DFD .                   10.8 : DRILLING FLUID DENSITY
DFV .                    110 : DRILLING FLUID VISCOSITY
DFPH.                   10.5 : DRILLING FLUID PH
DFL .                    6.6 : DRILLING FLUID LOSS
RMS .OHMM               3.34 : RESISTIVITY MUD SAMPLE
MST .DEGF                 60 : MUD SAMPLE TEMPERATURE
RMF .OHMM                2.7 : RESISTIVITY MUD FILTRATE SAMPLE
MFST.DEGF                 61 : MUD FILTRATE SAMPLE TEMPERATURE
RMB .OHMM               1.07 : RESISTIVITY MUD AT BHT
TCS .HRS                 4.5 : TIME CIRCULATED STOPPED
LUN .                   3816 : LOGGING UNIT NUMBER
LUL .                    S L : LOGGING UNIT LOCATION
ENGI.                  MOORE : RECORDING ENGINEER
WITN.                  FOOTE : WITNESSED BY
CLNT.                A2DTECH : CLIENT CODE
ORIG.            2" 5" PRINT : ORIGIN OF DATA
UWI .       100101806316W500 : UNIQUE WELL ID
DICO. A2D Technologies, Inc. : DIGITIZING COMPANY
~Other -----------------------------------------------------
~ASCII -----------------------------------------------------
# ...
 3550.00000    9.36510    9.36510  213.94940  213.94940    4.48400   95.16220   95.16220   56.75480   56.75480    4.48400    4.30190  -74.50250   -4.80890    4.30190
 3600.00000   10.92960   10.92960  241.15120  241.15120    4.07690   98.29310   98.29310   59.14970   59.14970    4.07690    3.95190  -72.42310   -2.34510    3.95190
 3650.00000   10.44940   10.44940  148.99010  148.99010    6.31490   91.80200   91.80200   84.07250   84.07250    6.31490    6.09100  -77.57470   -7.06100    6.09100
 3700.00000   10.05530   10.05530  133.87120  133.87120    7.14320   91.40600   91.40600   75.89730   75.89730    7.14320    6.96140  -77.84090   -6.88870    6.96140
 3750.00000   13.99050   13.99050  170.81470  170.81470    5.60100  105.51500  105.51500   71.78850   71.78850    5.60100    5.33530  -77.64550   -6.25760    5.33530
 3800.00000    9.65000    9.65000  121.60910  121.60910    7.29160   93.85650   93.85650  115.02880  115.02880    7.29160    8.97000  -76.23770   -4.47710    8.97000
 3850.00000    9.22450    9.22450  118.19730  118.19730    7.65160   90.16270   90.16270   96.22800   96.22800    7.65160    9.00190  -76.35610   -5.12000    9.00190
 3900.00000    9.46700    9.46700  142.52380  142.52380    6.36020   98.34720   98.34720   92.41640   92.41640    6.36020    6.91600  -77.55430   -6.83920    6.91600
 3950.00000   10.63340   10.63340  147.77430  147.77430    6.33260   89.11240   89.11240   75.85800   75.85800    6.33260    6.22230  -80.03450   -9.84390    6.22230
 4000.00000    9.88310    9.88310  161.13120  161.13120    6.11780   96.57250   96.57250   83.64730   83.64730    6.11780    5.80640  -79.50890   -9.83930    5.80640
 4050.00000    9.46470    9.46470  159.30060  159.30060    6.03030   94.75710   94.75710   84.46040   84.46040    6.03030    5.83010  -79.41440  -10.26590    5.83010
 4100.00000   10.28310   10.28310  158.66640  158.66640    5.76940   91.16130   91.16130   87.64780   87.64780    5.76940    6.59090  -77.08080   -8.45680    6.59090
 4150.00000   10.20060   10.20060  163.26070  163.26070    5.66530   94.37480   94.37480   94.49260   94.49260    5.66530    6.10210  -76.96360   -8.86060    6.10210
 4200.00000   10.78770   10.78770  162.89390  162.89390    5.45960   93.37640   93.37640   92.51890   92.51890    5.45960    5.72000  -78.43060  -10.85210    5.72000
 4250.00000    9.82210    9.82210  137.40460  137.40460    6.59640   91.34340   91.34340   82.20560   82.20560    6.59640    6.80250  -78.15270  -11.09520    6.80250
 4300.00000   10.40560   10.40560  179.49130  179.49130    4.97210   92.86040   92.86040   86.75950   86.75950    4.97210    5.25840  -77.91430  -11.37790    5.25840
 4350.00000   10.27180   10.27180  123.57560  123.57560    7.24330   88.33710   88.33710   85.49530   85.49530    7.24330    7.82120  -76.89610  -10.88420    7.82120
 4400.00000   10.19300   10.19300  116.56920  116.56920    7.49670   88.85820   88.85820   86.50550   86.50550    7.49670    7.75240  -76.33060  -10.83970    7.75240
 4450.00000   10.02100   10.02100  145.19160  145.19160    6.27270   90.07330   90.07330   91.42070   91.42070    6.27270    6.71540  -76.73850  -11.77210    6.71540
 4500.00000    9.84870    9.84870  148.49090  148.49090    5.92100   87.74430   87.74430   86.69620   86.69620    5.92100    6.84010  -76.75190  -12.30650    6.84010
 4550.00000   11.15880   11.15880  151.87600  151.87600    5.91550   94.72320   94.72320   92.91960   92.91960    5.91550    6.95400  -74.22010  -10.29580    6.95400
 4600.00000   10.38080   10.38080  144.57700  144.57700    6.14900   97.60680   97.60680   99.45670   99.45670    6.14900    7.39460  -73.02960   -9.62980    7.39460
 4650.00000    9.99070    9.99070  138.86150  138.86150    6.39530   98.38720   98.38720   98.77300   98.77300    6.39530    8.29160  -73.46970  -10.59090    8.29160
 4700.00000    9.04650    9.04650  129.06390  129.06390    6.88820  100.33030  100.33030  119.29260  119.29260    6.88820    9.84390  -71.54920   -9.19490    9.84390
 4750.00000    8.62050    8.62050  102.60590  102.60590    8.26940   98.60320   98.60320  125.88210  125.88210    8.26940   12.18290  -70.71460   -8.88130   12.18290
 4800.00000   10.03300   10.03300  163.16680  163.16680    5.35720   97.34700   97.34700   93.38530   93.38530    5.35720    7.57160  -70.32570   -9.01350    7.57160
 4850.00000    9.37800    9.37800  127.00720  127.00720    6.93320   82.62270   82.62270   74.62810   74.62810    6.93320    7.58480  -72.50580  -11.71810    7.58480
 4900.00000    9.77390    9.77390  204.77150  204.77150    4.39190   89.51770   89.51770   77.90260   77.90260    4.39190    5.31940  -70.40440  -10.13770    5.31940
 4950.00000    9.68390    9.68390  182.92830  182.92830    4.90240   88.51490   88.51490   83.44420   83.44420    4.90240    5.84420  -71.07130  -11.32910    5.84420
 5000.00000    9.41020    9.41020  200.35950  200.35950    4.45350   88.58360   88.58360   87.76100   87.76100    4.45350    5.40170  -70.02440  -10.80320    5.40170
 5050.00000    9.92960    9.92960  178.26040  178.26040    4.99810   86.63100   86.63100   84.24520   84.24520    4.99810    6.91870  -68.03170   -9.33160    6.91870
 5100.00000    9.18280    9.18280  145.17670  145.17670    5.87400   85.02710   85.02710  100.94020  100.94020    5.87400    7.39630  -71.21340  -13.03780    7.39630
 5150.00000   10.58980   10.58980  280.60340  280.60340    3.33230  101.76530  101.76530   93.84740   93.84740    3.33230    4.23130  -68.48020  -10.82560    4.23130
 5200.00000   12.15090   12.15090  204.24840  204.24840    4.40190   93.58780   93.58780   94.54340   94.54340    4.40190    5.65770  -65.82270   -8.69260    5.65770
 5250.00000    9.01220    9.01220  249.14710  249.14710    3.81100  105.24810  105.24810  239.85630  239.85630    3.81100    4.91370  -66.08480   -9.47570    4.91370
 5300.00000   10.71240   10.71240  285.24400  285.24400    3.31350   95.21100   95.21100   72.48570   72.48570    3.31350    4.11810  -63.28500   -6.23630    4.11810
 5350.00000   10.75860   10.75860  300.61450  300.61450    3.17580   95.36270   95.36270   71.06640   71.06640    3.17580    3.87270  -64.34780   -6.45000    3.87270
 5400.00000   10.58460   10.58460  236.36330  236.36330    3.86640   91.74470   91.74470   78.77280   78.77280    3.86640    4.79360  -64.65670   -5.91530    4.79360
 5450.00000    7.80240    7.80240   83.34600   83.34600   10.01150   75.90830   75.90830   47.44950   47.44950   10.01150   21.70450 -128.33490  -68.74430   21.70450
 5500.00000   10.80520   10.80520  599.78740  599.78740    1.88640  141.25080  141.25080   72.05810   72.05810    1.88640    2.25490  -63.60170   -3.35670    2.25490
 5550.00000    9.06710    9.06710  123.45990  123.45990    7.83700   76.89550   76.89550   56.18670   56.18670    7.83700   10.31360  -68.36940   -8.38700   10.31360
 5600.00000    8.99630    8.99630  147.87720  147.87720    6.34290   83.99270   83.99270   67.05430   67.05430    6.34290   10.34430  -65.46980   -5.75170   10.34430
 5650.00000    8.60020    8.60020   73.95980   73.95980   11.06140   67.50500   67.50500   61.73130   61.73130   11.06140   16.04490  -77.23180  -17.77630   16.04490
 5700.00000   10.08670   10.08670  108.80080  108.80080    8.39600  119.94020  119.94020   64.35570   64.35570    8.39600   11.15540  -65.18910   -6.02330   11.15540
 5750.00000    9.77610    9.77610   80.90940   80.90940   10.44340   73.52000   73.52000   72.51260   72.51260   10.44340   11.83690  -66.98840   -8.13280   11.83690
 5800.00000    9.57990    9.57990   90.64470   90.64470    9.18780   77.58550   77.58550   63.31280   63.31280    9.18780   19.27480  -73.86930  -15.32390   19.27480
 5850.00000    9.35870    9.35870   96.93450   96.93450    9.31970   85.61120   85.61120   83.36330   83.36330    9.31970   15.10470  -83.00510  -24.77190   15.10470
 5900.00000    8.91620    8.91620   44.83770   44.83770   17.51420   60.83620   60.83620   39.01750   39.01750   17.51420   21.89290  -81.67950  -23.75650   21.89290
 5950.00000    9.18970    9.18970  129.21680  129.21680    6.53230   79.72270   79.72270   55.51420   55.51420    6.53230   17.13600 -125.72790  -68.11720   17.13600
