~Version ---------------------------------------------------
VERS.      2.0 : CWLS log ASCII Standard -VERSION 2.0
WRAP.       NO : One line per depth step
CREA. 11/07/17 : LAS Creation Date
~Well ------------------------------------------------------
STRT.FT                         300.0 : START DEPTH
STOP.FT                        5850.0 : STOP DEPTH
STEP.FT                      50.00000 : STEP LENGTH
NULL.                         -999.25 : NULL VALUE
COMP.                    PETRO-CANADA : COMPANY
WELL. PACIFIC ET AL UTIKUMA 2-22-81-8 : WELL
FLD .                                 : FIELD
LOC .                                 : LOCATION
CTRY.                          CANADA : COUNTRY
SRVC.          Schlumberger of Canada : SERVICE COMPANY
DATE.                     19-Jan-1966 : LOGDATE
PROV.                         Alberta : PROVINCE
UWI .                100022208108W500 : UNIQUE WELL ID
SLAT.WGS84              56.0307680892 : SURFACE LATITUDE
SLON.WGS84            -115.1588226971 : SURFACE LONGITUDE
~Curve Information -----------------------------------------
DEPT  .FT    : Depth Curve
CALWS .IN    : CALIPER [MCALED]
CILDED.MMHO  : CONDUCTIVITY FROM IEL LOG
CONDWS.MMHO  : CONDUCTIVITY [1000/DRESWS]
DRESWS.OHMM  : DEEP RESISTIVITY [ILDED]IF ILDED<5;1000/CILDED;ELSE ILDED
DTED  .US/F  : DELTA TIME FROM SONIC LOG
DTWS  .US/F  : DELTA TIME [DTED]
GRSED .GAPI  : GAMMA RAY FROM SONIC LOG [DEPTH ADJ TO IEL LOG]
GRWS  .GAPI  : GAMMA RAY [GRSED]
ILDED .OHMM  : INDUCTION LOG DEEP RESISTIVITY
MCALED.IN    : CALIPER FROM MICROLOG
SNED  .OHMM  : 16 INCH SHORT NORMAL RESISTIVITY FROM IEL LOG
SPRED .MV    : SPONTANEOUS POTENTIAL FROM IEL LOG
SPWS  .MV    : SPONTANEOUS POTENTIAL [BASELINE 0 MV] [SPRED REVERSED IN SOME AREAS]
SRESWS.OHMM  : SHALLOW RESISTIVITY [SNED]
~Params ----------------------------------------------------
PD  .                     GL : PERMANENT DATUM
EPD .FT               2148.3 : ELEVATION PERMANENT DATUM
LMF .                     KB : LOG MEASURED FROM
DAPD.FT                 13.7 : FEET ABOVE PERMANENT DATUM
EKB .FT                 2162 : KELLY BUSHING
EGL .FT               2148.3 : GROUND LEVEL
DATE.               01/19/66 : RUN DATE
RUN .                      1 : RUN NUMBER
DD  .FT                 5855 : DEPTH DRILLER
DL  .FT                 5855 : DEPTH LOGGER
BLI .FT                 5854 : BOTTOM LOG INTERVAL
TLI .FT                  658 : TOP LOG INTERVAL
CBD .FT                  657 : CASING BOTTOM DRILLER
CBL .FT                  658 : CASING BOTTOM LOGGER
BS  .IN                7.875 : BIT SIZE
BSD .FT                 5855 : BIT SIZE AT DEPTH
DFT .                    GEL : DRILLING FLUID TYPE
DFD .                   10.1 : DRILLING FLUID DENSITY
DFV .                    115 : DRILLING FLUID VISCOSITY
DFPH.                     11 : DRILLING FLUID PH
DFL .                     10 : DRILLING FLUID LOSS
RMS .OHMM                 10 : RESISTIVITY MUD SAMPLE
MST .DEGF                 61 : MUD SAMPLE TEMPERATURE
RMF .OHMM               0.73 : RESISTIVITY MUD FILTRATE SAMPLE
MFST.DEGF                 59 : MUD FILTRATE SAMPLE TEMPERATURE
RMC .OHMM               1.21 : RESISTIVITY MUD CAKE
MCST.DEGF                 63 : MUD CAKE SAMPLE TEMPERATURE
RMB .OHMM                0.5 : RESISTIVITY MUD AT BHT
TCS .HRS                   2 : TIME CIRCULATED STOPPED
LUN .                   2548 : LOGGING UNIT NUMBER
LUL .                     SL : LOGGING UNIT LOCATION
ENGI.               PICKFORD : RECORDING ENGINEER
WITN.                 CHETIN : WITNESSED BY
CLNT.                A2DTECH : CLIENT CODE
ORIG.            2" 5" PRINT : ORIGIN OF DATA
UWI .       100022208108W500 : UNIQUE WELL ID
DICO. A2D Technologies, Inc. : DIGITIZING COMPANY
~Other -----------------------------------------------------
~ASCII -----------------------------------------------------
  300.00000    -999.25    -999.25    -999.25    -999.25    -999.25    -999.25   36.69780   36.69780    -999.25    -999.25    -999.25    -999.25    -999.25    -999.25
  350.00000    -999.25    -999.25    -999.25    -999.25    -999.25    -999.25   51.41480   51.41480    -999.25    -999.25    -999.25    -999.25    -999.25    -999.25
  400.00000    -999.25    -999.25    -999.25    -999.25    -999.25    -999.25   42.70980   42.70980    -999.25    -999.25    -999.25    -999.25    -999.25    -999.25
  450.00000    -999.25    -999.25    -999.25    -999.25    -999.25    -999.25   49.05590   49.05590    -999.25    -999.25    -999.25    -999.25    -999.25    -999.25
  500.00000    -999.25    -999.25    -999.25    -999.25    -999.25    -999.25   44.49200   44.49200    -999.25    -999.25    -999.25    -999.25    -999.25    -999.25
  550.00000    -999.25    -999.25    -999.25    -999.25    -999.25    -999.25   49.31190   49.31190    -999.25    -999.25    -999.25    -999.25    -999.25    -999.25
  600.00000    -999.25    -999.25    -999.25    -999.25    -999.25    -999.25   62.20520   62.20520    -999.25    -999.25    -999.25    -999.25    -999.25    -999.25
  650.00000    -999.25    -999.25    -999.25    -999.25    -999.25    -999.25   66.32910   66.32910    -999.25    -999.25    -999.25    -999.25    -999.25    -999.25
  700.00000   11.47750  168.99210  178.37890    5.60610  203.74080  203.74080   79.64390   79.64390    5.60610   11.47750    6.19620  -81.14330   -5.85210    6.19620
  750.00000   12.92650  198.38800  198.38800    5.04060  202.80780  202.80780   74.30900   74.30900    4.81340   12.92650    5.08270  -79.15230   -5.84090    5.08270
  800.00000   12.00950  180.58590  191.80970    5.21350  176.07110  176.07110   69.69200   69.69200    5.21350   12.00950    5.90200  -79.87270   -8.55100    5.90200
  850.00000   11.38840  167.52110  180.75600    5.53250  194.72270  194.72270   65.70090   65.70090    5.53250   11.38840    5.86570  -77.28890   -7.96690    5.86570
  900.00000   11.82330  270.61270  270.61270    3.69530  148.81860  148.81860  116.48600  116.48600    3.48640   11.82330    4.00390  -77.45810  -10.11590    4.00390
  950.00000   12.54880  337.65370  337.65370    2.96190  167.78750  167.78750   77.02940   77.02940    3.12030   12.54880    2.88470  -75.85830  -10.51580    2.88470
 1000.00000   12.29210  236.47360  236.47360    4.22880  136.37850  136.37850   79.76970   79.76970    4.26300   12.29210    3.96290  -70.36340   -7.00070    3.96290
 1050.00000   16.44810  235.96810  235.96810    4.23790  176.56000  176.56000   65.18140   65.18140    4.61880   16.44810    4.30720  -73.70060  -12.32770    4.30720
 1100.00000    8.25620  184.03020  194.53740    5.14040  119.70820  119.70820   53.18160   53.18160    5.14040    8.25620    6.52050  -76.60750  -16.60750    6.52050
 1150.00000   15.23030  452.63100  452.63100    2.20930    -999.25    -999.25   48.85520   48.85520    2.03100   15.23030    2.50690  -61.72180   -1.72180    2.50690
 1200.00000    7.65770  237.99980  237.99990    4.20200  125.59200  125.59200   73.21990   73.21990    4.09150    7.65770    5.70980  -82.77090  -22.77090    5.70980
 1250.00000    8.04590  205.73140  205.73140    4.86070  114.98290  114.98290   65.79330   65.79330    4.63440    8.04590    5.81940  -76.92640  -18.08080    5.81940
 1300.00000   16.85460  508.31600  508.31600    1.96730  139.95170  139.95170   48.50510   48.50510    1.79350   16.85460    2.12110  -58.47830   -2.90170    2.12110
 1350.00000   10.21340  240.82100  240.82100    4.15510  128.00460  128.00460   63.39140   63.39140    4.03010   10.21340    4.76730  -76.42940  -21.21050    4.76730
 1400.00000    8.27910  234.26210  234.26210    4.26870  117.18420  117.18420   54.16570   54.16570    3.94400    8.27910    5.82650  -75.82120  -20.95640    5.82650
 1450.00000    9.52990  219.49470  219.49470    4.55600  121.52990  121.52990   71.07330   71.07330    4.13380    9.52990    5.13710  -71.88330  -17.37610    5.13710
 1500.00000    8.38320  165.71150  178.97410    5.58740  115.25230  115.25230   56.37570   56.37570    5.58740    8.38320    9.87820  -81.92880  -27.77570    9.87820
 1550.00000   14.75620  296.42320  296.42320    3.37360  152.84190  152.84190   55.38620   55.38620    3.24930   14.75620    3.91050  -65.24460  -11.44740    3.91050
 1600.00000    9.34740  121.63170  104.83780    9.59960   63.33690   63.33690   53.11610   53.11610    9.59960    9.34740   15.00000  -63.47030  -10.03070   15.00000
 1650.00000   10.65480  205.87350  205.87350    4.85740  118.00060  118.00060   58.50140   58.50140    4.45000   10.65480    5.53290  -63.04860   -6.02060    5.53290
 1700.00000   14.72980  131.63240  143.40720    6.97330  108.89390  108.89390   64.81480   64.81480    6.97330   14.72980    7.16760  -67.85600   -8.40740    7.16760
 1750.00000   15.16830  164.30780  170.06510    5.88010  113.67440  113.67440   61.34570   61.34570    5.88010   15.16830    6.45170  -66.60380   -8.70060    6.45170
 1800.00000   14.91700  216.04130  216.04130    4.62870  166.71740  166.71740   63.93540   63.93540    4.47930   14.91700    5.20860  -66.43370  -10.08370    5.20860
 1850.00000   11.65300   82.10420   89.95560   11.13300   88.35050   88.35050   27.70020   27.70020   11.13300   11.65300   16.79970  -67.08330  -12.29420   16.79970
 1900.00000   11.35550   28.52750   23.95700   41.74150   63.93010   63.93010   13.26440   13.26440   41.74150   11.35550   39.26520  -71.90870  -18.66500   39.26520
 1950.00000   10.17840   26.63710   26.25310   38.14230   60.54000   60.54000   21.62270   21.62270   38.14230   10.17840   41.26100  -60.47360   -8.92910   41.26100
 2000.00000   12.78390  165.81600  160.85440    6.21680   74.47670   74.47670   25.34010   25.34010    6.21680   12.78390   10.55050  -56.01930   -6.38680   10.55050
 2050.00000   11.08930  102.71340   96.30760   10.38340   69.45830   69.45830   21.34530   21.34530   10.38340   11.08930   14.54930  -51.80550   -4.09330   14.54930
 2100.00000    9.36310   72.32330   72.43220   13.80690   69.51670   69.51670   17.22390   17.22390   13.80690    9.36310   17.83010  -62.17140  -16.37020   17.83010
 2150.00000   10.17160   87.93480   89.10120   11.22320   74.44970   74.44970   18.67120   18.67120   11.22320   10.17160   13.63450  -58.03400  -14.12480   13.63450
 2200.00000   10.02840   85.53570   86.08970   11.61580   73.96930   73.96930   19.76490   19.76490   11.61580   10.02840   14.18380  -65.32510  -23.32690   14.18380
 2250.00000    8.54900   69.04570   63.14890   15.83560   63.44850   63.44850   14.68970   14.68970   15.83560    8.54900   29.09000  -67.05900  -26.95270   29.09000
 2300.00000    9.31200   84.81280   87.67620   11.40560   55.23070   55.23070   21.39570   21.39570   11.40560    9.31200   13.92110  -43.08800   -4.88320   13.92110
 2350.00000    8.13500   51.78130   49.91820   20.03450   61.86490   61.86490   17.34540   17.34540   20.03450    8.13500   40.37470  -64.79660  -27.02440   40.37470
 2400.00000    8.52100   68.16650   66.07510   15.13430   67.30430   67.30430   22.87110   22.87110   15.13430    8.52100   21.21930  -59.92980  -22.30850   21.21930
 2450.00000    8.82150   79.40150   78.77030   12.69520   70.72320   70.72320   21.28980   21.28980   12.69520    8.82150   16.44870  -57.60630  -20.13760   16.44870
 2500.00000   10.90250  205.48420  205.48420    4.86660   97.51900   97.51900   41.74840   41.74840    4.59020   10.90250    6.25850  -41.44850   -2.60910    6.25850
 2550.00000    8.33560   39.52080   36.99170   27.03310   57.20500   57.20500   10.38870   10.38870   27.03310    8.33560   55.92370  -75.70300  -29.40670   55.92370
 2600.00000    8.57490   35.22740   32.83020   30.46060   55.83260   55.83260   10.68660   10.68660   30.46060    8.57490   68.39660  -91.23210  -39.62480   68.39660
 2650.00000    8.57550   15.96440   10.67050   93.71640   53.15820   53.15820   14.43930   14.43930   93.71640    8.57550   82.52090  -77.77090  -22.52190   82.52090
 2700.00000    8.56380   12.01960    6.94520  143.99130   52.55230   52.55230   13.92190   13.92190  143.99130    8.56380   92.94200  -83.22340  -24.29620   92.94200
