~Version ---------------------------------------------------
VERS. 2.0 : CWLS log ASCII Standard -VERSION 2.0
WRAP.  NO : ONE LINE PER DEPTH STEP
~Well ------------------------------------------------------
STRT.F                           850.0 : START DEPTH
STOP.F                          9050.0 : STOP DEPTH
STEP.F                        50.00000 : STEP LENGTH
NULL.                          -999.25 : NULL VALUE
COMP.      BLUEMOUNT RESOURCES LIMITED : COMPANY
WELL. BLUEMOUNT WHITECOURT 10-36-59-13 : WELL
FLD .                                  : FIELD
LOC .                                  : LOCATION
CTRY.                           CANADA : COUNTRY
SRVC.                          Unknown : SERVICE COMPANY
DATE.                      30-Jan-1973 : LOGDATE
PROV.                          Alberta : PROVINCE
UWI .                 100103605913W500 : UNIQUE WELL ID
SLAT.WGS84                    54.14792 : SURFACE LATITUDE
SLON.WGS84                   -115.8081 : SURFACE LONGITUDE
~Curve Information -----------------------------------------
DEPT   .F    0   1   0  0 : 1 MEASURED DEPTH
DCOR   .G/C3 45 356 01 00 : DENSITY CORRECTION
RHOB   .G/C3 45 350 01 00 : BULK DENSITY
CALD   .IN   45 280 60 00 : CALIPER FROM DENSITY LOG
NPHI_LS.DEC  42 890 01 00 : NEUTRON POROSITY LIMESTONE
DPHI_LS.DEC  45 890 10 00 : DENSITY POROSITY LIMESTONE
GRD    .GAPI 45 310 01 00 : GAMMA RAY FROM DENSITY LOG
GRS    .GAPI 60 310 01 00 : GAMMA RAY FROM SONIC LOG
DT     .US/F 60 500 00 00 : DELTA-T (INTERVAL TRANSIT TIME)
CALS   .IN   60 280 50 00 : CALIPER FROM SONIC LOG
ILD    .OHMM 07 120 46 00 : INDUCTION DEEP RESISTIVITY
ILM    .OHMM 07 120 44 00 : INDUCTION MEDIUM RESISTIVITY
LL8    .OHMM 07 220 08 00 : LATEROLOG 8
SPR    .MV   07 010 01 00 : SPONTANEOUS POTENTIAL FROM RESISTIVITY LOG
~Params ----------------------------------------------------
PD  .                     GL : PERMANENT DATUM
EPD .FT                 2542 : ELEVATION PERMANENT DATUM
LMF .                     KB : LOG MEASURED FROM
DAPD.FT                 17.3 : FEET ABOVE PERMANENT DATUM
EKB .FT               2559.3 : KELLY BUSHING
EGL .FT                 2542 : GROUND LEVEL
DATE.               01/30/73 : RUN DATE
RUN .                      1 : RUN NUMBER
DD  .FT                 9060 : DEPTH DRILLER
DL  .FT                 9056 : DEPTH LOGGER
BLI .FT                 9053 : BOTTOM LOG INTERVAL
TLI .FT                  911 : TOP LOG INTERVAL
CBD .FT                  912 : CASING BOTTOM DRILLER
CBL .FT                  911 : CASING BOTTOM LOGGER
BS  .IN                 8.75 : BIT SIZE
BSD .FT                 9060 : BIT SIZE AT DEPTH
DFT .               GEL CHEM : DRILLING FLUID TYPE
DFD .                    9.2 : DRILLING FLUID DENSITY
DFV .                     80 : DRILLING FLUID VISCOSITY
DFPH.                   10.5 : DRILLING FLUID PH
DFL .                    8.8 : DRILLING FLUID LOSS
MSS .             CIRCULATED : MUD SAMPLE SOURCE
RMS .OHMM               1.83 : RESISTIVITY MUD SAMPLE
MST .DEGF                 76 : MUD SAMPLE TEMPERATURE
RMF .OHMM               1.59 : RESISTIVITY MUD FILTRATE SAMPLE
MFST.DEGF                 57 : MUD FILTRATE SAMPLE TEMPERATURE
RMC .OHMM                3.6 : RESISTIVITY MUD CAKE
MCST.DEGF                 76 : MUD CAKE SAMPLE TEMPERATURE
RMB .OHMM                0.9 : RESISTIVITY MUD AT BHT
TCS .HRS                   4 : TIME CIRCULATED STOPPED
LUN .                   5671 : LOGGING UNIT NUMBER
LUL .                    EDM : LOGGING UNIT LOCATION
ENGI.                 CALVIN : RECORDING ENGINEER
WITN.         SCHWAB DRYDALE : WITNESSED BY
CLNT.                A2DTECH : CLIENT CODE
ORIG.            2" 5" PRINT : ORIGIN OF DATA
UWI .       100103605913W500 : UNIQUE WELL ID
DICO. A2D Technologies, Inc. : DIGITIZING COMPANY
~Other -----------------------------------------------------
~ASCII -----------------------------------------------------
# ...
 6050.00000    0.00740    2.73140    8.02240    0.02680   -0.01050   15.94120   19.10850   51.44730    8.84020   94.07950  124.11530  245.46150  -83.43850
 6100.00000    0.01210    2.71690    7.97000    0.05500    0.00020   23.83540   33.02180   55.85740    8.83010   27.13920   32.08850   70.26100  -60.77820
 6150.00000    0.01090    2.71890    8.03840    0.04160   -0.01120   32.09320   41.97610   53.86220    8.77850   64.62630   67.40280   98.56340  -45.04540
 6200.00000   -0.00140    2.68480    8.11380    0.04650    0.01760   36.04090   46.29230   54.41440    8.80770   59.69030   63.79590   85.64390  -42.50280
 6250.00000    0.02870    2.74570    8.10570    0.05110   -0.03210   31.16530   38.22940   54.75450    8.81510   51.51470   54.89370   72.64530  -40.00730
 6300.00000    0.02440    2.71800    8.02550    0.04420   -0.01620   29.76660   42.10930   54.16200    8.73850  100.97720  105.24740  169.17040  -48.96150
 6350.00000    0.01700    2.63210    8.17500    0.16520    0.03720  122.16730  159.74310   71.97100    8.86930   25.58630   29.23810   51.02160  -29.74450
 6400.00000    0.01200    2.66580    8.06280    0.13030    0.01330  112.63640  145.44920   61.10740    8.82040   18.21100   19.47610   23.35220  -37.47940
 6450.00000    0.03120    2.75150    8.03400    0.01300   -0.01200   12.60060   14.73450   49.73460    8.87150 1397.86320 1334.26030 1456.20350 -106.34390
 6500.00000    0.00470    2.72570    7.97840    0.01040   -0.00760   17.09090   20.79260   49.38380    8.85020 1368.88090 1137.09400 1445.79720 -116.80810
 6550.00000    0.03350    2.70630    8.05570    0.02190    0.00740   12.61630   14.00790   50.93970    8.73960  101.06230  116.39710  311.26290 -137.09880
 6600.00000    0.04000    2.62940    7.86390    0.04710    0.04140   12.14380   15.91250   53.72450    8.67370   67.62940   73.88840  286.24710 -143.74540
 6650.00000    0.02090    2.73560    8.02250    0.01000   -0.00710   13.27020   15.55660   49.29780    8.91040 1092.73910  699.68180 1050.71720 -138.30670
 6700.00000    0.10540    2.72870    8.21320    0.01410   -0.01480    9.27700   12.84310   48.99770    9.30560 1210.77340 1386.71230 1452.83300 -150.80610
 6750.00000    0.03050    2.71690    8.29390    0.02620   -0.00310   10.08910   10.64730   50.63420    9.04490   58.48410   62.14070  258.09230 -154.36040
 6800.00000    0.03190    2.74540    8.19160    0.03610   -0.03370   11.38330   13.85060   50.12720    8.94720   44.90940   47.72250  187.97720 -147.34680
 6850.00000    0.00650    2.72390    8.28610    0.01840   -0.01710   14.03900   18.97580   48.90060    9.03180  945.25240  505.25990  743.83630 -143.17670
 6900.00000    0.02280    2.74020    8.42990    0.01170   -0.03660   13.29050   16.09570   49.41580    9.15810  286.84710  196.53200  298.10500 -134.84220
 6950.00000    0.02150    2.71590    8.21520    0.01900   -0.01120   15.85630   17.36400   50.55120    9.02080  487.87140  399.32340 1246.13770 -144.73460
 7000.00000    0.05420    2.73540    8.04880    0.11770   -0.00360   10.79490   12.82520   51.45750    9.06770   28.44420   43.63720  204.08260 -173.61330
 7050.00000    0.17490    2.65190    8.02250    0.07400    0.04910   11.97160   11.22880   53.21810    8.78200   11.55780   15.49280   54.99520 -199.08030
 7100.00000    0.00780    2.89000    8.18740    0.02660   -0.10360   16.40090   17.27870   48.66030    9.00710  138.07170  248.20060 1460.63590 -158.92920
 7150.00000    0.02130    2.89240    8.13220    0.02120   -0.12130   23.53670   23.60530   49.04880    9.02520  162.84620  284.18560 1425.21500 -135.87410
 7200.00000    0.07880    2.76950    7.98610    0.12920   -0.03620   30.70230   33.99720   54.40830    8.81960   11.85850   16.78470  148.65740 -149.35680
 7250.00000    0.03480    2.78970    7.98620    0.09790   -0.03770   25.18740   38.38040   49.40830    8.92750   40.19900   45.08540   53.24980 -107.39770
 7300.00000    0.02540    2.73840    8.42870    0.11560   -0.05020   24.04560   39.93300   51.79070    9.23790   17.18880   18.27640   27.81090  -88.94110
 7350.00000    0.00990    2.72520    8.10800    0.05340   -0.01530   29.10990   41.53270   53.73850    8.86650   88.33170   98.87120  119.73140  -48.24230
 7400.00000    0.05270    2.75340    8.03250    0.06330   -0.02400   32.36940   41.70360   54.61450    8.88160   54.40870   59.55810   84.22190  -43.42120
 7450.00000   -0.00050    2.69820    8.23990    0.10570    0.01040   45.41200   68.89720   68.01080    8.86530   10.05240   10.83980   16.07400  -38.13160
 7500.00000    0.00870    2.71250    8.28120    0.15130    0.00650   61.14430   68.08960   63.23370    8.77220   10.09750   10.97780   15.05830  -38.51330
 7550.00000    0.22090    2.46210   10.38290    0.26840    0.14170   84.18690  112.97410   81.43520    9.66380    5.39800    5.61690    8.55400  -43.32020
 7600.00000    0.10910    2.53200    9.38830    0.34910    0.09970   93.34860  123.75790   83.02120    9.97000    4.10160    4.28260    6.54310  -50.38230
 7650.00000    0.19450    2.49920   10.23090    0.33750    0.14040   94.42270  120.14090   82.06590   10.38650    3.97330    4.28680    6.52250  -40.85500
 7700.00000   -0.00450    2.67470    8.08850    0.19190    0.02070   74.61760  100.38440   67.26680    8.71940   30.17690   35.88120   59.03100  -43.56890
 7750.00000    0.18140    2.00810   11.54750    0.40520    0.28730   75.96330  102.14580   76.10860   10.88120    5.53250    5.80400    7.99810  -56.32560
 7800.00000    0.15030    2.57410    8.88850    0.27470    0.09420   91.64060  105.43190   75.56410    9.92520    6.07320    6.86060   10.23550  -50.98040
 7850.00000    0.11890    2.55140    8.79520    0.27040    0.06520   82.06620   93.57170   70.38840    8.85050    6.99550    7.70000   14.80700  -48.09290
 7900.00000    0.00010    2.72680    8.05980    0.15290   -0.01020   63.73950   87.04520   66.31890    8.71910   10.03860   11.14680   18.05800  -33.57350
 7950.00000    0.00320    2.74120    8.06630    0.20200    0.00180   88.51810  110.74710   66.53480    8.65330   10.25900   11.69670   18.11440  -33.89540
 8000.00000    0.00310    2.71210    8.07950    0.19430   -0.00160   79.23500  103.33490   66.65800    8.64750   10.56540   11.93760   18.13090  -32.68080
 8050.00000    0.00250    2.73090    8.02730    0.14680   -0.00890   65.82890   78.07680   60.86800    8.52800   19.31610   21.83990   33.02570  -34.90060
 8100.00000    0.00990    2.72300    8.13070    0.24170    0.00010   99.14490  110.93390   71.39250    8.64920    6.98150    7.80820   13.80680  -36.24200
 8150.00000    0.00380    2.74420    8.10450    0.20240   -0.01170   90.53400  111.79030   68.80910    8.35400    9.63190   10.58730   16.36330  -31.29840
 8200.00000    0.00610    2.73750    8.11900    0.15250   -0.01330   68.26020   76.89250   64.38720    8.63530   11.80600   14.09790   25.67250  -32.61730
 8250.00000    0.19640    2.64110    8.46960    0.23690    0.06030  100.44300  116.10960   71.31830    8.68660    8.09190    9.00410   14.87010  -32.71920
 8300.00000    0.00840    2.70710    8.12200    0.19720    0.01170   82.09660  111.80060   69.12720    8.57230    8.09290    8.95260   14.51170  -29.28140
 8350.00000   -0.00180    2.74200    8.06790    0.20270   -0.00740   80.67540  118.88090   72.48080    8.69310    7.02090    7.80780   12.86850  -31.91820
 8400.00000   -0.00590    2.69330    8.11500    0.21560    0.01370   81.64460  109.27830   69.62060    8.62970    7.49030    8.19950   13.51660  -30.51220
 8450.00000   -0.00130    2.72130    8.18890    0.08840   -0.01060   45.12330  123.21580   73.20990    8.66430   44.48320   55.06250   98.74010  -34.66010
 8500.00000   -0.00310    2.66950    8.14510    0.17340    0.01690   81.28990  120.95970   77.82650    8.76290   12.61920   13.61730   23.40310  -30.06580
 8550.00000    0.11840    2.63380    8.43510    0.25360    0.04720  106.32950  131.91560   75.65080    9.01920    7.17170    8.16280   13.10630  -38.62870
 8600.00000    0.00510    2.73920    8.11610    0.01280   -0.01850   10.15600   53.50840   55.86530    8.49580  120.36920  122.97020  232.42210  -92.63460
