~Version ---------------------------------------------------
VERS. 2.0 : CWLS log ASCII Standard -VERSION 2.0
WRAP.  NO : ONE LINE PER DEPTH STEP
~Well ------------------------------------------------------
STRT.F                           1150.0 : START DEPTH
STOP.F                          12100.0 : STOP DEPTH
STEP.F                         50.00000 : STEP LENGTH
NULL.                           -999.25 : NULL VALUE
COMP. HUDSONS BAY OIL & GAS COMPANY LTD : COMPANY
WELL. HB ET AL EAST MARLBORO 7-15-55-18 : WELL
FLD .                                   : FIELD
LOC .                                   : LOCATION
CTRY.                            CANADA : COUNTRY
SRVC.            Schlumberger of Canada : SERVICE COMPANY
DATE.                       14-Sep-1968 : LOGDATE
PROV.                           Alberta : PROVINCE
UWI .                  100071505518W500 : UNIQUE WELL ID
SLAT.WGS84                     53.74917 : SURFACE LATITUDE
SLON.WGS84                    -116.5848 : SURFACE LONGITUDE
~Curve Information -----------------------------------------
DEPT   .F                 : 
CALD   .IN   45 280 60 00 : CALIPER FROM DENSITY LOG
DCOR   .G/C3 45 356 01 00 : DENSITY CORRECTION
RHOB   .G/C3 45 350 01 00 : BULK DENSITY
PORO_LS.DEC  45 890 10 00 : POROSITY LIMESTONE
GRN    .GAPI 35 310 01 00 : GAMMA RAY FROM GRN LOG
NEUT   .NAPI 35 330 01 00 : NEUTRON
ILD    .OHMM 07 120 46 00 : INDUCTION DEEP RESISTIVITY
ILM    .OHMM 07 120 44 00 : INDUCTION MEDIUM RESISTIVITY
LL8    .OHMM 07 220 08 00 : LATEROLOG 8
SPR    .MV   07 010 01 00 : SPONTANEOUS POTENTIAL FROM RESISTIVITY LOG
CALN   .IN   41 280 00 00 : CALIPER FROM NEUTRON LOG
PORS_DM.DEC  41 890 02 00 : LINEAR NEUTRON POROSITY
PORS_LS.DEC  41 890 01 00 : LINEAR POROSITY FROM LIMESTONE
SNP_LS .DEC  41 890 01 00 : SIDEWALL NEUTRON POROSITY [LIMESTONE]
CALS   .IN   60 280 50 00 : CALIPER FROM SONIC LOG
DT     .US/F 60 500 00 00 : DELTA-T (INTERVAL TRANSIT TIME)
GRS    .GAPI 60 310 01 00 : GAMMA RAY FROM SONIC LOG
~Params ----------------------------------------------------
PD  .                     GL : PERMANENT DATUM
EPD .FT                 3167 : ELEVATION PERMANENT DATUM
LMF .                     KB : LOG MEASURED FROM
DAPD.FT                   15 : FEET ABOVE PERMANENT DATUM
EKB .FT                 3182 : KELLY BUSHING
EGL .FT                 3167 : GROUND LEVEL
DATE.               09/14/68 : RUN DATE
RUN .                      3 : RUN NUMBER
DD  .FT                12110 : DEPTH DRILLER
DL  .FT                12109 : DEPTH LOGGER
BLI .FT                12105 : BOTTOM LOG INTERVAL
TLI .FT                11350 : TOP LOG INTERVAL
CBD .FT                 1265 : CASING BOTTOM DRILLER
BS  .IN                 8.75 : BIT SIZE
BSD .FT                12110 : BIT SIZE AT DEPTH
DFT .                    GEL : DRILLING FLUID TYPE
DFD .                   11.1 : DRILLING FLUID DENSITY
DFV .                    300 : DRILLING FLUID VISCOSITY
DFPH.                   11.5 : DRILLING FLUID PH
DFL .                    4.2 : DRILLING FLUID LOSS
MSS .             CIRCULATED : MUD SAMPLE SOURCE
RMS .OHMM               1.59 : RESISTIVITY MUD SAMPLE
MST .DEGF                 52 : MUD SAMPLE TEMPERATURE
RMF .OHMM               0.86 : RESISTIVITY MUD FILTRATE SAMPLE
MFST.DEGF                 58 : MUD FILTRATE SAMPLE TEMPERATURE
RMC .OHMM               1.69 : RESISTIVITY MUD CAKE
MCST.DEGF                 56 : MUD CAKE SAMPLE TEMPERATURE
RMB .OHMM               0.25 : RESISTIVITY MUD AT BHT
TCS .HRS                   4 : TIME CIRCULATED STOPPED
LUN .                   7501 : LOGGING UNIT NUMBER
LUL .                    EDM : LOGGING UNIT LOCATION
ENGI.               STUEHMER : RECORDING ENGINEER
WITN.                 WALKER : WITNESSED BY
CLNT.                A2DTECH : CLIENT CODE
ORIG.            2" 5" PRINT : ORIGIN OF DATA
UWI .       100071505518W500 : UNIQUE WELL ID
DICO. A2D Technologies, Inc. : DIGITIZING COMPANY
~Other -----------------------------------------------------
~ASCII -----------------------------------------------------
# ...
 9350.00000    -999.25    -999.25    -999.25    -999.25    -999.25    -999.25   80.47760  181.73370  134.96460  -79.07230    -999.25    -999.25    -999.25    -999.25    9.14990   54.80260   30.57630
 9400.00000    9.18260   -0.01320    2.75080   -0.02790    -999.25    -999.25  227.85400 1976.12870  615.36610  -86.47750    8.76800   -0.09530    0.02320    -999.25    9.28770   54.80640   47.45130
 9450.00000    9.51750   -0.09150    2.82460   -0.04670    -999.25    -999.25  297.64270 1921.81230 1296.28920 -104.84120    8.76340   -0.09420    0.02620   -0.03290    9.71520   53.05520   16.70160
 9500.00000   12.10730   -0.10800    2.46780    0.13650    -999.25    -999.25 1260.25830  801.81330  343.17740 -115.98270    8.75940   -0.01370    0.10850    0.13560   10.41270   53.34710   17.21940
 9550.00000   13.75040   -0.12100    2.36980    0.23340    -999.25    -999.25 1361.40820  186.64340  172.73910 -139.47970    8.76860   -0.03780    0.08410    0.17740   10.94450   51.43770   18.83510
 9600.00000   14.65870   -0.07640    2.18070    0.28190    -999.25    -999.25 1516.05630  382.89830   87.73840 -136.83360    8.77210    0.13820    0.25730    -999.25   12.43710   52.70740   18.35970
 9650.00000   14.66820   -0.08940    2.38300    0.18050    -999.25    -999.25  131.12690   60.32560  165.53570 -168.06070    8.76960    0.06070    0.18210    0.18670   12.49020   50.97150   17.67540
 9700.00000    -999.25   -0.06580    2.00110    -999.25    -999.25    -999.25  119.35910   87.07000   46.61920 -149.37270    8.75990    0.14530    0.26920    -999.25   12.57450   53.50480   12.75730
 9750.00000   15.34190   -0.11120    2.04700    -999.25    -999.25    -999.25  180.61190  130.94360   85.68790 -144.29990    8.76130    0.20120    0.29980    -999.25   13.20010   55.14290   19.76440
 9800.00000   10.17640   -0.11470    2.71560    0.00370    -999.25    -999.25   89.37200  419.46680  130.37010 -139.18330    8.75410   -0.08490    0.03500    0.01080    9.36550   49.14840   14.03230
 9850.00000   11.46790   -0.05350    2.77270   -0.01440    -999.25    -999.25  175.18240  573.53500  293.90750 -146.45890    8.76770    -999.25   -0.00740   -0.01290   10.11960   50.81280   14.09700
 9900.00000    -999.25   -0.10110    2.59920    0.03170    -999.25    -999.25  592.90390  771.57890  167.75400 -136.40020    8.76930   -0.09480    0.02690    0.04870   11.91090   50.69570   15.11390
 9950.00000    -999.25   -0.15250    2.74540   -0.02100    -999.25    -999.25 1550.06560 1728.26320   75.32760 -126.85850    8.75080    -999.25    0.01240   -0.01660   11.84680   54.05270   16.60960
 10000.00000    -999.25   -0.17040    2.60050    0.08380    -999.25    -999.25   93.12400  163.26120   45.22940 -126.50160    8.75800   -0.05800    0.06750    0.06960   13.07730   53.97970   15.92030
 10050.00000    -999.25   -0.16180    2.71020    0.01150    -999.25    -999.25  151.89750   96.63510   19.43520 -117.72540    8.77730   -0.08930    0.03210    0.00090   12.83220   55.33910   13.60900
 10100.00000    -999.25   -0.19460    2.40620    0.14520    -999.25    -999.25  309.73710  417.68340   62.91710 -127.23610    8.76450   -0.02730    0.09500    0.16760   12.20210   55.04170   14.87450
 10150.00000    -999.25   -0.18230    2.43960    0.16990    -999.25    -999.25  208.99680   73.62810   59.10790 -104.88760    8.76360   -0.01160    0.11140    0.15830   13.33960   56.22350   17.94000
 10200.00000   10.94040   -0.20850    2.64910    0.01910    -999.25    -999.25   22.42110   25.83860   29.27910  -75.53420    8.77270   -0.05640    0.06650    0.03270    9.62260   54.38990   37.10470
 10250.00000    8.97900   -0.20430    2.64080    0.10360    -999.25    -999.25   16.39430   17.91130   16.74160  -57.65790    8.76450   -0.08330    0.04320    0.11970    9.52030   61.72480   66.34120
 10300.00000   12.48890   -0.17750    2.60080    0.07710    -999.25    -999.25 1398.02660 2289.11330 1297.10070 -106.47950    8.76820   -0.06500    0.05030    0.08320   10.05120   48.95560   17.96940
 10350.00000    8.84770   -0.04520    2.86890   -0.10070    -999.25    -999.25  170.91450 1995.77700  337.99470 -103.35850    8.76810   -0.08780    0.05820   -0.06010    9.10830   48.04660   13.87450
 10400.00000    8.32540   -0.07580    2.67570   -0.01940    -999.25    -999.25   14.42580   23.57030  155.12510 -151.65790    8.76720    0.04040    0.16200   -0.03240    8.89050   50.81010   14.58400
 10450.00000    8.87940   -0.03980    2.85300   -0.08130    -999.25    -999.25   71.94040 1895.90590  616.10840 -151.08430    8.78210   -0.09930    0.04460   -0.07750    9.06410   46.67170   12.45140
 10500.00000    9.11530   -0.06450    2.85310   -0.08570    -999.25    -999.25   91.13310 1289.01540  257.96880 -111.88050    8.76260   -0.07420    0.04620   -0.07710    9.44380   50.01720   13.55340
 10550.00000   15.23560   -0.12460    2.46100    0.14340    -999.25    -999.25  235.03480  371.73470   97.43780 -119.33910    8.76400    0.04470    0.16840    0.15180   11.82840   50.14090   18.09890
 10600.00000   13.55570   -0.08590    2.40720    0.19140    -999.25    -999.25 1197.18690   95.93300  230.02900  -80.44050    8.76660    0.04770    0.16870    0.20260   11.61670   62.81440   22.67140
 10650.00000   12.27210   -0.12240    2.49930    0.13410    -999.25    -999.25  164.05380   47.18330  123.24430  -92.47710    8.75310    0.09520    0.21320    0.13670   11.67240   48.94670   18.16660
 10700.00000   15.12550   -0.11410    2.32970    0.24630    -999.25    -999.25 1523.30270  148.66400  220.29150  -81.89230    8.76310    0.06120    0.18800    0.23640   10.58060   52.51400   30.70370
 10750.00000    8.59140   -0.03660    2.84760   -0.07800    -999.25    -999.25  105.10470 1459.27820  401.07580 -142.07100    8.77460   -0.06770    0.05170   -0.06090    8.81300   46.55470   14.85440
 10800.00000    8.58130   -0.03100    2.73300   -0.03880    -999.25    -999.25   25.27370   44.51730  122.24760 -199.76510    8.76120   -0.03550    0.08580   -0.04330    8.94780   50.12420   18.65970
 10850.00000    8.27540   -0.08550    2.66360    0.03460    -999.25    -999.25    3.30260    4.26330   13.10870 -181.77770    8.75260    0.06840    0.19070    0.02930    8.73960   54.77410   16.48730
 10900.00000    8.60760   -0.05690    2.71830   -0.00180    -999.25    -999.25   12.19700   17.32630   72.89290 -187.57970    8.75470   -0.00930    0.11230    0.00080    8.79700   54.17560   14.37460
 10950.00000   12.40090   -0.09320    2.37370    0.23560    -999.25    -999.25 1149.07970  146.65860  241.44350 -157.17360    8.76050    0.05110    0.17570    0.22380   11.07820   52.01950   19.34860
 11000.00000   11.92230   -0.10890    2.49300    0.16450    -999.25    -999.25 1128.10210  165.52680 1292.68190 -112.68840    8.75860   -0.00890    0.11320    0.15980   10.29700   54.15050   34.71970
 11050.00000    9.55530   -0.16680    2.53260    0.11770    -999.25    -999.25 1477.82390 2135.75980 1304.77670 -111.90400    8.76220    0.00160    0.12310    0.10090    9.52030   56.03580   70.53310
 11100.00000    9.20740   -0.14930    2.71210    0.01060    -999.25    -999.25 1436.87570 2161.15550 1291.08690 -123.97920    8.76700   -0.04470    0.07660    0.00680    9.26780   61.23840   82.22830
 11150.00000    8.74230   -0.03920    2.64190    0.03080    -999.25    -999.25 1515.98060 2141.41160 1316.99490 -147.60000    8.77680   -0.03050    0.09170    0.03160    8.88010   60.13480  108.27720
 11200.00000   10.24970   -0.14400    2.62600    0.08470    -999.25    -999.25 1399.88440 2136.16430 1297.90270 -146.35710    8.74760   -0.04770    0.06960    0.08400    9.53420   54.63540   50.66830
 11250.00000    8.65880   -0.00970    2.78420   -0.06280    -999.25    -999.25  785.63010 1908.91260  655.94960 -133.74170    8.80100   -0.05650    0.06480   -0.05320    8.72160   46.87320   12.47460
 11300.00000    8.25470   -0.02350    2.75910   -0.02530    -999.25    -999.25   20.39370   25.50230   59.44020 -146.64710    8.78500   -0.02170    0.10280   -0.01850    8.75620   49.45440   14.74560
 11350.00000    8.51380   -0.03430    2.72590    0.02140    -999.25    -999.25   88.94750   90.63840  125.44680 -127.59110    8.74690   -0.02290    0.10110    0.02020    8.92420   52.57980   12.38010
