~Version ---------------------------------------------------
VERS. 2.0 : CWLS log ASCII Standard -VERSION 2.0
WRAP.  NO : ONE LINE PER DEPTH STEP
~Well ------------------------------------------------------
STRT.F                      557.7428 : START DEPTH
STOP.F                    10838.7428 : STOP DEPTH
STEP.F                       0.50000 : STEP LENGTH
NULL.                        -999.25 : NULL VALUE
COMP.           PETROFINA CANADA LTD : COMPANY
WELL. FINA AMOCO HB FOXCK 6-35-60-18 : WELL
FLD .                                : FIELD
LOC .                                : LOCATION
CTRY.                         CANADA : COUNTRY
SRVC.         Schlumberger of Canada : SERVICE COMPANY
DATE.                    29-Aug-1976 : LOGDATE
PROV.                        Alberta : PROVINCE
UWI .               100063506018W500 : UNIQUE WELL ID
SLAT.WGS84                  54.22952 : SURFACE LATITUDE
SLON.WGS84                 -116.5928 : SURFACE LONGITUDE
~Curve Information -----------------------------------------
DEPT   .F                 : 
SPR    .MV                : SPONTANEOUS POTENTIAL FROM RESISTIVITY
ILD    .OHMM              : DEEP INDUCTION RESISTIVITY
ILM    .OHMM              : INDUCTION MEDIUM RESISTIVITY
LL8    .OHMM              : LATEROLOG-8 RESISTIVITY
CALD   .IN   70 280 01 00 : CALIPER
DCOR   .G/C3 45 356 01 00 : DENSITY CORRECTION
GRD    .GAPI 45 310 01 00 : GAMMA RAY FROM DENSITY LOG
RHOB   .G/C3 45 350 01 00 : BULK DENSITY
DPOR_SS.DEC               : DENSITY POROSITY SANDSTONE
NPOR_S .DEC               : ENCHANCED THERMAL NEUTRON POROSITY IN SELECTED LITHOLOGY SANDSTONE
DPOR_LS.DEC               : DENSITY POROSITY LIMESTONE
NPOR_LS.DEC               : ENCHANCED THERMAL NEUTRON POROSITY IN SELECTED LITHOLOGY SANDSTONE
DT     .US/F 60 520 00 00 : ACOUSTIC TRANSIT TIME SLOWNESS, DELTA T
CALS   .IN                : 
GRS    .GAPI              : GAMMA RAY FROM SONIC LOG
GR     .GAPI              : GAMMA RAY
~Params ----------------------------------------------------
PD  .                     GL : PERMANENT DATUM
EPD .FT                 3085 : ELEVATION PERMANENT DATUM
LMF .                     KB : LOG MEASURED FROM
DAPD.FT                 15.7 : FEET ABOVE PERMANENT DATUM
EKB .FT               3100.9 : KELLY BUSHING
EDF .FT               3085.2 : DRILLING FLOOR
EGL .FT               3085.5 : GROUND LEVEL
DATE.               08/29/76 : RUN DATE
RUN .                      1 : RUN NUMBER
DD  .FT                10843 : DEPTH DRILLER
DL  .FT                10840 : DEPTH LOGGER
BLI .FT                10834 : BOTTOM LOG INTERVAL
TLI .FT                 1119 : TOP LOG INTERVAL
CBD .FT                 1119 : CASING BOTTOM DRILLER
CBL .FT                 1119 : CASING BOTTOM LOGGER
BS  .IN                 8.75 : BIT SIZE
BSD .FT                10843 : BIT SIZE AT DEPTH
DFT .               GEL CHEM : DRILLING FLUID TYPE
DFD .                    9.3 : DRILLING FLUID DENSITY
DFV .                    150 : DRILLING FLUID VISCOSITY
DFPH.                   10.5 : DRILLING FLUID PH
DFL .                    7.0 : DRILLING FLUID LOSS
MSS .            CIRCULATION : MUD SAMPLE SOURCE
RMS .OHMM               2.43 : RESISTIVITY MUD SAMPLE
MST .DEGF                 76 : MUD SAMPLE TEMPERATURE
RMF .OHMM               2.33 : RESISTIVITY MUD FILTRATE SAMPLE
MFST.DEGF                 73 : MUD FILTRATE SAMPLE TEMPERATURE
RMC .OHMM               2.22 : RESISTIVITY MUD CAKE
MCST.DEGF                 67 : MUD CAKE SAMPLE TEMPERATURE
RMB .OHMM               0.86 : RESISTIVITY MUD AT BHT
TCS .HRS                   3 : TIME CIRCULATED STOPPED
LUN .                   7691 : LOGGING UNIT NUMBER
LUL .                    WCT : LOGGING UNIT LOCATION
ENGI.              CROCKFORD : RECORDING ENGINEER
WITN.                 HALKOW : WITNESSED BY
CLNT.                A2DTECH : CLIENT CODE
ORIG.            2" 5" PRINT : ORIGIN OF DATA
UWI .       100063506018W500 : UNIQUE WELL ID
DICO. A2D Technologies, Inc. : DIGITIZING COMPANY
~Other -----------------------------------------------------
~ASCII -----------------------------------------------------
# ...
 3825.74280  -28.58130    6.80460    6.26850    6.35950   12.28130    0.04580   65.66420    2.54710    0.07430    0.28460    -999.25    -999.25  100.72010   10.81600   67.49680    -999.25
 3826.24280  -28.33850    6.97000    6.54840    6.81650   12.40340    0.03600   67.71370    2.53680    0.05870    0.26000    -999.25    -999.25  103.39790   11.00780   66.60160    -999.25
 3826.74280  -28.06540    7.13940    6.80030    8.30900   12.50020    0.04270   68.17230    2.52150    0.06390    0.26870    -999.25    -999.25  100.89460   10.99700   65.81520    -999.25
 3827.24280  -27.97530    7.28540    6.93280   10.39680   12.33870    0.04700   67.13660    2.49120    0.06980    0.30420    -999.25    -999.25   95.90470   10.75550   64.58580    -999.25
 3827.74280  -28.34290    7.38250    6.87390   10.69870   12.19150    0.04130   65.72530    2.47190    0.08630    0.32950    -999.25    -999.25   89.75460   10.61350   63.14610    -999.25
 3828.24280  -28.82610    7.57230    6.70590    8.89040   12.14710    0.03670   65.55900    2.47880    0.10750    0.31940    -999.25    -999.25   84.05830   10.59500   62.21080    -999.25
 3828.74280  -28.91640    7.90450    6.59090    7.26890   12.11200    0.04700   66.34530    2.48810    0.11150    0.29280    -999.25    -999.25   84.82360   10.57190   62.03940    -999.25
 3829.24280  -28.63290    8.20550    6.71500    6.94640   12.12810    0.06540   66.73640    2.50510    0.10640    0.27540    -999.25    -999.25   90.14810   10.58790   62.43700    -999.25
 3829.74280  -28.10670    8.28270    7.17840    8.32720   12.19230    0.08880   66.72320    2.53970    0.09910    0.27170    -999.25    -999.25   90.69090   10.68040   62.31740    -999.25
 3830.24280  -27.68730    8.11440    7.55980   10.69190   12.25060    0.09340   67.21390    2.54410    0.08020    0.28080    -999.25    -999.25   87.48830   10.69840   61.10160    -999.25
 3830.74280  -27.81430    7.95560    7.54500   12.09710   12.31430    0.07810   68.56740    2.53460    0.06430    0.29720    -999.25    -999.25   84.15910   10.61750   59.27900    -999.25
 3831.24280  -28.35340    7.90590    7.34490   11.18730   12.37240    0.05830   69.51520    2.52790    0.06990    0.31520    -999.25    -999.25   83.08910   10.59340   57.97750    -999.25
 3831.74280  -28.65740    7.87850    7.11500    9.32750   12.40520    0.04930   70.29560    2.52730    0.07460    0.32270    -999.25    -999.25   85.06430   10.62290   58.32870    -999.25
 3832.24280  -28.70000    7.82740    6.89220    7.96160   12.44540    0.04540   71.76310    2.53860    0.07730    0.31830    -999.25    -999.25   86.89600   10.64680   60.11610    -999.25
 3832.74280  -28.77090    7.68080    6.67680    7.27310   12.48980    0.05170   73.43530    2.54960    0.07670    0.31550    -999.25    -999.25   87.53280   10.65420   62.01800    -999.25
 3833.24280  -28.91920    7.45910    6.49740    7.11790   12.52290    0.06610   74.72760    2.54710    0.06550    0.32020    -999.25    -999.25   88.28950   10.65600   62.96320    -999.25
 3833.74280  -29.14720    7.24380    6.36690    7.44250   12.55840    0.05010   75.38700    2.52390    0.06030    0.33420    -999.25    -999.25   88.44450   10.67100   63.71550    -999.25
 3834.24280  -29.37510    7.03470    6.25240    7.70630   12.59140    0.03870   75.27300    2.51520    0.07480    0.34740    -999.25    -999.25   87.28270   10.67960   65.01120    -999.25
 3834.74280  -29.61600    6.83160    6.14000    7.35810   12.61500    0.04680   74.77470    2.51990    0.08980    0.35010    -999.25    -999.25   87.19070   10.64220   67.04490    -999.25
 3835.24280  -29.84550    6.63440    6.02970    6.90520   12.63890    0.04050   74.58720    2.50960    0.08200    0.34740    -999.25    -999.25   88.52600   10.60320   68.74490    -999.25
 3835.74280  -29.99230    6.44820    5.92140    6.67870   12.66870    0.04830   74.56730    2.51870    0.08350    0.34400    -999.25    -999.25   89.45060   10.63020   69.39500    -999.25
 3836.24280  -30.06410    6.31660    5.81520    6.61260   12.69920    0.07800   74.63360    2.55150    0.09270    0.34500    -999.25    -999.25   90.47430   10.68840   69.74970    -999.25
 3836.74280  -30.11270    6.23430    5.71070    6.63700   12.75370    0.08230   74.85980    2.55160    0.07290    0.35390    -999.25    -999.25   91.60110   10.74520   70.09280    -999.25
 3837.24280  -30.21030    6.15310    5.60830    6.69870   12.87500    0.07050   75.48940    2.52920    0.05780    0.36660    -999.25    -999.25   91.38370   10.76740   70.44550    -999.25
 3837.74280  -30.18650    6.07290    5.50810    6.58990   12.91910    0.07630   76.39290    2.52530    0.07250    0.37370    -999.25    -999.25   90.82700   10.80650   70.84560    -999.25
 3838.24280  -29.93930    5.99380    5.41480    6.19340   12.80480    0.06890   77.06870    2.52460    0.07680    0.36990    -999.25    -999.25   90.97420   10.77850   71.58510    -999.25
 3838.74280  -29.64600    5.91570    5.35230    5.85010   12.84620    0.06060   77.51990    2.52840    0.07770    0.36170    -999.25    -999.25   91.43100   10.75930   72.75550    -999.25
 3839.24280  -29.39290    5.85630    5.31560    5.80820   12.95920    0.06370   77.94550    2.53330    0.08430    0.35690    -999.25    -999.25   92.76660   10.84550   73.82390    -999.25
 3839.74280  -29.21750    5.81990    5.28030    6.06460   12.83930    0.05000   77.68310    2.51080    0.07410    0.35620    -999.25    -999.25   94.25490   10.84870   74.07600    -999.25
 3840.24280  -29.01780    5.78750    5.24570    6.33560   12.74320    0.04070   76.76450    2.47850    0.07420    0.35780    -999.25    -999.25   93.83620   10.90250   73.58150    -999.25
 3840.74280  -28.82290    5.76920    5.22420    6.28720   12.77200    0.04710   76.08450    2.47640    0.09400    0.36080    -999.25    -999.25   92.74020   11.10790   71.99740    -999.25
 3841.24280  -28.71860    5.76730    5.22070    6.03480   12.69620    0.05970   75.62900    2.48260    0.10690    0.36620    -999.25    -999.25   92.51360   11.09210   69.59760    -999.25
 3841.74280  -28.60630    5.76730    5.22900    5.87220   12.61190    0.07250   75.20910    2.46800    0.10720    0.37330    -999.25    -999.25   92.34370   11.09020   68.37040    -999.25
 3842.24280  -28.48630    5.76730    5.24740    5.87260   12.76960    0.07410   75.29920    2.45440    0.10910    0.38130    -999.25    -999.25   92.28820   11.26760   68.84290    -999.25
 3842.74280  -28.30060    5.76730    5.27410    5.92490   13.10690    0.07070   76.50600    2.45370    0.12270    0.38920    -999.25    -999.25   92.41810   11.07170   70.40800    -999.25
 3843.24280  -28.15690    5.79520    5.33030    6.15460   13.66350    0.08010   78.27510    2.46160    0.13060    0.39390    -999.25    -999.25   92.24770   10.84720   71.97020    -999.25
 3843.74280  -28.20710    5.85500    5.38600    6.56810   13.68810    0.08870   79.16130    2.47180    0.12450    0.39280    -999.25    -999.25   92.20380   10.93600   72.45550    -999.25
 3844.24280  -28.33550    5.91770    5.36130    6.80640   13.24220    0.08210   79.07650    2.46760    0.11460    0.38700    -999.25    -999.25   91.88710   11.06820   72.07090    -999.25
 3844.74280  -28.60940    5.98100    5.26930    6.57070   13.00280    0.06350   78.97210    2.44810    0.10730    0.37770    -999.25    -999.25   90.95940   11.05690   71.91790    -999.25
 3845.24280  -29.00880    6.04510    5.18800    6.05200   12.65020    0.04970   78.62650    2.43410    0.11380    0.36670    -999.25    -999.25   91.38490   11.02490   72.90600    -999.25
 3845.74280  -29.47660    6.08090    5.19600    5.75190   12.68600    0.04020   77.79450    2.41270    0.12750    0.35710    -999.25    -999.25   92.56830   11.07390   74.29500    -999.25
 3846.24280  -29.89590    6.05950    5.30690    5.80200   13.42000    0.05440   76.89960    2.39790    0.13590    0.35350    -999.25    -999.25   93.41860   11.12610   75.13750    -999.25
 3846.74280  -30.12590    5.95990    5.42740    6.18440   14.32780    0.09790   76.48460    2.39870    0.14980    0.36220    -999.25    -999.25   94.16970   11.08740   75.39970    -999.25
