~Version ---------------------------------------------------
VERS.      2.0 : CWLS log ASCII Standard -VERSION 2.0
WRAP.       NO : One line per depth step
CREA. 01/03/18 : LAS Creation Date
~Well ------------------------------------------------------
STRT.FT                               650.0 : START DEPTH
STOP.FT                              8300.0 : STOP DEPTH
STEP.FT                            50.00000 : STEP LENGTH
NULL.                               -999.25 : NULL VALUE
COMP.              HOME OIL COMPANY LIMITED : COMPANY
WELL. HOME FPC ET AL MORSE RIVER 10-15-66-9 : WELL
FLD .                                       : FIELD
LOC .                                       : LOCATION
CTRY.                                CANADA : COUNTRY
SRVC.                          Schlumberger : SERVICE COMPANY
DATE.                           24-Mar-1959 : LOGDATE
PROV.                               Alberta : PROVINCE
UWI .                      100101506609W500 : UNIQUE WELL ID
SLAT.WGS84                         54.71376 : SURFACE LATITUDE
SLON.WGS84                        -115.2703 : SURFACE LONGITUDE
~Curve Information -----------------------------------------
DEPT  .FT     : Depth Curve
CALWS .IN     : CALIPER [MCALED
CILDED.MMHO   : INDUCTION DEEP CONDUCTIVITY FROM IEL
CONDWS.MMHO   : CONDUCTIVITY [1000/DRESWS]
DRESWS.OHMM   : DEEP RESISTIVITY [IF ILDED < 2, THEN 1000/CILDED, ELSE ILDED]
GRED  .GAPI   : GAMMA RAY [DEPTH SHIFTED TO GNED]
GRNED .UR/HR  : GAMMA RAY FROM GRN LOG [DEPTH SHIFTED TO SNED]
GRWS  .GAPI   : GAMMA RAY [GRNED*10.4]
ILDED .OHMM   : INDUCTION DEEP RESISTIVITY FROM IEL
MCALED.IN     : CALIPER FROM MICROLOG [DEPTH SHIFTED TO SPRED]
NEUTED.CU     : NEUTRON FROM GRN LOG [DEPTH SHFITED TO SNED]
NEUTWS.CU     : NEUTRON [NEUTED]
SNED  .OHMM   : SHORT NORMAL RESISTIVITY FROM IEL
SPRED .MV     : SPONTANEOUS POTENTIAL FROM IEL
SPWS  .MV     : SPONTANEOUS POTENTIAL [SPRED BASELINE 0 MV. PARTIALLY REVERSED IN PORTION OF DEEPER SECTION]
SRESWS.OHMM   : SHALLOW RESISTIVITY [SNED]
~Params ----------------------------------------------------
LMF .                     KB : LOG MEASURED FROM
DMF .                     KB : DRILLING MEASURED FROM
EKB .FT                 3425 : KELLY BUSHING
EGL .FT                 3413 : GROUND LEVEL
DATE.               03/24/59 : RUN DATE
RUN .                      2 : RUN NUMBER
DD  .FT                 8331 : DEPTH DRILLER
DL  .FT                 8338 : DEPTH LOGGER
BLI .FT                 8332 : BOTTOM LOG INTERVAL
TLI .FT                 5499 : TOP LOG INTERVAL
BS  .IN                    9 : BIT SIZE
BSD .FT                 8331 : BIT SIZE AT DEPTH
DFT .                    GEL : DRILLING FLUID TYPE
DFD .                   10.5 : DRILLING FLUID DENSITY
DFV .                    135 : DRILLING FLUID VISCOSITY
DFPH.                     10 : DRILLING FLUID PH
DFL .                    4.6 : DRILLING FLUID LOSS
RMS .OHMM                2.8 : RESISTIVITY MUD SAMPLE
MST .DEGF                 66 : MUD SAMPLE TEMPERATURE
RMF .OHMM                1.6 : RESISTIVITY MUD FILTRATE SAMPLE
MFST.DEGF                 82 : MUD FILTRATE SAMPLE TEMPERATURE
RMC .OHMM                2.5 : RESISTIVITY MUD CAKE
MCST.DEGF                 82 : MUD CAKE SAMPLE TEMPERATURE
RMB .OHMM                1.2 : RESISTIVITY MUD AT BHT
TCS .HRS                   3 : TIME CIRCULATED STOPPED
LUN .                   2742 : LOGGING UNIT NUMBER
LUL .                     SH : LOGGING UNIT LOCATION
ENGI.                  GOETZ : RECORDING ENGINEER
WITN.                  BEARD : WITNESSED BY
CLNT.                A2DTECH : CLIENT CODE
ORIG.            1" 5" PRINT : ORIGIN OF DATA
UWI .       100101506609W500 : UNIQUE WELL ID
DICO. A2D Technologies, Inc. : DIGITIZING COMPANY
~Other -----------------------------------------------------
~ASCII -----------------------------------------------------
  650.00000    9.92640   99.05170  100.60460    9.93990    -999.25    -999.25    -999.25    9.93990    9.92640    -999.25    -999.25   11.53890  -86.86880  -16.73340   11.53890
  700.00000   11.55510  255.79000  251.97170    3.96870    -999.25    -999.25    -999.25    3.96870   11.55510    -999.25    -999.25    4.55630  -74.52770   -4.39230    4.55630
  750.00000   11.85140  179.26050  177.78410    5.62480    -999.25    -999.25    -999.25    5.62480   11.85140    -999.25    -999.25    6.31440  -78.58730   -8.65670    6.31440
  800.00000   11.06640  366.02560  365.36350    2.73700    -999.25    -999.25    -999.25    2.73700   11.06640    -999.25    -999.25    3.14260  -71.55490   -2.00360    3.14260
  850.00000   11.77720  408.20980  392.03390    2.55080    -999.25    -999.25    -999.25    2.55080   11.77720    -999.25    -999.25    2.94730  -70.99770   -1.82570    2.94730
  900.00000   11.21980  312.13230  312.69540    3.19800    -999.25    -999.25    -999.25    3.19800   11.21980    -999.25    -999.25    3.19620  -70.62910   -1.75080    3.19620
  950.00000   10.09550  149.91520  179.54290    5.56970    -999.25    -999.25    -999.25    5.56970   10.09550    -999.25    -999.25    5.83810  -76.47510   -7.84380    5.83810
 1000.00000   10.18330  309.63390  321.53310    3.11010    -999.25    -999.25    -999.25    3.11010   10.18330    -999.25    -999.25    3.61400  -71.08760   -2.70070    3.61400
 1050.00000   10.74370  275.06220  292.26090    3.42160    -999.25    -999.25    -999.25    3.42160   10.74370    -999.25    -999.25    3.67490  -71.43870   -3.29750    3.67490
 1100.00000   11.51310  410.11880  410.30690    2.43720    -999.25    -999.25    -999.25    2.43720   11.51310    -999.25    -999.25    2.69440  -70.90290   -3.00740    2.69440
 1150.00000   10.69260  301.32750  317.58130    3.14880    -999.25    -999.25    -999.25    3.14880   10.69260    -999.25    -999.25    3.42830  -71.96010   -4.31020    3.42830
 1200.00000   10.46070  189.42870  189.23270    5.28450    -999.25    -999.25    -999.25    5.28450   10.46070    -999.25    -999.25    4.89180  -72.98910   -5.58620    4.89180
 1250.00000    9.81940  264.08830  274.34840    3.64500    -999.25    -999.25    -999.25    3.64500    9.81940    -999.25    -999.25    3.91610  -69.64660   -2.48810    3.91610
 1300.00000   10.72670  299.23990  299.81410    3.33540    -999.25    -999.25    -999.25    3.33540   10.72670    -999.25    -999.25    3.46800  -69.53740   -2.62460    3.46800
 1350.00000   10.60590  352.78770  352.97020    2.83310    -999.25    -999.25    -999.25    2.83310   10.60590    -999.25    -999.25    2.63620  -69.23790   -2.57080    2.63620
 1400.00000    8.78960  124.42050  116.68070    8.57040    -999.25    -999.25    -999.25    8.57040    8.78960    -999.25    -999.25    9.53900  -88.53520  -22.11370    9.53900
 1450.00000   10.19260  249.40920  249.49480    4.00810    -999.25    -999.25    -999.25    4.00810   10.19260    -999.25    -999.25    3.69140  -69.27780   -3.10330    3.69140
 1500.00000    9.27240  226.14440  226.14200    4.42200    -999.25    -999.25    -999.25    4.42200    9.27240    -999.25    -999.25    5.54320  -77.55630  -11.62620    5.54320
 1550.00000    9.13730  160.34400  162.74450    6.14460    -999.25    -999.25    -999.25    6.14460    9.13730    -999.25    -999.25    7.19660  -86.55770  -20.87330    7.19660
 1600.00000    9.76700  200.63240  201.60480    4.96020    -999.25    -999.25    -999.25    4.96020    9.76700    -999.25    -999.25    4.39380  -69.21510   -3.77640    4.39380
 1650.00000    9.78070  171.99040  178.87170    5.59060    -999.25    -999.25    -999.25    5.59060    9.78070    -999.25    -999.25    5.23160  -70.80790   -5.61490    5.23160
 1700.00000    9.41250  159.13900  164.64290    6.07370    -999.25    -999.25    -999.25    6.07370    9.41250    -999.25    -999.25    7.09460  -79.05320  -14.10710    7.09460
 1750.00000    9.79310  266.42780  266.02820    3.75900    -999.25    -999.25    -999.25    3.75900    9.79310    -999.25    -999.25    3.61670  -67.99610   -3.29440    3.61670
 1800.00000    9.65220  324.58630  325.05530    3.07640    -999.25    -999.25    -999.25    3.07640    9.65220    -999.25    -999.25    3.25860  -67.04770   -2.59170    3.25860
 1850.00000    8.97400   46.36120   52.60970   19.00790    -999.25    -999.25    -999.25   19.00790    8.97400    -999.25    -999.25   20.60790  -74.67710  -10.46680   20.60790
 1900.00000    9.20370  149.69660  149.86890    6.67250    -999.25    -999.25    -999.25    6.67250    9.20370    -999.25    -999.25    6.67790  -75.38020  -11.41560    6.67790
 1950.00000    9.07570  159.61980  159.94370    6.25220    -999.25    -999.25    -999.25    6.25220    9.07570    -999.25    -999.25    6.49660  -80.35710  -16.63940    6.49660
 2000.00000    9.83030  291.27560  291.29040    3.43300    -999.25    -999.25    -999.25    3.43300    9.83030    -999.25    -999.25    3.91870  -66.30290   -2.82960    3.91870
 2050.00000   11.24780  260.65060  264.78840    3.77660    -999.25    -999.25    -999.25    3.77660   11.24780    -999.25    -999.25    3.98800  -67.02800   -3.80040    3.98800
 2100.00000   10.35230  242.03540  242.13660    4.12990    -999.25    -999.25    -999.25    4.12990   10.35230    -999.25    -999.25    4.42630  -65.78300   -2.80110    4.42630
 2150.00000   10.52400  234.40200  243.90240    4.10000    -999.25    -999.25    -999.25    4.10000   10.52400    -999.25    -999.25    4.38480  -65.42640   -2.69020    4.38480
 2200.00000    9.50100  322.30140  322.24800    3.10320    -999.25    -999.25    -999.25    3.10320    9.50100    -999.25    -999.25    3.72410  -64.05150   -1.56220    3.72420
 2250.00000    8.80120  196.48540  198.12570    5.04730    -999.25    -999.25    -999.25    5.04730    8.80120    -999.25    -999.25    6.64970  -90.25290  -27.38310    6.64970
 2300.00000   10.38460  311.61350  315.02020    3.17440    -999.25    -999.25    -999.25    3.17440   10.38460    -999.25    -999.25    3.40290  -65.07860   -1.65330    3.40290
 2350.00000    9.12180   67.80410   74.72170   13.38300    -999.25    -999.25    -999.25   13.38300    9.12180    -999.25    -999.25   16.41550  -78.63420  -15.34150   16.41550
 2400.00000    9.52970  279.47620  279.48570    3.57800    -999.25    -999.25    -999.25    3.57800    9.52970    -999.25    -999.25    3.78310  -67.09540   -4.10740    3.78310
 2450.00000    9.64630  297.85020  298.16920    3.35380    -999.25    -999.25    -999.25    3.35380    9.64630    -999.25    -999.25    3.62990  -65.62350   -2.94170    3.62990
 2500.00000    9.72350  259.22210  261.21250    3.82830    -999.25    -999.25    -999.25    3.82830    9.72350    -999.25    -999.25    4.42710  -63.43400   -0.99750    4.42710
 2550.00000   10.81490  236.22460  241.35350    4.14330    -999.25    -999.25    -999.25    4.14330   10.81490    -999.25    -999.25    4.67970  -68.54540   -6.10890    4.67970
 2600.00000   10.80050  201.88290  201.86520    4.95380    -999.25    -999.25    -999.25    4.95380   10.80050    -999.25    -999.25    5.39510  -71.71420   -9.27770    5.39510
 2650.00000   10.41270  195.36650  203.72820    4.90850    -999.25    -999.25    -999.25    4.90850   10.41270    -999.25    -999.25    5.85370  -76.03620  -13.59970    5.85370
 2700.00000    9.78890  239.97380  249.45740    4.00870    -999.25    -999.25    -999.25    4.00870    9.78890    -999.25    -999.25    4.77580  -73.35120  -10.91470    4.77570
 2750.00000   10.20630  166.81770  165.77700    6.03220    -999.25    -999.25    -999.25    6.03220   10.20630    -999.25    -999.25    7.81820  -71.33600   -7.95260    7.81820
 2800.00000   10.70580  208.62840  217.00450    4.60820    -999.25    -999.25    -999.25    4.60820   10.70580    -999.25    -999.25    5.72250  -72.59020   -7.14820    5.72250
 2850.00000   11.88690  197.67860  206.88510    4.83360    -999.25    -999.25    -999.25    4.83360   11.88690    -999.25    -999.25    5.66680  -75.51900   -8.01850    5.66680
 2900.00000   10.64500  120.24320  120.67090    8.28700    -999.25    -999.25    -999.25    8.28700   10.64500    -999.25    -999.25   10.71330  -87.51690  -17.95790   10.71330
