~Version ---------------------------------------------------
VERS. 2.0 : CWLS log ASCII Standard -VERSION 2.0
WRAP.  NO : ONE LINE PER DEPTH STEP
~Well ------------------------------------------------------
STRT.F                                        1500.0 : START DEPTH
STOP.F                                       11100.0 : STOP DEPTH
STEP.F                                      50.00000 : STEP LENGTH
NULL.                                        -999.25 : NULL VALUE
COMP. GREAT PLAINS DEVELOPMENT COMPANY OF CANADA LTD : COMPANY
WELL.                 GPD ET AL ROSEVEAR 10-14-54-16 : WELL
FLD .                                                : FIELD
LOC .                                                : LOCATION
CTRY.                                         CANADA : COUNTRY
SRVC.                                   Schlumberger : SERVICE COMPANY
DATE.                                    01-Feb-1978 : LOGDATE
PROV.                                        Alberta : PROVINCE
UWI .                               100101405416W500 : UNIQUE WELL ID
SLAT.WGS84                                  53.66484 : SURFACE LATITUDE
SLON.WGS84                                 -116.2439 : SURFACE LONGITUDE
~Curve Information -----------------------------------------
DEPT   .F     : 
GRS    .GAPI  : GAMMA RAY FROM SONIC LOG
DT     .US/F  : DELTA TIME
CALS   .IN    : CALIPER FROM SONIC LOG
LLD    .OHMM  : LATEROLOG DEEP RESISTIVITY
LLS    .OHMM  : LATEROLOG SHALLOW
SPR    .MV    : SPONTANEOUS POTENTIAL FROM RESISTIVITY LOG
GRD    .GAPI  : GAMMA RAY FROM DENSITY LOG
DRHO   .G/C3  : DENSITY CORRECTION
RHOB   .G/C3  : BULK DENSITY
CALD   .IN    : CALIPER FROM DENSITY LOG
NPOR_SS.DEC   : NEUTRON POROSITY  SANDSTONE
DPHI_SS.DEC   : DENSITY POROSITY SANDSTONE
NPHI_LS.DEC   : NEUTRON POROSITY LIMESTONE
DPHI_LS.DEC   : DENSITY POROSITY LIMESTONE
~Params ----------------------------------------------------
PD  .                     GL : PERMANENT DATUM
EPD .FT                 2743 : ELEVATION PERMANENT DATUM
LMF .                     KB : LOG MEASURED FROM
DAPD.FT                 21.4 : FEET ABOVE PERMANENT DATUM
EKB .FT               2764.4 : KELLY BUSHING
EGL .FT                 2743 : GROUND LEVEL
DATE.               02/01/78 : RUN DATE
RUN .                      1 : RUN NUMBER
DD  .FT                11140 : DEPTH DRILLER
DL  .FT                11134 : DEPTH LOGGER
BLI .FT                11133 : BOTTOM LOG INTERVAL
TLI .FT                 1512 : TOP LOG INTERVAL
CBD .FT                 1512 : CASING BOTTOM DRILLER
CBL .FT                 1512 : CASING BOTTOM LOGGER
BS  .IN                 8.75 : BIT SIZE
BSD .FT                11140 : BIT SIZE AT DEPTH
DFT .            KCL POLYMER : DRILLING FLUID TYPE
DFD .                    9.4 : DRILLING FLUID DENSITY
DFV .                     45 : DRILLING FLUID VISCOSITY
DFPH.                    9.5 : DRILLING FLUID PH
DFL .                     16 : DRILLING FLUID LOSS
RMS .OHMM              0.205 : RESISTIVITY MUD SAMPLE
MST .DEGF                 39 : MUD SAMPLE TEMPERATURE
RMF .OHMM              0.163 : RESISTIVITY MUD FILTRATE SAMPLE
MFST.DEGF                 38 : MUD FILTRATE SAMPLE TEMPERATURE
RMC .OHMM              0.032 : RESISTIVITY MUD CAKE
MCST.DEGF                118 : MUD CAKE SAMPLE TEMPERATURE
RMB .OHMM              0.032 : RESISTIVITY MUD AT BHT
TCS .HRS                   7 : TIME CIRCULATED STOPPED
LUN .                   7772 : LOGGING UNIT NUMBER
LUL .                    EDM : LOGGING UNIT LOCATION
ENGI.                BODYMAN : RECORDING ENGINEER
WITN.                  BATES : WITNESSED BY
CLNT.                A2DTECH : CLIENT CODE
ORIG.               5" PRINT : ORIGIN OF DATA
UWI .       100101405416W500 : UNIQUE WELL ID
DICO. A2D Technologies, Inc. : DIGITIZING COMPANY
~Other -----------------------------------------------------
~ASCII -----------------------------------------------------
# ...
 6400.00000   87.19850   88.40860   11.55320    4.42140    4.54670  -28.18330   98.31200    0.18660    1.96220    -999.25    0.51400    0.37250    -999.25    -999.25
 6450.00000  117.51960   84.55010   10.39350    8.29340    9.64940  -35.16400  116.26090    0.21770    2.26650   12.52850    0.32450    0.22980    -999.25    -999.25
 6500.00000   58.03180   68.90950    9.48360   30.80360   32.56520  -35.04770   62.44730    -999.25    2.55190   10.71720    0.12370    0.10540    -999.25    -999.25
 6550.00000   85.13690   90.12800   12.67960    2.63440    2.37980  -29.04880   99.09360    0.06990    1.79440   15.00260    0.39370    0.44950    -999.25    -999.25
 6600.00000  102.96770   76.71190    9.86480   18.64650   20.62060  -35.83230   96.58500    0.02070    2.59910   10.11990    0.34930    0.06330    -999.25    -999.25
 6650.00000   74.84230   70.47450    9.85180   22.69200   21.28660  -37.08870   75.16210    0.03950    2.63920   10.52320    0.21840   -0.02560    -999.25    -999.25
 6700.00000   70.22130   64.93620   10.41270   33.30950   25.64860  -39.52960   70.77670    0.06580    2.70560   11.17330    0.18260   -0.04930    -999.25    -999.25
 6750.00000   69.98860  111.88240   10.61680   40.12170   28.78610  -37.73390   63.97630    0.03640    1.59170   11.83790    0.43900    0.45110    -999.25    -999.25
 6800.00000  101.73380   72.10370   10.22710   18.13530   16.25300  -37.77960  102.49990    0.06310    2.65980   10.44030    0.25270   -0.02440    -999.25    -999.25
 6850.00000   54.42390   46.40620    9.40300  181.78260  177.21000  -37.44950   54.10720    0.01940    2.69780    9.81030    0.06110   -0.02080    -999.25    -999.25
 6900.00000   51.83800   68.06590   10.05120   13.41720   12.09420  -30.94140   51.64130    0.04350    2.57830   10.65030    0.19120    0.01930    -999.25    -999.25
 6950.00000   90.49850   78.71140   10.78380   26.64540   19.49710  -33.92620   90.85590    0.15810    2.57580   11.65470    0.29620    0.07250    -999.25    -999.25
 7000.00000   43.62960  119.35570   10.87840   93.49210   98.29950  -34.38630   36.50520    0.07370    1.60070   10.69300    0.62960    -999.25    -999.25    -999.25
 7050.00000  100.12670   75.31590    9.60780   27.91980   30.65320  -32.55620   98.65930    0.02870    2.58810    9.94840    0.26940    0.00880    -999.25    -999.25
 7100.00000   91.07740   70.41180   10.35980   16.79190   18.24040  -32.57270   95.40540    0.02880    2.66590   10.58520    0.23370    0.00280    -999.25    -999.25
 7150.00000   85.60670   71.97610   10.23550   15.67570   17.22690  -32.50990   91.99070    0.03950    2.64450   10.38770    0.24770    0.00140    -999.25    -999.25
 7200.00000   66.15060   69.47250   10.23160   21.61110   26.26730  -35.90140   93.61830    0.24000    2.72670   11.49210    0.19140   -0.01220    -999.25    -999.25
 7250.00000   50.07320   71.18670   10.28540   13.36000   11.64880  -31.51970   43.56310    0.08320    2.52450   11.40080    0.12900    0.05980    -999.25    -999.25
 7300.00000   36.38970   68.52090   10.24580   61.14960   29.50210  -29.61960   38.15040    0.22810    2.24370   14.06880    0.09360    0.21210    -999.25    -999.25
 7350.00000  107.04730   78.39160   10.60980   24.24170   22.55060  -35.63650  111.25550    0.16900    2.49060   12.73430    0.29610    0.10460    -999.25    -999.25
 7400.00000  107.38330   79.60780   10.97890    8.69260    9.41150  -29.09100   74.21070    0.24870    2.34320   13.70180    0.32030    0.14800    -999.25    -999.25
 7450.00000  109.09670   70.66060   10.55290   17.35830   19.35940  -35.57000  116.79070    0.04080    2.66560   11.40840    0.23770    0.00300    -999.25    -999.25
 7500.00000   31.61640   51.76670    9.47500  448.16260  259.78090  -41.40270   25.73810    0.00470    2.72180    9.26220    0.04910   -0.01820    -999.25    -999.25
 7550.00000   59.84050   61.28880   10.46040   41.05720   29.03700  -32.30850   58.76680    0.02070    2.60160   11.05260    -999.25    -999.25    0.09090    0.04570
 7600.00000   38.63040   55.55430    8.85350 1956.87270  707.14940  -35.88260   35.04010    0.01140    2.63150    9.07860    -999.25    -999.25    0.02030    0.00770
 7650.00000   32.31690   53.71600    8.97600 17235.84380 1157.59630  -38.72630   32.05640    0.06390    2.70750    9.13050    -999.25    -999.25    0.02800    0.05480
 7700.00000   54.10410   56.55590    9.58100   43.26430   29.46740  -28.78060   65.33320    0.01370    2.60660    9.16950    -999.25    -999.25    0.05370    0.03830
 7750.00000   45.77960   50.66920   10.18560   74.15240   55.52480  -33.46960   42.79960    0.15870    2.51210   12.57290    -999.25    -999.25    0.07750    0.02760
 7800.00000   42.51960   51.81200    9.57940   68.99060   51.03890  -84.61690   39.57840    0.24940    2.56220   12.38090    -999.25    -999.25    0.05720    0.00370
 7850.00000   15.86350   49.68830   10.63170 37795.39060  214.72210  -76.73140   14.32450    0.03960    2.95410   10.83610    -999.25    -999.25   -0.00850   -0.15550
 7900.00000   25.20160   45.14250    9.36950 1500.96610  481.30140  -86.28400   27.27210    0.01980    2.85960    9.66350    -999.25    -999.25    0.01430   -0.08520
 7950.00000   24.73680   50.51940    9.84160  146.30530  126.24250  -88.04730   26.37620    0.19500    2.22830   12.23020    -999.25    -999.25    0.10600    0.25460
 8000.00000   63.75000   55.55810    9.02200   17.42440   18.78050  -77.21620   91.34470    0.02480    2.75440    9.28440    -999.25    -999.25    0.10000   -0.05270
 8050.00000   82.93730   61.21680    9.01540    9.98730   11.89470  -77.65280   71.71370    0.07290    2.71040    9.11110    -999.25    -999.25    0.16170   -0.00830
 8100.00000   62.98020   54.55070    9.01560   47.84540   55.56110  -78.95010   53.04410    0.01680    2.74230    9.29170    -999.25    -999.25    0.07000    0.00580
 8150.00000   51.78850   53.40530    9.55510  100.22180   62.88290  -79.18050   60.42020    0.02050    2.72180    9.76250    -999.25    -999.25    0.04350   -0.01020
 8200.00000   25.02020   51.37980    9.68190   94.12540  100.42720  -75.99270   27.57780   -0.00850    2.71910    9.86240    -999.25    -999.25    0.01730   -0.03130
 8250.00000   39.59270   52.71190    8.97290   96.06140  107.78610  -79.51010   35.84280    0.05500    2.77170    9.25250    -999.25    -999.25    0.03420   -0.02630
 8300.00000   40.05210   55.53090    9.05380   50.17830   63.36170  -78.43220   40.90330    0.05250    2.78060    9.25080    -999.25    -999.25    0.04670   -0.03150
 8350.00000   39.99820   51.65440    8.90890  314.28340  297.80830  -78.56500   32.72430    0.01540    2.75710    9.03570    -999.25    -999.25    0.02300   -0.01990
 8400.00000   42.43100   53.25180    8.88240  172.73190  180.92140  -80.43140   36.45450    0.01660    2.69990    9.09760    -999.25    -999.25    0.02560    0.01530
 8450.00000   59.93690   58.11220    8.79050   92.31110   84.58750  -77.82840   65.34230    0.00740    2.70970    9.05590    -999.25    -999.25    0.05570    0.00440
 8500.00000   26.86780   50.19330    8.73880  481.95610  355.82080  -72.55340   39.10960    0.00790    2.73210    9.05890    -999.25    -999.25    0.01010   -0.01330
 8550.00000   48.06560   50.61650    9.12280  699.53400  412.42550  -82.45280   29.83260    0.24840    2.69660   10.52310    -999.25    -999.25    0.00730   -0.00350
 8600.00000   23.36620   48.19590    9.15830  480.59650  402.25440  -79.74130   21.91860    0.12810    2.80150    9.78130    -999.25    -999.25    0.00670   -0.00630
 8650.00000   23.82940   49.66820    9.52030 1806.34580  786.90830  -77.84730   20.28100    0.21230    2.61380   12.36750    -999.25    -999.25   -0.00380    0.03990
 8700.00000   18.98070   49.55150    9.65550 3806.38130  423.88220  -73.90730   19.23170    0.14970    2.57410   14.38270    -999.25    -999.25    0.00780    0.08130
 8750.00000   16.48620   48.78630    9.37850  857.35240  217.72900  -74.65170   24.07860    0.24730    2.56810   13.09440    -999.25    -999.25   -0.00010    0.08550
 8800.00000   23.37470   48.53640    9.51340 10393.30470  260.01120  -75.98020   23.14310    0.24320    2.25460   15.00310    -999.25    -999.25    0.02640    0.24400
