~Version ---------------------------------------------------
VERS.      2.0 : CWLS log ASCII Standard -VERSION 2.0
WRAP.       NO : One line per depth step
CREA. 11/22/17 : LAS Creation Date
~Well ------------------------------------------------------
STRT.FT                       1500.0 : START DEPTH
STOP.FT                      10400.0 : STOP DEPTH
STEP.FT                     50.00000 : STEP LENGTH
NULL.                        -999.25 : NULL VALUE
COMP.   MERLAND EXPLORATIONS LIMITED : COMPANY
WELL. MERLAND ET AL GIROUXLUX 10-11- : WELL
FLD .                                : FIELD
LOC .                                : LOCATION
CTRY.                         CANADA : COUNTRY
SRVC.                        Unknown : SERVICE COMPANY
DATE.                    26-Feb-1978 : LOGDATE
PROV.                        Alberta : PROVINCE
UWI .               100101106622W500 : UNIQUE WELL ID
SLAT.WGS84                  54.70081 : SURFACE LATITUDE
SLON.WGS84                 -117.2093 : SURFACE LONGITUDE
~Curve Information -----------------------------------------
DEPT    .FT    : Depth Curve
CALDED  .IN    : CALIPER FROM DENSITY LOG [ADJ. TO RESISTIVITY LOG]
CALSED  .IN    : CALIPER FROM SONIC LOG [ADJ. TO RESISTIVITY LOG]
CALWS   .IN    : CALIPER [CALDED SPL. TO CALSED @ 8272']
CONDWS  .MMHO  : CONDUCTIVITY [1000/DRESWS]
DCORED  .G/C3  : DENSITY CORRECTION FROM DENSITY LOG [ADJ. TO RESISTIVITY LOG]SMALL SCALE
DCORWS  .G/C3  : DENSITY CORRECTION [DCORED]
DENWS   .G/C3  : FORMATION BULK DENSITY [CALC FROM DPOLSWS, M=2.71, F=1.0]
DPHILSED.V/V   : DENSITY POROSITY LIMESTONE [M=2.71,F=1.0] FROM DENSITY LOG [ADJ. TO RESISTIVITY LOG]
DPHISSED.V/V   : DENSITY POROSITY SANDSTONE [M=2.65,F=1.0] FROM DENSITY LOG [ADJ. TO RESISTIVITY LOG]
DPOLSWS .V/V   : DENSITY POROSITY LIMESTONE [DPHISSED CONVERTED TO LIMESTONE MATRIX, M=2.71, F=1.00 SPL.TO DPHILSED @ 5906']
DRESWS  .OHMM  : DEEP RESISTIVITY [ILDED]
DTED    .US/F  : DELTA-T FROM SONIC LOG [ADJ. TO RESISTIVITY LOG]
DTWS    .US/F  : COMPRESSIONAL SONIC [DTED]
GRDED   .GAPI  : GAMMA RAY FROM DENSITY LOG [ADJ. TO RESISTIVITY LOG]
GRSED   .GAPI  : GAMMA RAY FROM SONIC LOG [ADJ. TO RESISTIVITY LOG]
GRWS    .GAPI  : GAMMA RAY [GRDED SPL. TO GRSED @ 8262.5']
ILDED   .OHMM  : DEEP INDUCTION RESISTIVITY FROM RESISTIVITY LOG
ILMED   .OHMM  : MEDIUM INDUCTION RESISTIVITY FROM RESISTIVITY LOG
LL8ED   .OHMM  : LATEROLOG 8 FROM RESISTIVITY LOG
MRESWS  .OHMM  : MEDIUM RESISTIVITY [ILMED]
NPHILSED.V/V   : NEUTRON POROSITY LIMESTONE FROM DENSITY LOG [ADJ. TO RESISTIVITY LOG]
NPHISSED.V/V   : NEUTRON POROSITY SANDSTONE FROM DENSITY LOG [ADJ. TO RESISTIVITY LOG]
NPOLSWS .V/V   : NEUTRON POROSITY LIMESTONE [NPHISSED MATRIX (SLB) CONVERSION FOR LIMESTONE, SPL.TO NPHILSED @ 5914']
RHOBED  .G/C3  : BULK DENSITY FROM DENSITY LOG [ADJ. TO RESISTIVITY LOG] SMALL SCALE
SPRED   .MV    : SPONTANEOUS POTENTIAL FROM RESISTIVITY LOG
SPWS    .MV    : SPONTANEOUS POTENTIAL [BASELINE 0 MV, SPRED]
SRESWS  .OHMM  : SHALLOW RESISTIVITY [LL8ED]
~Params ----------------------------------------------------
PD  .                     GL : PERMANENT DATUM
EPD .FT                 2391 : ELEVATION PERMANENT DATUM
LMF .                     KB : LOG MEASURED FROM
DAPD.FT                   16 : FEET ABOVE PERMANENT DATUM
DMF .                     KB : DRILLING MEASURED FROM
EKB .FT                 2407 : KELLY BUSHING
EGL .FT                 2391 : GROUND LEVEL
DATE.               02/26/78 : RUN DATE
RUN .                      2 : RUN NUMBER
DD  .FT                10409 : DEPTH DRILLER
DL  .FT                10410 : DEPTH LOGGER
BLI .FT                10404 : BOTTOM LOG INTERVAL
TLI .FT                 8200 : TOP LOG INTERVAL
CBD .FT                 1515 : CASING BOTTOM DRILLER
CBL .FT                 1514 : CASING BOTTOM LOGGER
BS  .IN                 8.75 : BIT SIZE
BSD .FT                10409 : BIT SIZE AT DEPTH
DFT .               GEL CHEM : DRILLING FLUID TYPE
DFD .                    9.3 : DRILLING FLUID DENSITY
DFV .                     75 : DRILLING FLUID VISCOSITY
DFPH.                    9.5 : DRILLING FLUID PH
DFL .                    9.2 : DRILLING FLUID LOSS
MSS .               FLOWLINE : MUD SAMPLE SOURCE
RMS .OHMM               2.47 : RESISTIVITY MUD SAMPLE
MST .DEGF                 51 : MUD SAMPLE TEMPERATURE
RMF .OHMM               3.21 : RESISTIVITY MUD FILTRATE SAMPLE
MFST.DEGF                 60 : MUD FILTRATE SAMPLE TEMPERATURE
RMB .OHMM               1.02 : RESISTIVITY MUD AT BHT
TCS .HRS                 3.5 : TIME CIRCULATED STOPPED
LUN .                   7730 : LOGGING UNIT NUMBER
LUL .                    EDM : LOGGING UNIT LOCATION
ENGI.               ACKERMAN : RECORDING ENGINEER
WITN.                  GAWNE : WITNESSED BY
CLNT.                A2DTECH : CLIENT CODE
ORIG.            2" 5" PRINT : ORIGIN OF DATA
UWI .       100101106622W500 : UNIQUE WELL ID
DICO. A2D Technologies, Inc. : DIGITIZING COMPANY
~Other -----------------------------------------------------
~ASCII -----------------------------------------------------
# ...
 9300.00000    -999.25   11.90770   11.90770  247.77620    -999.25    -999.25    -999.25    -999.25    -999.25    -999.25    4.03590   75.94380   75.94380    -999.25   88.40400   88.40400    4.03590    3.46180    5.38510    3.46180    -999.25    -999.25    -999.25    -999.25    9.86030  -43.93650    5.38510
 9350.00000    -999.25   11.55860   11.55860  275.87700    -999.25    -999.25    -999.25    -999.25    -999.25    -999.25    3.62500   78.88830   78.88830    -999.25   95.44040   95.44040    3.62500    3.06000    4.84750    3.06000    -999.25    -999.25    -999.25    -999.25   -6.02590  -58.61660    4.84750
 9400.00000    -999.25    9.32240    9.32240   92.43850    -999.25    -999.25    -999.25    -999.25    -999.25    -999.25   10.81800   62.27140   62.27140    -999.25   84.43710   84.43710   10.81800   11.19090   14.47250   11.19090    -999.25    -999.25    -999.25    -999.25   23.31490  -28.08150   14.47250
 9450.00000    -999.25    9.00120    9.00120  101.17820    -999.25    -999.25    -999.25    -999.25    -999.25    -999.25    9.88390   64.08330   64.08330    -999.25   95.35710   95.35710    9.88390   10.45340   14.61770   10.45340    -999.25    -999.25    -999.25    -999.25   17.28020  -32.91000   14.61770
 9500.00000    -999.25    8.99230    8.99230  113.24130    -999.25    -999.25    -999.25    -999.25    -999.25    -999.25    8.83070   65.68750   65.68750    -999.25  106.39180  106.39180    8.83070    9.13690   12.60690    9.13690    -999.25    -999.25    -999.25    -999.25   23.40920  -25.58690   12.60690
 9550.00000    -999.25    9.29410    9.29410  118.63940    -999.25    -999.25    -999.25    -999.25    -999.25    -999.25    8.42890   66.75620   66.75620    -999.25  104.79600  104.79600    8.42890    8.72370   12.00530    8.72370    -999.25    -999.25    -999.25    -999.25   37.24970  -10.54620   12.00530
 9600.00000    -999.25    9.24930    9.24930  128.19010    -999.25    -999.25    -999.25    -999.25    -999.25    -999.25    7.80120   68.48480   68.48480    -999.25   96.88140   96.88140    7.80120    8.46540   11.32560    8.46540    -999.25    -999.25    -999.25    -999.25   34.73880  -11.85090   11.32560
 9650.00000    -999.25    9.27720    9.27720  135.38030    -999.25    -999.25    -999.25    -999.25    -999.25    -999.25    7.38660   67.07190   67.07190    -999.25   97.68500   97.68500    7.38660    7.67160   10.90730    7.67160    -999.25    -999.25    -999.25    -999.25   43.90020   -1.49530   10.90730
 9700.00000    -999.25    9.10790    9.10790  174.14100    -999.25    -999.25    -999.25    -999.25    -999.25    -999.25    5.74250   70.31280   70.31280    -999.25  104.27940  104.27940    5.74250    5.93820    8.46020    5.93820    -999.25    -999.25    -999.25    -999.25   34.09230  -10.37350    8.46020
 9750.00000    -999.25    9.23870    9.23870  198.79930    -999.25    -999.25    -999.25    -999.25    -999.25    -999.25    5.03020   76.46650   76.46650    -999.25  128.20820  128.20820    5.03020    5.38190    8.85670    5.38190    -999.25    -999.25    -999.25    -999.25   13.31700  -30.72910    8.85670
 9800.00000    -999.25    8.78250    8.78250  114.60790    -999.25    -999.25    -999.25    -999.25    -999.25    -999.25    8.72540   64.56920   64.56920    -999.25   83.38040   83.38040    8.72540    9.02190   13.07110    9.02190    -999.25    -999.25    -999.25    -999.25   10.14190  -33.48250   13.07110
 9850.00000    -999.25    8.75970    8.75970   26.03670    -999.25    -999.25    -999.25    -999.25    -999.25    -999.25   38.41540   71.25170   71.25170    -999.25  167.00000  167.00000   38.41540   33.24490   40.60080   33.24490    -999.25    -999.25    -999.25    -999.25  -60.81200 -104.01260   40.60080
 9900.00000    -999.25    8.92020    8.92020   61.66290    -999.25    -999.25    -999.25    -999.25    -999.25    -999.25   16.21720   60.07810   60.07810    -999.25   66.55950   66.55950   16.21720   16.76800   22.14270   16.76800    -999.25    -999.25    -999.25    -999.25 -145.77120 -188.55220   22.14270
 9950.00000    -999.25    9.17220    9.17220   48.99200    -999.25    -999.25    -999.25    -999.25    -999.25    -999.25   20.43080   81.05420   81.05420    -999.25  154.45010  154.45010   20.43080   22.80920   34.63390   22.80920    -999.25    -999.25    -999.25    -999.25 -176.34720 -218.70430   34.63390
 10000.00000    -999.25    8.93420    8.93420   45.88080    -999.25    -999.25    -999.25    -999.25    -999.25    -999.25   21.79560   55.65360   55.65360    -999.25   44.89570   44.89570   21.79560   25.07360   50.89880   25.07360    -999.25    -999.25    -999.25    -999.25 -101.75400 -143.69160   50.89880
 10050.00000    -999.25    9.05480    9.05480   34.25070    -999.25    -999.25    -999.25    -999.25    -999.25    -999.25   29.19650   55.59460   55.59460    -999.25   40.33250   40.33250   29.19650   30.47650   35.70010   30.47650    -999.25    -999.25    -999.25    -999.25  -69.15200 -110.66790   35.70010
 10100.00000    -999.25    8.98270    8.98270   19.84440    -999.25    -999.25    -999.25    -999.25    -999.25    -999.25   50.51760   51.09470   51.09470    -999.25   31.90770   31.90770   50.51760   58.30540  128.81440   58.30540    -999.25    -999.25    -999.25    -999.25  -88.82230 -129.91440  128.81440
 10150.00000    -999.25    8.78810    8.78810    9.68830    -999.25    -999.25    -999.25    -999.25    -999.25    -999.25  103.21710   50.06790   50.06790    -999.25   26.12010   26.12010  103.21710  125.35300  184.00450  125.35300    -999.25    -999.25    -999.25    -999.25  -73.25890 -113.93140  184.00450
 10200.00000    -999.25    8.78730    8.78730   17.61260    -999.25    -999.25    -999.25    -999.25    -999.25    -999.25   56.92710   54.25660   54.25660    -999.25   46.63120   46.63120   56.92710   47.66490   63.20270   47.66490    -999.25    -999.25    -999.25    -999.25  -39.94010  -80.18870   63.20270
 10250.00000    -999.25    8.75200    8.75200    3.85990    -999.25    -999.25    -999.25    -999.25    -999.25    -999.25  259.07080   50.41760   50.41760    -999.25   27.40490   27.40490  259.07080  349.19800  899.99550  349.19800    -999.25    -999.25    -999.25    -999.25  -17.90440  -57.73340  899.99550
 10300.00000    -999.25    8.81820    8.81820   20.46040    -999.25    -999.25    -999.25    -999.25    -999.25    -999.25   48.87490   52.29780   52.29780    -999.25   69.50390   69.50390   48.87490   65.09500  250.85150   65.09500    -999.25    -999.25    -999.25    -999.25   36.52670   -2.88060  250.85150
 10350.00000    -999.25    8.04810    8.04810 1376.21190    -999.25    -999.25    -999.25    -999.25    -999.25    -999.25    0.72670   65.81980   65.81980    -999.25   70.89120   70.89120    0.72670    0.84190    3.61820    0.84190    -999.25    -999.25    -999.25    -999.25 -102.85020 -142.14790    3.61820
 10400.00000    -999.25    8.58750    8.58750    -999.25    -999.25    -999.25    -999.25    -999.25    -999.25    -999.25    -999.25    -999.25    -999.25    -999.25    -999.25    -999.25    -999.25   41.07260  125.78520   41.07260    -999.25    -999.25    -999.25    -999.25  -24.52770  -63.82540  125.78520
