~Version ---------------------------------------------------
VERS.      2.0 : CWLS log ASCII Standard -VERSION 2.0
WRAP.       NO : One line per depth step
CREA. 12/12/17 : LAS Creation Date
~Well ------------------------------------------------------
STRT.FT                        1050.0 : START DEPTH
STOP.FT                       10050.0 : STOP DEPTH
STEP.FT                      50.00000 : STEP LENGTH
NULL.                         -999.25 : NULL VALUE
COMP.        SKELLY OIL OF CANADA LTD : COMPANY
WELL. SKELLY A3 TWO CREEK 10-17-62-16 : WELL
FLD .                                 : FIELD
LOC .                                 : LOCATION
CTRY.                          CANADA : COUNTRY
SRVC.                         Unknown : SERVICE COMPANY
DATE.                     26-Aug-1976 : LOGDATE
PROV.                         Alberta : PROVINCE
UWI .                100101706216W500 : UNIQUE WELL ID
SLAT.WGS84                   54.36596 : SURFACE LATITUDE
SLON.WGS84                   -116.357 : SURFACE LONGITUDE
~Curve Information -----------------------------------------
DEPT    .FT    : Depth Curve
CALDED  .IN    : CALIPER FROM DENSITY LOG [ADJ. TO RESISTIVITY LOG]
CALSED  .IN    : CALIPER FROM SONIC LOG [ADJ. TO RESISTIVITY LOG]
CALWS   .IN    : CALIPER [CALSED SPL. TO CALDED @ 10018']
CILDED  .MMHO  : CONDUCTIVITY FROM RESISTIVITY LOG
CONDWS  .MMHO  : CONDUCTIVITY [1000/DRESWS]
DCORWS  .G/C3  : DENSITY CORRECTION [DRHOED]
DENWS   .G/C3  : FORMATION BULK DENSITY [RHOBED]
DPHILSED.V/V   : DENSITY POROSITY LIMESTONE [MATRIX ASSUMED, M=2.71, F=1.00] FROM DENSITY  [ADJ. TO RESISTIVITY LOG]
DPHISSED.V/V   : DENSITY POROSITY SANDSTONE [MATRIX ASSUMED, M=2.65, F=1.00] FROM DENSITY LOG [ADJ. TO RESISTIVITY LOG]
DPOLSWS .V/V   : DENSITY POROSITY LIMESTONE [CALC. FROM DENWS, M=2.71, F=1.00]
DRESWS  .OHMM  : DEEP RESUISTIVITY [1000/CILDED IF ILDED < 1, ILDED & SPL. TO ILDED @ 3970']
DRHOED  .G/C3  : DENSITY CORRECTION  FROM DENSITY LOG [ADJ. TO RESISTIVITY LOG]
DTED    .US/F  : DELTA-TIME FROM SONIC LOG [ADJ. TO RESISTIVITY LOG]
DTWS    .US/F  : COMPRESSIONAL SONIC [DTED]
GRDED   .GAPI  : GAMMA RAY FROM DENSITY LOG [ADJ. TO RESISTIVITY LOG]
GRSED   .GAPI  : GAMMA RAY FROM SONIC LOG [ADJ. TO RESISTIVITY LOG]
GRWS    .GAPI  : GAMMA RAY [GRSED SPL. TO GRDED @ 10023']
ILDED   .OHMM  : DEEP INDUCTION RESISTIVITY FROM RESISTIVITY LOG
ILMED   .OHMM  : MEDIUM INDUCTION RESISTIVITY FROM RESISTIVITY LOG
LL8ED   .OHMM  : LATEROLOG 8 RESISTIVITY FROM RESISTIVITY LOG
MRESWS  .OHMM  : MEDIUM RESISTIVITY [ILMED]
NPHILSED.V/V   : NEUTRON POROSITY LIMESTONE FROM DENSITY LOG [ADJ. TO RESISTIVITY LOG]
NPHISSED.V/V   : NEUTRON POROSITY SANDSTONE FROM DENSITY LOG [ADJ. TO RESISTIVITY LOG]
NPOLSWS .V/V   : NEUTRON POROSITY LIMESTONE [NPHISSED MATRIX CONVERSION FOR LIMESTONE, SPL. TO NPHILSED @ 6448']
RHOBED  .G/C3  : BULK DENSITY FROM DENSITY LOG [ADJ. TO RESISTIVITY LOG]
SPRED   .MV    : SPONTANEOUS POTENTIAL FROM RESISTIVITY LOG
SPWS    .MV    : SPONTANEOUS POTENTIAL [BASELINE 0 MV, SPRED]
SRESWS  .OHMM  : SHALLOW RESISTIVITY [LL8ED]
~Params ----------------------------------------------------
PD  .                     GL : PERMANENT DATUM
EPD .FT               3020.5 : ELEVATION PERMANENT DATUM
LMF .                     KB : LOG MEASURED FROM
DAPD.FT                 14.9 : FEET ABOVE PERMANENT DATUM
EKB .FT               3035.4 : KELLY BUSHING
EGL .FT               3020.5 : GROUND LEVEL
DATE.               08/26/76 : RUN DATE
RUN .                      1 : RUN NUMBER
DD  .FT                10065 : DEPTH DRILLER
DL  .FT                10059 : DEPTH LOGGER
BLI .FT                10053 : BOTTOM LOG INTERVAL
TLI .FT                 1048 : TOP LOG INTERVAL
CBD .FT                 1047 : CASING BOTTOM DRILLER
CBL .FT                 1048 : CASING BOTTOM LOGGER
BS  .IN                7.875 : BIT SIZE
BSD .FT                10065 : BIT SIZE AT DEPTH
DFT .               GEL CHEM : DRILLING FLUID TYPE
DFD .                    9.9 : DRILLING FLUID DENSITY
DFV .                    2.2 : DRILLING FLUID VISCOSITY
DFPH.                      9 : DRILLING FLUID PH
DFL .                    6.2 : DRILLING FLUID LOSS
MSS .             CIRCULATED : MUD SAMPLE SOURCE
RMS .OHMM               2.55 : RESISTIVITY MUD SAMPLE
MST .DEGF                 57 : MUD SAMPLE TEMPERATURE
RMF .OHMM               2.27 : RESISTIVITY MUD FILTRATE SAMPLE
MFST.DEGF                 60 : MUD FILTRATE SAMPLE TEMPERATURE
RMC .OHMM               2.87 : RESISTIVITY MUD CAKE
MCST.DEGF                 55 : MUD CAKE SAMPLE TEMPERATURE
RMB .OHMM               0.77 : RESISTIVITY MUD AT BHT
TCS .HRS                   3 : TIME CIRCULATED STOPPED
LUN .                   7691 : LOGGING UNIT NUMBER
LUL .                    WCT : LOGGING UNIT LOCATION
ENGI.              CROCKFORD : RECORDING ENGINEER
WITN.                   BALL : WITNESSED BY
CLNT.                A2DTECH : CLIENT CODE
ORIG.        2" 5" 10" PRINT : ORIGIN OF DATA
UWI .       100101706216W500 : UNIQUE WELL ID
DICO. A2D Technologies, Inc. : DIGITIZING COMPANY
~Other -----------------------------------------------------
DIL-LL-CNL-FDC-BCS LOG RUN
~ASCII -----------------------------------------------------
# ...
 7300.00000    8.12450    8.15470    8.15470    -999.25    1.93440    0.03320    2.72860   -0.01640    -999.25   -0.01090  516.96420    0.03320   53.65280   53.65280   40.52670   40.63730   40.63730  516.96420  645.61410  806.41350  645.61410    0.02270    -999.25    0.02270    2.72860 -133.67590  -42.76960  806.41350
 7350.00000    8.23110    8.27300    8.27300    -999.25   11.04960    0.03410    2.74240   -0.01300    -999.25   -0.01890   90.50070    0.03410   50.59210   50.59210   45.09110   43.63400   43.63400   90.50070  119.87700  217.00450  119.87700    0.01790    -999.25    0.01790    2.74240 -127.65790  -36.53960  217.00450
 7400.00000    8.27030    8.38420    8.38420    -999.25    1.77120    0.01540    2.72840   -0.00960    -999.25   -0.01080  564.58670    0.01540   49.75050   49.75050   15.84470   16.30450   16.30450  564.58670  920.79980 1496.75060  920.79980    0.00660    -999.25    0.00660    2.72840 -106.47430  -15.14530 1496.75060
 7450.00000    8.60160    8.39460    8.39460    -999.25    3.48960    0.01700    2.71590   -0.00500    -999.25   -0.00350  288.15920    0.01700   49.30800   49.30800   17.13210   17.16150   17.16150  288.15920  322.58190  450.72190  322.58190    0.00600    -999.25    0.00600    2.71590 -192.25440 -100.71340  450.72190
 7500.00000    8.66530    8.39880    8.39880    -999.25    1.75740    0.02840    2.72850   -0.01040    -999.25   -0.01080  569.00990    0.02840   48.88250   48.88250   19.81890   20.15520   20.15520  569.00990  629.81110  813.46370  629.81110    0.00560    -999.25    0.00560    2.72850 -166.21620  -74.46460  813.46370
 7550.00000    9.33790    8.51440    8.51440    -999.25    2.81960    0.04430    2.68440   -0.00060    -999.25    0.01500  354.66570    0.04430   49.02610   49.02610   14.54450   16.64630   16.64630  354.66570  238.04190  332.31190  238.04190    0.00420    -999.25    0.00420    2.68440 -203.80040 -111.83820  332.31190
 7600.00000   10.59910    8.49570    8.49570    -999.25    1.27980    0.24880    2.71670    0.00550    -999.25   -0.00390  781.36850    0.24880   49.41830   49.41830   14.77590   19.10200   19.10200  781.36850  988.47580 1354.75270  988.47580    0.00240    -999.25    0.00240    2.71670 -191.21000  -99.03580 1354.75270
 7650.00000    9.22970    8.34440    8.34440    -999.25    7.38960    0.13260    2.58950    0.07260    -999.25    0.07050  135.32620    0.13260   50.46160   50.46160   17.54090   19.12210   19.12210  135.32620  181.74820  258.77730  181.74820    0.00990    -999.25    0.00990    2.58950 -211.87350 -119.48870  258.77730
 7700.00000    9.53220    8.29540    8.29540    -999.25    7.07260    0.14670    2.54300    0.09360    -999.25    0.09770  141.98170    0.14670   48.42910   48.42910   15.09720   16.31050   16.31050  141.98170  964.15950 1484.24160  964.15950    0.00360    -999.25    0.00360    2.54300 -229.48210 -136.88530 1484.24160
 7750.00000    9.15650    8.34310    8.34310    -999.25    5.13400    0.15200    2.71640   -0.00630    -999.25   -0.00370  194.77860    0.15200   48.84220   48.84220   14.43190   16.09640   16.09640  194.77860  313.51650  355.63460  313.51650    0.01140    -999.25    0.01140    2.71640 -206.60370 -113.79620  355.63460
 7800.00000    9.21790    8.35560    8.35560    -999.25    2.30870    0.11120    2.76930   -0.04270    -999.25   -0.03470  433.13530    0.11120   48.96770   48.96770   14.20040   14.24700   14.24700  433.13530  454.93860  590.23790  454.93860    0.00540    -999.25    0.00540    2.76930 -205.76660 -112.74850  590.23790
 7850.00000    8.90690    8.30890    8.30890    -999.25   11.91700    0.13570    2.64180    0.04320    -999.25    0.03990   83.91340    0.13570   50.37940   50.37940   15.73420   15.33420   15.33420   83.91340   80.40740  354.43060   80.40740    0.02040    -999.25    0.02040    2.64180 -211.29660 -118.06650  354.43060
 7900.00000    9.39120    8.35010    8.35010    -999.25    0.73690    0.17250    2.66130    0.03520    -999.25    0.02850 1357.04460    0.17250   49.00300   49.00300   16.10150   17.18380   17.18380 1357.04460 1484.49630 1399.16370 1484.49630    0.00740    -999.25    0.00740    2.66130 -198.85470 -105.41400 1399.16370
 7950.00000    8.32220    8.27820    8.27820    -999.25   15.13830    0.01470    2.69560    0.00920    -999.25    0.00840   66.16940    0.01470   50.81520   50.81520   14.42170   14.23400   14.23400   66.16940   82.89850  207.86650   82.89850    0.01150    -999.25    0.01150    2.69560 -218.01220 -124.35950  207.86650
 8000.00000    8.04460    8.47870    8.47870    -999.25   23.81470    0.02290    2.73590   -0.01900    -999.25   -0.01520   41.99080    0.02290   48.93680   48.93680   15.04750   16.78890   16.78890   41.99080   87.39840  668.14290   87.39840    0.00700    -999.25    0.00700    2.73590 -238.15780 -144.29440  668.14290
 8050.00000    8.06530    8.20970    8.20970    -999.25   22.80540    0.02160    2.70760   -0.00850    -999.25    0.00140   43.84920    0.02160   51.51420   51.51420   16.98090   15.57890   15.57890   43.84920   48.14410  143.86220   48.14410    0.01880    -999.25    0.01880    2.70760 -214.74010 -120.66610  143.86220
 8100.00000    8.17020    8.22470    8.22470    -999.25    5.75910    0.05150    2.87930   -0.09770    -999.25   -0.09900  173.63870    0.05150   49.09580   49.09580   18.77610   19.02210   19.02210  173.63870  191.61650  192.69730  191.61650    0.02970    -999.25    0.02970    2.87930 -190.23330  -95.94730  192.69730
 8150.00000    8.10240    8.19340    8.19340    -999.25  129.21070    0.07620    2.62300    0.04530    -999.25    0.05090    7.73930    0.07620   55.02180   55.02180   39.91990   39.82850   39.82850    7.73930    8.75850   18.56290    8.75850    0.09820    -999.25    0.09820    2.62300 -173.03370  -78.53710   18.56290
 8200.00000    9.27900    8.39070    8.39070    -999.25    3.58250    0.20530    2.70020    0.00290    -999.25    0.00580  279.14520    0.20530   47.21260   47.21260   20.63920   20.97870   20.97870  279.14520  353.28350  581.34910  353.28350    0.03540    -999.25    0.03540    2.70020 -172.59150  -77.88290  581.34910
 8250.00000    8.76770    8.27460    8.27460    -999.25    8.15690    0.24270    2.78070   -0.04200    -999.25   -0.04130  122.59500    0.24270   47.26340   47.26340   31.33100   26.51150   26.51150  122.59500  194.68600  403.49140  194.68600    0.03190    -999.25    0.03190    2.78070 -185.98310  -91.06390  403.49140
 8300.00000    9.04630    8.27140    8.27140    -999.25   16.99140    0.16620    2.80240   -0.05290    -999.25   -0.05400   58.85330    0.16620   49.66870   49.66870   33.92570   30.18150   30.18150   58.85330   62.84720   74.42270   62.84720    0.05070    -999.25    0.05070    2.80240 -152.43410  -57.30420   74.42270
 8350.00000    8.22500    8.25790    8.25790    -999.25    7.30720   -0.00230    2.70350   -0.00040    -999.25    0.00380  136.85130   -0.00230   51.66500   51.66500   34.45300   36.59990   36.59990  136.85130  145.13260  195.51010  145.13260    0.01630    -999.25    0.01630    2.70350 -114.68810  -19.34620  195.51010
 8400.00000    8.22990    8.21750    8.21750    -999.25    1.80290    0.00430    2.68990    0.00120    -999.25    0.01180  554.64940    0.00430   51.10730   51.10730   28.52870   28.35440   28.35440  554.64940  714.23370  665.52590  714.23370    0.01020    -999.25    0.01020    2.68990 -130.01680  -34.46430  665.52590
 8450.00000    8.24780    8.21230    8.21230    -999.25    5.26320    0.01000    2.71840    0.00330    -999.25   -0.00490  190.01880    0.01000   52.43750   52.43750   38.25670   35.39230   35.39230  190.01880  180.99860  277.94120  180.99860    0.01310    -999.25    0.01310    2.71840 -116.90450  -21.14000  277.94120
 8500.00000    8.28670    8.19840    8.19840    -999.25    9.59310    0.00920    2.72010   -0.00430    -999.25   -0.00590  104.24120    0.00920   52.20360   52.20360   33.49110   31.89490   31.89490  104.24120  105.36570  144.29010  105.36570    0.01650    -999.25    0.01650    2.72010 -110.80000  -14.82490  144.29010
