~Version ---------------------------------------------------
VERS. 2.0 : CWLS log ASCII Standard -VERSION 2.0
WRAP.  NO : ONE LINE PER DEPTH STEP
~Well ------------------------------------------------------
STRT.F                              1100.0 : START DEPTH
STOP.F                             11250.0 : STOP DEPTH
STEP.F                            50.00000 : STEP LENGTH
NULL.                              -999.25 : NULL VALUE
COMP.                 PETROFINA CANADA LTD : COMPANY
WELL. FINA AMOCO HB SAKWATAMAU 10-21-62-15 : WELL
FLD .                                   WC : FIELD
LOC .                                      : LOCATION
CTRY.                               CANADA : COUNTRY
SRVC.                         Schlumberger : SERVICE COMPANY
DATE.                          21-Aug-1976 : LOGDATE
PROV.                              Alberta : PROVINCE
UWI .                     100102106215W500 : UNIQUE WELL ID
SLAT.WGS84                        54.37886 : SURFACE LATITUDE
SLON.WGS84                       -116.1857 : SURFACE LONGITUDE
~Curve Information -----------------------------------------
DEPT   .F    0   1   0  0 : 1 MEASURED DEPTH
SPR    .MV   07 010 01 00 : SPONTANEOUS POTENTIAL FROM RESISTIVITY LOG
ILD    .OHMM 07 120 46 00 : INDUCTION DEEP RESISTIVITY
ILM    .OHMM 07 120 44 00 : INDUCTION MEDIUM RESISTIVITY
LL8    .OHMM 07 220 08 00 : LATEROLOG 8
CILD   .MMHO 07 110 46 00 : INDUCTION DEEP CONDUCTIVITY
GRS    .GAPI 60 310 01 00 : GAMMA RAY FROM SONIC LOG
CALS   .IN   60 280 50 00 : CALIPER FROM SONIC LOG
DT     .US/F 60 500 00 00 : DELTA-T (INTERVAL TRANSIT TIME)
CALD   .IN   45 280 60 00 : CALIPER FROM DENSITY LOG
DRHO   .G/C3 45 356 01 00 : BULK DENSITY CORRECTION
GRD    .GAPI 45 310 01 00 : GAMMA RAY FROM DENSITY LOG
RHOB   .G/C3 45 350 01 00 : BULK DENSITY
DPHI_SS.DEC  45 890 12 00 : DENSITY POROSITY SANDSTONE
NPHI_SS.DEC  42 890 03 00 : NEUTRON POROSITY SANDSTONE
NPHI_LS.DEC  42 890 01 00 : NEUTRON POROSITY LIMESTONE
DPHI_LS.DEC  45 890 10 00 : DENSITY POROSITY LIMESTONE
~Params ----------------------------------------------------
PD  .                     GL : PERMANENT DATUM
EPD .FT               3315.9 : ELEVATION PERMANENT DATUM
LMF .                     KB : LOG MEASURED FROM
DAPD.FT                 15.1 : FEET ABOVE PERMANENT DATUM
EKB .FT                 3331 : KELLY BUSHING
EGL .FT               3315.9 : GROUND LEVEL
DATE.               08/21/76 : RUN DATE
RUN .                      1 : RUN NUMBER
DD  .FT                11275 : DEPTH DRILLER
DL  .FT                11270 : DEPTH LOGGER
BLI .FT                11267 : BOTTOM LOG INTERVAL
TLI .FT                 1134 : TOP LOG INTERVAL
CBD .FT                 1134 : CASING BOTTOM DRILLER
CBL .FT                 1134 : CASING BOTTOM LOGGER
BS  .IN                 8.75 : BIT SIZE
BSD .FT                11275 : BIT SIZE AT DEPTH
DFT .               GEL CHEM : DRILLING FLUID TYPE
DFD .                    9.5 : DRILLING FLUID DENSITY
DFV .                     95 : DRILLING FLUID VISCOSITY
DFPH.                   10.5 : DRILLING FLUID PH
DFL .                      7 : DRILLING FLUID LOSS
MSS .               FLOWLINE : MUD SAMPLE SOURCE
RMS .OHMM                2.7 : RESISTIVITY MUD SAMPLE
MST .DEGF                 55 : MUD SAMPLE TEMPERATURE
RMF .OHMM               2.65 : RESISTIVITY MUD FILTRATE SAMPLE
MFST.DEGF                 56 : MUD FILTRATE SAMPLE TEMPERATURE
RMB .OHMM               0.56 : RESISTIVITY MUD AT BHT
TCS .HRS                 3.5 : TIME CIRCULATED STOPPED
LUN .                   7691 : LOGGING UNIT NUMBER
LUL .                    WCT : LOGGING UNIT LOCATION
ENGI.                GOODMAN : RECORDING ENGINEER
WITN.                 TIFFIN : WITNESSED BY
CLNT.                A2DTECH : CLIENT CODE
ORIG.            2" 5" PRINT : ORIGIN OF DATA
UWI .       100102106215W500 : UNIQUE WELL ID
DICO. A2D Technologies, Inc. : DIGITIZING COMPANY
~Other -----------------------------------------------------
~ASCII -----------------------------------------------------
# ...
 3250.00000  -42.23560    6.21340    -999.25    7.18090  161.86380   56.21270    9.26410   99.51280    -999.25    -999.25    -999.25    -999.25    -999.25    -999.25    -999.25    -999.25
 3300.00000  -66.92340    8.32150    -999.25    8.68810  123.38070   61.66070    8.92070   95.26690    -999.25    -999.25    -999.25    -999.25    -999.25    -999.25    -999.25    -999.25
 3350.00000  -53.25580    6.92520    -999.25    7.87590  141.36000   58.62910    9.04500   89.89960    -999.25    -999.25    -999.25    -999.25    -999.25    -999.25    -999.25    -999.25
 3400.00000  -61.88800    8.53900    -999.25    9.13480  122.04030   48.90170    9.03060   91.80550    -999.25    -999.25    -999.25    -999.25    -999.25    -999.25    -999.25    -999.25
 3450.00000  -46.84900    3.63760    -999.25    3.96880  249.07110   68.32570   10.05870  102.28090    -999.25    -999.25    -999.25    -999.25    -999.25    -999.25    -999.25    -999.25
 3500.00000  -42.29280    3.88930    -999.25    4.05440  249.80070   76.13850    9.86710  100.27600    -999.25    -999.25    -999.25    -999.25    -999.25    -999.25    -999.25    -999.25
 3550.00000  -50.60320    4.99570    -999.25    5.31040  186.47890   95.54820   10.23830   97.22690    -999.25    -999.25    -999.25    -999.25    -999.25    -999.25    -999.25    -999.25
 3600.00000  -46.86300    7.36550    -999.25    6.85510  143.20900   89.07530    9.90350   89.66580    -999.25    -999.25    -999.25    -999.25    -999.25    -999.25    -999.25    -999.25
 3650.00000  -46.44460    5.41730    -999.25    5.71460  187.75620  112.34960    9.97950   95.84680    -999.25    -999.25    -999.25    -999.25    -999.25    -999.25    -999.25    -999.25
 3700.00000  -43.83240    5.48630    -999.25    6.15550  185.34170  115.41290   10.04050  102.76640    -999.25    -999.25    -999.25    -999.25    -999.25    -999.25    -999.25    -999.25
 3750.00000  -43.80950    8.83550    -999.25    9.67210  121.34520  110.84840    9.96790   89.15510    -999.25    -999.25    -999.25    -999.25    -999.25    -999.25    -999.25    -999.25
 3800.00000  -44.67140    6.53000    -999.25    6.78640  158.78920  113.27710   11.39220   94.67540    -999.25    -999.25    -999.25    -999.25    -999.25    -999.25    -999.25    -999.25
 3850.00000  -45.29200    6.85790    -999.25    7.09880  151.35470   92.40790   10.04250   95.64820    -999.25    -999.25    -999.25    -999.25    -999.25    -999.25    -999.25    -999.25
 3900.00000  -46.22670    5.80800    -999.25    6.11000  173.05260   88.68050   10.45870   98.64450    -999.25    -999.25    -999.25    -999.25    -999.25    -999.25    -999.25    -999.25
 3950.00000  -44.33650    5.76820    -999.25    6.05200  172.06450   93.33630   10.25250   96.02670    -999.25    -999.25    -999.25    -999.25    -999.25    -999.25    -999.25    -999.25
 4000.00000  -34.28370    8.05810    -999.25    8.25540  131.18350  100.69560   10.01630   86.36230    -999.25    -999.25    -999.25    -999.25    -999.25    -999.25    -999.25    -999.25
 4050.00000  -34.80470    5.58150    -999.25    6.02300  181.77720  100.97560   10.15310   90.30580    -999.25    -999.25    -999.25    -999.25    -999.25    -999.25    -999.25    -999.25
 4100.00000  -36.96010    6.65080    -999.25    7.07270  147.04010  104.46480   10.46320   88.92530    -999.25    -999.25    -999.25    -999.25    -999.25    -999.25    -999.25    -999.25
 4150.00000  -37.09650    8.00840    -999.25    8.11040  129.59640   89.93700   10.37730   84.80360    -999.25    -999.25    -999.25    -999.25    -999.25    -999.25    -999.25    -999.25
 4200.00000  -35.58440    5.19760    -999.25    5.52840  193.31350  111.50440   10.04220   97.77250    -999.25    -999.25    -999.25    -999.25    -999.25    -999.25    -999.25    -999.25
 4250.00000  -35.79320    7.76240    -999.25    7.36850  135.88570  101.02130    9.98240   88.08490    -999.25    -999.25    -999.25    -999.25    -999.25    -999.25    -999.25    -999.25
 4300.00000  -33.97960    7.08620    -999.25    6.77700  146.31380  104.01550   10.07080   87.44130    -999.25    -999.25    -999.25    -999.25    -999.25    -999.25    -999.25    -999.25
 4350.00000  -34.36140    6.81270    -999.25    7.22540  147.77840  103.20330   10.16700   81.52010    -999.25    -999.25    -999.25    -999.25    -999.25    -999.25    -999.25    -999.25
 4400.00000  -30.72080    7.50170    -999.25    7.71050  137.10900  103.16250    9.75930   87.03600    -999.25    -999.25    -999.25    -999.25    -999.25    -999.25    -999.25    -999.25
 4450.00000  -28.50420    5.77990    -999.25    6.40210  178.15200  109.30520    9.68710   95.70090    -999.25    -999.25    -999.25    -999.25    -999.25    -999.25    -999.25    -999.25
 4500.00000  -27.42030    5.83410    6.44650    7.19170    -999.25  116.91790    9.67410   97.20320   11.43950    0.06360  133.84930    2.48430    0.09580    0.36210    -999.25    -999.25
 4550.00000  -15.67780    6.65060    7.05710    8.72220    -999.25  130.85320    9.67780   98.56210   11.53560    0.09710  135.70340    2.52180    0.06230    0.38120    -999.25    -999.25
 4600.00000  -13.72270    7.39630    7.87080    9.61550    -999.25  124.71100    9.64410   96.21270   10.84370    0.08420  131.70130    2.58090    0.06020    0.33400    -999.25    -999.25
 4650.00000  -13.03700    7.73820    8.21420   10.76120    -999.25  121.81280    9.72230   98.84100   11.14510    0.05930  135.99620    2.51190    0.08790    0.36340    -999.25    -999.25
 4700.00000  -11.80000    6.11330    6.51860    7.89790    -999.25  117.86210    9.80470   98.02610   11.56200    0.14430  120.81110    2.48120    0.12590    0.38310    -999.25    -999.25
 4750.00000  -13.51930    5.42080    5.71230    6.44600    -999.25  102.67090    9.63150   86.63120   11.37810    0.13470  120.66840    2.48700    0.11550    0.30090    -999.25    -999.25
 4800.00000  -14.43700    5.24290    5.62720    6.14480    -999.25  108.96930    9.89280   88.25870   11.82840    0.12720  108.75150    2.52850    0.08530    0.30290    -999.25    -999.25
 4850.00000  -14.16140    5.32470    5.63660    6.05980    -999.25  106.34760    9.92320   86.32800   11.18110    0.10010  113.40800    2.50850    0.07890    0.32180    -999.25    -999.25
 4900.00000  -10.55130    7.33170    7.70380    9.49380    -999.25   94.56070    9.67890   79.18500   11.18110    0.15720  103.99070    2.57290    0.07860    0.28320    -999.25    -999.25
 4950.00000   -8.77530    4.77620    5.12790    5.97700    -999.25  110.24460   10.10800   94.86940   12.12050    0.14440  113.46280    2.54580    0.11440    0.33970    -999.25    -999.25
 5000.00000   -9.66860    3.67650    3.93910    4.70240    -999.25  103.27650   10.36290   93.03180   12.74670    0.10490  112.47550    2.48460    0.08740    0.35050    -999.25    -999.25
 5050.00000  -13.56580    3.89920    4.22810    5.03830    -999.25  110.57700   10.40940   95.28730   13.43280    0.09730  122.85650    2.48590    0.08660    0.34850    -999.25    -999.25
 5100.00000  -18.07050    2.79880    2.89940    3.79380    -999.25  120.68950   10.41580  105.91270   13.75860    0.13240  136.98960    2.39820    0.15910    0.38730    -999.25    -999.25
 5150.00000  -16.72230    1.99810    2.25150    2.90140    -999.25  116.89350    9.61200  112.65550   13.09040    0.16330  118.52790    2.39920    0.16960    0.43480    -999.25    -999.25
 5200.00000  -16.52420    4.01580    4.10970    5.25580    -999.25  104.16020   10.83230   87.79640   11.95790    0.07100  110.46980    2.39810    0.12880    0.35120    -999.25    -999.25
 5250.00000  -18.12790    2.57420    2.96260    3.59350    -999.25  108.64520   10.02420   96.57300   11.01810    0.10630  109.83310    2.40220    0.15410    0.35660    -999.25    -999.25
 5300.00000  -34.05640   10.33070   11.63860   12.79440    -999.25   60.98190    8.71130   78.36520    9.60630    0.17620   79.34660    2.47410    0.13320    0.26250    -999.25    -999.25
 5350.00000  -13.98200    1.74730    2.00800    2.58810    -999.25   97.30640   10.93080  107.72160   11.92530    0.10580   93.35140    2.06230    0.36240    0.51200    -999.25    -999.25
