~Version ---------------------------------------------------
VERS.      2.0 : CWLS log ASCII Standard -VERSION 2.0
WRAP.       NO : One line per depth step
CREA. 11/10/17 : LAS Creation Date
~Well ------------------------------------------------------
STRT.FT                          1150.0 : START DEPTH
STOP.FT                         11400.0 : STOP DEPTH
STEP.FT                        50.00000 : STEP LENGTH
NULL.                           -999.25 : NULL VALUE
COMP.              PETROFINA CANADA LTD : COMPANY
WELL. FINA AMOCO HB KAYBOBS 11-33-60-20 : WELL
FLD .                                   : FIELD
LOC .                                   : LOCATION
CTRY.                            CANADA : COUNTRY
SRVC.                      Schlumberger : SERVICE COMPANY
DATE.                       07-Apr-1977 : LOGDATE
PROV.                           Alberta : PROVINCE
UWI .                  100113306020W500 : UNIQUE WELL ID
SLAT.WGS84                     54.23446 : SURFACE LATITUDE
SLON.WGS84                    -116.9427 : SURFACE LONGITUDE
~Curve Information -----------------------------------------
DEPT    .FT    : Depth Curve
CALDED  .IN    : CALIPER CNFD LOG
CALSED  .IN    : CALIPER FROM BCS LOG [ADJ. TO GRDED]
CALWS   .IN    : CALIPER [CALSED]
CONDWS  .MMHO  : CONDUCTIVITY [1000/DRESWS]
DCORWS  .G/C3  : DENSITY CORRECTION [DRHOED]
DENWS   .G/C3  : FORMATION BULK DENSITY [RHOBED]
DPHILSED.V/V   : DENSITY POROSITY LIMESTONE [M=2.71, F=1.00] FROM CNFD LOG [ADJ. TO RHOBED]
DPHISSED.V/V   : DENSITY POROSITY SANDSTONE [M=2.65, F=1.00] FROM CNFD LOG [ADJ. TO RHOBED]
DPOLSWS .V/V   : DENSITY POROSITY LIMESTONE [CALCULATED FROM DENWS, M=2.71, F=1.00]
DRESWS  .OHMM  : DEEP RESISTIVITY [ILDED]
DRHOED  .G/C3  : DENSITY CORRECTION FROM CNFD LOG
DTED    .US/F  : INTERVAL TRANSIT TIME FROM BCS LOG [ADJ. TO GRDED]
DTWS    .US/F  : COMPRESSIONAL SONIC [DTWS]
GRDED   .GAPI  : GAMMA RAY FROM CNFD LOG
GRSED   .GAPI  : GAMMA RAY FROM BCS LOG [ADJ. TO GRDED]
GRWS    .GAPI  : GAMMA RAY [GRSED]
ILDED   .OHMM  : DEEP INDUCTION FROM DILL LOG
ILMED   .OHMM  : MEDIUM INDUCTION FROM DILL LOG
LL8ED   .OHMM  : LATEROLOG FROM DILL LOG
MRESWS  .OHMM  : MEDIUM RESISTIVITY [ILMED]
NPHILSED.V/V   : NEUTRON POROSITY LIMESTONE FROM CNFD LOG [ADJ. TO RHOBED]
NPHISSED.V/V   : NEUTRON POROSITY SANDSTONE FROM CNFD LOG [ADJ. TO RHOBED]
NPOLSWS .V/V   : NEUTRON POROSITY LIMESTONE [NPHISSED MATRIX CONVERSION FOR LIMESTONE, SPL. TO NPHILSED @ 7450']
RHOBED  .G/C3  : BULK DENSITY FROM CNFD LOG
SPRED   .MV    : SPONTANEOUS POTENTIAL FROM DILL LOG
SPWS    .MV    : SPONTANEOUS POTENTIAL [BASELINE 0 MV, SPRED]
SRESWS  .OHMM  : SHALLOW RESISTIVITY [LL8ED]
~Params ----------------------------------------------------
PD  .                     GL : PERMANENT DATUM
EPD .FT                 2961 : ELEVATION PERMANENT DATUM
LMF .                     KB : LOG MEASURED FROM
DAPD.FT                   18 : FEET ABOVE PERMANENT DATUM
EKB .FT                 2979 : KELLY BUSHING
EGL .FT                 2961 : GROUND LEVEL
DATE.               04/07/77 : RUN DATE
RUN .                      1 : RUN NUMBER
DD  .FT                11429 : DEPTH DRILLER
DL  .FT                11423 : DEPTH LOGGER
BLI .FT                11417 : BOTTOM LOG INTERVAL
TLI .FT                 1195 : TOP LOG INTERVAL
CBD .FT                 1195 : CASING BOTTOM DRILLER
CBL .FT                 1195 : CASING BOTTOM LOGGER
BS  .IN                 8.75 : BIT SIZE
BSD .FT                11429 : BIT SIZE AT DEPTH
DFT .               GEL CHEM : DRILLING FLUID TYPE
DFD .                      9 : DRILLING FLUID DENSITY
DFV .                     98 : DRILLING FLUID VISCOSITY
DFPH.                    9.5 : DRILLING FLUID PH
MSS .               FLOWLINE : MUD SAMPLE SOURCE
RMS .OHMM               1.54 : RESISTIVITY MUD SAMPLE
MST .DEGF                 65 : MUD SAMPLE TEMPERATURE
RMB .OHMM               0.51 : RESISTIVITY MUD AT BHT
TCS .HRS                   4 : TIME CIRCULATED STOPPED
LUN .             OSU C 3704 : LOGGING UNIT NUMBER
LUL .                    EDM : LOGGING UNIT LOCATION
ENGI.               MCDONALD : RECORDING ENGINEER
WITN.               BOLEANTU : WITNESSED BY
CLNT.                A2DTECH : CLIENT CODE
ORIG.            2" 5" PRINT : ORIGIN OF DATA
UWI .       100113306020W500 : UNIQUE WELL ID
DICO. A2D Technologies, Inc. : DIGITIZING COMPANY
~Other -----------------------------------------------------
~ASCII -----------------------------------------------------
 1150.00000    -999.25    -999.25    -999.25    -999.25    -999.25    -999.25    -999.25    -999.25    -999.25    -999.25    -999.25    -999.25    -999.25    -999.25   52.31410   52.31410    -999.25    -999.25    -999.25    -999.25    -999.25    -999.25    -999.25    -999.25    -999.25    -999.25    -999.25
 1200.00000    -999.25   10.31290   10.31290  171.35610    -999.25    -999.25    -999.25    -999.25    -999.25    5.83580    -999.25  195.93390  195.93390    -999.25   99.00370   99.00370    5.83580    4.45470    -999.25    4.45470    -999.25    -999.25    -999.25    -999.25    -999.25    -999.25    -999.25
 1250.00000    -999.25    9.94390    9.94390  161.32150    -999.25    -999.25    -999.25    -999.25    -999.25    6.19880    -999.25  196.40180  196.40180    -999.25   89.86090   89.86090    6.19880    5.40400    6.71390    5.40400    -999.25    -999.25    -999.25    -999.25 -330.18160  -14.69950    6.71390
 1300.00000    -999.25    9.97670    9.97670  142.51540    -999.25    -999.25    -999.25    -999.25    -999.25    7.01680    -999.25  124.48710  124.48710    -999.25   77.74950   77.74950    7.01680    5.09800    9.29460    5.09800    -999.25    -999.25    -999.25    -999.25 -327.82640  -14.50820    9.29460
 1350.00000    -999.25    9.84090    9.84090  169.96400    -999.25    -999.25    -999.25    -999.25    -999.25    5.88360    -999.25  138.92580  138.92580    -999.25   89.65710   89.65710    5.88360    4.52290    5.23800    4.52290    -999.25    -999.25    -999.25    -999.25 -321.22830  -10.09570    5.23800
 1400.00000    -999.25   10.09270   10.09270  182.07640    -999.25    -999.25    -999.25    -999.25    -999.25    5.49220    -999.25  103.77360  103.77360    -999.25   85.33370   85.33370    5.49220    4.53870    4.93690    4.53870    -999.25    -999.25    -999.25    -999.25 -314.94100   -5.98310    4.93690
 1450.00000    -999.25   10.17890   10.17890  203.02510    -999.25    -999.25    -999.25    -999.25    -999.25    4.92550    -999.25  170.67860  170.67860    -999.25   89.86980   89.86980    4.92550    3.70550    4.52920    3.70550    -999.25    -999.25    -999.25    -999.25 -317.18770  -10.31110    4.52920
 1500.00000    -999.25   10.37850   10.37850   94.85060    -999.25    -999.25    -999.25    -999.25    -999.25   10.54290    -999.25  104.25390  104.25390    -999.25   60.62330   60.62330   10.54290   11.18160   11.23870   11.18160    -999.25    -999.25    -999.25    -999.25 -317.13230  -10.56070   11.23870
 1550.00000    -999.25   10.06000   10.06000  157.36520    -999.25    -999.25    -999.25    -999.25    -999.25    6.35580    -999.25  113.52580  113.52580    -999.25   87.38210   87.38210    6.35580    5.27280    5.53070    5.27280    -999.25    -999.25    -999.25    -999.25 -313.98580   -7.71770    5.53070
 1600.00000    -999.25   10.25850   10.25850  124.43070    -999.25    -999.25    -999.25    -999.25    -999.25    8.03660    -999.25  116.45260  116.45260    -999.25   83.43300   83.43300    8.03660    6.45890    6.61630    6.45890    -999.25    -999.25    -999.25    -999.25 -310.01970   -4.05810    6.61630
 1650.00000    -999.25    9.64390    9.64390  212.30520    -999.25    -999.25    -999.25    -999.25    -999.25    4.71020    -999.25  158.00350  158.00350    -999.25   83.61030   83.61030    4.71020    3.93350    4.57110    3.93350    -999.25    -999.25    -999.25    -999.25 -309.92930   -4.27280    4.57110
 1700.00000    -999.25   10.42550   10.42550  146.12830    -999.25    -999.25    -999.25    -999.25    -999.25    6.84330    -999.25  130.36990  130.36990    -999.25   71.58160   71.58160    6.84330    5.54950    5.90930    5.54950    -999.25    -999.25    -999.25    -999.25 -307.87080   -2.51930    5.90930
 1750.00000    -999.25   10.69570   10.69570  136.27880    -999.25    -999.25    -999.25    -999.25    -999.25    7.33790    -999.25   92.50690   92.50690    -999.25   77.46840   77.46840    7.33790    6.38820    6.55140    6.38820    -999.25    -999.25    -999.25    -999.25 -306.11170   -1.10280    6.55140
 1800.00000    -999.25   10.74960   10.74960  100.21600    -999.25    -999.25    -999.25    -999.25    -999.25    9.98480    -999.25   91.19590   91.19590    -999.25   65.88620   65.88620    9.98480    7.89750    7.60800    7.89750    -999.25    -999.25    -999.25    -999.25 -306.09130   -1.59390    7.60800
 1850.00000    -999.25   10.93130   10.93130  173.44850    -999.25    -999.25    -999.25    -999.25    -999.25    5.76540    -999.25  116.13200  116.13200    -999.25   87.76300   87.76300    5.76540    4.98630    5.13040    4.98630    -999.25    -999.25    -999.25    -999.25 -308.57830   -4.59760    5.13040
 1900.00000    -999.25   10.44430   10.44430  239.83690    -999.25    -999.25    -999.25    -999.25    -999.25    4.16950    -999.25  103.17720  103.17720    -999.25  106.55770  106.55770    4.16950    3.25260    3.92780    3.25260    -999.25    -999.25    -999.25    -999.25 -310.26940   -6.80270    3.92780
 1950.00000    -999.25   10.26830   10.26830   88.16630    -999.25    -999.25    -999.25    -999.25    -999.25   11.34220    -999.25  121.83220  121.83220    -999.25   74.73990   74.73990   11.34220    9.07840    9.31490    9.07840    -999.25    -999.25    -999.25    -999.25 -308.68210   -5.72950    9.31490
 2000.00000    -999.25   10.39220   10.39220   59.48700    -999.25    -999.25    -999.25    -999.25    -999.25   16.81040    -999.25   78.12100   78.12100    -999.25   70.36540   70.36540   16.81040   15.45320   17.84150   15.45320    -999.25    -999.25    -999.25    -999.25 -308.44840   -6.00990   17.84150
 2050.00000    -999.25    9.94900    9.94900  459.66200    -999.25    -999.25    -999.25    -999.25    -999.25    2.17620    -999.25  119.36960  119.36960    -999.25  155.99940  155.99940    2.17620    1.81210    2.47480    1.81210    -999.25    -999.25    -999.25    -999.25 -304.87950   -2.95250    2.47480
 2100.00000    -999.25    9.87260    9.87260  233.65030    -999.25    -999.25    -999.25    -999.25    -999.25    4.27990    -999.25  116.47560  116.47560    -999.25   88.53300   88.53300    4.27990    3.54170    5.35770    3.54170    -999.25    -999.25    -999.25    -999.25 -305.92680   -4.51640    5.35770
 2150.00000    -999.25    9.80000    9.80000   69.70240    -999.25    -999.25    -999.25    -999.25    -999.25   14.34670    -999.25   84.60160   84.60160    -999.25   54.11040   54.11040   14.34670   13.61160   12.55190   13.61160    -999.25    -999.25    -999.25    -999.25 -304.40110   -3.50480   12.55190
 2200.00000    -999.25    9.69790    9.69790  149.70730    -999.25    -999.25    -999.25    -999.25    -999.25    6.67970    -999.25   89.53720   89.53720    -999.25   77.95100   77.95100    6.67970    6.26700    7.35740    6.26700    -999.25    -999.25    -999.25    -999.25 -307.03530   -6.65310    7.35740
 2250.00000    -999.25   10.05270   10.05270  286.78770    -999.25    -999.25    -999.25    -999.25    -999.25    3.48690    -999.25  119.41400  119.41400    -999.25   89.81380   89.81380    3.48690    2.88610    3.62000    2.88610    -999.25    -999.25    -999.25    -999.25 -304.58910   -4.72090    3.62000
 2300.00000    -999.25   10.19640   10.19640  171.50600    -999.25    -999.25    -999.25    -999.25    -999.25    5.83360    -999.25  102.47780  102.47780    -999.25   84.92330   84.92330    5.83360    4.75320    4.99040    4.75320    -999.25    -999.25    -999.25    -999.25 -304.81240   -5.45570    4.99040
 2350.00000    -999.25    9.98320    9.98320  124.67900    -999.25    -999.25    -999.25    -999.25    -999.25    8.02060    -999.25  102.21660  102.21660    -999.25   91.22710   91.22710    8.02060    7.03250    8.48150    7.03250    -999.25    -999.25    -999.25    -999.25 -302.02190   -3.18190    8.48150
 2400.00000    -999.25   10.32800   10.32800  200.24830    -999.25    -999.25    -999.25    -999.25    -999.25    4.99380    -999.25   92.70030   92.70030    -999.25   76.89970   76.89970    4.99380    4.34310    6.58060    4.34310    -999.25    -999.25    -999.25    -999.25 -304.85990   -6.53390    6.58060
