~Version ---------------------------------------------------
VERS.      2.0 : CWLS log ASCII Standard -VERSION 2.0
WRAP.       NO : One line per depth step
CREA. 12/21/17 : LAS Creation Date
~Well ------------------------------------------------------
STRT.FT                                  900.0 : START DEPTH
STOP.FT                                 9200.0 : STOP DEPTH
STEP.FT                               50.00000 : STEP LENGTH
NULL.                                  -999.25 : NULL VALUE
COMP. THE BRITISH AMERICAN OIL COMPANY LIMITED : COMPANY
WELL.           B.A. VIRGINIA HILLS 2-24-66-17 : WELL
FLD .                                          : FIELD
LOC .                                          : LOCATION
CTRY.                                   CANADA : COUNTRY
SRVC.                             Schlumberger : SERVICE COMPANY
DATE.                              01-Mar-1963 : LOGDATE
PROV.                                  Alberta : PROVINCE
UWI .                         100022406617W500 : UNIQUE WELL ID
SLAT.WGS84                            54.72181 : SURFACE LATITUDE
SLON.WGS84                           -116.4291 : SURFACE LONGITUDE
~Curve Information -----------------------------------------
DEPT  .FT    : Depth Curve
CALSED.IN    : CALIPER FROM SONIC LOG
CALWS .IN    : CALIPER [CALSED]
CILDED.MMHO  : INDUCTION DEEP CONDUCTIVITY FROM IEL
CONDWS.MMHO  : CONDUCTIVITY [1000/DRESWS]
DRESWS.OHMM  : DEEP RESISTIVITY [ILDED, IF ILDED<2;1000/CILDED]
DTED  .US/F  : DELTA TIME (INTERVAL TRANSIT TIME)  FROM SONIC LOG
DTWS  .US/F  : COMPRESSIONAL SONIC [DTED]
GRSED .GAPI  : GAMMA RAY FROM SONIC LOG
GRWS  .GAPI  : GAMMA RAY [GRSED]
ILDED .OHMM  : INDUCTION DEEP RESISTIVITY FROM IEL
SNED  .OHMM  : SHORT NORMAL RESISTIVITY FROM IEL
SPRED .MV    : SPONTANEOUS POTENTIAL FROM IEL
SPWS  .MV    : SPONTANEOUS POTENTIAL [BASELINE 0 MV] [SPRED]
SRESWS.OHMM  : SHALLOW RESISTIVITY [SNED]
~Params ----------------------------------------------------
LMF .                     KB : LOG MEASURED FROM
EKB .FT                 2637 : KELLY BUSHING
DATE.             03/01/1963 : RUN DATE
RUN .                      2 : RUN NUMBER
DD  .FT                 9210 : DEPTH DRILLER
DL  .FT                 9214 : DEPTH LOGGER
BLI .FT                 9213 : BOTTOM LOG INTERVAL
TLI .FT                 8940 : TOP LOG INTERVAL
CBD .FT                  973 : CASING BOTTOM DRILLER
CBL .FT                  973 : CASING BOTTOM LOGGER
BS  .IN                    9 : BIT SIZE
BSD .FT                 9214 : BIT SIZE AT DEPTH
DFT .           GEL OIL CHEM : DRILLING FLUID TYPE
DFD .                    9.5 : DRILLING FLUID DENSITY
DFV .                     90 : DRILLING FLUID VISCOSITY
DFPH.                    9.5 : DRILLING FLUID PH
DFL .                    7.9 : DRILLING FLUID LOSS
RMS .OHMM               1.86 : RESISTIVITY MUD SAMPLE
MST .DEGF                 71 : MUD SAMPLE TEMPERATURE
RMF .OHMM               1.34 : RESISTIVITY MUD FILTRATE SAMPLE
MFST.DEGF                 66 : MUD FILTRATE SAMPLE TEMPERATURE
RMC .OHMM               2.16 : RESISTIVITY MUD CAKE
MCST.DEGF                 65 : MUD CAKE SAMPLE TEMPERATURE
RMB .OHMM               0.74 : RESISTIVITY MUD AT BHT
LUN .                3534 WC : LOGGING UNIT NUMBER
ENGI.               HATLELID : RECORDING ENGINEER
WITN.              MCDERMOTT : WITNESSED BY
CLNT.                A2DTECH : CLIENT CODE
ORIG.           2", 5" PRINT : ORIGIN OF DATA
UWI .       100022406617W500 : UNIQUE WELL ID
DICO. A2D Technologies, Inc. : DIGITIZING COMPANY
~Other -----------------------------------------------------
SP AFFECTED BY TELLURIC CURRENTS OVER BOTTOM SECTION OF HOLE
~ASCII -----------------------------------------------------
  900.00000    -999.25    -999.25    -999.25    -999.25    -999.25    -999.25    -999.25   50.10050   50.10050    -999.25    -999.25    -999.25    -999.25    -999.25
  950.00000    -999.25    -999.25    -999.25    -999.25    -999.25    -999.25    -999.25   43.90060   43.90060    -999.25    -999.25    -999.25    -999.25    -999.25
 1000.00000   10.00580   10.00580  316.94490  476.94000    2.09670  133.44350  133.44350   72.85180   72.85180    2.09670    1.51560 -144.05130   -5.81190    1.51560
 1050.00000   10.94660   10.94660  405.78190  405.78190    2.46440  132.66860  132.66860   67.54170   67.54170    1.57400    0.52220 -143.51480   -5.27540    0.52220
 1100.00000    9.45060    9.45060  297.18800  389.07480    2.57020  124.95200  124.95200   64.30560   64.30560    2.57020    1.09770 -141.66080   -3.42140    1.09770
 1150.00000   10.75840   10.75840  429.26230  429.26230    2.32960  123.28920  123.28920   68.96300   68.96300    1.42590    0.94680 -140.45650   -2.30600    0.94680
 1200.00000   11.75130   11.75130  372.56570  372.56570    2.68410  133.42810  133.42810   73.45580   73.45580    1.99010    1.05810 -140.24300   -2.24860    1.05810
 1250.00000    9.40630    9.40630  285.78190  409.14860    2.44410  112.22080  112.22080   66.59910   66.59910    2.44410    1.51960 -140.26850   -2.43020    1.51960
 1300.00000   10.45540   10.45540  255.73960  345.75760    2.89220  121.98560  121.98560   58.91520   58.91520    2.89220    2.03910 -138.85010   -1.16780    2.03910
 1350.00000    8.48580    8.48580   66.06300   65.76570   15.20550  110.10750  110.10750   47.03880   47.03880   15.20550    6.47810 -148.39220  -10.86600    6.47810
 1400.00000    8.80180    8.80180  148.94420  178.63520    5.59800   75.40560   75.40560   54.33650   54.33650    5.59800    4.53910 -139.23980   -1.86960    4.53910
 1450.00000   10.29460   10.29460  267.02330  366.39430    2.72930  121.80570  121.80570   48.60080   48.60080    2.72930    2.18260 -138.79930   -1.58520    2.18260
 1500.00000   10.28450   10.28450  264.77640  375.79860    2.66100  109.32330  109.32330   59.31340   59.31340    2.66100    1.89350 -139.36510   -2.30700    1.89350
 1550.00000    8.73480    8.73480  107.08820  111.03340    9.00630   93.08100   93.08100   51.20220   51.20220    9.00630    6.52990 -139.45250   -2.55050    6.52990
 1600.00000   10.59070   10.59070  268.57610  373.72000    2.67580  123.59130  123.59130   56.78050   56.78050    2.67580    2.10950 -140.54530   -3.79930    2.10950
 1650.00000    9.17850    9.17850  457.49200  457.49200    2.18580  138.47440  138.47440   67.52660   67.52660    1.21580    0.78420 -139.47890   -2.88900    0.78420
 1700.00000    8.46740    8.46740   62.96610   55.12680   18.14000   80.95570   80.95570   42.79720   42.79720   18.14000   11.05530 -145.29240   -8.85850   11.05530
 1750.00000   10.09520   10.09520  214.77510  248.57070    4.02300   97.94930   97.94930   53.75980   53.75980    4.02300    2.54470 -140.00190   -3.72410    2.54470
 1800.00000   11.53910   11.53910  217.83670  242.10730    4.13040  125.13730  125.13730   48.44940   48.44940    4.13040    2.55110 -140.60210   -4.48030    2.55110
 1850.00000    9.31650    9.31650  301.11090  445.79170    2.24320  115.82220  115.82220   47.91920   47.91920    2.24320    2.59140 -139.68210   -3.71640    2.59140
 1900.00000    8.11530    8.11530   95.43910   97.83110   10.22170  104.66820  104.66820   47.36280   47.36280   10.22170    8.89010 -151.14390  -15.33420    8.89010
 1950.00000    8.12270    8.12270   90.74100   88.95850   11.24120  106.05350  106.05350   42.56080   42.56080   11.24120    9.45390 -150.24240  -14.58880    9.45390
 2000.00000    8.70000    8.70000  162.59910  173.60510    5.76020  113.33820  113.33820   47.93040   47.93040    5.76020    4.38850 -140.26730   -4.76970    4.38850
 2050.00000    9.43550    9.43550  178.37340  226.39800    4.41700  101.44000  101.44000   55.03430   55.03430    4.41700    3.68700 -139.00990   -3.66840    3.68700
 2100.00000    9.43500    9.43500  110.57280  112.48090    8.89040  104.65080  104.65080   40.99320   40.99320    8.89040    8.19510 -155.44190  -20.32430    8.19510
 2150.00000    9.28390    9.28390  265.07380  360.38630    2.77480  105.61210  105.61210   52.61000   52.61000    2.77480    2.57140 -138.54830   -3.68370    2.57140
 2200.00000   10.48840   10.48840  187.29030  231.06430    4.32780  102.25480  102.25480   57.76910   57.76910    4.32780    3.98830 -139.29610   -4.68450    3.98830
 2250.00000   11.33910   11.33910  242.49430  342.33680    2.92110  108.20210  108.20210   61.91570   61.91570    2.92110    2.56510 -138.59670   -4.23810    2.56510
 2300.00000   11.98660   11.98660  239.21070  329.97860    3.03050  108.43760  108.43760   68.27210   68.27210    3.03050    2.84750 -138.07760   -3.97200    2.84750
 2350.00000   13.43430   13.43430  163.39830  190.97090    5.23640  105.24260  105.24260   70.28040   70.28040    5.23640    4.35390 -140.71380   -6.86120    4.35390
 2400.00000   11.85950   11.85950  162.23430  192.57060    5.19290  105.08250  105.08250   76.40740   76.40740    5.19290    4.64940 -141.00510   -7.40550    4.64940
 2450.00000   11.50820   11.50820  219.79880  274.62720    3.64130  108.13660  108.13660   84.94570   84.94570    3.64130    3.89990 -140.66010   -7.31350    3.89990
 2500.00000   10.75830   10.75830  135.73390  152.61350    6.55250  101.81690  101.81690  109.40680  109.40680    6.55250    7.64530 -140.22600   -7.13250    7.64530
 2550.00000   10.86440   10.86440  181.02580  221.55260    4.51360  101.42980  101.42980   79.99670   79.99670    4.51360    4.83680 -139.71640   -6.87590    4.83680
 2600.00000   10.89580   10.89580  166.01810  202.27360    4.94380   89.24240   89.24240   69.00180   69.00180    4.94380    4.62860 -142.14110   -9.55360    4.62860
 2650.00000   11.41340   11.41340  158.76930  186.92290    5.34980   99.16850   99.16850   72.74750   72.74750    5.34980    4.57320 -142.65640  -10.32190    4.57320
 2700.00000   13.56350   13.56350  145.16010  147.16700    6.79500  114.99890  114.99890   69.85380   69.85380    6.79500    5.83530 -145.51890  -13.43740    5.83530
 2750.00000   11.56390   11.56390  174.55580  219.46670    4.55650   92.22880   92.22880   76.32880   76.32880    4.55650    4.29430 -142.00780  -10.17930    4.29430
 2800.00000   11.61380   11.61380  153.19850  189.10740    5.28800  100.77310  100.77310   80.95420   80.95420    5.28800    4.47350 -143.19230  -11.61680    4.47350
 2850.00000   12.06650   12.06650  155.54080  195.72150    5.10930   95.92900   95.92900   80.29870   80.29870    5.10930    4.60850 -142.94160  -11.61910    4.60850
 2900.00000   10.84010   10.84010  183.76570  251.54700    3.97540  101.61460  101.61460   87.34020   87.34020    3.97540    3.68320 -142.48760  -11.41810    3.68320
 2950.00000   13.27690   13.27690  116.47400  126.08110    7.93140   88.75470   88.75470   74.83820   74.83820    7.93140    6.25060 -142.51130  -11.69480    6.25060
 3000.00000   13.24450   13.24450  113.23580  125.89380    7.94320   84.46840   84.46840   69.17550   69.17550    7.94320    5.72690 -140.80250  -10.23900    5.72690
 3050.00000   12.93980   12.93980  149.22030  168.25100    5.94350   83.64390   83.64390   81.09790   81.09790    5.94350    5.09110 -139.77570   -9.46520    5.09110
 3100.00000   12.13200   12.13200  135.56760  157.30690    6.35700   86.40060   86.40060   79.82270   79.82270    6.35700    5.92180 -139.44390   -9.38640    5.92180
 3150.00000   11.13260   11.13260  156.87010  179.30140    5.57720   91.77030   91.77030   88.61430   88.61430    5.57720    5.97340 -137.69470   -7.89020    5.97340
 3200.00000   10.92420   10.92420  164.58090  191.62590    5.21850  100.30090  100.30090   94.58970   94.58970    5.21850    5.77040 -136.77030   -7.21880    5.77040
 3250.00000   11.29910   11.29910  157.37420  181.02500    5.52410   90.87520   90.87520   90.03610   90.03610    5.52410    6.68520 -136.20600   -6.90750    6.68520
 3300.00000   10.10500   10.10500  166.01400  194.53740    5.14040   97.65360   97.65360  100.44630  100.44630    5.14040    6.49660 -134.60770   -5.56230    6.49660
