~Version ---------------------------------------------------
VERS.      2.0 : CWLS log ASCII Standard -VERSION 2.0
WRAP.       NO : One line per depth step
CREA. 08/22/13 : LAS Creation Date
~Well ------------------------------------------------------
STRT.M                            400.0 : START DEPTH
STOP.M                           2800.0 : STOP DEPTH
STEP.M                         50.00000 : STEP LENGTH
NULL.                           -999.25 : NULL VALUE
COMP.      HUSKY OIL OPERATIONS LIMITED : COMPANY
WELL. HUSKY ET AL VALLEYVIEW 14-3-70-21 : WELL
FLD .                                   : FIELD
LOC .                                   : LOCATION
CTRY.                            CANADA : COUNTRY
SRVC.                           Unknown : SERVICE COMPANY
DATE.                       23-Feb-1984 : LOGDATE
PROV.                           Alberta : PROVINCE
UWI .                  100140307021W500 : UNIQUE WELL ID
SLAT.WGS84                     55.03659 : SURFACE LATITUDE
SLON.WGS84                    -117.1192 : SURFACE LONGITUDE
~Curve Information -----------------------------------------
DEPT    .M      : DEPTH METER
CALDED  .MM     : CALIPER FROM DENSITY LOG
CALRED  .MM     : CALIPER FROM DLL-MSFL LOG
CALSED  .MM     : CALIPER FROM SONIC LOG
CALWS   .MM     : CALIPER [CALRED]
CONDWS  .MMHO   : CONDUCTIVITY [1000/DRESWS]
DCORWS  .KG/M3  : DENSITY CORRECTION [DRHOED]
DENWS   .KG/M3  : FORMATION BULK DENSITY [CALC FROM DPOLSWS, M=2710, F=1000]
DPHILSED.V/V    : DENSITY POROSITY LIMESTONE [M=2710,F=1000] FROM DENSITY LOG
DPHISSED.V/V    : DENSITY POROSITY SANDSTONE [M=2650,F=1000] FROM DENSITY LOG
DPOLSWS .V/V    : DENSITY POROSITY LIMESTONE [DPHISSED CONVERTED TO LIMESTONE MATRIX, M=2710,F=1000 SPL.TO DPHILSED @ 1476.6M]
DRESWS  .OHMM   : DEEP RESISTIVITY [LLDED]
DRHOED  .KG/M3  : DENSITY CORRECTION FROM DENSITY LOG
DTED    .US/M   : DELTA TIME FROM SONIC LOG
DTWS    .US/M   : COMPRESSIONAL SONIC [DTED]
GRDED   .GAPI   : GAMMA RAY FROM DENSITY LOG
GRSED   .GAPI   : GAMMA RAY FROM SONIC LOG
GRWS    .GAPI   : GAMMA RAY [GRSED]
ILDED   .OHMM   : DEEP INDUCTION FROM DIL-SFL LOG
ILMED   .OHMM   : MEDIUM INDUCTION FROM DIL-SFL LOG
LLDED   .OHMM   : DEEP LATEROLOG FROM DLL-MSFL LOG
LLSED   .OHMM   : SHALLOW LATEROLOG FROM DLL-MSFL LOG
MRESWS  .OHMM   : MEDIUM RESISTIVITY [ILMED]
MSFLED  .OHMM   : MICRO SPHERICALLY FOCUSED FROM DLL-MSFL LOG
NPHILSED.V/V    : NEUTRON POROSITY LIMESTONE FROM DENSITY LOG
NPHISSED.V/V    : NEUTRON POROSITY SANDSTONE FROM DENSITY LOG
NPOLSWS .V/V    : NEUTRON POROSITY LIMESTONE [NPHISSED MATRIX (SLB) CONVERSION FOR LIMESTONE, SPL.TO NPHILSED @ 1476.7M]
RHOBED  .KG/M3  : BULK DENSITY FROM DENSITY LOG
SFLUED  .OHMM   : SHALLOW FOCUSED FROM DIL-SFL LOG
SPR1ED  .MV     : SPONTANEOUS POTENTIAL FROM DIL-SFL LOG
SPRED   .MV     : SPONTANEOUS POTENTIAL FROM DLL-MSFL LOG
SPWS    .MV     : SPONTANEOUS POTENTIAL [BASELINE 0 MV, SPRED]
SRESWS  .OHMM   : SHALLOW RESISTIVITY [LLSED SPL.TO SFLUED @ 2824.5M]
~Params ----------------------------------------------------
PD  .                         GL : PERMANENT DATUM
EPD .M                     645.8 : ELEVATION PERMANENT DATUM
LMF .                         KB : LOG MEASURED FROM
DAPD.M                      6.45 : FEET ABOVE PERMANENT DATUM
DMF .                         KB : DRILLING MEASURED FROM
EKB .M                    652.25 : KELLY BUSHING
EDF .M                    651.95 : DRILLING FLOOR
EGL .M                     645.8 : GROUND LEVEL
DATE.                   02/23/84 : RUN DATE
RUN .                          1 : RUN NUMBER
DD  .M                      2835 : DEPTH DRILLER
DL  .M                      2829 : DEPTH LOGGER
BLI .M                      2828 : BOTTOM LOG INTERVAL
TLI .M                      2780 : TOP LOG INTERVAL
CS  .MM                      244 : CASING SIZE
CBD .M                       432 : CASING BOTTOM DRILLER
CBL .M                       434 : CASING BOTTOM LOGGER
BS  .MM                      222 : BIT SIZE
BSD .M                      2835 : BIT SIZE AT DEPTH
DFT .                   GEL CHEM : DRILLING FLUID TYPE
DFD .                       1110 : DRILLING FLUID DENSITY
DFV .                         64 : DRILLING FLUID VISCOSITY
DFPH.                       11.5 : DRILLING FLUID PH
DFL .                          9 : DRILLING FLUID LOSS
MSS .                   FLOWLINE : MUD SAMPLE SOURCE
RMS .OHMM                   2.67 : RESISTIVITY MUD SAMPLE
MST .DEGC                     18 : MUD SAMPLE TEMPERATURE
RMF .OHMM                   2.76 : RESISTIVITY MUD FILTRATE SAMPLE
MFST.DEGC                   17.8 : MUD FILTRATE SAMPLE TEMPERATURE
MFSS.                      PRESS : MUD FILTRATE SAMPLE SOURCE
MCSS.                      PRESS : MUD CAKE SAMPLE SOURCE
RMB .OHMM                  1.008 : RESISTIVITY MUD AT BHT
TCS .HRS                    1500 : TIME CIRCULATED STOPPED
TLAB.HRS                      30 : TIME LOGGER AT BOTTOM
LUN .                       8208 : LOGGING UNIT NUMBER
LUL .                        EDM : LOGGING UNIT LOCATION
ENGI.                     SMILEY : RECORDING ENGINEER
WITN.                    KENNEDY : WITNESSED BY
CLNT.                    A2DTECH : CLIENT CODE
ORIG. 6.5"/100M 16.5"/100M PRINT : ORIGIN OF DATA
UWI .           100140307021W500 : UNIQUE WELL ID
DICO.     A2D Technologies, Inc. : DIGITIZING COMPANY
~Other -----------------------------------------------------
DIL-MSFL-DI-SFL-FDC-CNL-BHC LOG RUN
RHOB,DRHO FROM SMALL SCALE SECTION
~ASCII -----------------------------------------------------
# ...
 1500.00000  244.51900  231.36720  246.95030  231.36720   59.71150   62.50880 2570.63500    0.08150    0.02450    0.08150   16.74720   62.50880  207.69230  207.69230   30.32230   34.12100   34.12100    -999.25    -999.25   16.74720   25.65760    -999.25   43.14610    0.18470    0.24640    0.18470 2570.63500    -999.25    -999.25 -102.96660  -68.18170   25.65760
 1550.00000  247.01980  223.37820  241.06560  223.37820  139.02020   56.96790 2324.56600    0.22540    -999.25    0.22540    7.19320   56.96790  262.57010  262.57010   25.23790   28.76950   28.76950    -999.25    -999.25    7.19320   12.07440    -999.25   17.38550    0.34740    -999.25    0.34740 2324.56600    -999.25    -999.25 -128.29430  -94.32530   12.07440
 1600.00000  251.06060  229.80480  255.17760  229.80480   13.81680  -19.37780 2659.21300    0.02970    -999.25    0.02970   72.37550  -19.37780  176.20070  176.20070   19.33060   22.59440   22.59440    -999.25    -999.25   72.37550  133.97760    -999.25  165.92000    0.05410    -999.25    0.05410 2657.69140    -999.25    -999.25 -113.01830  -79.86520  133.97760
 1650.00000  278.13300  251.37920  271.49430  251.37920  108.58350   11.03170 2609.79400    0.05860    -999.25    0.05860    9.20950   11.03170  227.50950  227.50950  100.47530  112.56710  112.56710    -999.25    -999.25    9.20950   14.91260    -999.25   36.18090    0.14270    -999.25    0.14270 2620.45240    -999.25    -999.25  -43.12390  -10.78670   14.91260
 1700.00000  277.79120  263.83940  293.13750  263.83940  173.46350  -22.40150 2590.30000    0.07000    -999.25    0.07000    5.76490  -22.40150  194.15580  194.15580   27.83200   32.03400   32.03400    -999.25    -999.25    5.76490    7.17760    -999.25   45.47490    0.10310    -999.25    0.10310 2588.78710    -999.25    -999.25  -78.76880  -47.20750    7.17760
 1750.00000  257.97380  247.89270  263.80040  247.89270   31.35530   -2.28120 2639.89000    0.04100    -999.25    0.04100   31.89250   -2.28120  180.44520  180.44520   31.68290   36.40050   36.40050    -999.25    -999.25   31.89250   46.48870    -999.25   54.20510    0.02640    -999.25    0.02640 2636.66820    -999.25    -999.25  -55.16480  -24.04310   46.48870
 1800.00000  261.00420  248.01100  271.16010  248.01100   13.42520    3.63220 2674.94500    0.02050    -999.25    0.02050   74.48680    3.63220  167.09830  167.09830   15.43190   16.47340   16.47340    -999.25    -999.25   74.48680  108.66060    -999.25  162.49480    0.00570    -999.25    0.00570 2677.70970    -999.25    -999.25 -100.06300  -64.76720  108.66060
 1850.00000  283.85560  257.78520  278.25950  257.78520  142.86940  -15.48580 2616.63400    0.05460    -999.25    0.05460    6.99940  -15.48580  220.89900  220.89900   29.94060   34.69080   34.69080    -999.25    -999.25    6.99940   10.46910    -999.25    7.91890    0.12050    -999.25    0.12050 2616.63400    -999.25    -999.25  -53.72840  -28.38100   10.46910
 1900.00000  246.97600  242.73520  250.44810  242.73520   14.93280   -1.30690 2669.13100    0.02390    -999.25    0.02390   66.96660   -1.30690  176.14050  176.14050   23.93850   26.80120   26.80120    -999.25    -999.25   66.96660   72.17290    -999.25   98.32620    0.02110    -999.25    0.02110 2667.91140    -999.25    -999.25  -57.04400  -36.55510   72.17290
 1950.00000  237.38260  234.56070  241.51700  234.56070   23.13780    8.49230 2673.74800    0.02120    -999.25    0.02120   43.21930    8.49230  184.13500  184.13500   33.51750   36.87020   36.87020    -999.25    -999.25   43.21930   45.67880    -999.25   69.49210    0.03520    -999.25    0.03520 2679.98510    -999.25    -999.25  -29.69320  -15.27270   45.67880
 2000.00000  244.82280  241.81520  251.69200  241.81520   27.11590   -7.58220 2647.58500    0.03650    -999.25    0.03650   36.87870   -7.58220  194.02280  194.02280   39.06030   46.16780   46.16780    -999.25    -999.25   36.87870   44.74700    -999.25   59.66610    0.05040    -999.25    0.05040 2648.80440    -999.25    -999.25  -17.58120  -10.28920   44.74700
 2050.00000  273.99980  249.25360  278.34350  249.25360    3.59640    2.65290 2686.40200    0.01380    -999.25    0.01380  278.05530    2.65290  166.07940  166.07940   14.19470   16.22140   16.22140    -999.25    -999.25  278.05530  205.69570    -999.25  196.60360   -0.00120    -999.25   -0.00120 2687.46900    -999.25    -999.25  -78.02100  -73.03170  205.69570
 2100.00000  269.65770  233.30750  262.22250  233.30750    2.20820   -8.44670 2693.58400    0.00960    -999.25    0.00960  452.85120   -8.44670  160.90570  160.90570   14.47950   15.89330   15.89330    -999.25    -999.25  452.85120  356.39520    -999.25  270.73830   -0.00210    -999.25   -0.00210 2692.10550    -999.25    -999.25  -68.47650  -63.79960  356.39520
 2150.00000  272.48540  236.40800  260.39760  236.40800   14.54990    3.81360 2676.82600    0.01940    -999.25    0.01940   68.72900    3.81360  169.21400  169.21400    9.10080    9.64860    9.64860    -999.25    -999.25   68.72900   78.02910    -999.25  116.26860    0.00940    -999.25    0.00940 2683.96480    -999.25    -999.25  -87.84980  -83.48530   78.02910
 2200.00000  305.10300  227.36210  252.47980  227.36210    0.58900  248.74470 2807.47000   -0.05700    -999.25   -0.05700 1697.66670  248.74470  162.26680  162.26680    8.74760   11.17310   11.17310    -999.25    -999.25 1697.66670 1412.54250    -999.25  945.19590    0.00330    -999.25    0.00330 2809.16280    -999.25    -999.25  -91.50380  -87.45180 1412.54250
 2250.00000  265.30340  247.16920  270.47290  247.16920   24.77640    7.28350 2601.75700    0.06330    -999.25    0.06330   40.36100    7.28350  176.85840  176.85840    9.42440   10.69340   10.69340    -999.25    -999.25   40.36100   59.22400    -999.25  342.66120    0.02360    -999.25    0.02360 2602.16160    -999.25    -999.25 -124.06750 -120.32780   59.22400
 2300.00000  333.75970  233.82320  269.22020  233.82320    5.04500  247.50510 2637.49600    0.04240    -999.25    0.04240  198.21560  247.50510  157.63070  157.63070   19.12970   21.33450   21.33450    -999.25    -999.25  198.21560  237.87090    -999.25   74.95940    0.08080    -999.25    0.08080 2640.11380    -999.25    -999.25  -97.40260  -93.97530  237.87090
 2350.00000  282.96240  238.32760  260.15680  238.32760    6.36970    6.07190 2717.69500   -0.00450    -999.25   -0.00450  156.99420    6.07190  167.78090  167.78090   12.01330   13.65610   13.65610    -999.25    -999.25  156.99420  158.92750    -999.25  128.11370    0.00510    -999.25    0.00510 2716.57930    -999.25    -999.25  -46.29640  -43.18150  158.92750
 2400.00000  360.36280  346.02190  293.15040  346.02190   61.16130  246.27900 2608.76800    0.05920    -999.25    0.05920   16.35020  246.27900  208.20790  208.20790   52.09850   60.66590   60.66590    -999.25    -999.25   16.35020   15.55380    -999.25    7.82770    0.13840    -999.25    0.13840 2608.76800    -999.25    -999.25  -15.54220   -4.92970   15.55380
 2450.00000  472.93340  454.03700  368.73760  454.03700  172.94750  149.74870 2370.56500    0.19850    -999.25    0.19850    5.78210  149.74870  267.60010  267.60010   73.57460   83.64560   83.64560    -999.25    -999.25    5.78210    5.56680    -999.25    2.49500    0.34070    -999.25    0.34070 2370.56500    -999.25    -999.25  -22.91260   -5.86370    5.56680
 2500.00000  419.23330  394.07590  365.79560  394.07590  132.50650  111.59120 2385.10000    0.19000    -999.25    0.19000    7.54680  111.59120  247.85530  247.85530   67.97020   76.63750   76.63750    -999.25    -999.25    7.54680    7.11600    -999.25    2.47640    0.28970    -999.25    0.28970 2385.10000    -999.25    -999.25  -27.69440  -18.75270    7.11600
 2550.00000  250.49150  247.40050  248.89760  247.40050   59.33840  110.36290 2639.20600    0.04140    -999.25    0.04140   16.85250  110.36290  209.28510  209.28510   64.05730   72.86590   72.86590    -999.25    -999.25   16.85250   20.15430    -999.25   21.10430    0.14470    -999.25    0.14470 2657.84960    -999.25    -999.25   -3.49260   -3.60220   20.15430
