~Version ---------------------------------------------------
VERS. 2.0 : CWLS log ASCII Standard -VERSION 2.0
WRAP.  NO : ONE LINE PER DEPTH STEP
~Well ------------------------------------------------------
STRT.M                             300.0 : START DEPTH
STOP.M                            1800.0 : STOP DEPTH
STEP.M                          50.00000 : STEP LENGTH
NULL.                            -999.25 : NULL VALUE
COMP. CANADIAN NATURAL RESOURCES LIMITED : COMPANY
WELL.       MLC PANCON NIPISI 10-16-81-8 : WELL
FLD .                             NIPISI : FIELD
LOC .                                    : LOCATION
CTRY.                             CANADA : COUNTRY
SRVC.                              Welex : SERVICE COMPANY
DATE.                        22-Mar-1988 : LOGDATE
PROV.                            Alberta : PROVINCE
UWI .                   100101608108W500 : UNIQUE WELL ID
SLAT.WGS84                 56.0230803916 : SURFACE LATITUDE
SLON.WGS84                -115.184948888 : SURFACE LONGITUDE
~Curve Information -----------------------------------------
DEPT   .M     0   1   0  0 : 1 MEASURED DEPTH
GRD    .GAPI  45 310 01 00 : GAMMA RAY FROM DENSITY LOG
NPOR_LS.DEC   42 890 01 00 : NEUTRON POROSITY LIMESTONE
PE     .B/E   45 358 01 00 : PHOTO ELECTRIC CROSS SECTION
CALY   .MM    45 280 24 00 : CALIPER FROM Y AXIS OF X-Y CALIPER(S)
DPOR_LS.DEC   45 890 10 00 : DENSITY POROSITY LIMESTONE
CORR   .KG/M3 45 356 01 00 : DENSITY CORRECTION
RHOB   .KG/M3 45 350 01 00 : BULK DENSITY
ILD    .OHMM  07 120 46 00 : INDUCTION DEEP RESISTIVITY
ILM    .OHMM  07 120 44 00 : INDUCTION MEDIUM RESISTIVITY
SPR    .MV    07 010 01 00 : SPONTANEOUS POTENTIAL FROM RESISTIVITY LOG
GUARD  .OHMM  07 120 05 00 : GUARD LOG RESISITIVITY
~Params ----------------------------------------------------
PD  .                         GL : PERMANENT DATUM
EPD .M                     658.4 : ELEVATION PERMANENT DATUM
LMF .                         KB : LOG MEASURED FROM
DAPD.M                       5.5 : FEET ABOVE PERMANENT DATUM
DMF .                         KB : DRILLING MEASURED FROM
EKB .M                     663.9 : KELLY BUSHING
EGL .M                     658.4 : GROUND LEVEL
DATE.                  3-22-1988 : RUN DATE
RUN .                          1 : RUN NUMBER
DD  .M                      1810 : DEPTH DRILLER
DL  .M                    1807.7 : DEPTH LOGGER
BLI .M                    1807.2 : BOTTOM LOG INTERVAL
TLI .M                       207 : TOP LOG INTERVAL
CS  .MM                      219 : CASING SIZE
CBD .M                       208 : CASING BOTTOM DRILLER
CBL .M                       207 : CASING BOTTOM LOGGER
BS  .MM                      200 : BIT SIZE
BSD .M                      1810 : BIT SIZE AT DEPTH
DFT .                   GEL CHEM : DRILLING FLUID TYPE
DFD .                       1120 : DRILLING FLUID DENSITY
DFV .                         76 : DRILLING FLUID VISCOSITY
DFPH.                          9 : DRILLING FLUID PH
DFL .                         11 : DRILLING FLUID LOSS
MSS .                   FLOWLINE : MUD SAMPLE SOURCE
RMS .OHMM                   0.78 : RESISTIVITY MUD SAMPLE
MST .DEGC                     27 : MUD SAMPLE TEMPERATURE
RMF .OHMM                   0.75 : RESISTIVITY MUD FILTRATE SAMPLE
MFST.DEGC                     11 : MUD FILTRATE SAMPLE TEMPERATURE
RMC .OHMM                    0.8 : RESISTIVITY MUD CAKE
MCST.DEGC                     14 : MUD CAKE SAMPLE TEMPERATURE
MFSS.                       MEAS : MUD FILTRATE SAMPLE SOURCE
MCSS.                       MEAS : MUD CAKE SAMPLE SOURCE
RMB .OHMM                   0.54 : RESISTIVITY MUD AT BHT
TCS .HRS                     100 : TIME CIRCULATED STOPPED
TLAB.HRS                     650 : TIME LOGGER AT BOTTOM
LUN .                     516521 : LOGGING UNIT NUMBER
LUL .                       4100 : LOGGING UNIT LOCATION
ENGI.                   GHAZOULY : RECORDING ENGINEER
WITN.                    BENNETT : WITNESSED BY
CLNT.                    A2DTECH : CLIENT CODE
ORIG. 6.5"/100M 16.5"/100M PRINT : ORIGIN OF DATA
UWI .           100101608108W500 : UNIQUE WELL ID
DICO.     A2D Technologies, Inc. : DIGITIZING COMPANY
~Other -----------------------------------------------------
~ASCII -----------------------------------------------------
  300.00000   93.90770    0.46790    3.16110  276.94090    0.30390   51.32640 2180.01070    3.44260    3.08980  -27.26410    3.54010
  350.00000   62.23280    0.36800    2.88680  196.32100    0.29180   43.01370 2247.99830    6.87050    7.03560  -45.07240    7.87000
  400.00000   61.09980    0.66640    0.79980  332.45250    0.84820   43.33510 1252.39210    2.02700    1.79410  -20.19070    2.36060
  450.00000   54.89590    0.38680    2.80600  238.15520    0.30900   51.95020 2184.07960    6.08240    5.86160  -49.37430    8.23790
  500.00000   66.18330    0.43550    3.37860  249.37920    0.27280   61.65480 2240.48390    3.98550    3.78270  -42.29720    4.44430
  550.00000   65.56780    0.52900    3.48440  291.28930    0.36840  206.16640 2076.80830    5.32090    4.63630  -42.61190    5.03990
  600.00000   14.12420    0.06640    4.68430  221.89770    0.02430   22.86150 2652.19800   22.40930   21.40010  -66.25450   36.64410
  650.00000   18.18750    0.11060    5.01680  222.19820    0.03950    7.82840 2602.35770   17.84960   16.23330  -68.39150   21.97710
  700.00000   15.22410    0.14610    4.86850  223.77500    0.06820   18.85590 2593.74410   13.56090   12.65060  -69.39820   13.98070
  750.00000   21.93300    0.10640    4.56500  209.99530    0.04360   23.02020 2635.95390   17.67550   16.69580  -61.75240   21.12210
  800.00000   12.85450    0.08890    4.85520  225.20330    0.04680    8.31400 2630.30620   37.29600   32.31270 -106.86710   51.05600
  850.00000   17.57520    0.06910    4.82450  208.29530    0.03790   30.42340 2655.71880  132.69600  118.29140 -118.74750  149.10450
  900.00000    6.42970    0.07200    4.86150  216.51690    0.04640    7.42790 2634.27610   51.15360   51.56450 -115.89590  112.51250
  950.00000    9.58050    0.09730    4.70240  213.87560    0.04910   36.55720 2625.45090   30.42840   31.05600 -120.91650   73.59550
 1000.00000   10.15840    0.02640    4.82190  205.00240    0.00980    4.62010 2692.52080  431.08290  153.94420 -133.28910  206.32990
 1050.00000    9.34140    0.15040    3.52350  205.25290    0.01240   44.75800 2687.87670   25.21710   30.95890 -104.99930  110.70820
 1100.00000   24.06660    0.17890    3.16770  209.43690    0.01600   27.95310 2688.12820   23.90980   27.63960  -82.45850   49.37450
 1150.00000   13.12020    0.14200    3.11760  198.46900   -0.01640   49.96460 2723.15360   40.99220   58.95380 -121.50070  165.52910
 1200.00000   25.00320    0.08300    4.82790  205.29280    0.02240   11.22010 2664.63720   18.54890   19.98730  -51.32940   22.85080
 1250.00000   78.44050    0.35660    3.51260  241.13430    0.23400  228.46250 2296.25850    2.66960    2.58440  -52.49610    3.35380
 1300.00000   83.89060    0.44880    3.63720  271.33540    0.39830  221.09110 2016.83810    2.13220    2.05820  -51.39740    2.46250
 1350.00000   19.27210    0.07640    4.81400  199.86710    0.02050   17.77620 2674.69700   21.05940   20.30830  -71.26450   21.85760
 1400.00000   62.44270    0.18710    4.21020  201.30910    0.03720   56.01540 2649.91430    6.72530    6.99480  -39.91560    8.12270
 1450.00000   74.82780    0.27560    3.78780  264.67670    0.09860   97.15400 2542.06350    3.84550    4.09310  -41.44410    4.82710
 1500.00000   40.72100    0.14320    4.43380  201.28240    0.04440   18.55210 2630.19820   13.41250   18.30320  -42.38000   20.83300
 1550.00000   52.98700    0.18200    4.28100  225.67490    0.04740   26.75100 2629.96140    7.90290    8.11640  -46.49480    8.47560
 1600.00000   55.88210    0.16270    4.28450  211.19890    0.01820   10.22840 2674.85210    8.04820    8.38790  -37.65040    9.99880
 1650.00000   13.50090    0.13620    4.70150  188.85830    0.10190   25.56730 2538.90230    3.94640    4.45810  -93.39110   14.13410
 1700.00000   16.92680    0.03790    4.80510  198.60400   -0.15440   39.77280 2971.30690   95.97920  125.40350 -107.51330  739.77660
 1750.00000  149.25610    0.22790    3.71030  197.31760    0.04610   97.51450 2647.51150    2.67820    2.82800  -64.32910    5.90060
 1800.00000    -999.25    0.27450    4.52340   44.14530    0.10420   88.87260 2535.61840    2.00090    2.10250  -70.14540    2.40650
