~Version ---------------------------------------------------
VERS.      2.0 : CWLS log ASCII Standard -VERSION 2.0
WRAP.       NO : One line per depth step
CREA. 06/23/13 : LAS Creation Date
~Well ------------------------------------------------------
STRT.M                              350.0 : START DEPTH
STOP.M                             2450.0 : STOP DEPTH
STEP.M                           50.00000 : STEP LENGTH
NULL.                             -999.25 : NULL VALUE
COMP.                TALISMAN ENERGY INC. : COMPANY
WELL. BP TRICAL CARBON 16-36-29-23 #16-36 : WELL
FLD .                                     : FIELD
LOC .                                     : LOCATION
CTRY.                              CANADA : COUNTRY
SRVC.                             Unknown : SERVICE COMPANY
DATE.                         09-Sep-1989 : LOGDATE
PROV.                             Alberta : PROVINCE
UWI .                    100163602923W400 : UNIQUE WELL ID
SLAT.WGS84                        51.5291 : SURFACE LATITUDE
SLON.WGS84                      -113.1034 : SURFACE LONGITUDE
~Curve Information -----------------------------------------
DEPT    .M      : DEPTH METER
C1ED    .mm     : CALIPER 1 FROM DENSITY LOG [ADJ. RESISTIVITY LOG]
C2ED    .mm     : CALIPER 2 FROM DENSITY LOG [ADJ. RESISTIVITY LOG]
CALWS   .mm     : CALIPER [C1ED]
CONDWS  .MMHO   : CONDUCTIVITY [1000/DRESWS]
DCORWS  .KG/M3  : DENSITY CORRECTION [DRHOED]
DENWS   .KG/M3  : FORMATION BULK DENSITY [CALC FROM DPOLSWS, M=2710, F=1000]
DPHILSED.V/V    : DENSITY POROSITY LIMESTONE [M=2710, F=1000] FROM DENSITY LOG [ADJ. RESISTIVITY LOG]
DPOLSWS .V/V    : DENSITY POROSITY LIMESTONE [DPHILSED]
DRESWS  .OHMM   : DEEP RESISTIVITY [IDPHED]
DRHOED  .KG/M3  : DENSITY CORRECTION FROM DENSITY LOG [ADJ. RESISTIVITY LOG]
DTED    .us/m   : DELTA TIME FROM SONIC LOG
DTWS    .us/m   : COMPRESSIONAL SONIC [DTED]
GRDED   .GAPI   : GAMMA RAY FROM DENSITY LOG [ADJ. RESISTIVITY LOG]
GRRED   .GAPI   : GAMMA RAY FROM RESISTIVITY LOG
GRWS    .GAPI   : GAMMA RAY [GRRED SPL.TO GRDED @ 2450.1M]
HDED    .mm     : HOLE DIAMETER FROM SONIC LOG
IDPHED  .OHMM   : INDUCTION DEEP PHASOR FROM RESISTIVITY LOG
IMPHED  .OHMM   : INDUCTION MEDIUM PHASOR FROM RESISTIVITY LOG
MRESWS  .OHMM   : MEDIUM RESISTIVITY [IMPHED]
NPHILSED.V/V    : NEUTRON POROSITY LIMESTONE FROM DENSITY LOG [ADJ. RESISTIVITY LOG]
NPOLSWS .V/V    : NEUTRON POROSITY LIMESTONE [NPHILSED]
PEFED   .B/E    : PHOTOELECTRIC FACTOR FROM DENSITY LOG [ADJ. RESISTIVITY LOG]
PEFWS   .B/E    : PHOTOELECTRIC FACTOR [PEFED]
RHOBED  .KG/M3  : BULK DENSITY FROM DENSITY LOG [ADJ. RESISTIVITY LOG]
SFLUED  .OHMM   : SHALLOW FOCUSED FROM RESISTIVITY LOG
SPRED   .MV     : SPONTANEOUS POTENTIAL FROM RESISTIVITY LOG
SPWS    .MV     : SPONTANEOUS POTENTIAL [BASELINE 0 MV, SPRED]
SRESWS  .OHMM   : SHALLOW RESISTIVITY [SFLUED]
TENDED  .N      : TENSION FROM DENSITY LOG [ADJ. RESISTIVITY LOG]
TENRED  .N      : TENSION FROM RESISTIVITY LOG
~Params ----------------------------------------------------
PD  .                           GL : PERMANENT DATUM
EPD .M                       894.3 : ELEVATION PERMANENT DATUM
EKB .M                         899 : KELLY BUSHING
EGL .M                       894.3 : GROUND LEVEL
DATE.                     09/09/89 : RUN DATE
RUN .                            1 : RUN NUMBER
DD  .M                        2471 : DEPTH DRILLER
DL  .M                      2471.1 : DEPTH LOGGER
BLI .M                      2467.9 : BOTTOM LOG INTERVAL
TLI .M                       379.5 : TOP LOG INTERVAL
CS  .MM                      244.5 : CASING SIZE
CBD .M                       379.5 : CASING BOTTOM DRILLER
CBL .M                       379.5 : CASING BOTTOM LOGGER
BS  .MM                        222 : BIT SIZE
BSD .M                        2471 : BIT SIZE AT DEPTH
DFT .                   GEL GYPSUM : DRILLING FLUID TYPE
DFD .                         1080 : DRILLING FLUID DENSITY
DFV .                           73 : DRILLING FLUID VISCOSITY
DFPH.                         10.5 : DRILLING FLUID PH
DFL .                          7.4 : DRILLING FLUID LOSS
MSS .                     FLOWLINE : MUD SAMPLE SOURCE
RMS .OHMM                     1.47 : RESISTIVITY MUD SAMPLE
MST .DEGC                       10 : MUD SAMPLE TEMPERATURE
RMF .OHMM                     1.12 : RESISTIVITY MUD FILTRATE SAMPLE
MFST.DEGC                       18 : MUD FILTRATE SAMPLE TEMPERATURE
RMC .OHMM                     1.17 : RESISTIVITY MUD CAKE
MCST.DEGC                       20 : MUD CAKE SAMPLE TEMPERATURE
MFSS.                        PRESS : MUD FILTRATE SAMPLE SOURCE
MCSS.                   FILTERCAKE : MUD CAKE SAMPLE SOURCE
RMB .OHMM                    0.599 : RESISTIVITY MUD AT BHT
TCS .HRS                       500 : TIME CIRCULATED STOPPED
TLAB.HRS                      1030 : TIME LOGGER AT BOTTOM
LUN .                         8063 : LOGGING UNIT NUMBER
LUL .                     RED DEER : LOGGING UNIT LOCATION
ENGI.                        DAVEL : RECORDING ENGINEER
WITN.                         DUNK : WITNESSED BY
CLNT.                      A2DTECH : CLIENT CODE
ORIG. 6.5"/100M  16.5"/100M  PRINT : ORIGIN OF DATA
UWI .             100163602923W400 : UNIQUE WELL ID
DICO.       A2D Technologies, Inc. : DIGITIZING COMPANY
~Other -----------------------------------------------------
PI-SFL-BHC LOG RUN IN COMBO & CNL-LDT LOG RUN
C1ED,C2ED,TENDED,DIG IN SMALL SCALE @ 379.3M TO 1500M
~ASCII -----------------------------------------------------
# ...
 1550.00000  260.88600  252.12990  260.88600  162.14550  -16.61040 2184.17500    0.30750    0.30750    6.16730  -16.61040  295.12280  295.12280   71.06290   59.15330   59.15330  266.06670    6.16730    4.98290    4.98290    0.42910    0.42910    1.64460    1.64460 2167.71610    7.54020  -27.09750  -25.77390    7.54020 13876.95370 11022.60510
 1600.00000  239.70010  251.83330  239.70010    3.77650    0.81090 2692.38700    0.01030    0.01030  264.79570    0.81090  168.40670  168.40670   16.97180   15.23670   15.23670  246.57690  264.79570  375.82200  375.82200    0.01200    0.01200    4.90270    4.90270 2695.15600  427.59810  -45.65130  -44.50100  427.59810 13817.09090 11491.46900
 1650.00000  229.66870  225.24930  229.66870    7.89820    3.26190 2657.50300    0.03070    0.03070  126.61140    3.26190  174.26620  174.26620   24.91740   22.57490   22.57490  235.81550  126.61140  140.38070  140.38070    0.01930    0.01930    3.93620    3.93620 2658.43240  147.95260  -54.30120  -53.32420  147.95260 14550.40780 11820.61470
 1700.00000  247.38230  245.92400  247.38230   68.21190   -4.13260 2668.27600    0.02440    0.02440   14.66020   -4.13260  222.57690  222.57690   61.37160   59.44530   59.44530  254.01200   14.66020   15.63110   15.63110    0.12750    0.12750    4.20810    4.20810 2667.82150   18.00460   -8.48460   -1.84890   18.00460 14591.50140 11798.49420
 1750.00000  242.22880  243.05040  242.22880   45.88060   14.89140 2701.96300    0.00470    0.00470   21.79570   14.89140  191.13840  191.13840   44.66190   42.88030   42.88030  246.99160   21.79570   29.07280   29.07280    0.05750    0.05750    4.41460    4.41460 2700.58500   52.40800   -4.83780   -7.57300   52.40800 14272.13860 11988.79580
 1800.00000  237.14910  232.30290  237.14910   11.98790   -0.28490 2962.39600   -0.14760   -0.14760   83.41720   -0.28490  165.95970  165.95970    7.81060    6.87440    6.87440  244.55720   83.41720  144.28800  144.28800    0.00860    0.00860    4.71050    4.71050 2962.44750  494.11830  -32.43180  -46.37350  494.11830 14390.14150 12404.11380
 1850.00000  240.79910  233.34030  240.79910   12.81730   -1.90390 2909.55700   -0.11670   -0.11670   78.01950   -1.90390  172.78240  172.78240    9.79730    9.45250    9.45250  246.07790   78.01950   80.55410   80.55410    0.01930    0.01930    4.73690    4.73690 2908.40330  150.61370  -30.58450  -55.73280  150.61370 14514.71130 12546.08940
 1900.00000  246.39850  238.92700  246.39850    0.52380   -4.82970 2936.23300   -0.13230   -0.13230 1909.09800   -4.82970  162.38590  162.38590    9.86780   12.34730   12.34730  254.49620 1909.09800  546.64720  546.64720    0.00460    0.00460    5.37440    5.37440 2936.11960 1946.24680  -50.27450  -86.62930 1946.24680 14994.04190 12600.17400
 1950.00000  237.94350  230.13670  237.94350    8.38900    1.31510 2797.55200   -0.05120   -0.05120  119.20330    1.31510  169.32600  169.32600    5.89820    8.16660    8.16660  241.29780  119.20330  160.83600  160.83600    0.08200    0.08200    3.47830    3.47830 2799.30440  174.34510  -68.83270 -116.43930  174.34510 15434.46870 13160.71090
 2000.00000  240.32670  228.43060  240.32670    7.14870    4.27550 2828.07550   -0.06910   -0.06910  139.88580    4.27550  156.76260  156.76260   26.74510   23.33360   23.33360  246.84690  139.88580  242.46090  242.46090    0.03380    0.03380    3.64690    3.64690 2827.95240  307.88260   -5.06750  -62.30220  307.88260 15738.99730 13290.43040
 2050.00000  237.62540  231.89650  237.62540    2.60440    0.99610 2834.48800   -0.07280   -0.07280  383.97260    0.99610  154.91490  154.91490    6.23040    6.85330    6.85330  246.43390  383.97260 1094.40880 1094.40880    0.04950    0.04950    3.57390    3.57390 2835.48710  493.70160  -92.54410 -153.31660  493.70160 15763.51350 13500.33750
 2100.00000  236.56310  217.53980  236.56310   34.71270   77.20940 2784.89800   -0.04380   -0.04380   28.80790   77.20940  161.99200  161.99200    8.43160    8.54720    8.54720  243.18060   28.80790   47.31110   47.31110    0.09540    0.09540    3.13110    3.13110 2784.44210   98.77390  -10.09930  -74.41570   98.77390 15623.13610 13658.25910
 2150.00000  235.37590  223.54390  235.37590    4.89780   61.21830 2807.12800   -0.05680   -0.05680  204.17140   61.21830  152.69920  152.69920   13.12290   15.43230   15.43230  241.96040  204.17140  481.41530  481.41530    0.07110    0.07110    3.32080    3.32080 2804.31710  514.88440  -62.78100 -130.63820  514.88440 16045.50230 14015.24940
 2200.00000  251.24720  223.68100  251.24720    3.57110   48.79190 2687.42800    0.01320    0.01320  280.02460   48.79190  161.47070  161.47070   12.94940   13.70180   13.70180  242.85390  280.02460  481.40840  481.40840    0.01680    0.01680    4.86930    4.86930 2679.78960  618.22490  -13.77610  -85.17410  618.22490 16690.93610 14154.28880
 2250.00000  239.87960  229.74340  239.87960   27.66340  135.81730 2576.44900    0.07810    0.07810   36.14890  135.81730  174.79690  174.79690   10.08790    9.02400    9.02400  245.33880   36.14890   30.41050   30.41050    0.07620    0.07620    4.38870    4.38870 2577.86080   38.26080  -28.69220 -103.63110   38.26080 16771.04320 14393.04310
 2300.00000  233.91250  238.31900  233.91250    4.97810    4.49800 2696.66200    0.00780    0.00780  200.87830    4.49800  164.35490  164.35490    6.73950    8.56190    8.56190  240.18810  200.87830  301.32980  301.32980    0.01750    0.01750    4.65310    4.65310 2696.18070  275.08400  -59.39710 -137.87680  275.08400 16757.61180 14681.95060
 2350.00000  231.24830  240.92350  231.24830    4.50120   -9.59280 2695.12300    0.00870    0.00870  222.16500   -9.59280  160.29630  160.29630   12.46410   12.12460   12.12460  239.24680  222.16500  166.98420  166.98420    0.01160    0.01160    5.39510    5.39510 2695.82500  203.23540  -58.52690 -140.54740  203.23540 16661.62940 14597.06740
 2400.00000  228.67650  224.45250  228.67650    0.51170    4.73410 2715.47200   -0.00320   -0.00320 1954.39370    4.73410  159.53600  159.53600   11.97730   11.38760   11.38760  248.32900 1954.39370 1981.53000 1981.53000    0.01470    0.01470    4.66940    4.66940 2715.01860 1454.11050 -109.72460 -195.28590 1454.11050 16830.68050 14624.45600
 2450.00000  229.81830  221.42840  229.81830  108.56230    1.04320 2725.73200   -0.00920   -0.00920    9.21130    1.04320  184.46120  184.46120   55.87230   50.00510   50.00510  239.74440    9.21130    9.98220    9.98220    0.10190    0.10190    3.63050    3.63050 2724.73360   13.24840   40.78140  -55.34030   13.24840 17421.25670 15288.02080
