~Version ---------------------------------------------------
VERS.      2.0 : CWLS log ASCII Standard -VERSION 2.0
WRAP.       NO : One line per depth step
CREA. 12/19/14 : LAS Creation Date
~Well ------------------------------------------------------
STRT.FT                     300.0 : START DEPTH
STOP.FT                    9550.0 : STOP DEPTH
STEP.FT                  50.00000 : STEP LENGTH
NULL.                     -999.25 : NULL VALUE
COMP. BRITISH AMERICAN OIL CO LTD : COMPANY
WELL.  B.A. GOOSE RIVER 4-3-67-18 : WELL
FLD .                             : FIELD
LOC .                             : LOCATION
CTRY.                      CANADA : COUNTRY
SRVC.      Schlumberger of Canada : SERVICE COMPANY
DATE.                 18-Oct-1963 : LOGDATE
PROV.                     Alberta : PROVINCE
UWI .            100040306718W500 : UNIQUE WELL ID
SLAT.WGS84               54.76505 : SURFACE LATITUDE
SLON.WGS84               -116.666 : SURFACE LONGITUDE
~Curve Information -----------------------------------------
DEPT.FT    : DEPTH FEET
CALS.IN    : CALIPER FROM SONIC LOG
DT  .US/F  : DELTA-T FROM SONIC LOG
GR  .GAPI  : GAMMA RAY FROM GR LOG
GRS .GAPI  : GAMMA RAY FROM SONIC LOG
MCAL.IN    : MLT CALIPER FROM MLL LOG
MINV.OHMM  : MICROLOG INVERSE FROM MLL LOG
MNOR.OHMM  : MICROLOG NORMAL FROM MLL LOG
~Params ----------------------------------------------------
PD  .                     GL : PERMANENT DATUM
EPD .FT                   26 : ELEVATION PERMANENT DATUM
LMF .                     KB : LOG MEASURED FROM
EKB .FT               2665.5 : KELLY BUSHING
EGL .FT                 2652 : GROUND LEVEL
DATE.               10/18/63 : RUN DATE
RUN .                      1 : RUN NUMBER
DD  .FT                 9550 : DEPTH DRILLER
DL  .FT                 8557 : DEPTH LOGGER
BLI .FT                 9554 : BOTTOM LOG INTERVAL
TLI .FT                  979 : TOP LOG INTERVAL
CBD .FT                  978 : CASING BOTTOM DRILLER
CBL .FT                  979 : CASING BOTTOM LOGGER
BS  .IN                7.875 : BIT SIZE
BSD .FT                 9550 : BIT SIZE AT DEPTH
DFT .               GEL CHEM : DRILLING FLUID TYPE
DFD .                    9.8 : DRILLING FLUID DENSITY
DFV .                    112 : DRILLING FLUID VISCOSITY
DFPH.                      9 : DRILLING FLUID PH
DFL .                    6.8 : DRILLING FLUID LOSS
RMS .OHMM               3.01 : RESISTIVITY MUD SAMPLE
MST .DEGF                 61 : MUD SAMPLE TEMPERATURE
RMF .OHMM               1.85 : RESISTIVITY MUD FILTRATE SAMPLE
MFST.DEGF                 70 : MUD FILTRATE SAMPLE TEMPERATURE
RMC .OHMM               3.02 : RESISTIVITY MUD CAKE
MCST.DEGF                 70 : MUD CAKE SAMPLE TEMPERATURE
RMB .OHMM               0.93 : RESISTIVITY MUD AT BHT
TCS .HRS                   6 : TIME CIRCULATED STOPPED
LUN .                   3704 : LOGGING UNIT NUMBER
LUL .                     VV : LOGGING UNIT LOCATION
ENGI.                  MILLS : RECORDING ENGINEER
WITN.              MCDERMOTT : WITNESSED BY
CLNT.                A2DTECH : CLIENT CODE
ORIG.        2" 5" 25" PRINT : ORIGIN OF DATA
UWI .       100040306718W500 : UNIQUE WELL ID
DICO. A2D Technologies, Inc. : DIGITIZING COMPANY
~Other -----------------------------------------------------
~ASCII -----------------------------------------------------
# ...
 4800.00000   10.68290   83.40890    -999.25   58.35840   10.08330    3.61120    5.60040
 4850.00000    9.20080   77.52200    -999.25   53.15770    9.37350    3.04490    4.94440
 4900.00000   11.08320   82.83450    -999.25   71.06670   11.01840    6.25430    8.75890
 4950.00000   10.93410   75.86510    -999.25   79.88610   10.98070    8.04230    8.03440
 5000.00000   12.45330   80.90200    -999.25   65.77990   12.01660   11.54740    6.33610
 5050.00000   10.37580   73.47060    -999.25   49.77590   10.22760   10.13280   17.87830
 5100.00000   11.14710   75.81700    -999.25   56.56580   10.61900   11.99210   16.36440
 5150.00000   10.43880   78.94120    -999.25   69.91960   10.27650   13.40580   17.33080
 5200.00000   15.52810  140.12670    -999.25   45.50250   16.22610    1.56860    1.74660
 5250.00000   15.65310   96.15800    -999.25   67.52780   12.72840    1.56540    1.73960
 5300.00000   10.26430   95.55840    -999.25  106.69760   10.33650   12.28980   18.66060
 5350.00000   13.42720   99.10790    -999.25   79.66100   10.93450    2.35040    4.17170
 5400.00000    8.98020   62.37450    -999.25   43.56450    9.13650   24.65820   24.80600
 5450.00000    8.77160   71.85550    -999.25   54.61830    8.48650    2.15540    3.65160
 5500.00000   11.10670   70.64780    -999.25   76.02000   10.07850    3.02180    5.19520
 5550.00000   10.21340   68.31810    -999.25   69.29760   11.12470    9.94270   16.15160
 5600.00000    9.00830   54.22550    -999.25   22.94170    8.90520    8.97820   10.60680
 5650.00000    8.86410   52.27970    -999.25   25.13200    9.68100   39.98570   40.02440
 5700.00000    9.31250   52.98510    -999.25   24.53540    9.55340    9.93810   11.13220
 5750.00000    9.66200   63.83250    -999.25   56.60410    9.62710   21.03100   29.61580
 5800.00000    9.32170   56.76110    -999.25   37.58910    9.08770   14.79950   40.02240
 5850.00000    9.13050   54.89540    -999.25   45.60500    9.75980    9.51010   40.03560
 5900.00000    9.36770   57.76150    -999.25   27.01650    9.29530    5.09390    5.49020
 5950.00000    9.25640   57.26220    -999.25   30.62390    8.56170    1.98800    4.26740
 6000.00000    9.16740   61.79330    -999.25   32.76290    9.32530   13.03320   34.28550
 6050.00000    8.92020   52.71120    -999.25   14.19560   10.28390    3.14490    6.30190
 6100.00000    8.06340   59.64840    -999.25   23.14100    8.52290    2.05180    3.77080
 6150.00000    9.01990   52.07650    -999.25   17.20560    9.10260    1.83480    3.59340
 6200.00000    9.46850   63.69520    -999.25   56.30340    9.69750    9.63600   12.83280
 6250.00000   10.89330   67.51450    -999.25   42.84180    9.78610    4.59390    5.06900
 6300.00000   10.64430   72.56530    -999.25   61.40690   10.76060    4.92130    4.41200
 6350.00000    9.73450   58.59180    -999.25   47.04770    9.40390   20.69030   40.04560
 6400.00000    9.40020   59.14590    -999.25   29.35370    9.70720   15.57290   24.55170
 6450.00000    8.89190   56.18460    -999.25   32.49750    8.78080   13.84990   39.62660
 6500.00000    8.82400   53.98180    -999.25   35.24930    8.73280   15.49270   40.06370
 6550.00000    8.85030   56.66170    -999.25   38.70850    8.72060   17.95470    -999.25
 6600.00000    8.92540   57.34340    -999.25   39.11370    8.90980   18.16330    -999.25
 6650.00000    8.80790   55.27950    -999.25   29.86260    8.62170   16.37440    -999.25
 6700.00000    8.88200   55.66450    -999.25   35.78250    8.92300   22.70960    -999.25
 6750.00000    8.92100   55.56400    -999.25   34.29100    8.85810   14.26240    -999.25
 6800.00000    9.40150   67.30370    -999.25   72.43930    9.84160   18.78260   34.69070
 6850.00000    9.84820   61.38370    -999.25   66.42370    9.94350   12.41110   22.74730
 6900.00000    9.39160   51.61770    -999.25   25.52250    9.74320   16.31590    -999.25
 6950.00000    9.38600   50.00180    -999.25   19.50720   10.02060   14.62370    -999.25
 7000.00000    9.30380   51.28700    -999.25   18.67770   10.05710   17.72580    -999.25
 7050.00000    9.40340   52.89520    -999.25   14.76050   10.14200   11.18430   29.43750
 7100.00000    9.50310   50.95020    -999.25   17.89630   10.32200   14.87020   39.72180
 7150.00000    9.84200   49.97700    -999.25   14.34640   10.97030    6.85100   15.36750
 7200.00000    8.85690   52.39650    -999.25   13.38550   10.36240    2.92850    5.99200
 7250.00000    9.52260   48.94390    -999.25   13.41520   10.33160    8.37850   18.42760
 7300.00000    9.50130   48.91800    -999.25   11.97580   10.17230    7.97890   21.22110
 7350.00000    9.31520   50.87310    -999.25   14.67740   10.11050   20.03200   37.53710
 7400.00000    9.06520   49.63070    -999.25   19.03130    9.97720   12.72800   26.15600
 7450.00000    8.87600   50.57320    -999.25   17.89930    9.84130    6.95600   18.35090
 7500.00000    7.79650   54.97850    -999.25   10.36940    7.32530    2.39510    4.80010
 7550.00000    7.52540   59.16060    -999.25   13.74840    7.31190    2.46640    5.01390
 7600.00000    8.42890   52.87190    -999.25   18.62550    8.05510    2.41790    4.84390
 7650.00000    9.24650   63.79820    -999.25   24.27160    9.55550    7.69250   11.22600
 7700.00000    9.14360   49.60010    -999.25   16.80820    8.68420   11.29020   31.09640
 7750.00000    8.72290   48.95410    -999.25   15.16930    8.76130    2.07890    4.16710
 7800.00000    9.15390   51.87980    -999.25   20.55910    9.49330   10.55470   22.57970
 7850.00000    9.14530   54.08170    -999.25   25.26460    9.19550    8.65950   21.96620
 7900.00000   10.07560   64.99500    -999.25   66.30000   10.12930    4.93760    8.29460
 7950.00000    8.97250   52.09610    -999.25   19.15570    9.17360   39.93360    -999.25
 8000.00000    8.88870   60.86330    -999.25   46.59370    8.61570    9.72070   15.67700
 8050.00000   10.41820   58.98240    -999.25   56.22420   10.50170    3.51890   33.79040
 8100.00000   11.50120   56.39650    -999.25   86.05160   11.57210    0.26910   12.23610
 8150.00000   13.21730   78.85340    -999.25   67.28840   13.83810    0.88740    1.20510
 8200.00000   14.51390   82.60450    -999.25   71.98460   16.02880    1.16340    1.35740
 8250.00000   14.77970   82.18450    -999.25   70.93690   16.34830    1.27780    1.51070
 8300.00000   14.77140   84.55360    -999.25   62.73100   15.45240    0.78140    1.09820
 8350.00000   14.96680   77.18620    -999.25   64.18240   14.63900    1.28170    1.40900
 8400.00000   14.50020   85.29630    -999.25   68.00390   14.02140    1.26500    1.44710
 8450.00000   13.38380   79.94790    -999.25   71.95360   12.55650    1.40630    1.57280
 8500.00000    9.14640   63.83540    -999.25   60.06510    9.07220   10.33970   17.60160
 8550.00000    9.21650   66.22090    -999.25   61.36420    9.20100    4.66830   11.26960
 8600.00000   10.01340   68.10670    -999.25   68.59560    9.94290    6.20450    7.89770
 8650.00000    9.15780   68.37320    -999.25   65.88040    9.16830    2.77930    4.90790
 8700.00000    8.89670   65.35870    -999.25   65.47570    8.72690   20.15530   15.23560
 8750.00000    9.18670   68.27170    -999.25   70.04960    9.10680    6.11750    7.22050
 8800.00000   10.26930   80.70710    -999.25   96.22050   10.67630    1.80500    2.60870
 8850.00000    9.02580   78.53060    -999.25   68.65940    9.61220    3.73280    4.92400
 8900.00000    9.62220   70.12150    -999.25   76.43480    9.85940    1.61200    2.50840
 8950.00000    8.74370   71.95040    -999.25  142.65620    8.22820   32.01650    -999.25
 9000.00000    8.57040   58.87700    -999.25   42.04330    8.26300   25.08190   38.61780
 9050.00000    8.78730   88.90710    -999.25  165.18140    8.33150   17.74490   32.35290
 9100.00000    8.40680   54.96730    -999.25   29.88480    8.11490   28.18030    -999.25
 9150.00000    8.58480   54.74910    -999.25   37.67520    8.20160   18.68870   39.97720
 9200.00000    8.75860   53.73010    -999.25   29.87360    8.14530   26.62940   39.88770
 9250.00000    8.47510   54.05250    -999.25    9.51060    8.24520   10.94330   23.94120
