~Version ---------------------------------------------------
VERS.      2.0 : CWLS log ASCII Standard -VERSION 2.0
WRAP.       NO : One line per depth step
CREA. 12/19/14 : LAS Creation Date
~Well ------------------------------------------------------
STRT.FT                            1100.0 : START DEPTH
STOP.FT                           10850.0 : STOP DEPTH
STEP.FT                          50.00000 : STEP LENGTH
NULL.                             -999.25 : NULL VALUE
COMP.        PAN AMERICAN PETROLEUM CORP. : COMPANY
WELL. PAN AM ET AL E-3 KAYBOBS 6-26-59-18 : WELL
FLD .                        KAYBOB SOUTH : FIELD
LOC .                                     : LOCATION
CTRY.                              CANADA : COUNTRY
SRVC.                        Schlumberger : SERVICE COMPANY
DATE.                         16-Jul-1969 : LOGDATE
PROV.                             Alberta : PROVINCE
UWI .                    100062605918W500 : UNIQUE WELL ID
SLAT.WGS84                       54.12901 : SURFACE LATITUDE
SLON.WGS84                       -116.593 : SURFACE LONGITUDE
~Curve Information -----------------------------------------
DEPT .FT    : DEPTH FEET
CALS .IN    : CALIPER FROM SONIC LOG
DT   .US/F  : DELTA-T FROM SONIC LOG
GRS  .GAPI  : GAMMA RAY FROM SONIC LOG
GRT  .GAPI  : THEORETICAL GAMMA RAY VALUE TDT FROM TDT LOG
ILD  .OHMM  : DEEP INDUCTION RESISTIVITY FROM RESISTIVITY LOG
ILM  .OHMM  : MEDIUM INDUCTION RESISTIVITY FROM RESISTIVITY LOG
LL8  .OHMM  : LATEROLOG 8 FROM RESISTIVITY LOG
RATIO.N/A   : RATIO FROM TDT LOG
SIGM .CU    : FORMATION SIGMA (NEUTRON CAPTURE CROSS SECTION) FROM TDT LOG
SIGMA.OHMM  : CORRECTED SHALLOW SHORT GUARD LOG RESISTIVITY FROM TDT LOG
SPR  .MV    : SPONTANEOUS POTENTIAL FROM RESISTIVITY LOG
TAU  .HR    : NEUTRON DECAY TIME FROM TDT LOG
TRAT .N/A   : NEAR/FAR CAPTURE RATIO FROM TDT LOG
~Params ----------------------------------------------------
PD  .              2" OUTLET : PERMANENT DATUM
EPD .FT               2964.7 : ELEVATION PERMANENT DATUM
LMF .                     KB : LOG MEASURED FROM
DAPD.FT                 14.3 : FEET ABOVE PERMANENT DATUM
EKB .FT               2979.0 : KELLY BUSHING
EGL .FT               2964.7 : GROUND LEVEL
DATE.               07/16/69 : RUN DATE
RUN .                      1 : RUN NUMBER
DD  .FT                10855 : DEPTH DRILLER
DL  .FT                10862 : DEPTH LOGGER
BLI .FT                10858 : BOTTOM LOG INTERVAL
TLI .FT                 1104 : TOP LOG INTERVAL
CBD .FT                 1104 : CASING BOTTOM DRILLER
CBL .FT                 1104 : CASING BOTTOM LOGGER
BS  .IN                 8.75 : BIT SIZE
BSD .FT                10855 : BIT SIZE AT DEPTH
DFT .               GEL CHEM : DRILLING FLUID TYPE
DFD .                    9.3 : DRILLING FLUID DENSITY
DFV .                     90 : DRILLING FLUID VISCOSITY
DFPH.                    9.0 : DRILLING FLUID PH
DFL .                    9.2 : DRILLING FLUID LOSS
MSS .                   CIRC : MUD SAMPLE SOURCE
RMS .OHMM                1.6 : RESISTIVITY MUD SAMPLE
MST .DEGF                 62 : MUD SAMPLE TEMPERATURE
RMF .OHMM               1.29 : RESISTIVITY MUD FILTRATE SAMPLE
MFST.DEGF                 67 : MUD FILTRATE SAMPLE TEMPERATURE
RMC .OHMM               1.35 : RESISTIVITY MUD CAKE
MCST.DEGF                 62 : MUD CAKE SAMPLE TEMPERATURE
TCS .HRS                   2 : TIME CIRCULATED STOPPED
LUN .                   7502 : LOGGING UNIT NUMBER
LUL .                    EDM : LOGGING UNIT LOCATION
ENGI.                 EDGSON : RECORDING ENGINEER
WITN.                  REMUS : WITNESSED BY
CLNT.                A2DTECH : CLIENT CODE
ORIG.            2" 5" PRINT : ORIGIN OF DATA
UWI .       100062605918W500 : UNIQUE WELL ID
DICO. A2D Technologies, Inc. : DIGITIZING COMPANY
~Other -----------------------------------------------------
~ASCII -----------------------------------------------------
# ...
 6300.00000   10.10970   75.73080   88.81740    -999.25   11.67840   11.83370   10.97510    -999.25    -999.25    -999.25  -93.27660    -999.25    -999.25
 6350.00000   10.00870   66.50540   59.92290    -999.25   17.00870   19.20520   22.64090    -999.25    -999.25    -999.25  -92.58590    -999.25    -999.25
 6400.00000   10.61220  118.07880   45.94840    -999.25   11.03670   21.15450   26.24460    -999.25    -999.25    -999.25  -86.63240    -999.25    -999.25
 6450.00000   10.52730  109.30050   52.35180    -999.25   15.74540   17.42510   17.91060    -999.25    -999.25    -999.25  -87.12840    -999.25    -999.25
 6500.00000   10.17940   75.33790   59.27820    -999.25   17.09460   18.30710   21.41420    -999.25    -999.25    -999.25  -86.71720    -999.25    -999.25
 6550.00000    9.91770   74.39730   70.96910    -999.25   13.36530   13.97850   17.03220    -999.25    -999.25    -999.25  -81.53530    -999.25    -999.25
 6600.00000    9.86310   73.15440   69.09590    -999.25   12.58310   13.78660   16.01070    -999.25    -999.25    -999.25  -86.94780    -999.25    -999.25
 6650.00000    9.63900   71.88730   58.06610    -999.25   13.67350   14.81580   16.03590    -999.25    -999.25    -999.25  -84.29000    -999.25    -999.25
 6700.00000   10.27370   72.66070   74.92500    -999.25   11.38130   12.14220   12.81020    -999.25    -999.25    -999.25  -82.34180    -999.25    -999.25
 6750.00000   10.20280   71.74220   92.17840    -999.25   13.06410   14.32720   18.27230    -999.25    -999.25    -999.25  -80.32170    -999.25    -999.25
 6800.00000    9.30470   68.64650   45.05050    -999.25   39.43950   46.25220   47.22170    -999.25    -999.25    -999.25  -95.15460    -999.25    -999.25
 6850.00000    9.13380   83.52880   60.33640    -999.25  161.90090  171.73130  361.77900    -999.25    -999.25    -999.25  -81.12270    -999.25    -999.25
 6900.00000    8.92850   73.83310   27.71300    -999.25   23.87750   28.36360   40.51790    -999.25    -999.25    -999.25 -111.35680    -999.25    -999.25
 6950.00000    9.40120   71.17270   34.35260    -999.25   13.95460   16.10110   31.23940    -999.25    -999.25    -999.25 -139.48790    -999.25    -999.25
 7000.00000    9.28600   70.29110   31.28510    -999.25   33.00830   37.20050   53.67540    -999.25    -999.25    -999.25 -110.54370    -999.25    -999.25
 7050.00000    9.70490  120.82460   65.80420    -999.25   12.99590   11.20610    7.28690    -999.25    -999.25    -999.25  -80.85230    -999.25    -999.25
 7100.00000   12.27940   69.93750   77.35980    -999.25    3.22980    3.49070    4.64940    -999.25    -999.25    -999.25  -81.76500    -999.25    -999.25
 7150.00000   11.60890   96.45740   76.83680    -999.25    8.32870    7.03440   12.32100    -999.25    -999.25    -999.25  -83.51630    -999.25    -999.25
 7200.00000    8.92460   69.13620   64.85640    -999.25  212.18590  702.30720  530.65700    -999.25    -999.25    -999.25 -115.06030    -999.25    -999.25
 7250.00000    9.02430   73.95230    -999.25    -999.25  244.68860 1339.51810 1027.77100    -999.25    -999.25    -999.25 -100.36640    -999.25    -999.25
 7300.00000    9.09780   62.37940   60.74520    -999.25   32.49770   41.79680   63.11170    -999.25    -999.25    -999.25 -104.19270    -999.25    -999.25
 7350.00000    9.05790   60.98670   86.52980    -999.25   23.53010   27.48010   32.15770    -999.25    -999.25    -999.25  -87.41190    -999.25    -999.25
 7400.00000    8.96420   49.72110   26.90850    -999.25   24.28040   33.82230   49.99650    -999.25    -999.25    -999.25 -115.99930    -999.25    -999.25
 7450.00000    9.55230   40.22490   25.81900    -999.25  129.23730  556.76260  829.21890    -999.25    -999.25    -999.25 -136.68500    -999.25    -999.25
 7500.00000    9.69950   50.96400   16.00990    -999.25 1303.54680 1565.62020 2209.89580    -999.25    -999.25    -999.25  -90.42210    -999.25    -999.25
 7550.00000    9.11480   48.94200   30.33310    -999.25  768.10880 1546.25620 2197.07930    -999.25    -999.25    -999.25  -79.58440    -999.25    -999.25
 7600.00000    8.88410   49.76740    9.48050    -999.25  158.31580  351.41460 2170.22000    -999.25    -999.25    -999.25 -158.92450    -999.25    -999.25
 7650.00000    9.29950   51.22930   10.02720    -999.25   68.80630   86.66030  335.36420    -999.25    -999.25    -999.25 -175.63280    -999.25    -999.25
 7700.00000    8.99190   61.98760   55.03190    -999.25    4.75280    5.23380   11.15340    -999.25    -999.25    -999.25 -120.11260    -999.25    -999.25
 7750.00000    9.03470   55.95840   61.93220    -999.25   18.90440   24.45170   50.36990    -999.25    -999.25    -999.25 -123.34360    -999.25    -999.25
 7800.00000    9.14430   63.96110   32.44320    -999.25    5.73410    6.36120   11.11590    -999.25    -999.25    -999.25 -116.01870    -999.25    -999.25
 7850.00000    9.11490   56.77960   51.86410    -999.25   49.10520   69.92830  257.38160    -999.25    -999.25    -999.25  -76.87800    -999.25    -999.25
 7900.00000    9.04120   50.56070   17.82280    -999.25  536.68260 1484.51010  739.30970    -999.25    -999.25    -999.25 -148.86590    -999.25    -999.25
 7950.00000    9.36700   50.76340   10.25040    -999.25  160.94080 1123.50130  750.15400    -999.25    -999.25    -999.25 -153.71660    -999.25    -999.25
 8000.00000    9.16500   53.31440   25.73350    -999.25   67.76650  112.41610  165.97490    -999.25    -999.25    -999.25 -118.24770    -999.25    -999.25
 8050.00000    9.21260   52.77620   18.20460    -999.25   45.73720   57.07720  184.72580    -999.25    -999.25    -999.25 -115.20280    -999.25    -999.25
 8100.00000    8.99430   57.58610   42.98650    -999.25   27.71120   32.60640   39.15810    -999.25    -999.25    -999.25  -66.94390    -999.25    -999.25
 8150.00000    8.88570   55.67410   37.94790    -999.25   53.22650   71.43060   81.84410    -999.25    -999.25    -999.25  -69.38100    -999.25    -999.25
 8200.00000    8.89710   52.78330   30.32320    -999.25  472.26730 1440.26370  726.44620    -999.25    -999.25    -999.25  -78.83270    -999.25    -999.25
 8250.00000    8.94990   65.97960   88.22100    -999.25   76.75110  111.61750  120.82620    -999.25    -999.25    -999.25  -64.90520    -999.25    -999.25
 8300.00000    9.14540   50.24970   15.15530    -999.25 1341.35340 1478.58740 2218.19870    -999.25    -999.25    -999.25  -93.16930    -999.25    -999.25
 8350.00000    9.22540   50.24760   10.35980    -999.25 1405.13780 1524.26310 1160.04170    -999.25    -999.25    -999.25 -139.78400    -999.25    -999.25
 8400.00000    9.38780   49.81140   17.58220    -999.25 1374.35730 1484.78810  611.43020    -999.25    -999.25    -999.25 -134.86460    -999.25    -999.25
 8450.00000    9.46780   50.54340   11.73510    -999.25 1428.82170 1515.18180 1554.11190    -999.25    -999.25    -999.25 -153.24130    -999.25    -999.25
 8500.00000    9.71450   48.05360    9.31360    -999.25  866.19820 1522.20090 1366.74760    -999.25    -999.25    -999.25 -162.78340    -999.25    -999.25
 8550.00000    9.54180   47.87460   13.05710    -999.25 1462.94540 1513.51000 2213.46190    -999.25    -999.25    -999.25 -161.03650    -999.25    -999.25
 8600.00000    9.56490   50.34600   12.92640    -999.25  393.36480 1413.49580 2184.64670    -999.25    -999.25    -999.25 -163.95110    -999.25    -999.25
 8650.00000    9.47210   48.56990    8.59670    -999.25  458.11370  310.34420  256.65700    -999.25    -999.25    -999.25 -168.13480    -999.25    -999.25
 8700.00000    9.60780   50.20060    8.79160    -999.25 1361.67810 1485.82040 2228.57500    -999.25    -999.25    -999.25 -169.40080    -999.25    -999.25
 8750.00000    9.57040   49.38660    7.40170    -999.25 1424.23100 1535.43810 2191.14360    -999.25    -999.25    -999.25 -162.12250    -999.25    -999.25
 8800.00000    9.66630   48.90100   10.11300    -999.25 1420.33950 1514.15820 2191.39500    -999.25    -999.25    -999.25 -160.45290    -999.25    -999.25
 8850.00000    9.51960   49.39730   12.84520    -999.25  807.30250 1545.36100 2250.58740    -999.25    -999.25    -999.25 -163.50830    -999.25    -999.25
