~Version ---------------------------------------------------
VERS.      2.0 : CWLS log ASCII Standard -VERSION 2.0
WRAP.       NO : One line per depth step
CREA. 01/02/18 : LAS Creation Date
~Well ------------------------------------------------------
STRT.FT                          1500.0 : START DEPTH
STOP.FT                         13000.0 : STOP DEPTH
STEP.FT                        50.00000 : STEP LENGTH
NULL.                           -999.25 : NULL VALUE
COMP.  AMOCO CANADA PETROLEUM CO., LTD. : COMPANY
WELL. AMOCO ET AL BERLAND D-1 6-7-60-22 : WELL
FLD .                                   : FIELD
LOC .                                   : LOCATION
CTRY.                            CANADA : COUNTRY
SRVC.                      Schlumberger : SERVICE COMPANY
DATE.                       10-Dec-1976 : LOGDATE
PROV.                           Alberta : PROVINCE
UWI .                  100060706022W500 : UNIQUE WELL ID
SLAT.WGS84                     54.17117 : SURFACE LATITUDE
SLON.WGS84                    -117.2921 : SURFACE LONGITUDE
~Curve Information -----------------------------------------
DEPT    .FT    : Depth Curve
CALDED  .IN    : CALIPER FROM DENSITY LOG
CALSED  .IN    : CALIPER FROM SONIC LOG
CALWS   .IN    : CALIPER [CALDED]
CONDWS  .MMHO  : CONDUCTIVITY [1000/DRESWS]
DCORED  .G/C3  : DENSITY CORRECTION FROM DENSITY LOG
DCORWS  .G/C3  : DENSITY CORRECTION [DCORED]
DENWS   .G/C3  : BULK DENSITY [M=2.71 F=1.00] [TOP RHOBED 2287.5 M CALC. DPHISSED 7505' DPHILSED]
DPHILSED.V/V   : DENSITY POROSITY [M=2.71 F=1.00] FROM DENSITY LOG
DPHISSED.V/V   : DENSITY POROSITY [M=2.65 F=1.00] FROM DENSITY LOG
DPOLSWS .V/V   : DENSITY POROSITY [M=2.71 F=1.00] [CALC. FROM DENWS]
DRESWS  .OHMM  : DEEP RESISTIVITY [ILDED]
DTED    .US/F  : DELTA TIME FROM SONIC LOG [DEPTH ADJ TO LL8]
DTWS    .US/F  : DELTA TIME [DTED]
GRDED   .GAPI  : GAMMA RAY FROM DENSITY LOG
GRSED   .GAPI  : GAMMA RAY FROM SONIC LOG
GRWS    .GAPI  : GAMMA RAY [GRSED]
ILDED   .OHMM  : INDUCTION LOG DEEP RESISTIVITY
ILMED   .OHMM  : INDUCTION LOG MEDIUM RESISTIVITY
LL8ED   .OHMM  : 8 INCH LATEROLOG RESISTIVITY
MRESWS  .OHMM  : MEDIUM RESISTIVITY [ILMED]
NPHILSED.V/V   : NEUTRON POROSITY LIMESTONE FROM DENSITY LOG
NPHISSED.V/V   : NEUTRON POROSITY SANDSTONE FROM DENSITY LOG
NPOLSWS .V/V   : NEUTRON POROSITY LIMESTONE [TOP NPHISSED CONVERTED TO LIME FROM POWER LOG, 8750' NPHILSED]
RHOBED  .G/C3  : BULK DENSITY FROM DENSITY LOG [DEPTH ADJ TO LL8]
SPRED   .MV    : SPONTANEOUS POTENTIAL FROM RESISTIVITY LOG
SPWS    .MV    : SPONTANEOUS POTENTIAL [BASELINE 0 MV] [SPRED]
SRESWS  .OHMM  : SHALLOW RESISTIVITY [LL8ED]
~Params ----------------------------------------------------
PD  .                     GL : PERMANENT DATUM
EPD .M                  3639 : ELEVATION PERMANENT DATUM
LMF .                     KB : LOG MEASURED FROM
DAPD.M                    16 : FEET ABOVE PERMANENT DATUM
EKB .M                  3655 : KELLY BUSHING
EGL .M                  3639 : GROUND LEVEL
DATE.             12/10/1976 : RUN DATE
RUN .                      2 : RUN NUMBER
DD  .M                 12990 : DEPTH DRILLER
DL  .M                 13000 : DEPTH LOGGER
BLI .M                 12994 : BOTTOM LOG INTERVAL
TLI .M                  7504 : TOP LOG INTERVAL
CBD .M                  7499 : CASING BOTTOM DRILLER
CBL .M                  7504 : CASING BOTTOM LOGGER
BS  .MM                  8.5 : BIT SIZE
BSD .M                 13000 : BIT SIZE AT DEPTH
DFT .             GEL BARITE : DRILLING FLUID TYPE
DFD .                    9.1 : DRILLING FLUID DENSITY
DFV .                     73 : DRILLING FLUID VISCOSITY
DFPH.                    9.5 : DRILLING FLUID PH
DFL .                    8.9 : DRILLING FLUID LOSS
MSS .               FLOWLINE : MUD SAMPLE SOURCE
RMS .OHMM               1.44 : RESISTIVITY MUD SAMPLE
MST .DEGC                 60 : MUD SAMPLE TEMPERATURE
RMF .OHMM               1.12 : RESISTIVITY MUD FILTRATE SAMPLE
MFST.DEGC                 55 : MUD FILTRATE SAMPLE TEMPERATURE
RMB .OHMM               0.26 : RESISTIVITY MUD AT BHT
TCS .HRS                 6.5 : TIME CIRCULATED STOPPED
LUN .                   7635 : LOGGING UNIT NUMBER
LUL .                    EDM : LOGGING UNIT LOCATION
ENGI.                 MACKAY : RECORDING ENGINEER
WITN.                SHIRLEY : WITNESSED BY
CLNT.                A2DTECH : CLIENT CODE
ORIG.            2" 5" PRINT : ORIGIN OF DATA
UWI .       100060706022W500 : UNIQUE WELL ID
DICO. A2D Technologies, Inc. : DIGITIZING COMPANY
~Other -----------------------------------------------------
SPRED INTERFERENCE CAUSING RANDOM DRIFTING OF THE BASE LINE ABOVE 7218'
~ASCII -----------------------------------------------------
# ...
 4100.00000   13.63220    -999.25   13.63220  231.03230    0.03460    0.03460    2.28970    -999.25    0.19640    0.24580    4.32840   93.61430   93.61430  100.86570   90.92520   90.92520    4.32840    4.28520    4.73180    4.28520    -999.25    0.46670    0.42880    2.28970  -41.09970   -3.93520    4.73180
 4150.00000   12.68620    -999.25   12.68620  124.63540    0.03630    0.03630    2.26360    -999.25    0.21880    0.26110    8.02340   88.59230   88.59230   79.78460   76.41320   76.41320    8.02340    7.43220    8.66560    7.43220    -999.25    0.46450    0.42630    2.26360  -42.40700   -4.43160    8.66560
 4200.00000   14.99720    -999.25   14.99720  121.15630    0.16300    0.16300    1.81890    -999.25    0.49120    0.52110    8.25380   80.64000   80.64000   76.26230   73.92600   73.92600    8.25380    7.77760    7.90330    7.77760    -999.25    0.35500    0.30650    1.81890  -70.50150  -15.71140    7.90330
 4250.00000   15.00000    -999.25   15.00000  137.52510    0.18380    0.18380    1.83600    -999.25    0.47160    0.51110    7.27140   82.90610   82.90610   70.11820   66.46290   66.46290    7.27140    7.02650    7.52240    7.02650    -999.25    0.33190    0.28200    1.83600  -68.52080   -3.51260    7.52240
 4300.00000   15.00000    -999.25   15.00000  157.22530    0.20080    0.20080    1.90440    -999.25    0.45350    0.47110    6.36030   94.60700   94.60700   74.41380   66.30250   66.30250    6.36030    5.82460    6.13800    5.82460    -999.25    0.42900    0.38680    1.90440  -65.44780   -4.44920    6.13800
 4350.00000   12.70880    -999.25   12.70880   41.37570    0.07060    0.07060    2.47990    -999.25    0.10700    0.13460   24.16880   69.22740   69.22740   51.24850   46.43030   46.43030   24.16880   21.32310   19.68450   21.32310    -999.25    0.25960    0.20700    2.47990  -61.93290   -4.94390   19.68450
 4400.00000   12.88970    -999.25   12.88970   19.26340    0.02250    0.02250    2.54300    -999.25    0.05560    0.09770   51.91200   59.17860   59.17860   46.89760   45.69000   45.69000   51.91200   36.99600   61.59100   36.99600    -999.25    0.14420    0.09880    2.54300  -56.19010   -3.21070   61.59100
 4450.00000   14.95440    -999.25   14.95440  107.12830    0.20530    0.20530    1.97570    -999.25    0.41320    0.42940    9.33460   81.69710   81.69710   70.08610   69.35460   69.35460    9.33460    8.37220    7.71000    8.37220    -999.25    0.40260    0.35780    1.97570  -51.29850   -2.32870    7.71000
 4500.00000   15.00350    -999.25   15.00350   98.97760    0.20390    0.20390    1.96880    -999.25    0.42760    0.43350   10.10330   85.48780   85.48780   68.53870   59.26400   59.26400   10.10330    8.89530    7.86920    8.89530    -999.25    0.40840    0.36410    1.96880  -50.08410   -5.12400    7.86920
 4550.00000   15.00000    -999.25   15.00000  145.25590    0.23210    0.23210    1.99380    -999.25    0.40660    0.41880    6.88440   80.52330   80.52330   68.22640   65.73980   65.73980    6.88440    7.13940    7.93920    7.13940    -999.25    0.33900    0.28950    1.99380  -65.29680  -17.17020    7.93920
 4600.00000   15.00000    -999.25   15.00000  116.43750    0.20840    0.20840    2.09590    -999.25    0.33230    0.35910    8.58830   80.23040   80.23040   71.11490   62.29730   62.29730    8.58830    9.00500    9.45340    9.00500    -999.25    0.32080    0.27030    2.09590  -64.77950   -5.94410    9.45340
 4650.00000   14.15510    -999.25   14.15510  322.69510    0.18360    0.18360    2.06220    -999.25    0.34890    0.37880    3.09890   84.39370   84.39370   72.19300   60.90160   60.90160    3.09890    3.40050    4.35330    3.40050    -999.25    0.46970    0.43210    2.06220  -66.71940  -10.74940    4.35330
 4700.00000   15.05210    -999.25   15.05210  125.75140    0.24310    0.24310    2.13120    -999.25    0.31890    0.33850    7.95220  102.15530  102.15530   68.79620   68.07620   68.07620    7.95220    8.41080    6.75180    8.41080    -999.25    0.46750    0.42970    2.13120  -60.82460   -7.71990    6.75180
 4750.00000   13.80830    -999.25   13.80830   65.32570    0.22820    0.22820    2.29040    -999.25    0.23260    0.24540   15.30790   70.07010   70.07010   61.31980   56.37980   56.37980   15.30790   15.99000   16.89360   15.99000    -999.25    0.30590    0.25470    2.29040  -55.15010   -4.91080   16.89360
 4800.00000   15.04050    -999.25   15.04050  135.88060    0.25230    0.25230    2.22300    -999.25    0.27190    0.28480    7.35940   84.95600   84.95600   69.37180   60.79230   60.79230    7.35940    7.95940    7.85810    7.95940    -999.25    0.40030    0.35530    2.22300  -64.40420    2.66850    7.85810
 4850.00000   15.04350    -999.25   15.04350  134.18500    0.25000    0.25000    2.12280    -999.25    0.32160    0.34340    7.45240   91.24530   91.24530   73.68750   64.09640   64.09640    7.45240    8.06260    7.63010    8.06260    -999.25    0.41510    0.37150    2.12280  -53.12720   -0.04260    7.63010
 4900.00000   12.77710    -999.25   12.77710   45.91830    0.04300    0.04300    2.41570    -999.25    0.14470    0.17210   21.77780   76.05280   76.05280   49.49710   46.63450   46.63450   21.77780   20.01070   20.66760   20.01070    -999.25    0.28610    0.23420    2.41570  -56.38070  -27.91520   20.66760
 4950.00000   12.80390    -999.25   12.80390   80.91790    0.08490    0.08490    2.57400    -999.25    0.05070    0.07950   12.35820   78.09920   78.09920   67.94920   63.88250   63.88250   12.35820   11.45100   11.57280   11.45100    -999.25    0.34940    0.30050    2.57400   -8.22400  -17.37100   11.57280
 5000.00000   14.03550    -999.25   14.03550  102.74850    0.22750    0.22750    2.02930    -999.25    0.37630    0.39810    9.73250   80.23440   80.23440   76.04640   66.99090   66.99090    9.73250   10.21160    9.74520   10.21160    -999.25    0.40940    0.36520    2.02930  -12.06980  -14.77850    9.74520
 5050.00000   13.17190    -999.25   13.17190   64.23600    0.16670    0.16670    2.16530    -999.25    0.29830    0.31850   15.56760   71.83660   71.83660   67.05990   55.06250   55.06250   15.56760   16.09950   12.97710   16.09950    -999.25    0.40400    0.35930    2.16530  -13.99400   -7.44670   12.97710
 5100.00000   15.04220    -999.25   15.04220   82.17060    0.21420    0.21420    2.08350    -999.25    0.34500    0.36640   12.16980   80.33470   80.33470   99.73520   95.43530   95.43530   12.16980   12.55640   13.19510   12.55640    -999.25    0.43210    0.39020    2.08350  -34.72420  -17.80980   13.19510
 5150.00000   15.01920    -999.25   15.01920   92.46930    0.22110    0.22110    2.09090    -999.25    0.34130    0.36200   10.81440   79.03250   79.03250  100.91600   90.63420   90.63420   10.81440   11.39430   11.19410   11.39430    -999.25    0.35700    0.30860    2.09090  -48.16150  -20.88000   11.19410
 5200.00000   15.00000    -999.25   15.00000   93.23840    0.22040    0.22040    2.00780    -999.25    0.39170    0.41060   10.72520   79.82190   79.82190  104.51310   99.67140   99.67140   10.72520   11.12040   11.52220   11.12040    -999.25    0.38240    0.33590    2.00780  -51.32250  -13.67390   11.52220
 5250.00000   15.02540    -999.25   15.02540   87.70780    0.22630    0.22630    2.09660    -999.25    0.33710    0.35870   11.40150   78.42280   78.42280   98.64980   97.83100   97.83100   11.40150   11.72250   12.55910   11.72250    -999.25    0.37910    0.33230    2.09660  -75.06570   -6.08130   12.55910
 5300.00000   14.40030    -999.25   14.40030   65.08510    0.12170    0.12170    2.06710    -999.25    0.35460    0.37600   15.36450   83.32510   83.32510  122.55010  115.56260  115.56260   15.36450   14.75750   16.94090   14.75750    -999.25    0.41060    0.36650    2.06710  -74.81460   -5.83020   16.94090
 5350.00000   14.99470    -999.25   14.99470   45.29250    0.24590    0.24590    2.21290    -999.25    0.27670    0.29070   22.07870   75.30420   75.30420   94.35180   94.34210   94.34210   22.07870   19.96770   21.84290   19.96770    -999.25    0.34140    0.29200    2.21290  -72.92020   -3.93580   21.84290
