~Version ---------------------------------------------------
VERS.      2.0 : CWLS log ASCII Standard -VERSION 2.0
WRAP.       NO : One line per depth step
CREA. 11/17/17 : LAS Creation Date
~Well ------------------------------------------------------
STRT.FT                            950.0 : START DEPTH
STOP.FT                           9400.0 : STOP DEPTH
STEP.FT                         50.00000 : STEP LENGTH
NULL.                            -999.25 : NULL VALUE
COMP.       CANADIAN HOMESTEAD OILS LTD. : COMPANY
WELL. HOMESTEAD ET AL SWEATH 10-34-68-19 : WELL
FLD .                                    : FIELD
LOC .                                    : LOCATION
CTRY.                             CANADA : COUNTRY
SRVC.                       Schlumberger : SERVICE COMPANY
DATE.                        03-Mar-1975 : LOGDATE
PROV.                            Alberta : PROVINCE
UWI .                   100103406819W500 : UNIQUE WELL ID
SLAT.WGS84                      54.93303 : SURFACE LATITUDE
SLON.WGS84                     -116.8066 : SURFACE LONGITUDE
~Curve Information -----------------------------------------
DEPT    .FT    : Depth Curve
CALSED  .IN    : CALIPER FROM SONIC LOG
CALWS   .IN    : CALIEPR [CALSED]
CONDWS  .MMHO  : CONDUCTIVITY [1000/DRESWS]
DRESWS  .OHMM  : DEEP RESISTIVITY [ILDED]
DTED    .US/F  : DELTA TIME FROM SONIC LOG
DTWS    .US/F  : COMPRESSIONAL SONIC [DTED]
GRSED   .GAPI  : GAMMA RAY FROM SONIC LOG
GRWS    .GAPI  : GAMMA RAY [GRSED]
ILDED   .OHMM  : DEEP INDUCTION RESISTIVITY FROM RESISTIVITY LOG
ILMED   .OHMM  : MEDIUM INDUCTION RESISTIVITY FROM RESISTIVITY LOG
LL8ED   .OHMM  : 8 INCH LATEROLOG RESISTIVITY FROM RESISTIVITY LOG
MRESWS  .OHMM  : MEDIUM RESISTIVITY [ILMED]
PORALSED.V/V   : SONIC POROSITY LIMESTONE [DTM=47.6, DTF=189] FROM SONIC LOG
SPOLSWS .V/V   : SONIC POROSITY LIMESTONE [PORALSED]
SPRED   .MV    : SPONTANEOUS POTENTIAL FROM RESISTIVITY LOG
SPWS    .MV    : SPONTANEOUS POTENTIAL [BASELINE 0 MV, SPRED]
SRESWS  .OHMM  : SHALLOW RESISTIVITY [LL8ED]
~Params ----------------------------------------------------
PD  .                     GL : PERMANENT DATUM
EPD .FT               2656.5 : ELEVATION PERMANENT DATUM
LMF .                     KB : LOG MEASURED FROM
DAPD.FT                 17.2 : FEET ABOVE PERMANENT DATUM
EKB .FT               2673.7 : KELLY BUSHING
EGL .FT               2656.5 : GROUND LEVEL
DATE.               03/03/75 : RUN DATE
RUN .                      1 : RUN NUMBER
DD  .FT                 9435 : DEPTH DRILLER
DL  .FT                 9447 : DEPTH LOGGER
BLI .FT                 9441 : BOTTOM LOG INTERVAL
TLI .FT                  970 : TOP LOG INTERVAL
CS  .IN                8.625 : CASING SIZE
CBD .FT                  970 : CASING BOTTOM DRILLER
CBL .FT                  970 : CASING BOTTOM LOGGER
BS  .IN                7.875 : BIT SIZE
BSD .FT                 9435 : BIT SIZE AT DEPTH
DFT .               GEL CHEM : DRILLING FLUID TYPE
DFD .                    9.1 : DRILLING FLUID DENSITY
DFV .                    100 : DRILLING FLUID VISCOSITY
DFPH.                    9.5 : DRILLING FLUID PH
DFL .                     12 : DRILLING FLUID LOSS
MSS .               FLOWLINE : MUD SAMPLE SOURCE
RMS .OHMM               2.56 : RESISTIVITY MUD SAMPLE
MST .DEGF                 66 : MUD SAMPLE TEMPERATURE
RMF .OHMM               2.28 : RESISTIVITY MUD FILTRATE SAMPLE
MFST.DEGF                 68 : MUD FILTRATE SAMPLE TEMPERATURE
RMC .OHMM               3.05 : RESISTIVITY MUD CAKE
MCST.DEGF                 67 : MUD CAKE SAMPLE TEMPERATURE
RMB .OHMM               0.76 : RESISTIVITY MUD AT BHT
TCS .HRS                 4.5 : TIME CIRCULATED STOPPED
LUN .                   7730 : LOGGING UNIT NUMBER
LUL .                    EDM : LOGGING UNIT LOCATION
ENGI.                 SMILEY : RECORDING ENGINEER
WITN.                 KENNEY : WITNESSED BY
CLNT.                A2DTECH : CLIENT CODE
ORIG.            2" 5" PRINT : ORIGIN OF DATA
UWI .       100103406819W500 : UNIQUE WELL ID
DICO. A2D Technologies, Inc. : DIGITIZING COMPANY
~Other -----------------------------------------------------
DIL-BCS LOG RUN.
SEVERE SP DRIFT DOWNHOLE. SEVERAL ELECTRICAL BASELINE SHIFTS.
SP BASELINE QUESTIONABLE
~ASCII -----------------------------------------------------
# ...
 7100.00000    8.89350    8.89350    5.14160  194.49030   49.66980   49.66980   17.70340   17.70340  194.49030  237.55160  301.83180  237.55160    0.02370    0.02370  115.00180  -63.29830  301.83180
 7150.00000    8.95850    8.95850   23.08600   43.33320   51.43540   51.43540   10.41230   10.41230   43.33320   63.07230  326.29340   63.07230    0.04040    0.04040   58.60690 -120.09500  326.29340
 7200.00000    8.74480    8.74480   27.56170   36.28220   51.64930   51.64930    7.47900    7.47900   36.28220   42.59730  167.02310   42.59730    0.04100    0.04100   28.86840 -150.23790  167.02310
 7250.00000    8.86500    8.86500   11.77420   84.93110   49.58590   49.58590   10.91300   10.91300   84.93110   94.93150  295.10040   94.93150    0.02500    0.02500  -24.99180 -204.49990  295.10040
 7300.00000    8.75180    8.75180    7.80740  128.13300   49.41170   49.41170   12.76760   12.76760  128.13300  142.46450  250.38340  142.46450    0.02300    0.02300    5.76170 -174.14820  250.38340
 7350.00000    8.68130    8.68130    2.95940  337.91140   49.00040   49.00040   12.13870   12.13870  337.91140  864.25840 1344.93540  864.25840    0.02020    0.02020   68.84870 -111.46560 1344.93540
 7400.00000    8.82080    8.82080    6.78000  147.68090   49.78080   49.78080   12.06330   12.06330  147.68090  161.36480  199.59070  161.36480    0.02660    0.02660   15.19140 -165.52470  199.59070
 7450.00000    8.79730    8.79730    4.80080  208.29960   48.93020   48.93020   15.80280   15.80280  208.29960  362.73100 1362.13560  362.73100    0.01940    0.01940   28.92400 -152.19650 1362.13560
 7500.00000    8.77400    8.77400   13.19510   75.78570   48.41650   48.41650   12.02270   12.02270   75.78570  145.47840  554.71090  145.47840    0.01610    0.01610   -8.38990 -189.91220  554.71090
 7550.00000    7.75960    7.75960   59.38670   16.83930   51.80500   51.80500   17.59030   17.59030   16.83930   31.03050  271.30780   31.03050    0.04300    0.04300   -8.38990 -190.31390  271.30780
 7600.00000    8.64230    8.64230   17.16690   58.25150   48.77540   48.77540   13.31020   13.31020   58.25150   84.33490  139.98680   84.33490    0.01900    0.01900   -8.38990 -190.71840  139.98680
 7650.00000    7.76130    7.76130  130.29470    7.73470   56.64170   56.64170   38.27950   38.27950    7.73470   15.96730   30.37780   15.96730    0.07690    0.07690   30.52390 -152.20630   30.37780
 7700.00000    8.48810    8.48810   31.11750   32.13630   47.67700   47.67700   12.96380   12.96380   32.13630   38.81810   52.95100   38.81810    0.00900    0.00900   94.56240  -88.57220   52.95100
 7750.00000    8.48960    8.48960   80.82380   12.37260   53.23340   53.23340   36.14540   36.14540   12.37260   13.74380   18.72320   13.74380    0.05070    0.05070  110.10190  -73.43450   18.72320
 7800.00000    8.32970    8.32970   17.06520   58.59880   51.88620   51.88620   31.86900   31.86900   58.59880   84.10660  133.82640   84.10660    0.04130    0.04130  148.01210  -35.92610  133.82640
 7850.00000    8.62200    8.62200   72.38300   13.81540   58.30550   58.30550   54.78420   54.78420   13.81540   15.58200   19.70300   15.58200    0.08940    0.08940  159.49810  -24.02020   19.70300
 7900.00000    8.22580    8.22580   16.73150   59.78620   51.67870   51.67870   17.09570   17.09570   59.78620   71.28460   85.67040   71.28460    0.04110    0.04110  103.39500  -77.74720   85.67040
 7950.00000    8.43880    8.43880  154.71730    6.46340   61.36830   61.36830   55.71040   55.71040    6.46340    7.02590   10.95990    7.02590    0.11360    0.11360  127.17300  -51.57750   10.95990
 8000.00000    9.42150    9.42150  134.59310    7.42980   62.53850   62.53850   44.14940   44.14940    7.42980    9.79520   16.55250    9.79520    0.11370    0.11370  153.82480  -22.54960   16.55250
 8050.00000   10.89030   10.89030  185.70090    5.39690   74.24000   74.24000   77.65700   77.65700    5.39690    5.73390    8.64830    5.73390    0.20460    0.20460  120.73460  -53.26370    8.64830
 8100.00000   12.93800   12.93800  254.88750    3.92330   77.66460   77.66460   86.65950   86.65950    3.92330    4.26960    5.24350    4.26960    0.23070    0.23070  114.79260  -56.81400    5.24350
 8150.00000   14.35080   14.35080  333.37970    2.99960   84.19450   84.19450   88.49050   88.49050    2.99960    3.23930    4.48040    3.23930    0.29350    0.29350   71.17290  -98.05760    4.48040
 8200.00000   14.83290   14.83290  280.99360    3.55880   84.23380   84.23380   79.43110   79.43110    3.55880    3.77240    4.85960    3.77240    0.28290    0.28290   86.47800  -80.36080    4.85960
 8250.00000   14.37660   14.37660  309.69340    3.22900   83.16740   83.16740   83.03870   83.03870    3.22900    3.43950    4.73600    3.43950    0.27460    0.27460   92.46440  -71.99830    4.73600
 8300.00000   14.14680   14.14680  300.36340    3.32930   82.97630   82.97630   87.94190   87.94190    3.32930    3.49160    4.72110    3.49160    0.27510    0.27510   93.12000  -68.96660    4.72110
 8350.00000   14.47620   14.47620  308.15690    3.24510   81.35890   81.35890   93.67700   93.67700    3.24510    3.44120    4.66740    3.44120    0.25910    0.25910   66.96590  -92.72900    4.66740
 8400.00000   12.72270   12.72270  303.02650    3.30000   82.62260   82.62260   91.22240   91.22240    3.30000    3.46980    5.10070    3.46980    0.27020    0.27020   66.19370  -91.12510    5.10070
 8450.00000    8.56640    8.56640   98.96380   10.10470   59.96220   59.96220   62.64490   62.64490   10.10470   11.88990   14.65100   11.88990    0.10370    0.10370   91.11850  -63.80860   14.65100
 8500.00000    8.67010    8.67010  120.84150    8.27530   66.30900   66.30900   87.02960   87.02960    8.27530    9.33290   12.07880    9.33290    0.15300    0.15300   70.67970  -81.87130   12.07880
 8550.00000    9.23730    9.23730  177.39530    5.63720   70.64600   70.64600   97.49250   97.49250    5.63720    6.43490    8.30030    6.43490    0.18700    0.18700   63.72870  -86.44620    8.30030
 8600.00000    8.81600    8.81600  150.29010    6.65380   68.59400   68.59400   95.72040   95.72040    6.65380    7.38890    9.75770    7.38890    0.16940    0.16940   89.20420  -58.57890    9.75770
 8650.00000    8.47150    8.47150  136.21620    7.34190   67.48700   67.48700   87.87570   87.87570    7.34190    8.30860   12.10020    8.30860    0.16040    0.16040   65.36780  -80.03930   12.10020
 8700.00000    9.55970    9.55970  214.27500    4.66690   74.32660   74.32660   99.68230   99.68230    4.66690    5.22760    7.28140    5.22760    0.21430    0.21430   49.54940  -93.46590    7.28140
 8750.00000    8.80690    8.80690  188.22110    5.31290   71.58710   71.58710   94.79130   94.79130    5.31290    6.10740    8.46200    6.10740    0.19200    0.19200   88.20480  -52.43440    8.46200
 8800.00000    8.41330    8.41330  156.10160    6.40850   67.95890   67.95890   82.62500   82.62500    6.40850    7.31200   10.13640    7.31200    0.16390    0.16390  132.36850   -5.89460   10.13640
 8850.00000    9.07510    9.07510  244.34340    4.09260   77.10490   77.10490  111.60520  111.60520    4.09260    4.75650    6.23330    4.75650    0.23550    0.23550  101.47000  -57.11140    6.23330
 8900.00000    8.91360    8.91360  240.42450    4.15930   79.70580   79.70580  106.31320  106.31320    4.15930    4.64110    6.44630    4.64110    0.25340    0.25340   73.98370 -104.89540    6.44630
 8950.00000    8.41550    8.41550   67.18260   14.88480   63.24450   63.24450   65.64740   65.64740   14.88480   16.79890   27.57370   16.79890    0.12800    0.12800   63.75580 -135.55450   27.57370
 9000.00000    9.22110    9.22110  174.33450    5.73610   86.43340   86.43340  126.51710  126.51710    5.73610    6.30000    8.92060    6.30000    0.29950    0.29950   28.43360 -191.17430    8.92060
 9050.00000    8.33430    8.33430   52.21740   19.16340   57.55540   57.55540   57.38280   57.38280   19.16340   23.04590   36.94450   23.04590    0.08990    0.08990  113.35480 -126.55080   36.94450
 9100.00000    8.27650    8.27650   37.82420   26.43810   56.00740   56.00740   41.85500   41.85500   26.43810   33.14870   48.33530   33.14870    0.07540    0.07540  201.57710  -58.75970   48.33530
