~Version ---------------------------------------------------
VERS.      2.0 : CWLS log ASCII Standard -VERSION 2.0
WRAP.       NO : One line per depth step
CREA. 10/04/13 : LAS Creation Date
~Well ------------------------------------------------------
STRT.M                          300.0 : START DEPTH
STOP.M                         2600.0 : STOP DEPTH
STEP.M                       50.00000 : STEP LENGTH
NULL.                         -999.25 : NULL VALUE
COMP.            TALISMAN ENERGY INC. : COMPANY
WELL. QUINTANA ET AL TWIN 16-27-32-24 : WELL
FLD .                                 : FIELD
LOC .                                 : LOCATION
CTRY.                          CANADA : COUNTRY
SRVC.                   Dresser Atlas : SERVICE COMPANY
DATE.                     21-Apr-1987 : LOGDATE
PROV.                         Alberta : PROVINCE
UWI .                100162703224W400 : UNIQUE WELL ID
SLAT.WGS84                   51.77942 : SURFACE LATITUDE
SLON.WGS84                   -113.312 : SURFACE LONGITUDE
~Curve Information -----------------------------------------
DEPT    .M      : DEPTH METER
ACED    .US/M   : ACOUSTIC FROM SONIC LOG
CALSED  .MM     : CALIPER FROM SONIC LOG
CALWS   .MM     : CALIPER [CALSED SPL. TO CALXDED @ 1837.2M]
CALXDED .MM     : CALIPER X FROM DENSITY LOG [ADJ. TO RESISTIVITY LOG]
CALYDED .MM     : CALIPER Y FROM DENSITY LOG [ADJ. TO RESISTIVITY LOG]
CNCLSED .V/V    : NEUTRON PORISITY LIMESTONE FROM DENSITY LOG [ADJ. TO RESISTIVITY LOG]
CONDWS  .MMHO   : CONDUCTIVITY [1000/DRESWS]
DCORWS  .KG/M3  : DENSITY CORRECTION [ZCORED]
DENWS   .KG/M3  : FORMATION BULK DENSITY [CALC FROM,DPOLSWS,M=2710,M=1000]
DPOLSWS .V/V    : DENSITY PORISITY LIMESTONE [PORZLSED]
DRESWS  .OHMM   : DEEP RESISTIVITY [RILDED]
DTWS    .US/M   : COMPRESSIONAL SONIC [ACED]
GRDED   .GAPI   : GAMMA RAY FROM DENSITY [ADJ. TO RESISTIVITY LOG]
GRMED   .GAPI   : GAMMA RAY FROM MLL LOG [ADJ. TO RESISTIVITY LOG
GRSED   .GAPI   : GAMMA RAY FROM SONIC LOG
GRWS    .GAPI   : GAMMA RAY [GRSED SPL. TO GRMED @ 2582M]
MCALED  .MM     : CALIPER FROM ML LOG [ADJ. TO RESISTIVITY LOG]
MRESWS  .OHMM   : MEDIUM RESISTIVITY [RILMED]
NPOLSWS .V/V    : NEUTRON PORISITY LIMESTONE [CNCLSED]
PEED    .B/E    : PHOTOELECTRIC FACTOR FROM DENSITY LOG [ADJ. TO RESISTIVITY LOG]
PEFWS   .B/E    : PHOTOELECTRIC FACTOR [PEED]
PORZLSED.V/V    : DENSITY PORISITY LIMESTONE [M=2710,F=1000] FROM DENSITY LOG [ADJ. TO RESISTIVITY LOG]
RFOCED  .OHMM   : SHALLOW FOCUSED RESISTIVITY FROM RESISTIVITY LOG
RILDED  .OHMM   : DEEP INDUCTION RESISTIVITY FROM RESISTIVITY LOG
RILMED  .OHMM   : MEDIUM INDUCTION RESISTIVITY FROM RESISTIVITY LOG
RMLLED  .OHMM   : RAW MICRO-LATEROLOG RESISTIVITY FOM MLL LOG
SPRED   .MV     : SPONTANEOUS POTENTIAL FROM RESISTIVITY LOG
SPWS    .MV     : SPONTANEOUS POTENTIAL [BASELINE 0 MV, SPRED]
SRESWS  .OHMM   : SHALLOW RESISTIVITY [RFOCED]
TENDED  .N      : TENSION FROM DENSITY LOG  [ADJ. TO RESISTIVITY LOG]
TENSED  .N      : TENSION FROM SONIC LOG
ZCORED  .KG/M3  : DENSITY CORRECTION FROM DENSITY LOG [ADJ. TO RESISTIVITY LOG]
ZDENED  .KG/M3  : BULK DENSITY FROM DENSITY LOG [ADJ. TO RESISTIVITY LOG]
~Params ----------------------------------------------------
PD  .                         GL : PERMANENT DATUM
EPD .M                     896.6 : ELEVATION PERMANENT DATUM
LMF .                         KB : LOG MEASURED FROM
DAPD.M                       5.5 : FEET ABOVE PERMANENT DATUM
DMF .                         KB : DRILLING MEASURED FROM
EKB .M                     902.1 : KELLY BUSHING
EGL .M                     896.6 : GROUND LEVEL
DATE.                   04/21/87 : RUN DATE
RUN .                          1 : RUN NUMBER
DD  .M                      2600 : DEPTH DRILLER
DL  .M                    2599.2 : DEPTH LOGGER
BLI .M                    2598.6 : BOTTOM LOG INTERVAL
TLI .M                     456.5 : TOP LOG INTERVAL
CS  .MM                    244.5 : CASING SIZE
CBD .M                       459 : CASING BOTTOM DRILLER
CBL .M                     456.5 : CASING BOTTOM LOGGER
BS  .MM                      222 : BIT SIZE
BSD .M                      2600 : BIT SIZE AT DEPTH
DFT .                   GEL CHEM : DRILLING FLUID TYPE
DFD .                       1110 : DRILLING FLUID DENSITY
DFV .                         80 : DRILLING FLUID VISCOSITY
DFPH.                       11.5 : DRILLING FLUID PH
DFL .                         10 : DRILLING FLUID LOSS
MSS .                   FLOWLINE : MUD SAMPLE SOURCE
RMS .OHMM                   0.61 : RESISTIVITY MUD SAMPLE
MST .DEGC                     18 : MUD SAMPLE TEMPERATURE
RMF .OHMM                   0.52 : RESISTIVITY MUD FILTRATE SAMPLE
MFST.DEGC                     18 : MUD FILTRATE SAMPLE TEMPERATURE
RMC .OHMM                   0.28 : RESISTIVITY MUD CAKE
MCST.DEGC                     18 : MUD CAKE SAMPLE TEMPERATURE
MFSS.                    MEASURE : MUD FILTRATE SAMPLE SOURCE
MCSS.                    MEASURE : MUD CAKE SAMPLE SOURCE
RMB .OHMM                   0.27 : RESISTIVITY MUD AT BHT
TCS .HRS                       6 : TIME CIRCULATED STOPPED
LUN .                    HL 6429 : LOGGING UNIT NUMBER
LUL .                   RED DEER : LOGGING UNIT LOCATION
ENGI.                   FRENETTE : RECORDING ENGINEER
WITN.                      YOPYK : WITNESSED BY
CLNT.                    A2DTECH : CLIENT CODE
ORIG. 6.5"/100M 16.5"/100M PRINT : ORIGIN OF DATA
UWI .           100162703224W400 : UNIQUE WELL ID
DICO.     A2D Technologies, Inc. : DIGITIZING COMPANY
~Other -----------------------------------------------------
DIL-LL-ML-CNL-LDT-BHC LOG RAN
~ASCII -----------------------------------------------------
# ...
 1400.00000  314.95900  339.64670  339.64670    -999.25    -999.25    -999.25  285.09520    -999.25    -999.25    -999.25    3.50760  314.95900    -999.25    -999.25   90.07380   90.07380    -999.25    3.44230    -999.25    -999.25    -999.25    -999.25    4.50350    3.50760    3.44230    -999.25  -37.36690  -19.59480    4.50350    -999.25 -10233.77310    -999.25    -999.25
 1450.00000  238.43210  284.36680  284.36680    -999.25    -999.25    -999.25   69.99860    -999.25    -999.25    -999.25   14.28600  238.43210    -999.25    -999.25   48.80160   48.80160    -999.25   17.13740    -999.25    -999.25    -999.25    -999.25   14.87810   14.28600   17.13740    -999.25  -46.05590  -26.37960   14.87810    -999.25 -10115.87490    -999.25    -999.25
 1500.00000  335.85330  429.87120  429.87120    -999.25    -999.25    -999.25  477.46370    -999.25    -999.25    -999.25    2.09440  335.85330    -999.25    -999.25   66.89590   66.89590    -999.25    1.79970    -999.25    -999.25    -999.25    -999.25    2.35300    2.09440    1.79970    -999.25  -47.30480  -25.72430    2.35300    -999.25 -10981.33260    -999.25    -999.25
 1550.00000  256.87520  326.50540  326.50540    -999.25    -999.25    -999.25  116.14670    -999.25    -999.25    -999.25    8.60980  256.87520    -999.25    -999.25   89.23500   89.23500    -999.25    9.56270    -999.25    -999.25    -999.25    -999.25   10.63220    8.60980    9.56270    -999.25  -54.17650  -30.69180   10.63220    -999.25 -9757.86070    -999.25    -999.25
 1600.00000  239.41760  312.33470  312.33470    -999.25    -999.25    -999.25   69.26260    -999.25    -999.25    -999.25   14.43780  239.41760    -999.25    -999.25   70.20460   70.20460    -999.25   16.39230    -999.25    -999.25    -999.25    -999.25   15.52990   14.43780   16.39230    -999.25  -60.22660  -34.83770   15.52990    -999.25 -6038.36560    -999.25    -999.25
 1650.00000  173.24800  335.44790  335.44790    -999.25    -999.25    -999.25   17.26610    -999.25    -999.25    -999.25   57.91710  173.24800    -999.25    -999.25   19.28690   19.28690    -999.25   62.19480    -999.25    -999.25    -999.25    -999.25   89.45870   57.91710   62.19480    -999.25  -76.12710  -48.83400   89.45870    -999.25 -6016.18340    -999.25    -999.25
 1700.00000  186.88930  294.76500  294.76500    -999.25    -999.25    -999.25   23.48790    -999.25    -999.25    -999.25   42.57510  186.88930    -999.25    -999.25   44.58550   44.58550    -999.25   44.13860    -999.25    -999.25    -999.25    -999.25   45.93000   42.57510   44.13860    -999.25  -70.75200  -41.55480   45.93000    -999.25 -10256.59300    -999.25    -999.25
 1750.00000  205.47210  334.24220  334.24220    -999.25    -999.25    -999.25   55.54750    -999.25    -999.25    -999.25   18.00260  205.47210    -999.25    -999.25   47.13900   47.13900    -999.25   18.69020    -999.25    -999.25    -999.25    -999.25   21.45360   18.00260   18.69020    -999.25  -66.24140  -35.14000   21.45360    -999.25 -10369.50690    -999.25    -999.25
 1800.00000  221.77280  322.93460  322.93460  282.21540  294.69670    0.12930   85.27910   22.70000 2613.04300    0.05670   11.72620  221.77280   55.76360    -999.25   54.46550   54.46550    -999.25   12.58980    0.12930    4.34650    4.34650    0.05670   17.89790   11.72620   12.58980    -999.25  -66.78440  -33.77880   17.89790 -9997.06970 -9606.63530   22.70000 2612.80000
 1850.00000  211.44220  327.45110  319.65630  319.65630  332.87550    0.09130   62.71400  230.60000 2329.35400    0.22260   15.94540  211.44220   52.61490    -999.25   54.47480   54.47480    -999.25   16.35160    0.09130    3.38910    3.38910    0.22260   21.46850   15.94540   16.35160    -999.25  -76.94000  -42.64130   21.46850 -5926.87070 -10358.16430  230.60000 2328.40000
 1900.00000  179.74720  304.67180  272.71490  272.71490  294.70500    0.00900   19.33700  -27.40000 2882.53900   -0.10090   51.71430  179.74720   11.67600    -999.25   13.68350   13.68350    -999.25   50.49540    0.00900    5.43800    5.43800   -0.10090  119.96690   51.71430   50.49540    -999.25  -72.47390  -42.50700  119.96690 -10030.76520 -9130.01350  -27.40000 2881.80000
 1950.00000  155.85610  280.06620  254.33300  254.33300  262.33290    0.04150   10.93150    9.10000 2821.15000   -0.06500   91.47850  155.85610   23.21110    -999.25   24.48700   24.48700    -999.25  117.38380    0.04150    3.34240    3.34240   -0.06500  173.86280   91.47850  117.38380    -999.25  -85.39960  -59.76440  173.86280 -10498.04710 -9926.76910    9.10000 2809.80000
 2000.00000  175.67590  298.98320  270.09450  270.09450  285.95930    0.00720   11.59230  -19.50000 2865.95200   -0.09120   86.26410  175.67590   15.37160    -999.25   15.36740   15.36740    -999.25   71.76750    0.00720    5.17600    5.17600   -0.09120  193.74980   86.26410   71.76750    -999.25  -85.72080  -64.41740  193.74980 -12109.73520 -10280.28400  -19.50000 2863.20000
 2050.00000  191.72890  305.80860  264.74860  264.74860  287.25840    0.11030   63.55100   10.70000 2687.77000    0.01300   15.73540  191.72890   59.89670    -999.25   58.97010   58.97010    -999.25   14.19080    0.11030    2.90250    2.90250    0.01300   34.31100   15.73540   14.19080    -999.25  -97.88570  -80.91410   34.31100 -9962.07210 -9523.08820   10.70000 2688.10000
 2100.00000  166.06120  272.81270  251.92580  251.92580  271.24300    0.05120   14.07420    1.10000 2780.45200   -0.04120   71.05220  166.06120   29.80930    -999.25   36.04320   36.04320    -999.25   49.36990    0.05120    4.08840    4.08840   -0.04120  117.99980   71.05220   49.36990    -999.25 -107.55060  -94.91070  117.99980 -8598.58260 -9220.52960    1.10000 2776.90000
 2150.00000  202.81560  274.33440  251.96780  251.96780  249.49460    0.09930   62.23820    4.10000 2654.59600    0.03240   16.06730  202.81560   80.21030    -999.25   81.97970   81.97970    -999.25   18.92610    0.09930    4.56680    4.56680    0.03240   18.32510   16.06730   18.92610    -999.25  -97.23950  -88.93140   18.32510 -11159.58090 -9492.49110    4.10000 2658.60000
 2200.00000  211.03850  266.55200  248.11880  248.11880  249.81810    0.11810   75.52470   15.80000 2654.93800    0.03220   13.24070  211.03850   89.99690   91.64760   85.13340   85.13340  251.13790   15.05570    0.11810    4.56810    4.56810    0.03220   16.53940   13.24070   15.05570   15.32160  -92.06830  -88.09200   16.53940 -7471.32950 -9771.78080   15.80000 2655.10000
 2250.00000  190.04600  244.07440  243.70920  243.70920  245.27490    0.04610    0.50000   -3.90000 2600.21800    0.06420 2000.00000  190.04600   41.94210   43.93810   42.13510   42.13510  245.50380 2000.00000    0.04610    5.66420    5.66420    0.06420 2000.00000 2000.00000 2000.00000  905.21090  -24.87970  -25.23510 2000.00000 -10406.98320 -9840.44690   -3.90000 2600.10000
 2300.00000  169.80510  273.85570  241.53830  241.53830  317.67860    0.02800    1.56470   45.20000 2466.66700    0.14230  639.10420  169.80510   11.12150   13.16880   14.16610   14.16610  358.52920   73.62070    0.02800    2.89890    2.89890    0.14230  491.36410  639.10420   73.62070    2.15810 -100.17760 -102.69890  491.36410 -10993.56430 -10078.94640   45.20000 2460.20000
 2350.00000  172.10210  251.98690  245.03390  245.03390  247.35460    0.04370    0.50000   10.10000 2711.53900   -0.00090 2000.00000  172.10210   47.51730   44.25870   42.24710   42.24710  247.80430 1112.07100    0.04370    5.09540    5.09540   -0.00090  566.52220 2000.00000 1112.07100  397.64670  -62.71510  -65.23640  566.52220 -11964.36520 -9135.25820   10.10000 2711.80000
 2400.00000  170.11550  288.79540  327.00630  327.00630  252.17140    0.01150    0.50000    -999.25 2458.45900    0.14710 2000.00000  170.11550   23.00160   14.53460   16.92440   16.92440  352.14310  408.48080    0.01150    4.12550    4.12550    0.14710  709.91020 2000.00000  408.48080    1.38370  -98.40020 -100.92150  709.91020 -10364.07360 -9258.61660    -999.25 2459.00000
 2450.00000  184.08870  239.64820  235.28760  235.28760  227.97090    0.07460  190.68690   96.70000 2572.68700    0.08030    5.24420  184.08870   11.02910   12.00400   10.35950   10.35950  218.89670    7.56420    0.07460    4.77020    4.77020    0.08030   26.11550    5.24420    7.56420   25.79940 -103.69090 -106.21220   26.11550 -12861.95570 -8500.79210   96.70000 2570.70000
