~Version ---------------------------------------------------
VERS.      2.0 : CWLS log ASCII Standard -VERSION 2.0
WRAP.       NO : One line per depth step
CREA. 11/17/17 : LAS Creation Date
~Well ------------------------------------------------------
STRT.FT                          1000.0 : START DEPTH
STOP.FT                          9050.0 : STOP DEPTH
STEP.FT                        50.00000 : STEP LENGTH
NULL.                           -999.25 : NULL VALUE
COMP.            SINCLAIR CANADA OIL CO : COMPANY
WELL. SINCLAIR ET AL SUNSET 10-34-70-20 : WELL
FLD .                                   : FIELD
LOC .                                   : LOCATION
CTRY.                            CANADA : COUNTRY
SRVC.                           Unknown : SERVICE COMPANY
DATE.                       23-Mar-1965 : LOGDATE
PROV.                           Alberta : PROVINCE
UWI .                  100103407020W500 : UNIQUE WELL ID
SLAT.WGS84                     55.10692 : SURFACE LATITUDE
SLON.WGS84                     -116.959 : SURFACE LONGITUDE
~Curve Information -----------------------------------------
DEPT  .FT    : Depth Curve
CALWS .IN    : CALIPER [MCALED]
CILDED.MMHO  : CONDUCTIVITY FROM RESISTIVITY LOG
CONDWS.MMHO  : CONDUCTIVITY [1000/DRESWS]
DRESWS.OHMM  : DEEP RESISTIVITY [1000/CILDED IF ILDED < 1, ILDED]
DTED  .US/F  : DELTA-TIME FROM SONIC LOG
DTWS  .US/F  : COMPRESSIONAL SONIC [DTED]
GRSED .GAPI  : GAMMA RAY FROM SONIC LOG
GRWS  .GAPI  : GAMMA RAY [GRSED]
ILDED .OHMM  : DEEP INDUCTION 36' 6" RESISTIVITY FROM RESISTIVITY LOG
MCALED.IN    : MICRO CALIPER FROM ML LOG
SNED  .OHMM  : SHORT NORMAL 16" RESISTIVITY FROM RESISTIVITY LOG
SPRED .MV    : SPONTANEOUS POTENTIAL FROM RESISTIVITY LOG
SPWS  .MV    : SPONTANEOUS POTENTIAL [BASELINE 0 MV, SPRED]
SRESWS.OHMM  : SHALLOW RESISTIVITY [SNED]
~Params ----------------------------------------------------
PD  .                     GL : PERMANENT DATUM
EPD .FT                 2305 : ELEVATION PERMANENT DATUM
LMF .                     GL : LOG MEASURED FROM
EGL .FT                 2305 : GROUND LEVEL
DATE.               03/23/65 : RUN DATE
RUN .                      1 : RUN NUMBER
DD  .FT                 9060 : DEPTH DRILLER
DL  .FT                 9069 : DEPTH LOGGER
BLI .FT                 9068 : BOTTOM LOG INTERVAL
TLI .FT                  955 : TOP LOG INTERVAL
CBD .FT                  950 : CASING BOTTOM DRILLER
CBL .FT                  955 : CASING BOTTOM LOGGER
BS  .IN                7.875 : BIT SIZE
BSD .FT                 9060 : BIT SIZE AT DEPTH
DFT .                    GEL : DRILLING FLUID TYPE
DFD .                    9.8 : DRILLING FLUID DENSITY
DFV .                    141 : DRILLING FLUID VISCOSITY
DFPH.                    9.5 : DRILLING FLUID PH
DFL .                      7 : DRILLING FLUID LOSS
RMS .OHMM               2.22 : RESISTIVITY MUD SAMPLE
MST .DEGF                 62 : MUD SAMPLE TEMPERATURE
RMF .OHMM               1.37 : RESISTIVITY MUD FILTRATE SAMPLE
MFST.DEGF                 65 : MUD FILTRATE SAMPLE TEMPERATURE
RMC .OHMM               1.93 : RESISTIVITY MUD CAKE
RMB .OHMM              0.834 : RESISTIVITY MUD AT BHT
TCS .HRS                   4 : TIME CIRCULATED STOPPED
LUN .                   1576 : LOGGING UNIT NUMBER
LUL .                    WCT : LOGGING UNIT LOCATION
ENGI.              DEMETRICK : RECORDING ENGINEER
WITN.               SHERRIFF : WITNESSED BY
CLNT.                A2DTECH : CLIENT CODE
ORIG.            2" 5" PRINT : ORIGIN OF DATA
UWI .       100103407020W500 : UNIQUE WELL ID
DICO. A2D Technologies, Inc. : DIGITIZING COMPANY
~Other -----------------------------------------------------
IE-BCS-ML LOG RUN
ALL RESISTIVITY DATA FROM SMALL SECTION @ TOP-2696'
~ASCII -----------------------------------------------------
# ...
 3450.00000   10.56690  312.59610  367.97170    2.71760   97.68560   97.68560   82.04550   82.04550    2.71760   10.56690    4.00620  -50.06480  -10.34070    4.00620
 3500.00000    9.32630  253.49650  277.66980    3.60140   95.45220   95.45220   61.30930   61.30930    3.60140    9.32630   10.31600 -105.50130  -65.28010   10.31600
 3550.00000   10.42580  325.82330  367.86340    2.71840   89.98690   89.98690   50.21150   50.21150    2.71840   10.42580    6.06300  -69.73600  -29.01760    6.06300
 3600.00000    8.46140  220.92560  247.45130    4.04120   79.84560   79.84560   62.59320   62.59320    4.04120    8.46140   14.90920 -121.01150  -79.79270   14.90920
 3650.00000    8.27370  218.98340  246.91970    4.04990   89.50290   89.50290   68.26970   68.26970    4.04990    8.27370   16.63520 -115.11150  -73.39550   16.63520
 3700.00000    8.16150  251.89020  282.47790    3.54010   88.60870   88.60870   59.99170   59.99170    3.54010    8.16150   17.27420 -123.11280  -80.89640   17.27420
 3750.00000    8.94290  128.85560  136.50010    7.32600  115.81880  115.81880   55.17510   55.17510    7.32600    8.94290   11.70270  -68.53370  -25.82010   11.70270
 3800.00000    8.21890  254.09840  286.53300    3.49000   90.88170   90.88170   70.83290   70.83290    3.49000    8.21890   12.08240 -106.43980  -63.22910   12.08240
 3850.00000    9.61980  226.94930  254.70570    3.92610   82.93670   82.93670   74.55700   74.55700    3.92610    9.61980    5.28260  -54.99370  -11.28250    5.28260
 3900.00000   15.25470 1076.46510 1076.46510    0.92900  135.81590  135.81590   71.66840   71.66840    0.22750   15.25470    1.47870  -48.12780   -3.91950    1.47870
 3950.00000    8.11590  205.70040  235.17240    4.25220   86.98540   86.98540   53.88200   53.88200    4.25220    8.11590   18.23450 -120.10080  -75.39210   18.23450
 4000.00000    8.24480  248.51790  289.42720    3.45510   91.59730   91.59730   57.15490   57.15490    3.45510    8.24480   12.85850 -118.50570  -73.29980   12.85850
 4050.00000   10.37790  199.44620  223.34390    4.47740   89.22490   89.22490   83.14640   83.14640    4.47740   10.37790    5.72160  -54.30060   -8.59750    5.72160
 4100.00000   16.16630  219.14020  255.84610    3.90860  110.58830  110.58830   95.96060   95.96060    3.90860   16.16630    5.32530  -55.68440   -9.48090    5.32530
 4150.00000   10.82910  186.59260  208.34640    4.79970  113.42230  113.42230   78.73830   78.73830    4.79970   10.82910    6.17800  -50.98280   -5.27980    6.17800
 4200.00000   14.85680  275.78080  302.83760    3.30210  117.51310  117.51310   74.17900   74.17900    3.30210   14.85680    5.28610  -50.44980   -5.82000    5.28610
 4250.00000    9.33690   88.29190   92.16340   10.85030   75.34350   75.34350   78.65970   78.65970   10.85030    9.33690   19.47740  -55.85830  -12.29460   19.47740
 4300.00000    9.62820  157.89470  170.43030    5.86750   86.39320   86.39320   78.83130   78.83130    5.86750    9.62820    8.23230  -51.07830   -8.58080    8.23230
 4350.00000   12.34140  240.62260  265.65360    3.76430  104.45400  104.45400   65.60760   65.60760    3.76430   12.34140    5.50530  -54.08630  -12.66200    5.50530
 4400.00000    9.41360   70.76760   75.60520   13.22660  107.42970  107.42970  131.94150  131.94150   13.22660    9.41360   23.18330  -42.75320   -2.39500   23.18330
 4450.00000    9.11330    9.04220    7.79280  128.32360  108.59410  108.59410  200.75680  200.75680  128.32360    9.11330  117.52140  -45.26680   -6.20520  117.52140
 4500.00000    8.71120    8.46830    7.48550  133.59090   69.87290   69.87290   97.79820   97.79820  133.59090    8.71120  165.27000  -67.21910  -29.51300  165.27000
 4550.00000   14.83070  249.84790  285.81230    3.49880   84.25220   84.25220   77.48950   77.48950    3.49880   14.83070    5.62660  -53.86610  -17.51550    5.62660
 4600.00000    9.40240  297.92900  333.63360    2.99730   74.93880   74.93880   77.46130   77.46130    2.99730    9.40240   10.04980  -91.00750  -56.02120   10.04980
 4650.00000   10.01740  301.78520  362.68680    2.75720   75.24220   75.24220   71.52650   71.52650    2.75720   10.01740   11.42100  -82.58470  -48.95390   11.42100
 4700.00000    8.69350  271.60610  302.06920    3.31050   67.97090   67.97090  190.11810  190.11810    3.31050    8.69350    9.25520  -70.80680  -38.54040    9.25520
 4750.00000    8.44100  297.45640  360.43830    2.77440   57.76280   57.76280   28.47470   28.47470    2.77440    8.44100   24.53170 -162.09170 -131.18070   24.53170
 4800.00000    8.33940  277.66500  322.72640    3.09860   58.22250   58.22250   33.65460   33.65460    3.09860    8.33940   20.02300 -139.59490 -110.03940   20.02300
 4850.00000    9.45140   68.56130   66.69110   14.99450   51.66680   51.66680   37.48950   37.48950   14.99450    9.45140   23.41810  -88.36780  -60.17670   23.41810
 4900.00000    8.83310   75.39600   80.70890   12.39020   49.06580   49.06580   27.11550   27.11550   12.39020    8.83310   81.81860 -149.11730 -122.28170   81.81860
 4950.00000    8.43140   76.02400   82.04720   12.18810   53.85640   53.85640   24.04400   24.04400   12.18810    8.43140   75.07570 -165.17660 -139.70530   75.07570
 5000.00000    9.18940   19.34660   19.56200   51.11950   53.54990   53.54990   35.57190   35.57190   51.11950    9.18940   75.72410  -77.78010  -53.66430   75.72410
 5050.00000    9.19100  537.76160  744.49080    1.34320   75.30590   75.30590   35.14430   35.14430    1.34320    9.19100   13.80740 -137.38350 -114.62320   13.80740
 5100.00000    9.44540  867.06320  867.06320    1.15330   78.44670   78.44670   33.21350   33.21350    0.73510    9.44540   11.10900 -136.21940 -114.82350   11.10900
 5150.00000    9.93930  196.58320  216.41740    4.62070   72.72420   72.72420   28.70650   28.70650    4.62070    9.93930   26.47220 -142.55630 -122.51580   26.47220
 5200.00000    9.23070   84.81210   90.71120   11.02400   55.96690   55.96690   43.21890   43.21890   11.02400    9.23070   25.37540  -54.75870  -36.08260   25.37540
 5250.00000    9.89650   46.45060   51.37950   19.46300   61.83280   61.83280   53.11030   53.11030   19.46300    9.89650   25.16410  -44.26850  -26.94790   25.16410
 5300.00000    8.68740   33.00390   34.64270   28.86610   54.79290   54.79290   20.53520   20.53520   28.86610    8.68740   50.00000 -109.30190  -93.33670   50.00000
 5350.00000   10.47790  554.42090  775.73500    1.28910   66.52420   66.52420   40.11870   40.11870    1.28910   10.47790    6.11050  -94.25180  -79.65100    6.11050
 5400.00000    9.88720  196.07280  211.62680    4.72530   61.84790   61.84790   46.55510   46.55510    4.72530    9.88720   11.65260  -89.03350  -75.78820   11.65260
 5450.00000    9.60490  161.36500  176.44150    5.66760   62.81940   62.81940   40.90570   40.90570    5.66760    9.60490   15.17430  -74.60330  -62.72240   15.17430
 5500.00000   13.06330  136.77570  147.19950    6.79350   72.47270   72.47270   64.04900   64.04900    6.79350   13.06330   10.38460  -59.84040  -49.31490   10.38460
 5550.00000    9.92220  174.02010  189.66330    5.27250   61.51020   61.51020   20.87380   20.87380    5.27250    9.92220   39.82010 -172.87610 -163.70610   39.82010
 5600.00000    9.14290   80.42640   86.20390   11.60040   56.71500   56.71500   22.29290   22.29290   11.60040    9.14290   46.39310 -148.70140 -140.89580   46.39310
 5650.00000    9.21290   81.77360   87.19080   11.46910   56.48470   56.48470   27.15760   27.15760   11.46910    9.21290   50.00000 -160.26440 -153.81420   50.00000
 5700.00000    9.85510   47.01950   46.62530   21.44760   56.08050   56.08050   19.78140   19.78140   21.44760    9.85510   50.00000 -149.60720 -144.52140   50.00000
 5750.00000   10.17830  450.03480  545.22650    1.83410   71.81950   71.81950   65.57670   65.57670    1.83410   10.17830    3.13970  -84.15090  -80.42060    3.13970
 5800.00000    9.79680  354.47910  419.02370    2.38650   89.21050   89.21050   74.37480   74.37480    2.38650    9.79680    4.72500  -67.03780  -64.66300    4.72500
 5850.00000    9.99290   34.25220   34.91780   28.63870   56.12250   56.12250   26.33760   26.33760   28.63870    9.99290   33.43420  -77.72540  -76.71490   33.43420
