~Version ---------------------------------------------------
VERS.      2.0 : CWLS log ASCII Standard -VERSION 2.0
WRAP.       NO : One line per depth step
CREA. 08/17/13 : LAS Creation Date
~Well ------------------------------------------------------
STRT.M                           400.0 : START DEPTH
STOP.M                          2400.0 : STOP DEPTH
STEP.M                        50.00000 : STEP LENGTH
NULL.                          -999.25 : NULL VALUE
COMP.        GULF CANADA RESOURCES INC : COMPANY
WELL. GULF POC AEC IROQUOIS 6-13-75-18 : WELL
FLD .                                  : FIELD
LOC .                                  : LOCATION
CTRY.                           CANADA : COUNTRY
SRVC.                          Unknown : SERVICE COMPANY
DATE.                      09-Feb-1982 : LOGDATE
PROV.                          Alberta : PROVINCE
UWI .                 100061307518W500 : UNIQUE WELL ID
SLAT.WGS84                    55.49456 : SURFACE LATITUDE
SLON.WGS84                   -116.6526 : SURFACE LONGITUDE
~Curve Information -----------------------------------------
DEPT    .M      : DEPTH METER
CALDED  .MM     : CALIPER FROM DENSITY LOG
CALSED  .MM     : CALIPER FROM SONIC LOG [ADJ. TO RESISTIVITY LOG]
CALWS   .MM     : CALIPER [CALSED]
CONDWS  .MMHO   : CONDUCTIVITY [1000/DRESWS]
DCORWS  .KG/M3  : DENSITY CORRECTION [DRHOED]
DENWS   .KG/M3  : FORMATION BULK DENSITY [CALC. FROM DPOLSWS,M=2710,F=1000]
DPHILSED.V/V    : DENSITY POROSITY LIMESTONE [M=2710,F=1000] FROM DENSITY LOG
DPHISSED.V/V    : DENSITY POROSITY SANDSTONE [M=2650,F=1000] FROM DENSITY LOG
DPOLSWS .V/V    : DENSITY POROSITY LIMESTONE [DPHISSED CONVERTED TO LIMESTONE (M=2710,F=1000),SPL. TO DPHILSED @860M]
DRESWS  .OHMM   : DEEP RESISTIVITY [ILDED]
DRHOED  .KG/M3  : DENSITY CORRECTION FROM DENSITY LOG [ADJ. TO DPHILSED]
DTED    .US/M   : DELTA-T FROM SONIC LOG [ADJ. TO RESISTIVITY LOG]
DTWS    .US/M   : COMPRESSIONAL SONIC [DTED]
GRDED   .GAPI   : GAMMA RAY FROM DENSITY LOG
GRSED   .GAPI   : GAMMA RAY FROM SONIC LOG [ADJ. TO RESISTIVITY LOG]
GRWS    .GAPI   : GAMMA RAY [GRSED]
ILDED   .OHMM   : DEEP INDUCTION FROM RESISTIVITY LOG
ILMED   .OHMM   : MEDIUM INDUCTION FROM RESISTIVITY LOG
MRESWS  .OHMM   : MEDIUM RESISTIVITY [ILMED]
NPHILSED.V/V    : NEUTRON POROSITY LIMESTONE FROM DENSITY LOG
NPHISSED.V/V    : NEUTRON POROSITY SANDSTONE FROM DENSITY LOG
NPOLSWS .V/V    : NEUTRON POROSITY LIMESTONE [SLB. NPHISSED MATRIX CONVERSION FOR LIMESTONE,SPL TO NPHILSED @ 860M]
RHOBED  .KG/M3  : BULK DENSITY FROM DENSITY LOG [ADJ. TO DPHILSED]
SFLUED  .OHMM   : SPHERICALLY FOCUSED FROM RESISTIVITY LOG
SPRED   .MV     : SPONTANEOUS POTENTIAL FROM RESISTIVITY LOG
SPWS    .MV     : SPONTANEOUS POTENTIAL [BASELINE 0 MV,SPRED]
SRESWS  .OHMM   : SHALLOW RESISTIVITY [SFLUED]
~Params ----------------------------------------------------
PD  .                         GL : PERMANENT DATUM
EPD .M                    625.05 : ELEVATION PERMANENT DATUM
LMF .                         KB : LOG MEASURED FROM
DAPD.M                      6.55 : FEET ABOVE PERMANENT DATUM
DMF .                         KB : DRILLING MEASURED FROM
EKB .M                     631.6 : KELLY BUSHING
EGL .M                    625.05 : GROUND LEVEL
DATE.                   02/09/82 : RUN DATE
RUN .                          1 : RUN NUMBER
DD  .M                      2411 : DEPTH DRILLER
DL  .M                      2411 : DEPTH LOGGER
BLI .M                      2410 : BOTTOM LOG INTERVAL
TLI .M                       372 : TOP LOG INTERVAL
CS  .MM                      219 : CASING SIZE
CBD .M                       372 : CASING BOTTOM DRILLER
CBL .M                       372 : CASING BOTTOM LOGGER
BS  .MM                      200 : BIT SIZE
BSD .M                      2411 : BIT SIZE AT DEPTH
DFT .                   GEL CHEM : DRILLING FLUID TYPE
DFD .                       1150 : DRILLING FLUID DENSITY
DFV .                         68 : DRILLING FLUID VISCOSITY
DFPH.                         11 : DRILLING FLUID PH
DFL .                        9.5 : DRILLING FLUID LOSS
MSS .                   FLOWLINE : MUD SAMPLE SOURCE
RMS .OHMM                   2.06 : RESISTIVITY MUD SAMPLE
MST .DEGC                   13.3 : MUD SAMPLE TEMPERATURE
RMF .OHMM                   1.84 : RESISTIVITY MUD FILTRATE SAMPLE
MFST.DEGC                   13.3 : MUD FILTRATE SAMPLE TEMPERATURE
RMC .OHMM                  0.912 : RESISTIVITY MUD CAKE
MCST.DEGC                   48.8 : MUD CAKE SAMPLE TEMPERATURE
MFSS.                   FLOWLINE : MUD FILTRATE SAMPLE SOURCE
RMB .OHMM                  1.021 : RESISTIVITY MUD AT BHT
TCS .HRS                    1200 : TIME CIRCULATED STOPPED
TLAB.HRS                    2300 : TIME LOGGER AT BOTTOM
LUN .                       8037 : LOGGING UNIT NUMBER
LUL .                        EDM : LOGGING UNIT LOCATION
ENGI.              BENWOOD AMLIN : RECORDING ENGINEER
WITN.                      THORP : WITNESSED BY
CLNT.                    A2DTECH : CLIENT CODE
ORIG. 6.5"/100M 16.5"/100M PRINT : ORIGIN OF DATA
UWI .           100061307518W500 : UNIQUE WELL ID
DICO.     A2D Technologies, Inc. : DIGITIZING COMPANY
~Other -----------------------------------------------------
DIL-SFL-CNFD TOOL RAN IN COMBO & BCS LOG RAN.
RHOB & DRHO ARE FROM SMALL SCALE log
NEUTRON MATRIX CONVERSION: SCHLUMBERGER
~ASCII -----------------------------------------------------
  400.00000  347.93270  244.07130  244.07130  205.06510   45.64070 2348.05000    -999.25    0.18300    0.21170    4.87650   45.64070  402.99660  402.99660   88.31270   99.90250   99.90250    4.87650    4.69220    4.69220    -999.25    0.43450    0.39240 2342.00730    5.20840  -42.30540   -2.65270    5.20840
  450.00000  424.36160  278.25140  278.25140  353.05750   44.02660 2193.28000    -999.25    0.27680    0.30220    2.83240   44.02660  439.80440  439.80440  118.95200  116.96120  116.96120    2.83240    2.57860    2.57860    -999.25    0.50750    0.46810 2186.89750    2.96900  -45.32440   -3.25080    2.96900
  500.00000  306.19650  222.88430  222.88430  214.44040   56.02710 2313.23500    -999.25    0.20410    0.23200    4.66330   56.02710  366.05700  366.05700   99.64070  102.55470  102.55470    4.66330    4.25430    4.25430    -999.25    0.39290    0.34990 2305.41650    4.54750  -49.81070   -6.46370    4.54750
  550.00000  273.20140  221.00870  221.00870  192.24850   84.64890 2319.50500    -999.25    0.20030    0.22840    5.20160   84.64890  361.05800  361.05800   93.52310   92.05780   92.05780    5.20160    4.76890    4.76890    -999.25    0.39340    0.35040 2321.31400    4.95400  -45.58890   -6.46630    4.95400
  600.00000  211.09110  207.97440  207.97440  258.45140   54.94090 2360.92000    -999.25    0.17520    0.20410    3.86920   54.94090  350.15030  350.15030   83.93260   84.30900   84.30900    3.86920    3.85410    3.85410    -999.25    0.41560    0.37310 2364.75190    3.79180  -43.20740   -5.78170    3.79180
  650.00000  239.93410  212.48630  212.48630  260.97400   42.04910 2293.76500    -999.25    0.21590    0.24340    3.83180   42.04910  346.48880  346.48880   78.23350   80.43240   80.43240    3.83180    3.92770    3.92770    -999.25    0.41370    0.37110 2284.36210    5.06800  -47.28110  -12.28240    5.06800
  700.00000  226.55350  210.26670  210.26670  259.84820   13.24950 2365.70500    -999.25    0.17230    0.20130    3.84840   13.24950  348.63960  348.63960   86.96390   85.94240   85.94240    3.84840    4.02760    4.02760    -999.25    0.41120    0.36860 2364.57500    4.05270  -43.57110  -11.63430    4.05270
  750.00000  205.70140  200.40370  200.40370  329.24980   34.95550 2254.82500    -999.25    0.23950    0.26620    3.03900   34.95550  344.96890  344.96890   65.84110   73.24360   73.24360    3.03900    3.94210    3.94210    -999.25    0.42530    0.38300 2254.25970    5.69390  -67.95470  -36.49780    5.69390
  800.00000  217.30950  202.49570  202.49570  221.64770   37.62260 2340.95500    -999.25    0.18730    0.21580    4.51480   37.62260  322.13540  322.13540   65.35170   60.15180   60.15180    4.51480    5.25480    5.25480    -999.25    0.37650    0.33320 2342.49460    7.39690  -58.34190  -31.11820    7.39690
  850.00000  249.86230  221.84350  221.84350  287.69650  170.25460 2094.11500    -999.25    0.33690    0.36020    3.47710  170.25460  325.82220  325.82220   76.83280   79.23970   79.23970    3.47710    3.26020    3.26020    -999.25    0.45590    0.41440 2088.18340    3.88950  -28.79260   -3.82140    3.88950
  900.00000  212.54810  204.88830  204.88830   78.05820   77.18560 2311.57000    0.23300    0.20870    0.23300   12.81190   77.18560  295.28820  295.28820   52.53660   57.48380   57.48380   12.81190   16.52920   16.52920    0.24210    0.28750    0.24210 2312.44750   28.41650  -63.94680  -37.38560   28.41650
  950.00000  259.08510  211.22520  211.22520   20.03310   15.18840 2293.95700    0.24330    0.21340    0.24330   49.91740   15.18840  315.64430  315.64430   97.43810   93.92130   93.92130   49.91740   85.26390   85.26390    0.33390    0.37260    0.33390 2299.37130 1553.14310  -58.79620  -33.99450 1553.14310
 1000.00000  196.00320  204.01100  204.01100  303.84050   55.35920 2528.74000    0.10600    0.07330    0.10600    3.29120   55.35920  217.64060  217.64060   19.39630   17.91490   17.91490    3.29120    4.73470    4.73470    0.23610    0.28380    0.23610 2527.14180   18.94710 -116.94860  -84.22020   18.94710
 1050.00000  254.87750  234.34160  234.34160   11.43500   14.91600 2687.59900    0.01310   -0.02300    0.01310   87.45060   14.91600  166.66330  166.66330   28.14500   24.08270   24.08270   87.45060  111.80900  111.80900    0.00790    0.03330    0.00790 2687.11350  414.28150  -53.83850  -13.18350  414.28150
 1100.00000  223.59480  227.37740  227.37740   41.89200   12.66010 2676.48400    0.01960    -999.25    0.01960   23.87090   12.66010  177.01160  177.01160   23.41600   32.03360   32.03360   23.87090   27.70320   27.70320    0.05620    -999.25    0.05620 2664.23190   63.36650  -84.47410  -49.85890   63.36650
 1150.00000  244.37870  244.43950  244.43950  105.16910  -12.82220 2461.87900    0.14510    -999.25    0.14510    9.50850  -12.82220  208.99380  208.99380   36.30690   38.23120   38.23120    9.50850   12.07150   12.07150    0.10050    -999.25    0.10050 2502.64060   18.96940  -37.66150  -15.77230   18.96940
 1200.00000  247.11200  259.87070  259.87070   92.90920  116.54680 2605.00600    0.06140    -999.25    0.06140   10.76320  116.54680  204.76010  204.76010   31.51120   32.15920   32.15920   10.76320   10.88140   10.88140    0.10570    -999.25    0.10570 2606.29080   13.50610  -50.50180  -30.55930   13.50610
 1250.00000  346.29340  297.46000  297.46000  158.12780  139.87680 1884.75400    0.48260    -999.25    0.48260    6.32400  139.87680  252.18370  252.18370   54.47940   54.90360   54.90360    6.32400    4.98460    4.98460    0.29510    -999.25    0.29510 1844.42240    6.35060  -28.33180   -9.51470    6.35060
 1300.00000  232.25470  209.36510  209.36510   31.87400    7.06990 2608.68250    0.05920    -999.25    0.05920   31.37360    7.06990  179.00330  179.00330   18.44190   17.65740   17.65740   31.37360   33.65380   33.65380    0.03570    -999.25    0.03570 2607.55880   77.79550  -96.42090  -64.88410   77.79550
 1350.00000  312.55660  260.37640  260.37640  234.66990   37.70040 2286.77500    0.24750    -999.25    0.24750    4.27020   37.70040  254.10170  254.10170   59.48400   60.52880   60.52880    4.27020    4.47260    4.47260    0.26190    -999.25    0.26190 2301.29740    4.51310  -44.08460  -12.26830    4.51310
 1400.00000  298.08690  246.70630  246.70630   77.78820   12.05840 2603.89450    0.06210    -999.25    0.06210   12.90850   12.05840  199.79110  199.79110   34.62760   34.99820   34.99820   12.90850   14.16160   14.16160    0.06730    -999.25    0.06730 2600.19420   22.62880  -29.34390   -6.57770   22.62880
 1450.00000  244.22260  215.75410  215.75410   73.42000   29.51490 2687.51350    0.01320    -999.25    0.01320   13.62190   29.51490  200.77280  200.77280   32.34120   32.48970   32.48970   13.62190   13.06060   13.06060    0.06090    -999.25    0.06090 2682.61050   19.45060  -34.63420   -5.52400   19.45060
 1500.00000  273.82150  236.42160  236.42160  109.70190   20.44960 2652.71500    0.03350    -999.25    0.03350    9.11580   20.44960  218.65730  218.65730   45.17330   42.90880   42.90880    9.11580    8.82440    8.82440    0.08840    -999.25    0.08840 2654.66060   11.41660  -34.37240   -6.32510   11.41660
 1550.00000  424.89030  275.63940  275.63940  403.92620  113.70920 2130.82300    0.33870    -999.25    0.33870    2.47570  113.70920  344.18520  344.18520  113.97120  116.64800  116.64800    2.47570    2.28510    2.28510    0.47210    -999.25    0.47210 2126.81200    2.77570  -34.78360   -7.09130    2.77570
 1600.00000  266.38700  223.53890  223.53890    5.27720   13.99740 2707.60600    0.00140    -999.25    0.00140  189.49330   13.99740  165.41330  165.41330   12.45770   16.74350   16.74350  189.49330  132.16440  132.16440   -0.00500    -999.25   -0.00500 2709.76540  311.84420  -70.31680  -42.03920  311.84420
 1650.00000  272.00730  235.98410  235.98410   39.07590   24.10140 2639.20600    0.04140    -999.25    0.04140   25.59120   24.10140  172.61690  172.61690   14.15920   15.45910   15.45910   25.59120   34.51580   34.51580    0.01780    -999.25    0.01780 2639.27830  175.01220 -136.07100 -107.04110  175.01220
