~Version ---------------------------------------------------
VERS.      2.0 : CWLS log ASCII Standard -VERSION 2.0
WRAP.       NO : One line per depth step
CREA. 01/05/18 : LAS Creation Date
~Well ------------------------------------------------------
STRT.FT                         300.0 : START DEPTH
STOP.FT                       11250.0 : STOP DEPTH
STEP.FT                      50.00000 : STEP LENGTH
NULL.                         -999.25 : NULL VALUE
COMP.            MOBIL OIL CANADA LTD : COMPANY
WELL. MOBIL ET AL ROSEVEAR 10-4-54-15 : WELL
FLD .                              WC : FIELD
LOC .                                 : LOCATION
CTRY.                          CANADA : COUNTRY
SRVC.                    Schlumberger : SERVICE COMPANY
DATE.                     09-Jul-1971 : LOGDATE
PROV.                         Alberta : PROVINCE
UWI .                100100405415W500 : UNIQUE WELL ID
SLAT.WGS84                   53.63557 : SURFACE LATITUDE
SLON.WGS84                  -116.1457 : SURFACE LONGITUDE
~Curve Information -----------------------------------------
DEPT    .FT    : Depth Curve
CALDED  .IN    : CALIPER FROM DENSITY LOG [ADJ. TO RESISTIVITY LOG]
CALNED  .IN    : CALIPER FROM NEUTRON LOG [ADJ. TO RESISTIVITY LOG]
CALSED  .IN    : CALIPER FROM SONIC LOG [ADJ. TO RESISTIVITY LOG]
CALWS   .IN    : CALIPER [CALSED]
CILDED  .MMHO  : CONDUCTIVITY FROM RESISTIVITY LOG
CONDWS  .MMHO  : CONDUCTIVITY [1000/DRESWS]
DCORWS  .G/C3  : DENSITY CORRECTION [DRHOED]
DENWS   .G/C3  : FORMATION BULK DENSITY [RHOBED]
DPHILSED.V/V   : DENSITY POROSITY LIMESTONE [M=2.71 F=1.00] FROM DENSITY LOG [ADJ. TO RESISTIVITY LOG]
DPOLSWS .V/V   : DENSITY POROSITY LIMESTONE [CALC FROM DENWS, M=2.71 F=1.00]
DRESWS  .OHMM  : DEEP RESISTIVITY [1000/CILDED IF ILDED <=1, ILDED]
DRHOED  .G/C3  : DENSITY CORRECTION FROM DENSITY LOG [ADJ. TO RESISTIVITY LOG]
DTED    .US/F  : DELTA-T FROM SONIC LOG [ADJ. TO RESISTIVITY LOG]
DTWS    .US/F  : COMPRESSIONAL SONIC [DTED]
GRDED   .GAPI  : GAMMA RAY FROM DENSITY LOG [ADJ. TO RESISTIVITY LOG]
GRNED   .GAPI  : GAMMA RAY NEUTRON LOG [ADJ. TO RESISTIVITY LOG]
GRSED   .GAPI  : GAMMA RAY FROM SONIC LOG [ADJ. TO RESISTIVITY LOG]
GRWS    .GAPI  : GAMMA RAY [GRSED]
ILDED   .OHMM  : DEEP INDUCTION FROM RERSISTIVITY LOG
MCALED  .IN    : CALIPER FROM MICROLOG
NPOLSWS .V/V   : NEUTRON POROSITY LIMESTONE [SNPLSED]
RHOBED  .G/C3  : BULK DENSITY FROM DENSITY LOG  [ADJ. TO RESISTIVITY LOG]
SNED    .OHMM  : SHORT NORMAL RESISTIVITY FROM RESISTIVITY LOG
SNPLSED .V/V   : SIDE WALL NEUTRON POROSITY FROM DENSITY LOG [ADJ. TO RESISTIVITY LOG]
SPRED   .MV    : SPONTANEOUS POTENTIAL FROM RESISTIVITY LOG
SPWS    .MV    : SPONTANEOUS POTENTIAL [BASELINE 0 MV, SPRED]
SRESWS  .OHMM  : SHALLOW RESISTIVITY [SNED]
~Params ----------------------------------------------------
PD  .                     GL : PERMANENT DATUM
EPD .FT                 2903 : ELEVATION PERMANENT DATUM
LMF .                     KB : LOG MEASURED FROM
DAPD.FT                   13 : FEET ABOVE PERMANENT DATUM
EKB .FT                 2916 : KELLY BUSHING
EGL .FT                 2903 : GROUND LEVEL
DATE.               07/09/71 : RUN DATE
RUN .                      1 : RUN NUMBER
DD  .FT                11300 : DEPTH DRILLER
DL  .FT                11289 : DEPTH LOGGER
BLI .FT                11288 : BOTTOM LOG INTERVAL
TLI .FT                 1176 : TOP LOG INTERVAL
CBD .FT                 1176 : CASING BOTTOM DRILLER
CBL .FT                 1176 : CASING BOTTOM LOGGER
BS  .IN                 8.75 : BIT SIZE
BSD .FT                11300 : BIT SIZE AT DEPTH
DFT .                    GEL : DRILLING FLUID TYPE
DFD .                    9.1 : DRILLING FLUID DENSITY
DFV .                    100 : DRILLING FLUID VISCOSITY
DFPH.                     11 : DRILLING FLUID PH
DFL .                    8.2 : DRILLING FLUID LOSS
RMS .OHMM               2.46 : RESISTIVITY MUD SAMPLE
MST .DEGF                 71 : MUD SAMPLE TEMPERATURE
RMF .OHMM               2.36 : RESISTIVITY MUD FILTRATE SAMPLE
MFST.DEGF                 72 : MUD FILTRATE SAMPLE TEMPERATURE
RMC .OHMM               2.22 : RESISTIVITY MUD CAKE
MCST.DEGF                 72 : MUD CAKE SAMPLE TEMPERATURE
TCS .HRS                   5 : TIME CIRCULATED STOPPED
LUN .                   7501 : LOGGING UNIT NUMBER
LUL .                    EDM : LOGGING UNIT LOCATION
ENGI.                  PLUNE : RECORDING ENGINEER
WITN.                   DOAN : WITNESSED BY
CLNT.                A2DTECH : CLIENT CODE
ORIG.            2" 5" PRINT : ORIGIN OF DATA
UWI .       100100405415W500 : UNIQUE WELL ID
DICO. A2D Technologies, Inc. : DIGITIZING COMPANY
~Other -----------------------------------------------------
~ASCII -----------------------------------------------------
# ...
 6800.00000   11.71510    9.40840    9.91170    9.91170   79.99110   79.84670    0.25000    2.10780    0.40850    0.35220   12.52400    0.25000   77.39960   77.39960   87.09060   87.18530   86.82280   86.82280   12.52400   10.83240    0.29810    2.10780   14.31460    0.29810 -106.95100   -3.66390   14.31460
 6850.00000    8.92940    9.25170    9.53870    9.53870   50.82520   50.84200    0.04740    2.67340    0.05660    0.02140   19.66900    0.04740   66.58660   66.58660   82.51840   80.80280   79.77680   79.77680   19.66900    8.93640    0.10590    2.67340   23.39540    0.10590 -105.10810   -4.37500   23.39540
 6900.00000    8.99860    9.35460    9.81630    9.81630   64.37020   63.95460    0.04430    2.55840    0.09020    0.08870   15.63610    0.04430   66.82230   66.82230   58.50260   56.76490   61.60880   61.60880   15.63610    9.05400    0.09580    2.55840   20.72240    0.09580 -116.81710  -18.70740   20.72240
 6950.00000   11.85020   10.29000   11.14300   11.14300   57.70430   54.28430    0.24480    2.07740    0.58120    0.36990   18.58740    0.24480   79.22040   79.22040   84.44070   85.70880   82.25950   82.25950   18.58740   10.18910    0.33820    2.07740   23.39260    0.33820 -102.83740   -7.37750   23.39260
 7000.00000    9.94630    9.93600   10.24070   10.24070   31.06570   30.57280    0.22280    2.23640    0.29210    0.27700   32.70880    0.22280   96.23450   96.23450   64.27720   61.83310   59.70630   59.70630   32.70880   10.16940    0.37680    2.23640   43.56540    0.37680  -98.98380   -6.14750   43.56540
 7050.00000    8.96580    9.38830    9.67740    9.67740   65.69640   65.12750    0.03000    2.62060    0.05420    0.05230   15.35450    0.03000   69.84510   69.84510   79.65860   77.49310   78.66020   78.66020   15.35450    9.13330    0.11900    2.62060   18.87660    0.11900  -92.66460   -2.41720   18.87660
 7100.00000    9.88980   10.23970   10.16930   10.16930  110.14360  109.66240    0.20450    2.08030    0.42650    0.36830    9.11900    0.20450   83.12980   83.12980   57.32170   65.45450   60.00710   60.00710    9.11900   10.47430    0.29750    2.08030   11.65120    0.29750  -97.29730   -8.09780   11.65120
 7150.00000    9.57990    9.85880    9.89280    9.89280   66.23470   66.35830    0.14140    2.63690    0.03370    0.04270   15.06970    0.14140   71.37550   71.37550   66.47190   66.63270   66.34090   66.34090   15.06970    9.59820    0.18830    2.63690   17.56930    0.18830  -97.06490   -8.90280   17.56930
 7200.00000    9.09350    9.38490    9.51710    9.51710   24.85890   25.65210    0.08540    2.54820    0.07640    0.09460   38.99280    0.08540   66.76290   66.76290   49.79890   43.44800   46.55050   46.55050   38.99280    9.07130    0.06440    2.54820   40.53830    0.06440 -100.92590  -13.81170   40.53830
 7250.00000    9.69920    9.56050    9.60540    9.60540   25.75780   23.99890    0.10780    2.68390    0.03200    0.01530   41.66860    0.10780   64.93160   64.93160   53.64440   52.77040   52.47780   52.47780   41.66860    9.10750    0.11760    2.68390   47.38930    0.11760  -93.36780   -5.95820   47.38930
 7300.00000   11.29920   11.47130   10.37960   10.37960   20.55420   21.49520    0.25000    2.32320    0.26230    0.22620   46.52210    0.25000   70.54040   70.54040   77.62470   79.72740   82.23690   82.23690   46.52210   10.32880    0.26510    2.32320   48.16890    0.26510  -95.15880   -6.67610   48.16890
 7350.00000   12.09720   11.92230    9.91740    9.91740   45.14580   46.47780    0.24800    2.48680    0.20740    0.13050   21.51760    0.24800   74.81350   74.81350   90.25440   93.62560   92.06490   92.06490   21.51760   11.12860    0.29150    2.48680   28.72450    0.29150  -95.58120   -6.02010   28.72450
 7400.00000    9.98190   10.09780    9.48830    9.48830   68.56100   67.64620    0.25010    2.54160    0.12950    0.09850   14.78280    0.25010   74.70440   74.70440   86.54720   90.63220   92.35560   92.35560   14.78280    9.43060    0.20100    2.54160   19.88250    0.20100  -97.33130   -6.70250   19.88250
 7450.00000    9.24630    9.57530    9.42100    9.42100   33.99750   35.06800    0.06290    2.60120    0.09400    0.06360   28.51610    0.06290   59.94220   59.94220   42.37900   49.45240   46.24270   46.24270   28.51610    9.31060    0.03050    2.60120   33.65950    0.03050 -101.33210   -9.62480   33.65950
 7500.00000   11.75630   11.96890   10.56840   10.56840  114.96180  116.57320    0.25120    2.24900    0.08730    0.26960    8.57830    0.25120   89.06460   89.06460   89.35430   93.97440   88.12560   88.12560    8.57830   11.24510    0.38310    2.24900   12.93830    0.38310  -95.63880   -2.86380   12.93830
 7550.00000    8.64060    8.59420    9.14320    9.14320   17.12650   17.39380    0.06940    2.65040    0.11720    0.03490   57.49190    0.06940   59.01650   59.01650   18.34590   19.12870   19.08990   19.08990   57.49190    8.69220    0.05720    2.65040   84.51440    0.05720 -149.30150  -55.45350   84.51440
 7600.00000    8.55090    8.60650    9.12850    9.12850    3.34020    3.50890    0.10480    2.60230    0.08860    0.06300  285.93300    0.10480   56.31730   56.31730   12.46570   11.02000   12.71730   12.71730  285.93300    8.85500    0.04590    2.60230  214.19840    0.04590 -145.02390  -50.09740  214.19840
 7650.00000    8.67910    8.84270    9.10890    9.10890    6.78860    6.77070    0.06520    2.58990    0.12930    0.07020  147.69450    0.06520   61.30930   61.30930   55.08170   60.72130   60.21700   60.21700  147.69450    8.61900    0.06240    2.58990  159.33620    0.06240  -97.97240   -1.97820  159.33620
 7700.00000   12.38250   11.84260    9.89730    9.89730   39.18310   39.37330    0.25050    2.55960    0.15830    0.08800   25.40610    0.25050   52.48250   52.48250   31.31810   28.68010   30.36430   30.36430   25.40610   11.35380    0.12550    2.55960   44.97050    0.12550 -121.87670  -27.09720   44.97050
 7750.00000    8.98440    8.66230    9.20710    9.20710    5.70970    5.88170   -0.00170    2.84470   -0.12410   -0.07880  170.01830   -0.00170   49.46400   49.46400    9.43000    8.97400   10.22690   10.22690  170.01830    8.47600    0.00740    2.84470  117.79080    0.00740 -106.64710  -13.56550  117.79080
 7800.00000    9.31810    9.26660    9.62340    9.62340   27.08600   27.74930    0.03950    2.82150   -0.03650   -0.06520   36.03700    0.03950   53.76800   53.76800   27.47420   27.77830   32.01430   32.01430   36.03700    8.46130    0.03130    2.82150   54.28820    0.03130 -124.28340  -32.90830   54.28820
 7850.00000   11.67390   10.49350   10.06610   10.06610   20.13460   19.52970    0.18210    2.72390   -0.00330   -0.00810   51.86720    0.18210   49.42410   49.42410   11.38920    7.71220   10.45630   10.45630   51.86720   10.02590    0.05370    2.72390  129.27590    0.05370 -170.26090  -80.60080  129.27590
 7900.00000   12.28290   11.41690   10.41570   10.41570    3.96620    4.01800    0.24720    2.45650   -0.02470    0.14820  248.88110    0.24720   52.17020   52.17020   15.60020   16.85530   17.55100   17.55100  248.88110   10.35670    0.16280    2.45650  131.33740    0.16280 -181.62080  -93.65860  131.33740
 7950.00000   12.21870    8.74500    9.83170    9.83170   67.76350   68.43340    0.24940    2.16680   -0.01160    0.31760   14.61310    0.24940   56.59690   56.59690   47.12970   48.34000   53.92830   53.92830   14.61310    8.83070    0.06180    2.16680   32.07800    0.06180 -131.66500  -45.41780   32.07800
 8000.00000    8.85490    8.79440    9.16720    9.16720   91.63570   92.12770    0.01520    2.74060    0.00370   -0.01790   10.85450    0.01520   61.16590   61.16590   80.09060   83.24580   85.30340   85.30340   10.85450    8.69620    0.08190    2.74060   14.50250    0.08190  -94.95050  -10.40120   14.50250
 8050.00000    9.16890    8.94950    9.20480    9.20480   36.83070   36.98170    0.14680    2.82260   -0.03920   -0.06580   27.04040    0.14680   53.12330   53.12330   36.43180   37.27660   38.82510   38.82510   27.04040    8.73270    0.04090    2.82260   34.78680    0.04090 -116.15920  -33.31630   34.78680
