~Version ---------------------------------------------------
VERS.      2.0 : CWLS log ASCII Standard -VERSION 2.0
WRAP.       NO : One line per depth step
CREA. 09/16/13 : LAS Creation Date
~Well ------------------------------------------------------
STRT.M                          300.0 : START DEPTH
STOP.M                         2550.0 : STOP DEPTH
STEP.M                       50.00000 : STEP LENGTH
NULL.                         -999.25 : NULL VALUE
COMP. QUINTANA EXPLORATION CANADA LTD : COMPANY
WELL. ATLANTIS ET AL TWINN 6-11-33-24 : WELL
FLD .                                 : FIELD
LOC .                                 : LOCATION
CTRY.                          CANADA : COUNTRY
SRVC.                   Dresser Atlas : SERVICE COMPANY
DATE.                     21-Jan-1987 : LOGDATE
PROV.                         Alberta : PROVINCE
UWI .                100061103324W400 : UNIQUE WELL ID
SLAT.WGS84                   51.81356 : SURFACE LATITUDE
SLON.WGS84                  -113.3015 : SURFACE LONGITUDE
~Curve Information -----------------------------------------
DEPT   .M     : DEPTH METER
AC     .US/M  : DELTA TIME FROM SONIC LOG
CALM   .MM    : CALIPER FROM MICRO LATEROLOG
CALS   .MM    : CALIPER  FROM SONIC LOG
CALX   .MM    : CALIPER X FROM DENSITY LOG
CALY   .MM    : CALIPER Y FROM DENSITY LOG
CNC_LS .DEC   : NEUTRON POROSITY LIMESTONE FROM DENSITY LOG
GRD    .GAPI  : GAMMA RAY FROM DENSITY LOG
GRM    .GAPI  : GAMMA RAY FROM MICRO LATEROLOG
GRS    .GAPI  : GAMMA RAY FROM SONIC LOG
PE     .B/E   : PHOTOELECTRIC FACTOR FROM DENSITY LOG
PORZ_LS.DEC   : DENSITY POROSITY LIMESTONE [M=2710, F=1000] FROM DENSITY LOG
RFOC   .OHMM  : SHALLOW OCUSED FROM DIFL LOG
RILD   .OHMM  : DEEP INDUCTION FROM DIFL LOG
RILM   .OHMM  : MEDIUM INDUCTION FROM DIFL LOG
RMLL   .OHMM  : MICROLATEROLOG RESISTIVITY FROM MICRO LATEROLOG
SPR    .MV    : SPONTANEOUS POTENTIAL  FROM DIFL LOG
TEND   .KG    : TENSION FROM DENSITY LOG
TENM   .KG    : TENSION FROM MICRO LATEROLOG
TENS   .KG    : TENSION FROM SONIC LOG
ZCOR   .G/C3  : DENSITY CORRECTION FROM DENSITY LOG
ZDEN   .G/C3  : BULK DENSITY FROM DENSITY LOG
~Params ----------------------------------------------------
PD  .                         GL : PERMANENT DATUM
EPD .M                     904.6 : ELEVATION PERMANENT DATUM
LMF .                         KB : LOG MEASURED FROM
DAPD.M                       6.8 : FEET ABOVE PERMANENT DATUM
DMF .                         KB : DRILLING MEASURED FROM
EKB .M                     911.4 : KELLY BUSHING
EGL .M                     904.6 : GROUND LEVEL
DATE.                   01/21/87 : RUN DATE
RUN .                          1 : RUN NUMBER
DD  .M                      2560 : DEPTH DRILLER
DL  .M                    2554.4 : DEPTH LOGGER
BLI .M                    2553.8 : BOTTOM LOG INTERVAL
TLI .M                     455.8 : TOP LOG INTERVAL
CS  .MM                    244.5 : CASING SIZE
CBD .M                     455.4 : CASING BOTTOM DRILLER
CBL .M                     455.8 : CASING BOTTOM LOGGER
BS  .MM                      222 : BIT SIZE
BSD .M                      2560 : BIT SIZE AT DEPTH
DFT .                   GEL CHEM : DRILLING FLUID TYPE
DFD .                       1120 : DRILLING FLUID DENSITY
DFV .                         83 : DRILLING FLUID VISCOSITY
DFPH.                         11 : DRILLING FLUID PH
DFL .                        7.8 : DRILLING FLUID LOSS
MSS .                   FLOWLINE : MUD SAMPLE SOURCE
RMS .OHMM                   0.74 : RESISTIVITY MUD SAMPLE
MST .DEGC                     18 : MUD SAMPLE TEMPERATURE
RMF .OHMM                    0.6 : RESISTIVITY MUD FILTRATE SAMPLE
MFST.DEGC                     18 : MUD FILTRATE SAMPLE TEMPERATURE
RMC .OHMM                   0.71 : RESISTIVITY MUD CAKE
MCST.DEGC                     18 : MUD CAKE SAMPLE TEMPERATURE
MFSS.                   MEASURED : MUD FILTRATE SAMPLE SOURCE
MCSS.                   MEASURED : MUD CAKE SAMPLE SOURCE
RMB .OHMM                    0.2 : RESISTIVITY MUD AT BHT
TCS .HRS                     4.5 : TIME CIRCULATED STOPPED
LUN .                   HOL 6438 : LOGGING UNIT NUMBER
LUL .                   RED DEER : LOGGING UNIT LOCATION
ENGI.                     THOKLE : RECORDING ENGINEER
WITN.                      YOPYK : WITNESSED BY
CLNT.                    A2DTECH : CLIENT CODE
ORIG. 6.5"/100M 16.5"/100M PRINT : ORIGIN OF DATA
UWI .           100061103324W400 : UNIQUE WELL ID
DICO.     A2D Technologies, Inc. : DIGITIZING COMPANY
~Other -----------------------------------------------------
~ASCII -----------------------------------------------------
  300.00000    -999.25    -999.25    -999.25    -999.25    -999.25    -999.25    -999.25    -999.25   40.18010    -999.25    -999.25    -999.25    -999.25    -999.25    -999.25    -999.25    -999.25    -999.25    -999.25    -999.25    -999.25
  350.00000    -999.25    -999.25    -999.25    -999.25    -999.25    -999.25    -999.25    -999.25   55.26140    -999.25    -999.25    -999.25    -999.25    -999.25    -999.25    -999.25    -999.25    -999.25    -999.25    -999.25    -999.25
  400.00000    -999.25    -999.25    -999.25    -999.25    -999.25    -999.25    -999.25    -999.25   41.84890    -999.25    -999.25    -999.25    -999.25    -999.25    -999.25    -999.25    -999.25    -999.25    -999.25    -999.25    -999.25
  450.00000    -999.25    -999.25    -999.25    -999.25    -999.25    -999.25   59.89230    -999.25   52.43830    -999.25    -999.25    -999.25    -999.25    -999.25    -999.25    -999.25    -999.25    -999.25    -999.25    -999.25    -999.25
  500.00000  313.35940    -999.25  284.17070  241.13290  347.31350    -999.25   75.66100    -999.25   68.29820    -999.25    -999.25    5.08700    4.84230    4.99960    -999.25  -53.17770  -37.30510    -999.25  -31.83930    -999.25    -999.25
  550.00000  395.95180    -999.25  293.22570  251.23660  335.24320    -999.25   89.18480    -999.25   79.84210    -999.25    -999.25    4.63790    3.89910    4.09810    -999.25  -51.59420    4.61260    -999.25  -31.92250    -999.25    -999.25
  600.00000  376.78500    -999.25  301.65200  249.42940  332.19200    -999.25   92.30550    -999.25   87.81170    -999.25    -999.25    3.38640    3.15250    3.27820    -999.25  -50.57300  -32.27810    -999.25  -36.61320    -999.25    -999.25
  650.00000  295.98790    -999.25  249.66390  232.43600  264.75600    -999.25   63.63450    -999.25   73.09020    -999.25    -999.25    4.93480    5.74780    5.27110    -999.25  -53.21560  -67.20510    -999.25  -38.26560    -999.25    -999.25
  700.00000  247.76560    -999.25  240.86450  231.58660  254.46960    -999.25   91.33390    -999.25   64.67830    -999.25    -999.25    9.89090    7.50410    9.78710    -999.25  -50.97610  -21.21320    -999.25  -29.49890    -999.25    -999.25
  750.00000  331.85780    -999.25  268.88580  255.38040  292.85380    -999.25   76.51820    -999.25   74.75700    -999.25    -999.25    4.53740    5.13130    5.87760    -999.25  -50.19290   28.95750    -999.25  -15.08610    -999.25    -999.25
  800.00000  256.27470    -999.25  240.06830  228.34590  242.25690    -999.25   72.97460    -999.25   57.55140    -999.25    -999.25   11.70770   11.15560   13.45550    -999.25  -53.67870  -43.70950    -999.25  -40.73620    -999.25    -999.25
  850.00000  464.51080    -999.25  382.15320  259.41340  377.65430    -999.25   71.72430    -999.25   60.96150    -999.25    -999.25    3.28950    3.74060    3.19820    -999.25  -45.71680  -15.03690    -999.25  -34.70220    -999.25    -999.25
  900.00000  308.71870    -999.25  270.42930  228.62650  354.26410    -999.25   95.79310    -999.25   82.45760    -999.25    -999.25    5.17350    4.50790    4.73800    -999.25  -49.12230    4.65060    -999.25  -12.67770    -999.25    -999.25
  950.00000  313.68850    -999.25  307.55840  289.88970  334.23610    -999.25   97.27120    -999.25   91.66350    -999.25    -999.25    7.23410    6.81280    7.03500    -999.25  -49.25090  -27.93590    -999.25  -20.08090    -999.25    -999.25
 1000.00000  285.39190    -999.25  266.27510  233.86860  301.24940    -999.25  102.33070    -999.25   99.19230    -999.25    -999.25    8.95780    8.27830    8.52640    -999.25  -50.98550  -25.22930    -999.25  -50.93220    -999.25    -999.25
 1050.00000  245.87030    -999.25  248.28410  225.53670  269.34040    -999.25  117.25330    -999.25   83.07910    -999.25    -999.25   26.86210   15.69900   19.01760    -999.25  -50.15080  -23.67480    -999.25  -36.96880    -999.25    -999.25
 1100.00000  286.36060    -999.25  274.15470  238.11100  363.81410    -999.25  109.96730    -999.25   99.82150    -999.25    -999.25    7.96870    7.26920    7.06200    -999.25  -47.77680    0.22940    -999.25  -21.27680    -999.25    -999.25
 1150.00000  293.83990    -999.25  277.59330  248.24360  340.38450    -999.25   97.46970    -999.25  107.99990    -999.25    -999.25    8.28700    6.65520    7.07370    -999.25  -45.38930  -20.40830    -999.25  -11.14880    -999.25    -999.25
 1200.00000  273.25880    -999.25  274.25190  241.58360  334.19770    -999.25  111.61800    -999.25   97.82560    -999.25    -999.25    9.12090    7.33570    7.92190    -999.25  -45.31370  -51.66550    -999.25  -21.75250    -999.25    -999.25
 1250.00000  258.04810    -999.25  300.74730  273.80830  295.91710    -999.25  109.52290    -999.25   99.01730    -999.25    -999.25    8.32870    7.38110    7.83090    -999.25  -44.24490   -7.97680    -999.25  -27.57050    -999.25    -999.25
 1300.00000  314.51130    -999.25  276.06890  278.90570  265.65160    -999.25  124.78830    -999.25  130.13360    -999.25    -999.25    7.92370    6.47480    7.47670    -999.25  -42.14370   10.68930    -999.25  -21.37960    -999.25    -999.25
 1350.00000  294.13150    -999.25  299.75520  322.70030  279.88050    -999.25  121.99880    -999.25  111.61930    -999.25    -999.25    8.00010    6.03490    6.81260    -999.25  -40.53720  -29.27670    -999.25  -30.69880    -999.25    -999.25
 1400.00000  292.18210    -999.25  269.79420  255.08760  273.68270    -999.25  136.29630    -999.25  141.49200    -999.25    -999.25    7.56960    5.61610    6.60110    -999.25  -38.99650  -42.96240    -999.25  -31.22530    -999.25    -999.25
 1450.00000  252.20670    -999.25  284.64240  280.06420  281.20910    -999.25   87.87970    -999.25   93.32560    -999.25    -999.25    9.41780    8.09000    8.98670    -999.25  -43.24710   -5.77960    -999.25  -22.58270    -999.25    -999.25
 1500.00000  502.95490    -999.25  313.92060  470.64900  267.03090    -999.25   81.44140    -999.25   72.50580    -999.25    -999.25    1.90960    1.35650    1.23310    -999.25  -36.27350  -10.85730    -999.25  -16.74070    -999.25    -999.25
 1550.00000  224.07390    -999.25  305.72390  290.86580  298.65480    -999.25   51.86180    -999.25   60.20420    -999.25    -999.25   18.24370   13.31780   14.77330    -999.25  -42.90720   -1.88410    -999.25  -24.31700    -999.25    -999.25
 1600.00000  288.03330    -999.25  351.08420  319.52710  372.62400    -999.25   91.46130    -999.25   88.53380    -999.25    -999.25    7.97790    8.84600    7.83610    -999.25  -35.74810  -21.99100    -999.25  -22.78410    -999.25    -999.25
 1650.00000  183.57290    -999.25  307.38150  281.21910  334.24740    -999.25   22.07410    -999.25   22.49510    -999.25    -999.25  163.41430   93.81680   58.53260    -999.25  -36.54680  -20.23270    -999.25  -24.06900    -999.25    -999.25
 1700.00000  170.00310    -999.25  271.74530  263.40360  283.95570    -999.25   34.17620    -999.25   31.72600    -999.25    -999.25  132.09460   56.11640   69.38120    -999.25  -37.35320  -16.57120    -999.25  -10.96490    -999.25    -999.25
 1750.00000  197.23200    -999.25  290.95120  272.56670  300.57700    -999.25   57.35510    -999.25   58.52300    -999.25    -999.25   26.18190   17.24460   20.44120    -999.25  -43.77910  -36.69290    -999.25  -19.95580    -999.25    -999.25
 1800.00000  214.97060  308.21100  304.08310  272.53810  312.53430    0.18830   51.97730   58.40950   55.02880    4.48670   -0.00320   22.03230   12.43670   14.25290   20.41190  -41.50290  -42.57510  -14.69340  -21.17120    0.04570    2.71140
 1850.00000  202.76140  297.95750  284.88330  263.48800  307.11000    0.17850   50.29400   49.62070   51.74490    2.60190    0.04070   31.26900   19.14620   22.88620    8.53820  -47.42030   10.94880   -7.01620  -31.18610    0.17110    2.61460
 1900.00000  166.32630  248.87240  261.47490  245.95040  267.28770    0.06940   14.49720   13.74340   14.78270    3.12010   -0.17840  129.78640   52.43540   54.93240   77.73060  -70.07840  -19.35050  -12.87740  -32.78640    0.08310    3.01320
