~Version ---------------------------------------------------
VERS.      2.0 : CWLS log ASCII Standard -VERSION 2.0
WRAP.       NO : One line per depth step
CREA. 11/22/17 : LAS Creation Date
~Well ------------------------------------------------------
STRT.FT                       1500.0 : START DEPTH
STOP.FT                      10400.0 : STOP DEPTH
STEP.FT                     50.00000 : STEP LENGTH
NULL.                        -999.25 : NULL VALUE
COMP.   MERLAND EXPLORATIONS LIMITED : COMPANY
WELL. MERLAND ET AL GIROUXLUX 10-11- : WELL
FLD .                                : FIELD
LOC .                                : LOCATION
CTRY.                         CANADA : COUNTRY
SRVC.                        Unknown : SERVICE COMPANY
DATE.                    26-Feb-1978 : LOGDATE
PROV.                        Alberta : PROVINCE
UWI .               100101106622W500 : UNIQUE WELL ID
SLAT.WGS84                  54.70081 : SURFACE LATITUDE
SLON.WGS84                 -117.2093 : SURFACE LONGITUDE
~Curve Information -----------------------------------------
DEPT    .FT    : Depth Curve
CALDED  .IN    : CALIPER FROM DENSITY LOG [ADJ. TO RESISTIVITY LOG]
CALSED  .IN    : CALIPER FROM SONIC LOG [ADJ. TO RESISTIVITY LOG]
CALWS   .IN    : CALIPER [CALDED SPL. TO CALSED @ 8272']
CONDWS  .MMHO  : CONDUCTIVITY [1000/DRESWS]
DCORED  .G/C3  : DENSITY CORRECTION FROM DENSITY LOG [ADJ. TO RESISTIVITY LOG]SMALL SCALE
DCORWS  .G/C3  : DENSITY CORRECTION [DCORED]
DENWS   .G/C3  : FORMATION BULK DENSITY [CALC FROM DPOLSWS, M=2.71, F=1.0]
DPHILSED.V/V   : DENSITY POROSITY LIMESTONE [M=2.71,F=1.0] FROM DENSITY LOG [ADJ. TO RESISTIVITY LOG]
DPHISSED.V/V   : DENSITY POROSITY SANDSTONE [M=2.65,F=1.0] FROM DENSITY LOG [ADJ. TO RESISTIVITY LOG]
DPOLSWS .V/V   : DENSITY POROSITY LIMESTONE [DPHISSED CONVERTED TO LIMESTONE MATRIX, M=2.71, F=1.00 SPL.TO DPHILSED @ 5906']
DRESWS  .OHMM  : DEEP RESISTIVITY [ILDED]
DTED    .US/F  : DELTA-T FROM SONIC LOG [ADJ. TO RESISTIVITY LOG]
DTWS    .US/F  : COMPRESSIONAL SONIC [DTED]
GRDED   .GAPI  : GAMMA RAY FROM DENSITY LOG [ADJ. TO RESISTIVITY LOG]
GRSED   .GAPI  : GAMMA RAY FROM SONIC LOG [ADJ. TO RESISTIVITY LOG]
GRWS    .GAPI  : GAMMA RAY [GRDED SPL. TO GRSED @ 8262.5']
ILDED   .OHMM  : DEEP INDUCTION RESISTIVITY FROM RESISTIVITY LOG
ILMED   .OHMM  : MEDIUM INDUCTION RESISTIVITY FROM RESISTIVITY LOG
LL8ED   .OHMM  : LATEROLOG 8 FROM RESISTIVITY LOG
MRESWS  .OHMM  : MEDIUM RESISTIVITY [ILMED]
NPHILSED.V/V   : NEUTRON POROSITY LIMESTONE FROM DENSITY LOG [ADJ. TO RESISTIVITY LOG]
NPHISSED.V/V   : NEUTRON POROSITY SANDSTONE FROM DENSITY LOG [ADJ. TO RESISTIVITY LOG]
NPOLSWS .V/V   : NEUTRON POROSITY LIMESTONE [NPHISSED MATRIX (SLB) CONVERSION FOR LIMESTONE, SPL.TO NPHILSED @ 5914']
RHOBED  .G/C3  : BULK DENSITY FROM DENSITY LOG [ADJ. TO RESISTIVITY LOG] SMALL SCALE
SPRED   .MV    : SPONTANEOUS POTENTIAL FROM RESISTIVITY LOG
SPWS    .MV    : SPONTANEOUS POTENTIAL [BASELINE 0 MV, SPRED]
SRESWS  .OHMM  : SHALLOW RESISTIVITY [LL8ED]
~Params ----------------------------------------------------
PD  .                     GL : PERMANENT DATUM
EPD .FT                 2391 : ELEVATION PERMANENT DATUM
LMF .                     KB : LOG MEASURED FROM
DAPD.FT                   16 : FEET ABOVE PERMANENT DATUM
DMF .                     KB : DRILLING MEASURED FROM
EKB .FT                 2407 : KELLY BUSHING
EGL .FT                 2391 : GROUND LEVEL
DATE.               02/26/78 : RUN DATE
RUN .                      2 : RUN NUMBER
DD  .FT                10409 : DEPTH DRILLER
DL  .FT                10410 : DEPTH LOGGER
BLI .FT                10404 : BOTTOM LOG INTERVAL
TLI .FT                 8200 : TOP LOG INTERVAL
CBD .FT                 1515 : CASING BOTTOM DRILLER
CBL .FT                 1514 : CASING BOTTOM LOGGER
BS  .IN                 8.75 : BIT SIZE
BSD .FT                10409 : BIT SIZE AT DEPTH
DFT .               GEL CHEM : DRILLING FLUID TYPE
DFD .                    9.3 : DRILLING FLUID DENSITY
DFV .                     75 : DRILLING FLUID VISCOSITY
DFPH.                    9.5 : DRILLING FLUID PH
DFL .                    9.2 : DRILLING FLUID LOSS
MSS .               FLOWLINE : MUD SAMPLE SOURCE
RMS .OHMM               2.47 : RESISTIVITY MUD SAMPLE
MST .DEGF                 51 : MUD SAMPLE TEMPERATURE
RMF .OHMM               3.21 : RESISTIVITY MUD FILTRATE SAMPLE
MFST.DEGF                 60 : MUD FILTRATE SAMPLE TEMPERATURE
RMB .OHMM               1.02 : RESISTIVITY MUD AT BHT
TCS .HRS                 3.5 : TIME CIRCULATED STOPPED
LUN .                   7730 : LOGGING UNIT NUMBER
LUL .                    EDM : LOGGING UNIT LOCATION
ENGI.               ACKERMAN : RECORDING ENGINEER
WITN.                  GAWNE : WITNESSED BY
CLNT.                A2DTECH : CLIENT CODE
ORIG.            2" 5" PRINT : ORIGIN OF DATA
UWI .       100101106622W500 : UNIQUE WELL ID
DICO. A2D Technologies, Inc. : DIGITIZING COMPANY
~Other -----------------------------------------------------
~ASCII -----------------------------------------------------
# ...
 4100.00000   12.65680   10.57340   12.65680  119.32170    0.01000    0.01000    2.53490    -999.25    0.06980    0.10240    8.38120   79.58130   79.58130  105.07770  112.28340  105.07770    8.38120    7.82590    8.94330    7.82590    -999.25    0.24970    0.20580    2.53610   43.40210   -2.19620    8.94330
 4150.00000   15.00000    8.50120   15.00000  205.55410    0.15290    0.15290    2.39920    -999.25    0.15200    0.18180    4.86490   90.31960   90.31960  112.79900  120.20410  112.79900    4.86490    4.64580    6.01970    4.64580    -999.25    0.38190    0.33870    2.39090   44.56820   -1.46120    6.01970
 4200.00000   13.78320    9.89360   13.78320  165.17780    0.11750    0.11750    2.53430    -999.25    0.07010    0.10270    6.05430   88.02430   88.02430  116.06240  127.37400  116.06240    6.05430    5.78820    7.34590    5.78820    -999.25    0.37640    0.33310    2.54110   45.35730   -1.10750    7.34590
 4250.00000   12.70840   10.98110   12.70840  297.23870    0.10160    0.10160    2.41220    -999.25    0.14410    0.17410    3.36430  102.49340  102.49340  138.28500  151.39870  138.28500    3.36430    3.21560    4.14610    3.21560    -999.25    0.42390    0.38150    2.41700   46.92560    0.02970    4.14610
 4300.00000   15.00000   10.00430   15.00000  332.25900    0.08190    0.08190    2.27200    -999.25    0.22910    0.25610    3.00970   93.74260   93.74260  103.97020  117.03780  103.97020    3.00970    2.81650    4.00340    2.81650    -999.25    0.41300    0.37040    2.26870   46.67620   -0.65300    4.00340
 4350.00000   15.00000   10.66700   15.00000  341.07230    0.12090    0.12090    2.33510    -999.25    0.19090    0.21920    2.93260  117.82400  117.82400  115.51970  126.33020  115.51970    2.93260    2.60840    3.44700    2.60840    -999.25    0.46030    0.41890    2.33940   46.63800   -1.12660    3.44700
 4400.00000   14.34260    9.83160   14.34260  244.17040    0.04550    0.04550    2.46090    -999.25    0.11460    0.14570    4.09550   92.85420   92.85420  117.94740  134.43940  117.94740    4.09550    3.90060    5.11380    3.90060    -999.25    0.34460    0.30090    2.46140   46.57990   -1.61580    5.11380
 4450.00000   13.15550   10.92540   13.15550  216.52790    0.14170    0.14170    2.50600    -999.25    0.08730    0.11930    4.61900   95.65490   95.65490  129.27880  131.93280  129.27880    4.61900    4.28590    5.60600    4.28590    -999.25    0.33860    0.29480    2.51130   46.96610   -1.66500    5.60600
 4500.00000   11.52260   10.78780   11.52260   96.76800    0.11430    0.11430    2.52770    -999.25    0.07410    0.10660   10.33400   80.46370   80.46370   99.43740  112.50010   99.43740   10.33400    9.14580   11.56000    9.14580    -999.25    0.24960    0.20570    2.53450   45.76040   -3.30180   11.56000
 4550.00000   11.80450   10.72490   11.80450   87.73470    0.01860    0.01860    2.53580    -999.25    0.06920    0.10190   11.39800   75.12490   75.12490   84.05280   97.04830   84.05280   11.39800   10.51810   15.08340   10.51810    -999.25    0.22350    0.17980    2.53920   41.98570   -7.50980   15.08340
 4600.00000   11.23580   10.70190   11.23580  117.15460    0.04550    0.04550    2.40980    -999.25    0.14560    0.17560    8.54980   79.09080   79.09080   98.60400  107.56470   98.60400    8.54980    9.27680   10.06730    9.27680    -999.25    0.28490    0.24090    2.42460   45.30910   -4.62180   10.06730
 4650.00000   10.28610   10.22400   10.28610   87.08980    0.00420    0.00420    2.34290    -999.25    0.18610    0.21470   11.48240   81.32750   81.32750   58.24070   59.84370   58.24070   11.48240   13.11170   15.93330   13.11170    -999.25    0.30650    0.26250    2.34750   24.01810  -26.74860   15.93330
 4700.00000    9.22580   11.67530    9.22580  101.71840    0.14160    0.14160    2.36660    -999.25    0.17170    0.20080    9.83840   79.00780   79.00780   65.65870   61.61430   65.65870    9.83840   13.43610   18.50540   13.43610    -999.25    0.25030    0.20640    2.36340   22.13550  -29.47750   18.50540
 4750.00000   10.79140   11.76270   10.79140  103.12150    0.15870    0.15870    2.05100    -999.25    0.36300    0.38540    9.69730   88.25660   88.25660   96.75170  104.13000   96.75170    9.69730   10.27600   11.62810   10.27600    -999.25    0.44300    0.40110    2.06200   46.34600   -6.10490   11.62810
 4800.00000    9.21160   10.01050    9.21160   86.91120    0.05020    0.05020    2.46750    -999.25    0.11060    0.14180   11.50600   76.79550   76.79550   56.69010   68.44440   56.69010   11.50600   13.90450   18.10270   13.90450    -999.25    0.28670    0.24270    2.44940   28.22700  -25.06600   18.10270
 4850.00000   11.65540   11.56040   11.65540  123.55260    0.08980    0.08980    1.95510    -999.25    0.42110    0.44150    8.09670  112.73160  112.73160   75.10420   72.20390   75.10420    8.09670    7.46470   17.13080    7.46470    -999.25    0.60660    0.57310    1.93810   46.95920   -7.18010   17.13080
 4900.00000    9.66440   10.60600    9.66440  100.29490    0.11260    0.11260    2.51870    -999.25    0.07960    0.11190    9.97060   77.41580   77.41580   69.15910   69.63840   69.15910    9.97060   12.11240   12.05730   12.11240    -999.25    0.27750    0.23350    2.52690   35.83450  -19.14260   12.05730
 4950.00000   10.36190   11.13260   10.36190  121.24880   -0.00140   -0.00140    2.49090    -999.25    0.09650    0.12820    8.24810   77.65710   77.65710   90.98290   93.00110   90.98290    8.24810    9.21190    7.98640    9.21190    -999.25    0.28100    0.23700    2.48000   49.39920   -6.42420    7.98640
 5000.00000   10.65140   11.93300   10.65140  164.39260    0.06310    0.06310    2.53220    -999.25    0.07140    0.10400    6.08300   76.07230   76.07230   83.01430   81.89860   83.01430    6.08300    6.36750    7.39420    6.36750    -999.25    0.27590    0.23190    2.53090   49.91890   -6.74240    7.39420
 5050.00000   10.42480   11.68050   10.42480  112.07500    0.02190    0.02190    2.52510    -999.25    0.07570    0.10810    8.92260   75.45010   75.45010   87.79700   85.27610   87.79700    8.92260    9.71280   10.49020    9.71280    -999.25    0.27010    0.22610    2.53040   50.96760   -6.53580   10.49020
 5100.00000    9.91570   11.04000    9.91570   84.39190    0.00550    0.00550    2.50590    -999.25    0.08740    0.11940   11.88270   67.86250   67.86250   71.03960   75.28670   71.03960   11.88270   14.89520   23.27220   14.89520    -999.25    0.20700    0.16340    2.52690   50.89800   -7.45160   23.27220
 5150.00000    9.98630   11.09510    9.98630   67.14650   -0.00940   -0.00940    2.52480    -999.25    0.07590    0.10830   14.89280   61.08820   61.08820   53.18400   58.33780   53.18400   14.89280   19.68000   35.95200   19.68000    -999.25    0.15040    0.10780    2.50300   32.52900  -26.65860   35.95200
 5200.00000   10.20780   11.52400   10.20780  146.08800    0.00320    0.00320    2.48150    -999.25    0.10210    0.13360    6.84520   75.59200   75.59200   71.25070   74.68880   71.25070    6.84520    7.58830    8.65110    7.58830    -999.25    0.27020    0.22620    2.48340   42.61210  -17.42170    8.65110
 5250.00000   10.04360   10.43330   10.04360   99.80840    0.03060    0.03060    2.13550    -999.25    0.31180    0.33590   10.01920   71.82000   71.82000   54.18010   61.17150   54.18010   10.01920   11.90480   20.95410   11.90480    -999.25    0.33600    0.29220    2.12480   24.52730  -36.34440   20.95410
 5300.00000   10.34000   11.44710   10.34000  137.66140    0.14330    0.14330    2.51020    -999.25    0.08470    0.11680    7.26420   79.41510   79.41510   99.62990  105.11380   99.62990    7.26420    7.69380    8.45950    7.69380    -999.25    0.32880    0.28500    2.50180   56.54390   -5.16990    8.45950
 5350.00000    9.93230   11.08610    9.93230  103.94790   -0.00180   -0.00180    2.54180    -999.25    0.06550    0.09830    9.62020   75.70660   75.70660   94.76280   96.83860   94.76280    9.62020   10.64680   12.10850   10.64680    -999.25    0.30040    0.25640    2.54910   55.08010   -7.48000   12.10850
