~Version ---------------------------------------------------
VERS.      2.0 : CWLS log ASCII Standard -VERSION 2.0
WRAP.       NO : One line per depth step
CREA. 10/22/19 : LAS Creation Date
~Well ------------------------------------------------------
STRT.ft                                          300.0 : START DEPTH
STOP.ft                                        10300.0 : STOP DEPTH
STEP.ft                                       50.00000 : STEP LENGTH
NULL.                                          -999.25 : NULL VALUE
COMP.                             IMPERIAL OIL LIMITED : COMPANY
WELL. IMPERIAL CANADIAN SUPERIOR BUCK CREEK 14-29-48-6 : WELL
FLD .                                          WILDCAT : FIELD
LOC .                                                  : LOCATION
CTRY.                                           CANADA : COUNTRY
SRVC.                           Schlumberger of Canada : SERVICE COMPANY
DATE.                                      27-May-1954 : LOGDATE
PROV.                                          Alberta : PROVINCE
UWI .                                 100142904806W500 : UNIQUE WELL ID
SLAT.WGS84                                    53.17637 : SURFACE LATITUDE
SLON.WGS84                                   -114.8447 : SURFACE LONGITUDE
~Curve Information -----------------------------------------
DEPT    .ft    : Depth Curve
CONDWS  .MMHO  : CONDUCTIVITY [1000/DRESWS]
DRESWS  .OHMM  : DEEP RESISTIVITY [LNED]
GRDED   .GAPI  : GAMMA RAY FROM CNL
GRNED   .GAPI  : GAMMA RAY FROM CASED HOLE GRN LOG [DEPTH ADJ. TO GRDED]
GRWS    .GAPI  : GAMMA RAY [SPLICED GRNED TO GRDED FROM 790-1109M, GRDED+37]
LATED   .OHMM  : 18 FOOT 8 INCH LATERAL RESISTIVITY FROM EL
LNED    .OHMM  : 64 INCH LONG NORMAL RESISTIVITY FROM EL
NEUTED  .NAPI  : NEUTRON FROM CASED HOLE GRN LOG [DEPTH ADJ. TO GRDED]
NEUTWS  .NAPI  : NEUTRON [NEUTED]
NPHIDMED.V/V   : NEUTRON POROSITY DOLOMITE FROM CNL
NPHILSED.V/V   : NEUTRON POROSITY LIMESTONE FROM CNL
NPHISSED.V/V   : NEUTRON POROSITY SANDSTONE FROM CNL
NPOLSWS .V/V   : NEUTRON POROSITY LIMESTONE [NPHILSED]
SNED    .OHMM  : 16 INCH SHORT NORMAL RESISTIVITY FROM EL
SPRED   .MV    : SPONTANEOUS POTENTIAL FROM EL
SPWS    .MV    : SPONTANEOUS POTENTIAL [BASELINE 0 MV] [SPRED]
SRESWS  .OHMM  : SHALLOW RESISTIVITY [SNED]
~Params ----------------------------------------------------
LMF .                     KB : LOG MEASURED FROM
DMF .                     KB : DRILLING MEASURED FROM
EKB .FT                 2810 : KELLY BUSHING
DATE.               05/27/54 : RUN DATE
RUN .                      4 : RUN NUMBER
DD  .FT                10219 : DEPTH DRILLER
DL  .FT                10221 : DEPTH LOGGER
BLI .FT                10221 : BOTTOM LOG INTERVAL
TLI .FT                 7088 : TOP LOG INTERVAL
BS  .IN                8.625 : BIT SIZE
BSD .FT                10219 : BIT SIZE AT DEPTH
DFT .              LIME BASE : DRILLING FLUID TYPE
DFD .                   10.5 : DRILLING FLUID DENSITY
DFV .                    220 : DRILLING FLUID VISCOSITY
DFPH.                   12.5 : DRILLING FLUID PH
DFL .                    9.5 : DRILLING FLUID LOSS
RMS .OHMM                1.0 : RESISTIVITY MUD SAMPLE
MST .DEGF                 72 : MUD SAMPLE TEMPERATURE
RMB .OHMM               0.42 : RESISTIVITY MUD AT BHT
TCS .HRS                   2 : TIME CIRCULATED STOPPED
LUN .                   1772 : LOGGING UNIT NUMBER
ENGI.              HENDERSON : RECORDING ENGINEER
WITN.               MCKENZIE : WITNESSED BY
CLNT.                A2DTECH : CLIENT CODE
ORIG.            2" 5" PRINT : ORIGIN OF DATA
UWI .       100142904806W500 : UNIQUE WELL ID
DICO. A2D Technologies, Inc. : DIGITIZING COMPANY
~Other -----------------------------------------------------
~ASCII -----------------------------------------------------
# ...
 6450.00000    4.91910  203.28740    -999.25    2.16220   35.67630  114.35560  203.28740  700.07020  700.07020    -999.25    -999.25    -999.25    -999.25   83.61860  -81.88810  -51.89760   83.61860
 6500.00000    1.65320  604.87690    -999.25    2.05900   33.97270 1026.12330  604.87690  979.50270  979.50270    -999.25    -999.25    -999.25    -999.25  112.96360  -77.99340  -47.73040  112.96360
 6550.00000    1.26480  790.62970    -999.25    2.61230   43.10300 1182.23210  790.62970  978.97620  978.97620    -999.25    -999.25    -999.25    -999.25  101.62320  -69.57500  -39.03960  101.62320
 6600.00000    6.53740  152.96570    -999.25    3.37880   55.75020  513.87340  152.96570 1026.80120 1026.80120    -999.25    -999.25    -999.25    -999.25   54.48270  -55.27200  -24.46420   54.48270
 6650.00000   11.59920   86.21310    -999.25    4.20470   69.37750  158.74520   86.21310  966.45690  966.45690    -999.25    -999.25    -999.25    -999.25   44.64700  -51.95700  -20.87680   44.64700
 6700.00000   12.48890   80.07130    -999.25    4.00230   66.03790  167.66330   80.07130  917.50120  917.50120    -999.25    -999.25    -999.25    -999.25   41.75870  -55.50210  -24.14950   41.75870
 6750.00000   10.83380   92.30400    -999.25    3.79650   62.64140  173.02800   92.30400  859.57940  859.57940    -999.25    -999.25    -999.25    -999.25   45.90200  -54.12310  -22.49800   45.90200
 6800.00000    8.31830  120.21630    -999.25    4.08900   67.46850  201.12770  120.21630  865.86220  865.86220    -999.25    -999.25    -999.25    -999.25   51.81390  -53.56380  -21.66630   51.81390
 6850.00000    5.30000  188.68040    -999.25    4.10940   67.80510  326.34280  188.68040  896.91210  896.91210    -999.25    -999.25    -999.25    -999.25   65.83190  -46.62230  -14.45240   65.83190
 6900.00000    3.85380  259.48430    -999.25    4.42270   72.97370  595.41530  259.48430  951.31200  951.31200    -999.25    -999.25    -999.25    -999.25   73.70460  -41.90280   -9.46050   73.70460
 6950.00000    2.34270  426.85690    -999.25    6.14930  101.46350  708.23110  426.85690  899.89730  899.89730    -999.25    -999.25    -999.25    -999.25  100.24720  -34.96550   -2.25080  100.24720
 7000.00000    1.57110  636.51310    -999.25   15.54640  256.51560 1330.07120  636.51310  395.42760  395.42760    -999.25    -999.25    -999.25    -999.25   97.18330  -80.62370  -48.25910   97.18330
 7050.00000   20.62350   48.48840    -999.25    2.12810   35.11370   81.08480   48.48840  727.27800  727.27800    -999.25    -999.25    -999.25    -999.25   24.74930  -88.57880  -56.85730   24.74930
 7100.00000    8.25790  121.09640    -999.25    2.45360   40.48440  468.43950  121.09640  853.83490  853.83490    -999.25    -999.25    -999.25    -999.25   43.59970  -80.52930  -49.45180   43.59970
 7150.00000    6.46140  154.76570    -999.25    2.19380   36.19770  407.26980  154.76570  749.25090  749.25090    -999.25    -999.25    -999.25    -999.25   52.12960 -108.84820  -78.41210   52.12960
 7200.00000    7.37590  135.57730    -999.25    1.36740   22.56210  216.20010  135.57730  779.52580  779.52580    -999.25    -999.25    -999.25    -999.25   54.56670 -117.60680  -87.81630   54.56670
 7250.00000   15.04210   66.48020    -999.25    1.78480   29.44840   84.10280   66.48020  611.78210  611.78210    -999.25    -999.25    -999.25    -999.25   36.43350  -98.34320  -69.19410   36.43350
 7300.00000   31.45540   31.79100    -999.25    1.27170   20.98310   16.14370   31.79100  563.31210  563.31210    -999.25    -999.25    -999.25    -999.25   27.55020 -116.13790  -87.63030   27.55020
 7350.00000    5.86620  170.46870    -999.25    1.39340   22.99110  213.55730  170.46870  977.37880  977.37880    -999.25    -999.25    -999.25    -999.25   61.66900 -105.83820  -77.97620   61.66900
 7400.00000    9.61100  104.04700    -999.25    1.48540   24.50910  262.41640  104.04700  794.50090  794.50090    -999.25    -999.25    -999.25    -999.25   46.13690 -109.40200  -82.18140   46.13690
 7450.00000    6.80110  147.03500    -999.25    1.88150   31.04480  325.26550  147.03500  819.36610  819.36610    -999.25    -999.25    -999.25    -999.25   52.24930 -109.43310  -82.85820   52.24930
 7500.00000    5.47660  182.59640    -999.25    2.61890   43.21180  241.26150  182.59640  771.99490  771.99490    -999.25    -999.25    -999.25    -999.25   59.37120  -88.92170  -62.98820   59.37120
 7550.00000    2.05550  486.50730    -999.25    2.03880   33.64020 1064.32480  486.50730  859.23970  859.23970    -999.25    -999.25    -999.25    -999.25   96.21950  -99.50480  -74.21270   96.21950
 7600.00000    4.00720  249.54980    -999.25    2.40550   39.69160 1338.06070  249.54980  859.36070  859.36070    -999.25    -999.25    -999.25    -999.25   53.81740  -52.03400  -27.38750   53.81740
 7650.00000    6.50970  153.61700    -999.25    3.26660   53.89970  155.17790  153.61700  828.69380  828.69380    -999.25    -999.25    -999.25    -999.25   57.48160  -85.28230  -61.27730   57.48160
 7700.00000    5.59380  178.77080    -999.25    2.32380   38.34270  442.26870  178.77080  788.41110  788.41110    -999.25    -999.25    -999.25    -999.25   55.55360  -89.43830  -66.07890   55.55360
 7750.00000   14.68170   68.11180    -999.25    4.27340   70.51030   85.64490   68.11180  596.01840  596.01840    -999.25    -999.25    -999.25    -999.25   30.27090  -54.43660  -31.71860   30.27090
 7800.00000    8.63880  115.75690    -999.25    1.77620   29.30730  494.96090  115.75690  638.15520  638.15520    -999.25    -999.25    -999.25    -999.25   49.46900  -60.45180  -38.37520   49.46900
 7850.00000    5.05530  197.81290    -999.25    3.41050   56.27320   49.17320  197.81290  718.20750  718.20750    -999.25    -999.25    -999.25    -999.25   77.78390  -72.87360  -51.44270   77.78390
 7900.00000    4.24660  235.48480    -999.25    3.24930   53.61430  498.90740  235.48480  648.41820  648.41820    -999.25    -999.25    -999.25    -999.25   58.16080  -46.56120  -25.77170   58.16080
 7950.00000   17.56230   56.94010    -999.25    6.95070  114.68660  175.36160   56.94010  226.60390  226.60390    -999.25    -999.25    -999.25    -999.25   28.02970  -43.63540  -23.49160   28.02970
 8000.00000   20.01080   49.97310    -999.25    9.70520  160.13580   91.82950   49.97310  585.58700  585.58700    -999.25    -999.25    -999.25    -999.25   27.21670  -41.12970  -21.62730   27.21670
 8050.00000   14.44400   69.23290    -999.25    7.87480  129.93420   74.96050   69.23290  622.57930  622.57930    -999.25    -999.25    -999.25    -999.25   28.15360  -40.74260  -21.88160   28.15360
 8100.00000   40.37420   24.76830    -999.25    9.00430  148.57180   52.46610   24.76830  409.81040  409.81040    -999.25    -999.25    -999.25    -999.25   15.38220  -31.57400  -13.35860   15.38220
 8150.00000   49.49270   20.20500    -999.25    8.06080  133.00320   19.32420   20.20500  580.28850  580.28850    -999.25    -999.25    -999.25    -999.25   15.10850  -29.30030  -11.72630   15.10850
 8200.00000   51.42150   19.44710    -999.25    9.23460  152.37090   16.90740   19.44710  417.59860  417.59860    -999.25    -999.25    -999.25    -999.25   14.82480  -29.05840  -12.13010   14.82480
 8250.00000   72.72520   13.75040    -999.25    9.25990  152.78840   15.78110   13.75040  245.82350  245.82350    -999.25    -999.25    -999.25    -999.25   10.48270  -33.01640  -16.72950   10.48270
 8300.00000   70.13660   14.25790    -999.25    8.36520  138.02580   13.88710   14.25790  250.73010  250.73010    -999.25    -999.25    -999.25    -999.25   10.79930  -29.27850  -13.63300   10.79930
 8350.00000   77.49470   12.90410    -999.25    8.97330  148.06030   10.13620   12.90410  272.76810  272.76810    -999.25    -999.25    -999.25    -999.25   10.43320  -25.40730  -10.40740   10.43320
 8400.00000   81.89140   12.21130    -999.25    8.69240  143.42540   13.01960   12.21130  238.85250  238.85250    -999.25    -999.25    -999.25    -999.25    9.13190  -17.84930   -3.49090    9.13190
 8450.00000   75.63270   13.22180    -999.25    7.55800  124.70700   11.47810   13.22180  148.99020  148.99020    -999.25    -999.25    -999.25    -999.25    9.62210  -14.77720   -1.06440    9.62210
