~Version ---------------------------------------------------
VERS.      2.0 : CWLS log ASCII Standard -VERSION 2.0
WRAP.       NO : One line per depth step
CREA. 08/02/17 : LAS Creation Date
~Well ------------------------------------------------------
STRT.FT                     950.0 : START DEPTH
STOP.FT                   10050.0 : STOP DEPTH
STEP.FT                  50.00000 : STEP LENGTH
NULL.                     -999.25 : NULL VALUE
COMP. SHELL CANADA RESOURCES LTD. : COMPANY
WELL.     ISH MAHASKA 11-32-56-13 : WELL
FLD .                             : FIELD
LOC .                             : LOCATION
CTRY.                      CANADA : COUNTRY
SRVC.                Schlumberger : SERVICE COMPANY
DATE.                 17-Nov-1977 : LOGDATE
PROV.                     Alberta : PROVINCE
UWI .            100113205613W500 : UNIQUE WELL ID
SLAT.WGS84               53.88366 : SURFACE LATITUDE
SLON.WGS84              -115.9002 : SURFACE LONGITUDE
~Curve Information -----------------------------------------
DEPT    .FT    : Depth Curve
CALDED  .IN    : CALIPER FROM DENSITY LOG [ADJ. TO GRRED]
CALSED  .IN    : CALIPER FROM SONIC LOG [ADJ. TO GRRED]
CALWS   .IN    : CALIPER [CALSED]
CONDWS  .MMHO  : CONDUCTIVITY [1000/DRESWS]
DCORWS  .G/C3  : DENSITY CORRECTION [DRHOED]
DENWS   .G/C3  : FORMATION BULK DENSITY [RHOBED]
DPHILSED.V/V   : DENSITY POROSITY LIME [M=2.71, F=1.00] FROM DENSITY LOG [ADJ. TO GRRED]
DPHISSED.V/V   : DENSITY POROSITY SAND [M=2.65, F=1.00] FROM DENSITY LOG [ADJ. TO GRRED]
DPOLSWS .V/V   : DENSITY POROSITY LIME [CALC FROM DENWS M=2.71, F=1.00]
DRESWS  .OHMM  : DEEP RESISTIVITY [LLDED]
DRHOED  .G/C3  : BULK DENSITY CORRECTION FROM DENSITY LOG [ADJ. TO GRRED]
DTED    .US/F  : DELTA-T FROM SONIC LOG [ADJ. TO GRRED]
DTWS    .US/F  : COMPRESSIONAL SONIC [DTED]
GRDED   .GAPI  : GAMMA RAY FROM DENSITY LOG [ADJ. TO GRRED]
GRRED   .GAPI  : GAMMA RAY FROM RESISTIVITY LOG
GRSED   .GAPI  : GAMMA RAY FROM SONIC LOG [ADJ. TO GRRED]
GRWS    .GAPI  : GAMMA RAY [GRSED]
LLDED   .OHMM  : LATEROLOG DEEP RESISTIVITY FROM RESISTIVITY LOG
LLSED   .OHMM  : LATEROLOG SHALLOW RESISTIVITY FROM RESISTIVITY LOG
MLLED   .OHMM  : MICRO FOCUSED LATERO RESISTIVITY FROM RESISTIVITY LOG
NPHILSED.V/V   : NEUTRON POROSITY LIME FROM DENSITY LOG [ADJ. TO GRRED]
NPHISSED.V/V   : NEUTRON POROSITY SAND FROM DENSITY LOG [ADJ. TO GRRED]
NPOLSWS .V/V   : NEUTRON POROSITY LIME [SS MATRIX CONVERTS TO LS SPL. TO LS @ 6450']
RHOBED  .G/C3  : BULK DENSITY FROM DENSITY LOG [ADJ. TO GRRED]
SRESWS  .OHMM  : SHALLOW RESISTIVITY [LLSED]
~Params ----------------------------------------------------
PD  .                     GL : PERMANENT DATUM
EPD .FT               2734.7 : ELEVATION PERMANENT DATUM
LMF .                     KB : LOG MEASURED FROM
DAPD.FT                   13 : FEET ABOVE PERMANENT DATUM
DMF .                     KB : DRILLING MEASURED FROM
EKB .FT               2747.7 : KELLY BUSHING
EGL .FT               2734.7 : GROUND LEVEL
DATE.               11/17/77 : RUN DATE
RUN .                      1 : RUN NUMBER
DD  .FT                10070 : DEPTH DRILLER
DL  .FT                10075 : DEPTH LOGGER
BLI .FT                10074 : BOTTOM LOG INTERVAL
TLI .FT                 4250 : TOP LOG INTERVAL
CBD .FT                 1066 : CASING BOTTOM DRILLER
BS  .IN                 8.75 : BIT SIZE
BSD .FT                10070 : BIT SIZE AT DEPTH
DFT .                    KCL : DRILLING FLUID TYPE
DFD .                    9.3 : DRILLING FLUID DENSITY
DFV .                     85 : DRILLING FLUID VISCOSITY
DFPH.                   10.5 : DRILLING FLUID PH
RMS .OHMM               0.33 : RESISTIVITY MUD SAMPLE
MST .DEGF                 64 : MUD SAMPLE TEMPERATURE
RMF .OHMM               0.47 : RESISTIVITY MUD FILTRATE SAMPLE
MFST.DEGF                 61 : MUD FILTRATE SAMPLE TEMPERATURE
TCS .HRS                 700 : TIME CIRCULATED STOPPED
LUN .                   7730 : LOGGING UNIT NUMBER
LUL .                    EDM : LOGGING UNIT LOCATION
ENGI.                PERKINS : RECORDING ENGINEER
WITN.                  FUCHS : WITNESSED BY
CLNT.                A2DTECH : CLIENT CODE
ORIG.               5" PRINT : ORIGIN OF DATA
UWI .       100113205613W500 : UNIQUE WELL ID
DICO. A2D Technologies, Inc. : DIGITIZING COMPANY
~Other -----------------------------------------------------
~ASCII -----------------------------------------------------
# ...
 5150.00000   10.50510    9.94670    9.94670  120.56470   -0.00520    2.51110    -999.25    0.08280    0.11630    8.29430   -0.00520   78.01040   78.01040  121.75550  116.31270  107.23980  107.23980    8.29430    9.12790    8.56120    -999.25    0.32130    0.27740    2.51110    9.12790
 5200.00000   11.38560    9.94220    9.94220  161.72860    0.23280    2.30730    -999.25    0.22850    0.23550    6.18320    0.23280   88.26390   88.26390  133.68210  128.44900  119.15470  119.15470    6.18320    7.29840    3.43220    -999.25    0.36500    0.32150    2.30730    7.29840
 5250.00000   10.96670   10.15660   10.15660  146.98320    0.08870    2.26830    -999.25    0.26070    0.25830    6.80350    0.08870   85.78680   85.78680  121.88540  123.30390  117.76850  117.76850    6.80350    7.93090    3.29420    -999.25    0.34400    0.30030    2.26830    7.93090
 5300.00000   10.91440    9.97680    9.97680  169.91200    0.21490    2.27670    -999.25    0.22160    0.25340    5.88540    0.21490   89.19880   89.19880  114.89990  122.36680  122.53800  122.53800    5.88540    7.13500    1.11700    -999.25    0.36480    0.32130    2.27670    7.13500
 5350.00000   12.72840   10.17820   10.17820  344.57810    0.19090    2.14700    -999.25    0.27900    0.32920    2.90210    0.19090   98.73080   98.73080  124.34380  143.16790  132.05040  132.05040    2.90210    3.48100    1.38170    -999.25    0.42700    0.38470    2.14700    3.48100
 5400.00000   12.58220   10.44590   10.44590  234.24140    0.14200    2.01560    -999.25    0.32590    0.40610    4.26910    0.14200   94.55620   94.55620  105.81470  106.19460   98.83920   98.83920    4.26910    5.02780    1.14250    -999.25    0.41330    0.37070    2.01560    5.02780
 5450.00000   12.34500   10.05200   10.05200  250.72080    0.18010    2.07220    -999.25    0.33110    0.37300    3.98850    0.18010   89.96010   89.96010  115.61190  121.23540  101.94190  101.94190    3.98850    4.47610    1.72040    -999.25    0.39370    0.35070    2.07220    4.47610
 5500.00000    9.08190    9.01360    9.01360  120.41950    0.04770    2.38880    -999.25    0.16410    0.18780    8.30430    0.04770   72.26880   72.26880   35.23650   40.06880   37.52130   37.52130    8.30430    9.08920    6.49910    -999.25    0.17720    0.13410    2.38880    9.08920
 5550.00000    9.95160    9.65720    9.65720   51.21880    0.02430    2.49600    -999.25    0.10450    0.12510   19.52410    0.02430   72.45360   72.45360   89.87580   88.87300   81.15210   81.15210   19.52410   20.40350   18.10500    -999.25    0.17840    0.13530    2.49600   20.40350
 5600.00000   10.24120   10.10920   10.10920   99.30980    0.01320    2.44030    -999.25    0.13710    0.15770   10.06950    0.01320   75.49120   75.49120   88.75880   89.14050   90.99890   90.99890   10.06950   12.15000   10.74820    -999.25    0.33480    0.29100    2.44030   12.15000
 5650.00000   10.30190   10.27140   10.27140   50.86130    0.06950    2.27700    -999.25    0.24680    0.25320   19.66130    0.06950   70.59080   70.59080   73.11180   75.19140   79.37020   79.37020   19.66130   14.91790   13.95480    -999.25    0.35240    0.30880    2.27700   14.91790
 5700.00000   11.08310   11.36210   11.36210   19.03870    0.02110    1.72510    -999.25    0.45010    0.57600   52.52450    0.02110  152.07650  152.07650   40.47790   47.48360   40.20970   40.20970   52.52450   36.19530    6.42610    -999.25    0.46260    0.42090    1.72510   36.19530
 5750.00000    9.73470    9.73780    9.73780   57.05780    0.00460    2.51420    -999.25    0.07560    0.11450   17.52610    0.00460   69.56840   69.56840   77.89770   72.19190   73.70510   73.70510   17.52610   16.01400   14.45610    -999.25    0.24040    0.19660    2.51420   16.01400
 5800.00000   11.86580   11.26100   11.26100   17.17550    0.00250    2.64400    -999.25    0.44960    0.03860   58.22260    0.00250  112.22670  112.22670   77.76650   67.71540   63.83680   63.83680   58.22260   47.67480   15.06650    -999.25    0.61510    0.57340    2.64400   47.67480
 5850.00000    9.81470    9.83600    9.83600   48.41820    0.01420    2.62900    -999.25    0.02320    0.04740   20.65340    0.01420   70.45010   70.45010  102.66140  105.11630   98.22970   98.22970   20.65340   15.85330   21.25610    -999.25    0.30070    0.25670    2.62900   15.85330
 5900.00000   10.06280   10.12150   10.12150   53.00010    0.00510    2.55660    -999.25    0.06570    0.08970   18.86790    0.00510   73.06590   73.06590   94.96320   94.67790  100.94880  100.94880   18.86790   15.01720   17.58830    -999.25    0.27380    0.22980    2.55660   15.01720
 5950.00000    9.67320    9.54470    9.54470   96.79420    0.00400    2.44580    -999.25    0.12420    0.15450   10.33120    0.00400   68.71010   68.71010   54.16500   53.95720   54.45450   54.45450   10.33120   11.23210   14.48160    -999.25    0.19880    0.15540    2.44580   11.23210
 6000.00000   10.07870    9.94620    9.94620  103.44790    0.01490    2.48280    -999.25    0.11040    0.13290    9.66670    0.01490   71.29540   71.29540   55.49250   63.47590   57.54850   57.54850    9.66670   11.32810   12.42670    -999.25    0.22040    0.17670    2.48280   11.32810
 6050.00000   10.39940   10.49070   10.49070  103.88750    0.00320    2.43740    -999.25    0.18170    0.15940    9.62580    0.00320   73.97120   73.97120   85.21800   85.50190   74.94170   74.94170    9.62580   12.19230    7.40860    -999.25    0.32720    0.28340    2.43740   12.19230
 6100.00000   10.04270   10.06740   10.06740  101.36640    0.00730    2.54060    -999.25    0.06910    0.09910    9.86520    0.00730   76.64980   76.64980   95.85910  105.11250   91.75350   91.75350    9.86520   11.22390   12.81050    -999.25    0.28110    0.23710    2.54060   11.22390
 6150.00000    9.55390    9.77920    9.77920   34.49870    0.00600    2.45660    -999.25    0.11530    0.14820   28.98660    0.00600   67.75580   67.75580   58.90050   51.45710   53.64350   53.64350   28.98660   32.28640   34.43650    -999.25    0.15750    0.11480    2.45660   32.28640
 6200.00000    9.56920    9.64390    9.64390   71.69280    0.01620    2.54910    -999.25    0.07290    0.09410   13.94840    0.01620   75.95930   75.95930  105.55350  104.92200   94.87340   94.87340   13.94840   17.66770   15.96800    -999.25    0.28740    0.24340    2.54910   17.66770
 6250.00000    9.47020    9.82650    9.82650   35.63020    0.01080    2.46930    -999.25    0.10930    0.14080   28.06610    0.01080   73.15840   73.15840  105.64000  111.85960   94.90920   94.90920   28.06610   35.34610   30.92480    -999.25    0.27280    0.22880    2.46930   35.34610
 6300.00000   10.32790   10.40930   10.40930  158.89910    0.01050    2.58290    -999.25    0.05720    0.07430    6.29330    0.01050   72.78020   72.78020   86.35490   89.66790   85.43690   85.43690    6.29330    7.23090    6.80620    -999.25    0.30060    0.25660    2.58290    7.23090
 6350.00000   10.65140   10.55660   10.55660   77.36520    0.01690    2.62810    -999.25    0.01820    0.04790   12.92570    0.01690   76.74820   76.74820   85.58320   93.70840   83.96840   83.96840   12.92570   14.60880   11.30700    -999.25    0.24900    0.20510    2.62810   14.60880
 6400.00000    9.08200    9.02740    9.02740   27.52900    0.02150    2.53080    -999.25    0.06360    0.10480   36.32530    0.02150   59.95430   59.95430   42.72800   43.92390   35.52770   35.52770   36.32530   43.43660   34.19060    -999.25    0.08670    0.04650    2.53080   43.43660
 6450.00000    8.82170    9.04540    9.04540    6.05250    0.00820    2.54340    -999.25    0.07740    0.09740  165.22030    0.00820   54.50710   54.50710   21.75170   20.41430   21.53950   21.53950  165.22030  196.42180  219.94470    -999.25    0.06030    0.02410    2.54340  196.42180
 6500.00000    9.07670    9.12560    9.12560    0.11870    0.01400    2.54250    0.10400    -999.25    0.09800 8423.41990    0.01400   54.83220   54.83220   32.88680   31.99110   28.61460   28.61460 8423.41990  726.23080 2210.85450    0.02150    -999.25    0.02150    2.54250  726.23080
