~Version ---------------------------------------------------
VERS.      2.0 : CWLS log ASCII Standard -VERSION 2.0
WRAP.       NO : One line per depth step
CREA. 01/02/18 : LAS Creation Date
~Well ------------------------------------------------------
STRT.FT                                 1000.0 : START DEPTH
STOP.FT                                 9800.0 : STOP DEPTH
STEP.FT                               50.00000 : STEP LENGTH
NULL.                                  -999.25 : NULL VALUE
COMP. THE BRITISH AMERICAN OIL COMPANY LIMITED : COMPANY
WELL.                    BA IOSEGUN 2-11-67-20 : WELL
FLD .                                          : FIELD
LOC .                                          : LOCATION
CTRY.                                   CANADA : COUNTRY
SRVC.                             Schlumberger : SERVICE COMPANY
DATE.                              02-Mar-1963 : LOGDATE
PROV.                                  Alberta : PROVINCE
UWI .                         100021106720W500 : UNIQUE WELL ID
SLAT.WGS84                            54.77967 : SURFACE LATITUDE
SLON.WGS84                           -116.9329 : SURFACE LONGITUDE
~Curve Information -----------------------------------------
DEPT  .FT    : Depth Curve
CALSED.IN    : CALIPER FROM SONIC LOG
CALWS .IN    : CALIPER [CALSED]
CILDED.MMHO  : INDUCTION DEEP CONDUCTIVITY FROM IEL
CONDWS.MMHO  : CONDUCTIVITY [1000/DRESWS]
DRESWS.OHMM  : DEEP RESISTIVITY [ILDED, IF ILDED<2;1000/CILDED]
DTED  .US/F  : DELTA TIME  (INTERVAL TRANSIT TIME)  FROM SONIC LOG
DTWS  .US/F  : COMPRESSIONAL SONIC [DTED]
GRSED .GAPI  : GAMMA RAY FROM SONIC LOG
GRWS  .GAPI  : GAMMA RAY [GRSED]
ILDED .OHMM  : INDUCTION DEEP RESISTIVITY FROM IEL
SNED  .OHMM  : SHORT NORMAL RESISTIVITY FROM IEL
SPRED .MV    : SPONTANEOUS POTENTIAL FROM IEL
SPWS  .MV    : SPONTANEOUS POTENTIAL [BASELINE 0 MV] [SPRED]
SRESWS.OHMM  : SHALLOW RESISTIVITY [SNED]
~Params ----------------------------------------------------
PD  .                     GL : PERMANENT DATUM
EPD .FT                 2507 : ELEVATION PERMANENT DATUM
LMF .                     KB : LOG MEASURED FROM
DAPD.FT                   18 : FEET ABOVE PERMANENT DATUM
EKB .FT                 2525 : KELLY BUSHING
EGL .FT                 2507 : GROUND LEVEL
DATE.              03/02/196 : RUN DATE
RUN .                      2 : RUN NUMBER
DD  .FT                 9825 : DEPTH DRILLER
DL  .FT                 9831 : DEPTH LOGGER
BLI .FT                 9830 : BOTTOM LOG INTERVAL
TLI .FT                 9589 : TOP LOG INTERVAL
CBD .FT                 1015 : CASING BOTTOM DRILLER
CBL .FT                 1018 : CASING BOTTOM LOGGER
BS  .IN                    9 : BIT SIZE
BSD .FT                 9831 : BIT SIZE AT DEPTH
DFT .           OIL EMULSION : DRILLING FLUID TYPE
DFD .                    9.8 : DRILLING FLUID DENSITY
DFV .                    180 : DRILLING FLUID VISCOSITY
DFPH.                     10 : DRILLING FLUID PH
DFL .                    7.0 : DRILLING FLUID LOSS
RMS .OHMM               0.95 : RESISTIVITY MUD SAMPLE
MST .DEGF                 82 : MUD SAMPLE TEMPERATURE
RMF .OHMM               1.07 : RESISTIVITY MUD FILTRATE SAMPLE
MFST.DEGF                 50 : MUD FILTRATE SAMPLE TEMPERATURE
RMC .OHMM               1.97 : RESISTIVITY MUD CAKE
MCST.DEGF                 50 : MUD CAKE SAMPLE TEMPERATURE
RMB .OHMM               0.41 : RESISTIVITY MUD AT BHT
MRT .DEGF                190 : MAXIMUM RECORDED TEMPERATURE
LUN .                1534 VV : LOGGING UNIT NUMBER
ENGI.                MCKEOWN : RECORDING ENGINEER
WITN.              MCDERMOTT : WITNESSED BY
CLNT.                A2DTECH : CLIENT CODE
ORIG.           2', 5' PRINT : ORIGIN OF DATA
UWI .       100021106720W500 : UNIQUE WELL ID
DICO. A2D Technologies, Inc. : DIGITIZING COMPANY
~Other -----------------------------------------------------
CILD USED SCALES 500/0 FROM START TO 9750' AND SCALES 1000/0 FROM 9750'-END.
IEL LOG TAKEN FROM RUN 1 FROM START TO 9750 AND RUN 2 FROM 9750'-END.
~ASCII -----------------------------------------------------
# ...
 3450.00000   10.47150   10.47150   99.38580  101.72010    9.83090  123.17730  123.17730  134.21630  134.21630    9.83090   15.10610  -80.62170   -3.04430   15.10610
 3500.00000   11.08280   11.08280  116.89300  118.36280    8.44860  111.54300  111.54300   93.16930   93.16930    8.44860    9.91620  -80.68070   -3.08280    9.91620
 3550.00000   11.71360   11.71360  184.00600  192.30400    5.20010  109.03250  109.03250   88.99150   88.99150    5.20010    6.38800  -78.54750   -0.92900    6.38800
 3600.00000   11.89960   11.89960  190.75060  192.63740    5.19110  101.57130  101.57130   99.27460   99.27460    5.19110    6.85170  -79.29970   -1.66060    6.85170
 3650.00000   10.80830   10.80830  177.28950  179.79140    5.56200  111.30520  111.30520  103.66090  103.66090    5.56200    7.00720  -79.59290   -1.93330    7.00720
 3700.00000   10.94900   10.94900  156.94350  156.06470    6.40760  107.34350  107.34350   97.00320   97.00320    6.40760    7.72270  -81.12690   -3.44670    7.72270
 3750.00000   10.78430   10.78430  149.75720  148.25140    6.74530   96.24420   96.24420   95.13490   95.13490    6.74530    7.85870  -81.01110   -3.31030    7.85870
 3800.00000   12.29110   12.29110  228.22610  218.44080    4.57790  104.92580  104.92580   92.78910   92.78910    4.57790    5.67950  -80.60120   -2.87990    5.67950
 3850.00000   11.27270   11.27270  230.69870  234.48310    4.26470  130.26100  130.26100   98.83780   98.83780    4.26470    5.29060  -79.47090   -1.72900    5.29060
 3900.00000    8.90550    8.90550  194.88320  197.65580    5.05930  115.56100  115.56100  118.26650  118.26650    5.05930    5.89370  -79.89070   -2.12820    5.89370
 3950.00000    8.34490    8.34490  398.75390  375.29090    2.66460  130.08270  130.08270  133.57710  133.57710    2.66460    4.00220  -78.22580   -0.44280    4.00220
 4000.00000    8.58610    8.58610  459.09260  391.37410    2.55510  140.38850  140.38850  118.26100  118.26100    2.55510    3.23270  -79.41770   -1.61410    3.23270
 4050.00000   10.19950   10.19950  226.64010  213.39710    4.68610  124.03280  124.03280  100.60540  100.60540    4.68610    5.36310  -78.42070   -0.59650    5.36310
 4100.00000   12.34320   12.34320  232.40360  227.46920    4.39620  109.24300  109.24300  105.72790  105.72790    4.39620    5.16730  -78.41270   -0.56800    5.16730
 4150.00000   12.28960   12.28960  190.17400  190.31310    5.25450   95.11620   95.11620   95.76920   95.76920    5.25450    6.42370  -78.82440   -0.95910    6.42370
 4200.00000    9.39140    9.39140   87.84330   89.04400   11.23040   87.78430   87.78430   52.56120   52.56120   11.23040   16.23580 -109.60500  -32.25660   16.23580
 4250.00000   11.89890   11.89890  272.41510  275.26220    3.63290  110.78200  110.78200   77.49680   77.49680    3.63290    4.57050  -76.64450   -0.14250    4.57050
 4300.00000    9.85220    9.85220   84.01270   85.18320   11.73940   84.84830   84.84830   78.18660   78.18660   11.73940   15.33890  -87.85440  -12.19870   15.33890
 4350.00000    8.93790    8.93790  156.83110  159.09890    6.28540   92.48000   92.48000   42.10870   42.10870    6.28540   16.03210 -138.26370  -63.45440   16.03210
 4400.00000   10.23570   10.23570  145.86280  145.20950    6.88660   90.96300   90.96300   72.19890   72.19890    6.88660    9.19030  -77.80960   -3.84660    9.19030
 4450.00000    9.86320    9.86320  141.95930  138.58290    7.21590   95.14230   95.14230   85.17010   85.17010    7.21590   10.07120  -84.60570  -11.48910   10.07120
 4500.00000    9.10020    9.10020  107.86350  109.53500    9.12950   90.60080   90.60080   68.12160   68.12160    9.12950   16.04470 -104.12200  -31.85170   16.04470
 4550.00000    8.87410    8.87410   83.81510   83.96590   11.90960   84.86550   84.86550   47.17290   47.17290   11.90960   15.59450  -91.03990  -19.61600   15.59450
 4600.00000   10.15470   10.15470  218.03200  209.69200    4.76890   93.89430   93.89430   80.82450   80.82450    4.76890    6.05170  -70.46920    0.10840    6.05170
 4650.00000   10.11090   10.11090  170.16480  170.40130    5.86850   96.66630   96.66630   90.81720   90.81720    5.86850    8.03740  -72.15140   -2.39710    8.03740
 4700.00000   10.29900   10.29900  142.43500  142.31430    7.02670   86.77070   86.77070   87.27300   87.27300    7.02670    9.71130  -77.10540   -7.86890    9.71130
 4750.00000   10.78290   10.78290  208.29280  205.37680    4.86910  104.65930  104.65930   82.66990   82.66990    4.86910    7.79680  -73.41720   -4.69850    7.79680
 4800.00000    9.29440    9.29440  235.89920  226.60840    4.41290   90.06450   90.06450   66.58300   66.58300    4.41290   12.12350 -128.18500  -59.98410   12.12350
 4850.00000   10.36930   10.36930  154.21540  155.87010    6.41560   88.74380   88.74380   85.21190   85.21190    6.41560    7.90660  -74.56350   -6.88040    7.90660
 4900.00000    9.24360    9.24360  158.77550  160.17430    6.24320   73.63970   73.63970   64.83920   64.83920    6.24320   19.72790 -128.05390  -60.88860   19.72790
 4950.00000    9.44970    9.44970   89.13450   88.51590   11.29740   70.83970   70.83970   58.47720   58.47720   11.29740   24.97360 -116.13960  -49.49200   24.97360
 5000.00000   10.82530   10.82530  133.87940  134.07880    7.45830   82.49170   82.49170   79.24880   79.24880    7.45830    9.01670  -72.95530   -6.82550    9.01670
 5050.00000   10.95930   10.95930  165.66760  165.26470    6.05090   86.04730   86.04730   87.19920   87.19920    6.05090    8.28040  -68.51560   -2.90360    8.28040
 5100.00000   11.64270   11.64270  146.19140  145.90660    6.85370   93.97600   93.97600   74.65360   74.65360    6.85370    8.20230  -69.11300   -4.01880    8.20230
 5150.00000    9.88430    9.88430  123.55740  122.20910    8.18270   81.78330   81.78330   55.46660   55.46660    8.18270   18.74410 -120.70850  -56.13210   18.74410
 5200.00000   10.64780   10.64780   64.80410   64.54990   15.49190   88.02770   88.02770   93.51050   93.51050   15.49190   20.70780  -78.61980  -14.56120   20.70780
 5250.00000   10.46920   10.46920   99.27240  101.55170    9.84720   91.84400   91.84400   81.43110   81.43110    9.84720   18.12400  -89.25840  -25.71750   18.12400
 5300.00000   14.27780   14.27780  501.03550  427.82580    2.33740  128.06330  128.06330   85.67480   85.67480    2.33740    3.88480  -68.78350   -5.76040    3.88480
 5350.00000   14.82830   14.82830  342.87500  314.64350    3.17820  104.82330  104.82330   91.86020   91.86020    3.17820    3.85720  -69.15210   -6.64680    3.85720
 5400.00000   12.84680   12.84680  114.11580  100.04500    9.99550  121.48480  121.48480   96.06240   96.06240    9.99550   11.59890  -66.42490   -4.43740   11.59890
 5450.00000   10.08870   10.08870   14.69580   12.02680   83.14760  115.74970  115.74970  190.63120  190.63120   83.14760   78.42270  -64.33840   -2.60160   78.42270
 5500.00000    9.76440    9.76440    6.50420    4.66100  214.54770   71.67770   71.67770   73.96720   73.96720  214.54770  226.90040  -89.47500  -27.67550  226.90040
 5550.00000    9.13170    9.13170  258.22740  243.90240    4.10000   76.71070   76.71070   60.41870   60.41870    4.10000   19.58170 -162.83190 -100.96970   19.58170
 5600.00000   10.00320   10.00320  222.61560  212.43600    4.70730   75.96350   75.96350   68.06750   68.06750    4.70730   15.45740 -128.48900  -66.56400   15.45740
 5650.00000   12.29040   12.29040  190.03680  195.66030    5.11090   72.35380   72.35380   85.07270   85.07270    5.11090    7.75460  -86.74270  -24.75500    7.75460
 5700.00000   11.69900   11.69900  183.41320  177.15110    5.64490   73.00050   73.00050   89.74780   89.74780    5.64490    8.96640 -106.46300  -44.41250    8.96640
 5750.00000   11.01980   11.01980   52.22170   50.32030   19.87270   66.94500   66.94500  101.54970  101.54970   19.87270   20.19960  -76.58080  -14.46760   20.19960
 5800.00000    8.94920    8.94920  668.31970  668.31970    1.49630   76.89800   76.89800   35.15350   35.15350    1.72100   15.36250 -187.63690 -125.46100   15.36250
 5850.00000   10.37250   10.37250   14.95420   14.41220   69.38570   52.33900   52.33900   41.46920   41.46920   69.38570   78.99040 -167.04020 -104.80150   78.99040
