~Version ---------------------------------------------------
VERS.      2.0 : CWLS log ASCII Standard -VERSION 2.0
WRAP.       NO : One line per depth step
CREA. 01/02/18 : LAS Creation Date
~Well ------------------------------------------------------
STRT.FT                     2050.0 : START DEPTH
STOP.FT                    11200.0 : STOP DEPTH
STEP.FT                   50.00000 : STEP LENGTH
NULL.                      -999.25 : NULL VALUE
COMP.     CHEVRON STANDARD LIMITED : COMPANY
WELL. CHEVRON KAYBOB S 10-19-60-18 : WELL
FLD .                              : FIELD
LOC .                              : LOCATION
CTRY.                       CANADA : COUNTRY
SRVC.                      Unknown : SERVICE COMPANY
DATE.                  02-Dec-1969 : LOGDATE
PROV.                      Alberta : PROVINCE
UWI .             100101906018W500 : UNIQUE WELL ID
SLAT.WGS84                54.20497 : SURFACE LATITUDE
SLON.WGS84               -116.6847 : SURFACE LONGITUDE
~Curve Information -----------------------------------------
DEPT  .FT    : Depth Curve
ACED  .US/F  : DELTA TIME FROM SONIC LOG [ADJ. TO RESISTIVITY LOG]
CALSED.IN    : CALIPER FROM SONIC LOG [ADJ. TO RESISTIVITY LOG]
CALWS .IN    : CALIPER [CALSED]
CONDWS.MMHO  : CONDUCTIVITY [1000/DRESWS]
DRESWS.OHMM  : DEEP RESISTIVITY [ILDED]
DTWS  .US/F  : COMPRESSIONAL SONIC [ACED]
GRSED .GAPI  : GAMMA RAY FROM SONIC LOG [ADJ. TO RESISTIVITY LOG]
GRWS  .GAPI  : GAMMA RAY [GRSED]
ILDED .OHMM  : DEEP INDUCTION FROM RESISTIVITY LOG
ILMED .OHMM  : MEDIUM INDUCTION FROM RESISTIVITY LOG
MRESWS.OHMM  : MEDIUM RESISTIVITY [ILMED]
SFLED .OHMM  : SPHERICALLY FOCUSED RESISTIVITY FROM RESISTIVITY LOG
SPRED .MV    : SPONTANEOUS POTENTIAL FROM RESISTIVITY LOG
SPWS  .MV    : SPONTANEOUS POTENTIAL [BASELINE 0 MV, SPRED]
SRESWS.OHMM  : SHALLOW RESISTIVITY [SFLED]
~Params ----------------------------------------------------
PD  .                     GL : PERMANENT DATUM
EPD .FT               3271.7 : ELEVATION PERMANENT DATUM
LMF .                     KB : LOG MEASURED FROM
DAPD.FT                 15.5 : FEET ABOVE PERMANENT DATUM
DMF .                     KB : DRILLING MEASURED FROM
EKB .FT               3287.2 : KELLY BUSHING
EGL .FT               3271.7 : GROUND LEVEL
DATE.               12/02/69 : RUN DATE
RUN .                      1 : RUN NUMBER
DD  .FT                11226 : DEPTH DRILLER
DL  .FT                11223 : DEPTH LOGGER
BLI .FT                11221 : BOTTOM LOG INTERVAL
TLI .FT                 2044 : TOP LOG INTERVAL
CS  .IN                9.625 : CASING SIZE
CBD .FT                 2041 : CASING BOTTOM DRILLER
CBL .FT                 2044 : CASING BOTTOM LOGGER
BS  .IN                 8.75 : BIT SIZE
BSD .FT                11226 : BIT SIZE AT DEPTH
DFT .                MUD GEL : DRILLING FLUID TYPE
DFD .                    9.2 : DRILLING FLUID DENSITY
DFV .                    124 : DRILLING FLUID VISCOSITY
DFPH.                   11.4 : DRILLING FLUID PH
DFL .                    7.6 : DRILLING FLUID LOSS
MSS .                   CIRC : MUD SAMPLE SOURCE
RMS .OHMM               1.75 : RESISTIVITY MUD SAMPLE
MST .DEGF                 50 : MUD SAMPLE TEMPERATURE
RMF .OHMM               1.25 : RESISTIVITY MUD FILTRATE SAMPLE
MFST.DEGF                 60 : MUD FILTRATE SAMPLE TEMPERATURE
RMC .OHMM                2.1 : RESISTIVITY MUD CAKE
MCST.DEGF                 60 : MUD CAKE SAMPLE TEMPERATURE
MFSS.                   MEAS : MUD FILTRATE SAMPLE SOURCE
MCSS.                   MEAS : MUD CAKE SAMPLE SOURCE
TCS .HRS                   7 : TIME CIRCULATED STOPPED
LUN .                   6002 : LOGGING UNIT NUMBER
LUL .                    V V : LOGGING UNIT LOCATION
ENGI.              KOWALCHUK : RECORDING ENGINEER
WITN.               PETERSON : WITNESSED BY
CLNT.                A2DTECH : CLIENT CODE
ORIG.            2" 5" PRINT : ORIGIN OF DATA
UWI .       100101906018W500 : UNIQUE WELL ID
DICO. A2D Technologies, Inc. : DIGITIZING COMPANY
~Other -----------------------------------------------------
~ASCII -----------------------------------------------------
# ...
 4350.00000   90.19000   12.62370   12.62370  130.56360    7.65910   90.19000  127.63350  127.63350    7.65910    8.16110    8.16110    7.01510 -117.77580  -45.30240    7.01510
 4400.00000   91.31000   12.37860   12.37860  149.16020    6.70420   91.31000  141.60260  141.60260    6.70420    6.89180    6.89180    6.31120 -118.15050  -46.01260    6.31120
 4450.00000   81.57000   12.18740   12.18740   90.43870   11.05900   81.57000  134.47870  134.47870   11.05900   11.98380   11.98380   12.84210 -120.24150  -48.44140   12.84210
 4500.00000   89.29000   13.23230   13.23230  126.22120    7.92260   89.29000  135.46130  135.46130    7.92260    8.33640    8.33640    8.96610 -117.22670  -45.76220    8.96610
 4550.00000   93.42000   13.75130   13.75130  138.55400    7.21740   93.42000  140.41740  140.41740    7.21740    7.62590    7.62590    6.94010 -115.71360  -44.58470    6.94010
 4600.00000   95.93000   13.96180   13.96180  170.55530    5.86320   95.93000  135.99060  135.99060    5.86320    6.10990    6.10990    5.63410 -115.47220  -44.68110    5.63410
 4650.00000   91.98000   13.32030   13.32030  168.31620    5.94120   91.98000  139.96590  139.96590    5.94120    6.15150    6.15150    5.63030 -115.04160  -44.58610    5.63030
 4700.00000   90.13000   11.60270   11.60270  140.08590    7.13850   90.13000  136.41090  136.41090    7.13850    7.46110    7.46110    6.79750 -116.52960  -46.41180    6.79750
 4750.00000   83.94000   13.28530   13.28530  123.73940    8.08150   83.94000  125.30960  125.30960    8.08150    8.46230    8.46230    8.95600 -120.65610  -50.87390    8.95600
 4800.00000   90.08000   13.73020   13.73020  150.00600    6.66640   90.08000  134.27680  134.27680    6.66640    7.36780    7.36780    6.27450 -120.18180  -50.73520    6.27450
 4850.00000   85.48000   13.14180   13.14180  161.06170    6.20880   85.48000  146.88110  146.88110    6.20880    6.47170    6.47170    5.87850 -120.07790  -50.96910    5.87850
 4900.00000   90.91000   13.92370   13.92370  171.50310    5.83080   90.91000  142.03380  142.03380    5.83080    6.10230    6.10230    5.53670 -120.21720  -51.44400    5.53670
 4950.00000   87.18000   12.92580   12.92580  142.54150    7.01550   87.18000  129.09750  129.09750    7.01550    7.33800    7.33800    6.58240 -121.73580  -53.30030    6.58240
 5000.00000   92.22000   11.17110   11.17110   78.26620   12.77690   92.22000   94.26880   94.26880   12.77690   14.09460   14.09460   16.19030 -130.27520  -62.17530   16.19030
 5050.00000   81.88000   12.46790   12.46790  121.12260    8.25610   81.88000  131.72330  131.72330    8.25610    8.66800    8.66800    8.05970 -121.36490  -53.60060    8.05970
 5100.00000  124.85000   12.54810   12.54810  128.93910    7.75560  124.85000  139.63150  139.63150    7.75560    7.88090    7.88090    8.43970 -120.71370  -53.28720    8.43970
 5150.00000   86.69000   12.41710   12.41710  143.32190    6.97730   86.69000  135.98620  135.98620    6.97730    7.31830    7.31830    7.62840 -119.92360  -52.83270    7.62840
 5200.00000   89.36000   12.08930   12.08930  127.60440    7.83680   89.36000  130.84390  130.84390    7.83680    8.15820    8.15820    6.81630 -119.78070  -53.02760    6.81630
 5250.00000   97.19000   11.47270   11.47270  161.12660    6.20630   97.19000  138.81140  138.81140    6.20630    6.99250    6.99250    6.54450 -117.51290  -51.09530    6.54450
 5300.00000   95.90000   12.58200   12.58200  155.54760    6.42890   95.90000  152.81080  152.81080    6.42890    6.79790    6.79790    7.15030 -114.08170  -47.99970    7.15030
 5350.00000   96.43000   10.67200   10.67200  130.92780    7.63780   96.43000  159.52150  159.52150    7.63780    7.79460    7.79460    8.09120 -113.60310  -47.85890    8.09120
 5400.00000   92.64000   11.41190   11.41190  141.34280    7.07500   92.64000  159.60530  159.60530    7.07500    7.61070    7.61070    8.27100 -112.91140  -47.50280    8.27100
 5450.00000   93.92500   11.16670   11.16670  103.02640    9.70640   93.92500  175.83810  175.83810    9.70640   10.37580   10.37580   12.02540 -111.81790  -46.74710   12.02540
 5500.00000   94.77000   10.57670   10.57670  108.97640    9.17630   94.77000  156.62640  156.62640    9.17630    9.84630    9.84630   11.88610 -111.00500  -46.26970   11.88610
 5550.00000   96.96000   10.86080   10.86080  114.70650    8.71790   96.96000  167.16580  167.16580    8.71790    9.24320    9.24320   11.21580 -109.55450  -45.15480   11.21580
 5600.00000   95.84000   12.45190   12.45190  151.31340    6.60880   95.84000  158.19410  158.19410    6.60880    7.21010    7.21010    8.17280 -105.73680  -41.67490    8.17280
 5650.00000   85.76000   11.68340   11.68340  119.33320    8.37990   85.76000  175.48420  175.48420    8.37990    9.14380    9.14380    9.71580 -105.81570  -42.08940    9.71580
 5700.00000   89.75250   11.75200   11.75200  139.90400    7.14790   89.75250  131.39830  131.39830    7.14790    7.83750    7.83750    7.87360 -105.82050  -42.43200    7.87360
 5750.00000   76.19000   11.28270   11.28270  123.22560    8.11520   76.19000  129.04600  129.04600    8.11520    8.68470    8.68470    7.65020 -104.30020  -41.24730    7.65020
 5800.00000   87.88000   12.68690   12.68690  157.08450    6.36600   87.88000  157.41540  157.41540    6.36600    6.84530    6.84530    6.15260  -99.17580  -36.45840    6.15260
 5850.00000   82.95000   12.16390   12.16390   87.38810   11.44320   82.95000  125.26210  125.26210   11.44320   12.87480   12.87480   11.23350 -101.42500  -39.04540   11.23350
 5900.00000   80.88000   12.19140   12.19140  130.77020    7.64700   80.88000  157.88090  157.88090    7.64700    8.04800    8.04800    6.59600  -90.89650  -28.85250    6.59600
 5950.00000  107.45500   12.73130   12.73130  196.57830    5.08700  107.45500  133.69040  133.69040    5.08700    5.49720    5.49720    6.03210  -85.01960  -23.31340    6.03210
 6000.00000   94.01000   12.51960   12.51960  219.99780    4.54550   94.01000  175.54670  175.54670    4.54550    4.90820    4.90820    5.10610  -82.05810  -20.68750    5.10610
 6050.00000   96.13000   12.64290   12.64290  264.69030    3.77800   96.13000  176.51610  176.51610    3.77800    4.03530    4.03530    4.33340  -78.52350  -17.48840    4.33340
 6100.00000  105.93000   12.68500   12.68500  416.97940    2.39820  105.93000  150.69780  150.69780    2.39820    2.48790    2.48790    2.91800  -77.18750  -16.49020    2.91800
 6150.00000   94.19000   13.10500   13.10500  275.77840    3.62610   94.19000  142.29140  142.29140    3.62610    3.83400    3.83400    3.29870  -70.18140   -9.81970    3.29870
 6200.00000   85.86000   12.09030   12.09030  183.78340    5.44140   85.86000  151.09670  151.09670    5.44140    6.70850    6.70850    5.82480  -68.87220   -8.84830    5.82480
 6250.00000   72.06000   10.44430   10.44430   50.73440   19.71050   72.06000   64.33040   64.33040   19.71050   24.51550   24.51550   34.43470 -100.88630  -41.19800   34.43470
 6300.00000   81.47000   12.03830   12.03830  145.12730    6.89050   81.47000  136.87000  136.87000    6.89050    7.40140    7.40140    8.04810  -67.10670   -7.75400    8.04810
 6350.00000   75.22000   11.81560   11.81560   79.88430   12.51810   75.22000  108.28290  108.28290   12.51810   12.01900   12.01900   10.68930  -72.89920  -13.90260   10.68930
 6400.00000   89.59000   12.73660   12.73660  118.10840    8.46680   89.59000   73.96760   73.96760    8.46680    9.45090    9.45090    7.91820  -78.84120  -20.20300    7.91820
 6450.00000   77.84000   12.26250   12.26250   85.02940   11.76080   77.84000  122.76940  122.76940   11.76080   13.16910   13.16910   14.32200  -69.41980  -11.14240   14.32200
 6500.00000   69.87000   11.96190   11.96190   92.34460   10.82900   69.87000  108.91380  108.91380   10.82900   12.65480   12.65480   11.80860  -73.85510  -15.93610   11.80860
 6550.00000  139.96000   15.18080   15.18080   91.94050   10.87660  139.96000   99.77090   99.77090   10.87660   10.20660   10.20660   14.36520  -69.67350  -12.11290   14.36520
 6600.00000  118.19000   13.41300   13.41300   68.36250   14.62790  118.19000  125.09120  125.09120   14.62790   16.44130   16.44130   15.49530  -71.17170  -13.97190   15.49530
