~Version ---------------------------------------------------
VERS.      2.0 : CWLS log ASCII Standard -VERSION 2.0
WRAP.       NO : One line per depth step
CREA. 08/22/14 : LAS Creation Date
~Well ------------------------------------------------------
STRT.FT                 1143.82546 : START DEPTH
STOP.FT                11159.82546 : STOP DEPTH
STEP.FT                    0.50000 : STEP LENGTH
NULL.                      -999.25 : NULL VALUE
COMP.            TRIAD OIL CO. LTD : COMPANY
WELL. TRIAD PAN AM ANTE 2-27-66-25 : WELL
FLD .                              : FIELD
LOC .                              : LOCATION
CTRY.                       CANADA : COUNTRY
SRVC.                   Lane Wells : SERVICE COMPANY
DATE.                  15-Aug-1967 : LOGDATE
PROV.                      Alberta : PROVINCE
UWI .             100022706625W500 : UNIQUE WELL ID
SLAT.WGS84                54.73614 : SURFACE LATITUDE
SLON.WGS84                 -117.69 : SURFACE LONGITUDE
~Curve Information -----------------------------------------
DEPT.FT    : DEPTH FEET
CALS.IN    : CALIPER FROM SONIC LOG
DT  .US/F  : DELTA TIME FROM SONIC LOG
GRS .GAPI  : GAMMA RAY FROM SONIC LOG
ILD .OHMM  : INDUCTION LOG DEEP RESISTIVITY
SN  .OHMM  : 16 INCH SHORT NORMAL RESISTIVITY FROM IEL
SPR .MV    : SPONTANEOUS POTENTIAL FROM RESISTIVITY LOG
~Params ----------------------------------------------------
PD  .                     GL : PERMANENT DATUM
EPD .FT               2399.7 : ELEVATION PERMANENT DATUM
LMF .                     KB : LOG MEASURED FROM
DAPD.FT                   15 : FEET ABOVE PERMANENT DATUM
DMF .                     KB : DRILLING MEASURED FROM
EKB .FT               2414.7 : KELLY BUSHING
EGL .FT               2399.7 : GROUND LEVEL
DATE.               08/15/67 : RUN DATE
RUN .                      1 : RUN NUMBER
DD  .FT                11172 : DEPTH DRILLER
DL  .FT                11160 : DEPTH LOGGER
BLI .FT                11156 : BOTTOM LOG INTERVAL
TLI .FT                 1144 : TOP LOG INTERVAL
CS  .IN                9.625 : CASING SIZE
CBD .FT                 1145 : CASING BOTTOM DRILLER
CBL .FT                 1144 : CASING BOTTOM LOGGER
BS  .IN                7.625 : BIT SIZE
BSD .FT                11172 : BIT SIZE AT DEPTH
DFT .                MUD GEL : DRILLING FLUID TYPE
DFD .                    9.9 : DRILLING FLUID DENSITY
DFV .                     89 : DRILLING FLUID VISCOSITY
DFPH.                      9 : DRILLING FLUID PH
DFL .                    7.2 : DRILLING FLUID LOSS
MSS .                   CIRC : MUD SAMPLE SOURCE
RMS .OHMM                3.0 : RESISTIVITY MUD SAMPLE
MST .DEGF                 86 : MUD SAMPLE TEMPERATURE
RMF .OHMM                2.4 : RESISTIVITY MUD FILTRATE SAMPLE
MFST.DEGF                 86 : MUD FILTRATE SAMPLE TEMPERATURE
RMC .OHMM                3.2 : RESISTIVITY MUD CAKE
MCST.DEGF                 86 : MUD CAKE SAMPLE TEMPERATURE
MFSS.                   MEAS : MUD FILTRATE SAMPLE SOURCE
MCSS.                   MEAS : MUD CAKE SAMPLE SOURCE
RMB .OHMM                1.2 : RESISTIVITY MUD AT BHT
TCS .HRS                   6 : TIME CIRCULATED STOPPED
LUN .                   1256 : LOGGING UNIT NUMBER
LUL .                    EDM : LOGGING UNIT LOCATION
ENGI.      KOWALCHUK DOMSTAD : RECORDING ENGINEER
WITN.            DANIELEWICZ : WITNESSED BY
CLNT.                A2DTECH : CLIENT CODE
ORIG.            2" 5" PRINT : ORIGIN OF DATA
UWI .       100022706625W500 : UNIQUE WELL ID
DICO. A2D Technologies, Inc. : DIGITIZING COMPANY
~Other -----------------------------------------------------
~ASCII -----------------------------------------------------
# ...
 6448.32546    8.88640  107.06650  226.16250   62.28770  119.18890  -87.54970
 6448.82546    8.92640  105.84620  221.98220   51.59820  105.31150  -87.37370
 6449.32546    8.90700  105.85000  210.71700   42.10200   88.86800  -86.77600
 6449.82546    8.87850  105.26120  209.84740   38.35740   80.96100  -86.34790
 6450.32546    8.81400  103.35000  202.26700   29.85400   62.79000  -85.31700
 6450.82546    8.81170   98.52130  194.44630   27.59090   55.40910  -84.57720
 6451.32546    8.82600   79.44600  167.21100   23.99300   45.50500  -82.66500
 6451.82546    8.83310   69.61500  154.37140   22.92600   43.52530  -82.11300
 6452.32546    8.87580   62.58860  112.26490   20.50210   38.70370  -81.54210
 6452.82546    8.90600   61.37650  100.61160   19.29430   36.93730  -81.44880
 6453.32546    8.96770   55.43770   91.98140   17.70910   34.52270  -81.38770
 6453.82546    8.99860   54.38500   92.48550   17.20100   33.58200  -81.45720
 6454.32546    9.06110   56.35740   94.73100   16.20850   31.76600  -81.62830
 6454.82546    9.09170   58.05460   94.59930   15.71610   30.87330  -82.27450
 6455.32546    9.15350   60.71570   93.52260   14.84560   29.15880  -84.15750
 6455.82546    9.19210   61.64030   92.34890   14.59390   28.57760  -84.43890
 6456.32546    9.28330   63.32850   92.70100   14.21310   27.69350  -84.23880
 6456.82546    9.33040   63.71500   92.70100   14.00720   27.38270  -84.18480
 6457.32546    9.42570   63.18140   93.02060   13.59510   27.16320  -84.63730
 6457.82546    9.47210   63.54590   93.62570   13.38700   27.14430  -85.56120
 6458.32546    9.55930   68.59500   92.81570   13.11030   27.04170  -88.19400
 6458.82546    9.59810   71.29450   93.58930   13.04920   26.79020  -89.19140
 6459.32546    9.63530   73.67560   99.31600   12.94420   25.81580  -89.61160
 6459.82546    9.63400   68.75000  106.21800   12.83500   25.15700  -87.66400
 6460.32546    9.65150   69.95710  108.83730   12.78430   24.95420  -86.11720
 6460.82546    9.71100   74.26200  106.85100   12.58800   24.70300  -82.49900
 6461.32546    9.74080   75.61210  106.87850   12.40200   24.70190  -82.45150
 6461.82546    9.81000   78.61900  110.27400   11.94100   24.69400  -82.79000
 6462.32546    9.83870   79.55500  110.78280   11.76630   24.48960  -82.99280
 6462.82546    9.90480   73.60970  108.14940   11.34160   23.57290  -83.92260
 6463.32546    9.90230   72.69950  105.72470   11.12850   23.04480  -84.47820
 6463.82546    9.86510   74.42720  103.61010   10.98130   22.16930  -83.99000
 6464.32546    9.84610   75.41490  104.31890   11.01500   21.78310  -82.66340
 6464.82546    9.80510   72.35600  102.52630   11.10190   21.43120  -80.04650
 6465.32546    9.78860   72.10840  101.50750   11.14500   21.55020  -79.71840
 6465.82546    9.81950   74.79450   95.66530   11.23110   21.95270  -80.46310
 6466.32546    9.86040   78.48540   95.22570   11.27390   22.24460  -81.02660
 6466.82546    9.95210   83.66540   99.46010   11.35930   22.91750  -84.38180
 6467.32546    9.97580   86.40210  100.30150   11.40230   23.19090  -86.01340
 6467.82546    9.98620   88.40230  101.13870   11.49030   23.56030  -87.35690
 6468.32546    9.99190   85.39480  103.47560   11.57540   23.70300  -87.77510
 6468.82546   10.00300   77.52570  110.35220   11.90780   24.12790  -88.20490
 6469.32546   10.01400   72.25000  108.59600   12.33100   24.96400  -86.39800
 6469.82546   10.01460   71.96160  109.03690   12.97550   25.45610  -84.94700
 6470.32546   10.02000   73.09400  110.27700   14.59600   29.21900  -81.80700
 6470.82546   10.02060   74.99060  109.34550   15.36100   30.71540  -81.66040
 6471.32546   10.02500   75.55000  105.81200   17.15700   33.29200  -81.43800
 6471.82546   10.02610   70.71000  104.10260   17.88930   34.09660  -81.36170
 6472.32546   10.03000   67.23000   99.58900   19.59400   36.83600  -81.16700
 6472.82546   10.03110   66.55550   97.97750   19.75970   37.23990  -81.09220
 6473.32546   10.01070   65.44280   95.41020   19.84330   37.91100  -80.81630
 6473.82546    9.98420   65.60290   92.84520   19.76310   37.83120  -80.37010
 6474.32546    9.92510   65.19490   92.62610   19.58280   37.40810  -79.31610
 6474.82546    9.89560   65.96660   94.72530   19.49240   37.17530  -78.79040
 6475.32546    9.83660   67.30500   99.06600   19.29400   36.75360  -77.67560
 6475.82546    9.80700   67.40540  100.91480   19.14240   36.59200  -76.92860
 6476.32546    9.75860   70.55080  104.01180   18.79550   36.15610  -75.27770
 6476.82546    9.74650   71.72190  104.47650   18.62260   35.88200  -74.48320
 6477.32546    9.73280   72.20780  104.59750   18.28400   35.36050  -73.76240
 6477.82546    9.72580   71.77530  105.66260   18.15460   35.12090  -73.74960
 6478.32546    9.71210   70.73020  106.15830   17.95410   34.65440  -74.34740
 6478.82546    9.70520   71.83270  105.06660   17.85530   34.42040  -74.85750
 6479.32546    9.69070   76.29460  102.73540   17.66440   33.95330  -75.24260
 6479.82546    9.67700   72.33200  103.23700   17.61400   33.83600  -75.11300
 6480.32546    9.67010   69.63380  101.37940   17.61400   33.91160  -75.05570
 6480.82546    9.65600   71.66400   98.73300   17.59700   34.07700  -75.20500
 6481.32546    9.66320   72.64620  100.15520   17.54790   34.14760  -75.88860
 6481.82546    9.68000   71.15000   99.70900   17.43700   34.25300  -77.44900
 6482.32546    9.68680   73.52230  100.92290   17.39220   34.17760  -78.07100
 6482.82546    9.70400   78.95600  101.64700   17.28000   33.99800  -79.42900
 6483.32546    9.70990   80.04610  104.26840   17.23720   34.05210  -79.62070
 6483.82546    9.73700   82.14300  105.86070   17.13300   34.29730  -80.08960
 6484.32546    9.75360   81.24150  104.85320   17.18200   34.45140  -80.32340
 6484.82546    9.78640   81.04760  103.63270   17.35790   34.61940  -80.79130
 6485.32546    9.80280   80.41830  105.49690   17.45060   34.58990  -81.02700
 6485.82546    9.83560   76.16730  110.73540   17.63570   34.52990  -81.70060
 6486.32546    9.84630   73.00460  111.90100   17.72820   34.59040  -82.14750
 6486.82546    9.85070   71.84620  108.17860   17.77840   34.78050  -83.08400
 6487.32546    9.84840   74.34620  104.58500   17.71000   34.81110  -83.55370
 6487.82546    9.84380   74.52500  101.51020   17.52250   34.70580  -84.49180
 6488.32546    9.84110   71.90190  101.94880   17.42930   34.58330  -84.91870
 6488.82546    9.83590   72.13650  101.98650   17.24370   34.16920  -85.24180
 6489.32546    9.84020   74.47710  101.25930   17.15080   34.01030  -85.19550
 6489.82546    9.86250   75.85710   99.72220   16.96440   34.03330  -85.11220
 6490.32546    9.88600   77.69800  101.19800   16.77400   34.69000  -85.02800
 6490.82546    9.89790   78.73420  100.89250   16.76150   35.07950  -84.98600
 6491.32546    9.90200   75.55000   96.91300   16.96500   36.00500  -84.87000
 6491.82546    9.88590   75.57680   94.37010   17.09010   36.24030  -85.65990
 6492.32546    9.88700   75.95000   94.36200   17.38400   36.26500  -87.84900
 6492.82546    9.89890   74.59530   96.34100   17.50140   35.94440  -87.96020
 6493.32546    9.92700   73.90600  100.61600   17.71600   35.40400  -87.39500
 6493.82546    9.93820   72.70380  101.28110   17.70530   35.33580  -87.03740
 6494.32546    9.96410   76.37470   99.79800   17.61570   35.16860  -86.20240
 6494.82546    9.96850   78.70350   97.75500   17.55440   35.09030  -86.20130
 6495.32546    9.96350   78.76840   96.68250   17.43150   34.56980  -86.40080
 6495.82546    9.95920   79.34270   98.00230   17.37030   34.09330  -85.90350
 6496.32546    9.95050   75.73490   99.48570   17.24980   33.07040  -83.38290
 6496.82546    9.94590   76.32890  100.81230   17.28130   32.64080  -81.50210
 6497.32546    9.93600   77.84600  101.33880   17.56320   32.21740  -78.33830
 6497.82546    9.93680   78.28210  102.64010   17.75130   32.25140  -77.62880
 6498.32546    9.94680   76.64990  103.50000   18.12740   32.63380  -76.88030
 6498.82546    9.95160   73.77580  104.24610   18.31610   32.99220  -76.50610
 6499.32546    9.96150   72.19430  109.08920   18.69200   33.69920  -75.86660
