~Version ---------------------------------------------------
VERS. 2.0 : CWLS log ASCII Standard -VERSION 2.0
WRAP.  NO : ONE LINE PER DEPTH STEP
~Well ------------------------------------------------------
STRT.F                      1300.0 : START DEPTH
STOP.F                     12000.0 : STOP DEPTH
STEP.F                    50.00000 : STEP LENGTH
NULL.                      -999.25 : NULL VALUE
COMP. CENTRAL DEL RIO OILS LIMITED : COMPANY
WELL.     CDR GULF TONY 7-21-62-23 : WELL
FLD .                           WC : FIELD
LOC .                              : LOCATION
CTRY.                       CANADA : COUNTRY
SRVC.                 Schlumberger : SERVICE COMPANY
DATE.                  26-Feb-1970 : LOGDATE
PROV.                      Alberta : PROVINCE
UWI .             100072106223W500 : UNIQUE WELL ID
SLAT.WGS84                54.37491 : SURFACE LATITUDE
SLON.WGS84               -117.3829 : SURFACE LONGITUDE
~Curve Information -----------------------------------------
DEPT   .F                 : 
CALD   .IN   42 280 60 00 : CALIPER FROM DENSITY LOG
GRD    .GAPI 42 310 01 00 : GAMMA RAY FROM DENSITY LOG
NPOR_SS.DEC               : ENCHANCED THERMAL NEUTRON POROSITY IN SELECTED LITHOLOGY SANDSTONE
NPHI_DM.DEC  42 890 11 00 : NEUTRON POROSITY DOLOMITE MATRIX
NPHI_LS.DEC  42 890 10 00 : NEUTRON POROSITY LIMESTONE
ILD    .OHMM 07 120 46 00 : INDUCTION DEEP RESISTIVITY
ILM    .OHMM 07 120 44 00 : INDUCTION MEDIUM RESISTIVITY
LL8    .OHMM 07 220 08 00 : LATEROLOG 8
SPR    .MV   07 010 01 00 : SPONTANEOUS POTENTIAL FROM RESISTIVITY LOG
GRS    .GAPI 60 310 01 00 : GAMMA RAY FROM SONIC LOG
DT     .US/F 60 500 00 00 : DELTA-T (INTERVAL TRANSIT TIME)
CALS   .IN   60 280 50 00 : CALIPER FROM SONIC LOG
~Params ----------------------------------------------------
PD  .                     GL : PERMANENT DATUM
EPD .FT               2973.7 : ELEVATION PERMANENT DATUM
LMF .                     KB : LOG MEASURED FROM
DAPD.FT                 13.3 : FEET ABOVE PERMANENT DATUM
EKB .FT               2987.0 : KELLY BUSHING
EGL .FT               2973.7 : GROUND LEVEL
DATE.               02/26/70 : RUN DATE
RUN .                      1 : RUN NUMBER
DD  .FT                12050 : DEPTH DRILLER
DL  .FT                12048 : DEPTH LOGGER
BLI .FT                12044 : BOTTOM LOG INTERVAL
TLI .FT                 1302 : TOP LOG INTERVAL
CBD .FT                 1303 : CASING BOTTOM DRILLER
CBL .FT                 1302 : CASING BOTTOM LOGGER
BS  .IN                 8.75 : BIT SIZE
BSD .FT                12050 : BIT SIZE AT DEPTH
DFT .                 FGM CS : DRILLING FLUID TYPE
DFD .                    9.4 : DRILLING FLUID DENSITY
DFV .                     68 : DRILLING FLUID VISCOSITY
DFPH.                    9.5 : DRILLING FLUID PH
DFL .                   10.1 : DRILLING FLUID LOSS
MSS .               FLOWLINE : MUD SAMPLE SOURCE
RMS .OHMM               2.43 : RESISTIVITY MUD SAMPLE
MST .DEGF                 74 : MUD SAMPLE TEMPERATURE
RMF .OHMM               2.06 : RESISTIVITY MUD FILTRATE SAMPLE
MFST.DEGF                 74 : MUD FILTRATE SAMPLE TEMPERATURE
RMC .OHMM               2.57 : RESISTIVITY MUD CAKE
MCST.DEGF                 74 : MUD CAKE SAMPLE TEMPERATURE
TCS .HRS                3.25 : TIME CIRCULATED STOPPED
LUN .                   7502 : LOGGING UNIT NUMBER
LUL .                    EDM : LOGGING UNIT LOCATION
ENGI.                KERCHUM : RECORDING ENGINEER
WITN.          RONCO WHEELER : WITNESSED BY
CLNT.                A2DTECH : CLIENT CODE
ORIG.            2" 5" PRINT : ORIGIN OF DATA
UWI .       100072106223W500 : UNIQUE WELL ID
DICO. A2D Technologies, Inc. : DIGITIZING COMPANY
~Other -----------------------------------------------------
~ASCII -----------------------------------------------------
# ...
 6900.00000   10.03340   43.86690    0.16370    -999.25    -999.25   12.02740   11.69910   14.31700  -35.83020   46.61910   76.16920   10.50610
 6950.00000   10.12240   58.67870    0.13950    -999.25    -999.25   13.12150   12.59770   14.51780  -33.13190   57.77330   69.95010   10.03680
 7000.00000   10.25800   72.99550    0.18330    -999.25    -999.25   14.35250   13.32930   14.23880  -27.88980   66.48340   71.33170   10.14620
 7050.00000   10.87450   94.13070    0.16720    -999.25    -999.25   22.53420   20.70420   23.87490  -21.88060   92.78000   68.05180    9.97540
 7100.00000   11.41330   76.32940    0.20780    -999.25    -999.25   16.93240   16.34290   17.02920  -21.48320   78.81690   71.88970   10.39470
 7150.00000   12.81530   93.37720    0.36350    -999.25    -999.25   10.06320    8.86730   10.56550  -21.28230   96.63340   79.96660   10.31630
 7200.00000   10.44410   57.91130    0.15130    -999.25    -999.25  266.57540  213.62080  133.00270  -25.18610   55.30670   63.79190    9.50990
 7250.00000    9.73830   69.80580    0.12090    -999.25    -999.25   44.71650   51.45790   57.08860  -22.56530   87.46180   76.08100    9.60460
 7300.00000    9.55120   83.72970    0.10030    -999.25    -999.25   39.03460   37.17520   43.74880  -20.75520   70.66070   61.41130    9.47860
 7350.00000    9.57270  106.85380    0.14060    -999.25    -999.25   19.54780   21.35070   29.66490  -17.20790  102.12800   88.26650   10.46500
 7400.00000    9.21200   44.51270    0.09240    -999.25    -999.25   34.22430   39.94480   44.41360  -36.42560   41.54480   63.37870    9.22560
 7450.00000    9.68820  102.15460    0.24070    -999.25    -999.25   25.74600   23.15030   29.88910  -16.78150   97.31440   66.51460    9.09450
 7500.00000    8.66020   35.71260    0.19520    -999.25    -999.25   27.10680   29.59650   41.86950  -74.70870   30.57210   71.56280    8.57360
 7550.00000   11.02870  100.17140    0.41560    -999.25    -999.25    9.07460    6.94510    7.19860  -18.90930   96.55380   74.70750    9.73220
 7600.00000    8.11930   28.17590    0.23080    -999.25    -999.25    6.42590   11.85730   34.02940 -118.70320   27.69360   67.72940    8.52980
 7650.00000   13.80450   89.73840    0.47490    -999.25    -999.25    6.11040    5.43780    6.63080  -15.43300   94.21930   84.30930   11.29660
 7700.00000    -999.25    -999.25    -999.25    -999.25    -999.25   11.47940    9.32070   16.88520  -17.95270   78.71430  106.85620   14.57410
 7750.00000    -999.25    -999.25    -999.25    -999.25    -999.25 1637.18310 1774.52390  439.57940  -17.15320  300.18970   73.64410    9.37120
 7800.00000    -999.25    -999.25    -999.25    -999.25    -999.25   41.41290   37.93810   40.61530  -35.56220   87.83300   61.28940    9.56140
 7850.00000    -999.25    -999.25    -999.25    -999.25    -999.25   30.93560   29.96270   28.05690  -38.94650   76.95390   62.69590    9.41860
 7900.00000    -999.25    -999.25    -999.25    -999.25    -999.25   31.52510   28.75090   33.38900  -26.26080   90.69510   61.36030    9.19580
 7950.00000    -999.25    -999.25    -999.25    -999.25    -999.25   99.11580   93.47850   64.62340  -37.11240   67.30820   57.21840    9.15020
 8000.00000    -999.25    -999.25    -999.25    -999.25    -999.25   43.29800   41.29900   37.15650  -30.29510   81.19500   58.75330    9.16830
 8050.00000    -999.25    -999.25    -999.25    -999.25    -999.25   71.41640   66.82160   56.57480  -18.59860   98.12920   59.95460    9.15920
 8100.00000    9.07290   95.97570    0.07080    -999.25    -999.25   75.39450   69.32250   60.15670  -16.89160  106.43410   60.11070    9.18250
 8150.00000    8.44280   39.98810    0.14760    -999.25    -999.25    6.77110   10.67100   31.60880 -136.99640   44.33930   58.39200    8.54400
 8200.00000    9.19140   31.84760    -999.25    0.12460    -999.25   28.55340   32.58290   70.78960 -113.06490   37.70200   55.59510    8.93040
 8250.00000    9.74040   36.40620    -999.25    0.05520    -999.25 1747.84990 1622.02310  417.39430 -122.93360   37.67510   47.07300    9.52310
 8300.00000   13.37170   29.63660    -999.25    0.15850    -999.25 1066.74930  191.34600  108.54270  -84.45500   30.53600   54.69080   10.44100
 8350.00000   10.15670   43.76740    -999.25    0.05560    -999.25 1432.64210  304.59640  226.96320 -110.28360   39.83000   54.29880    9.14640
 8400.00000    8.73960   21.70520    -999.25    0.00240    -999.25 1630.95390 1712.81810  457.79920  -87.05130   13.26050   50.14000    9.08940
 8450.00000    8.98420   91.50030    -999.25    -999.25    0.03640   61.39480   65.33870   66.09500  -17.37830   72.98000   57.50940    9.08880
 8500.00000    8.87870   15.04520    -999.25    -999.25    0.02410 1460.73850 1543.98290  370.82360  -99.76290   12.30880   53.13350    9.30270
 8550.00000    9.51190   55.83590    -999.25    -999.25    0.09010    9.57950   11.62630   36.35180  -85.17230   36.73380   57.58180    9.39720
 8600.00000    8.96040   44.13340    -999.25    -999.25    0.03240   13.40150   15.99410   48.05270  -74.67880   36.69490   60.46290    8.99700
 8650.00000    8.92960   46.80580    -999.25    -999.25    0.02250   30.54010   33.62980   49.64400  -59.71440   77.86980   60.08440    8.97690
 8700.00000   10.23650   12.79130    -999.25    -999.25    0.03970 1656.35220 1724.09730 1445.98060  -99.15220    8.85490   51.50140    9.09690
 8750.00000    8.55000   16.65470    -999.25    -999.25    0.19220    4.52950    8.55850   31.70550 -140.07210   10.52140   60.94680    8.60210
 8800.00000    8.66430   11.69700    -999.25    -999.25    0.02410   46.74320   88.51340  321.88850 -136.09890    5.79130   50.73400    9.02100
 8850.00000    9.06830   93.37720    -999.25    -999.25    0.07980   10.34740   11.04090    9.40150  -17.93520   94.03130   63.97640    9.01190
 8900.00000    -999.25    -999.25    -999.25    -999.25    -999.25   13.35570   14.99140   23.47810  -30.96000   59.28550   59.67710    9.21380
 8950.00000    -999.25    -999.25    -999.25    -999.25    -999.25   11.19260   10.74790   17.88280  -17.23580   87.43250   65.97400    9.08960
 9000.00000    -999.25    -999.25    -999.25    -999.25    -999.25   10.97220   10.29050   13.49000   -4.35430   91.30070   68.41390    9.15950
 9050.00000    -999.25    -999.25    -999.25    -999.25    -999.25    9.51280   10.00740   15.32480   -3.69020   31.75030   60.19130    9.12930
 9100.00000    -999.25    -999.25    -999.25    -999.25    -999.25   13.92500   13.42200   23.47810   -7.77650   57.60710   62.46620    9.16950
 9150.00000    -999.25    -999.25    -999.25    -999.25    -999.25  564.40860 1480.35560  285.94260 -111.00040    9.06800   51.54450    9.30170
 9200.00000    -999.25    -999.25    -999.25    -999.25    -999.25   70.57960   80.75110   95.91650  -43.16050   17.29060   51.49450    9.26280
 9250.00000    -999.25    -999.25    -999.25    -999.25    -999.25   34.46620   32.24090   35.75290   -4.03990   45.33400   58.23360    8.99380
 9300.00000    -999.25    -999.25    -999.25    -999.25    -999.25   55.00430   56.39040   49.90850   -4.03690   46.81040   57.19430    9.02230
 9350.00000    9.04740   51.85090    -999.25    -999.25    0.01900  107.93520  119.98910   75.33610  -12.54490   43.70180   55.50880    8.97840
 9400.00000    9.03390   53.68220    -999.25    -999.25    0.02130  124.64680  144.94430   94.30850  -16.98570   42.08450   55.31650    8.99270
 9450.00000   11.97610   26.24650    -999.25    -999.25    0.04800 1641.74350 1757.96280  920.15950  -26.39330   20.51110   49.58310    9.43950
 9500.00000    9.07590   31.78710    -999.25    -999.25    0.00880 1551.35780 1652.79430  288.47510  -20.32670   25.84930   48.40390    9.01360
 9550.00000   10.07580   17.54880    -999.25    -999.25    0.03370 1690.41550 1781.47460  509.66350  -69.60500   11.16420   50.45160    9.40830
 9600.00000    -999.25    -999.25    -999.25    -999.25    -999.25 1707.26610 1828.85740  887.86820  -61.44550    9.88220   48.51290    9.64280
 9650.00000    -999.25    -999.25    -999.25    -999.25    -999.25 1678.03150 1780.98950  564.48110  -82.83740    9.37610   49.50430    9.59140
