~Version ---------------------------------------------------
VERS.      2.0 : CWLS log ASCII Standard -VERSION 2.0
WRAP.       NO : One line per depth step
CREA. 12/11/17 : LAS Creation Date
~Well ------------------------------------------------------
STRT.FT                         300.0 : START DEPTH
STOP.FT                        7450.0 : STOP DEPTH
STEP.FT                      50.00000 : STEP LENGTH
NULL.                         -999.25 : NULL VALUE
COMP.         BRALORNE RESOURCES LTD. : COMPANY
WELL. BRALORNE ET AL HEARTR 9-1-77-16 : WELL
FLD .                                 : FIELD
LOC .                                 : LOCATION
CTRY.                          CANADA : COUNTRY
SRVC.                         Unknown : SERVICE COMPANY
DATE.                     01-Apr-1977 : LOGDATE
PROV.                         Alberta : PROVINCE
UWI .                100090107716W500 : UNIQUE WELL ID
SLAT.WGS84                   55.64558 : SURFACE LATITUDE
SLON.WGS84                  -116.3326 : SURFACE LONGITUDE
~Curve Information -----------------------------------------
DEPT    .FT    : Depth Curve
CALDED  .IN    : CALIPER FROM DENSITY LOG [ADJ. TO RESISTIVITY LOG]
CALWS   .IN    : CALIPER [CALDED]
CONDWS  .MMHO  : CONDUCTIVITY [1000/DRESWS]
DCORWS  .G/C3  : DENSITY CORRECTION [DRHOED]
DENWS   .G/C3  : FORMATION BULK DENSITY [CALC. FROM DPOLSWS M=2.71, F=1.00]
DPHILSED.V/V   : DENSITY POROSITY LIMESTONE  [M=2.71, F=1.00]  FROM DENSITY LOG [ADJ. TO RESISTIVITY LOG]
DPHISSED.V/V   : DENSITY POROSITY SANDSTONE [M=2.65, F=1.00] FROM DENSITY LOG [ADJ. TO RESISTIVITY LOG]
DPOLSWS .V/V   : DENSITY POROSITY SANDSTONE [DPHISSED CONVERTED TO LIMESTONE MATRIX, M=2.71, F=1.00, SPL. TO DPHILSED @ 2694']
DRESWS  .OHMM  : DEEP RESISTIVITY [ILDED]
DRHOED  .G/C3  : BULK DENSITY CORRECTION FROM DENSITY LOG [ADJ. TO RESISTIVITY LOG/DPHISSED/DPHILSED] [DRHOED*1000]
GRDED   .GAPI  : GAMMA RAY FROM DENSITY LOG [ADJ. TO RESISTIVITY LOG]
GRWS    .GAPI  : GAMMA RAY [GRDED]
ILDED   .OHMM  : DEEP INDUCTION FROM RESISTIVITY LOG
ILMED   .OHMM  : MEDIUM INDUCTION FROM RESISTIVITY LOG
LL8ED   .OHMM  : LATEROLOG 8 FROM RESISTIVITY LOG
MRESWS  .OHMM  : MEDIUM RESISTIVITY [ILMED]
NPHILSED.V/V   : NEUTRON POROSITY LIMESTONE FROM DENSITY LOG [ADJ. TO RESISTIVITY LOG]
NPHISSED.V/V   : NEUTRON POROSITY SANDSTONE FROM DENSITY LOG [ADJ. TO RESISTIVITY LOG]
NPOLSWS .V/V   : NEUTRON POROSITY LIMESTONE [NPHISSED MATRIX CONVERSION FOR LIMESTONE FROM SCHLUMBERGER (CNL), SPL. TP NPHILSED @ 2694']
RHOBED  .G/C3  : BULK DENSITY FROM DENSITY LOG [ADJ. TO RESISTIVITY LOG/DPHISSED/DPHILSED]
SPRED   .MV    : SPONTANEOUS POTENTIAL FROM RESISTIVITY LOG
SPWS    .MV    : SPONTANEOUS POTENTIAL [BASELINE 0 MV, SPRED]
SRESWS  .OHMM  : SHALLOW RESISTIVITY [LL8ED]
~Params ----------------------------------------------------
PD  .                     GL : PERMANENT DATUM
EPD .FT               2310.5 : ELEVATION PERMANENT DATUM
LMF .                     KB : LOG MEASURED FROM
DAPD.FT                 14.4 : FEET ABOVE PERMANENT DATUM
EKB .FT               2324.9 : KELLY BUSHING
EGL .FT               2310.5 : GROUND LEVEL
DATE.               04/01/77 : RUN DATE
RUN .                      1 : RUN NUMBER
DD  .FT                 7520 : DEPTH DRILLER
DL  .FT                 7486 : DEPTH LOGGER
BLI .FT                 7480 : BOTTOM LOG INTERVAL
TLI .FT                  796 : TOP LOG INTERVAL
CBD .FT                  796 : CASING BOTTOM DRILLER
CBL .FT                  796 : CASING BOTTOM LOGGER
BS  .IN                7.875 : BIT SIZE
BSD .FT                 7520 : BIT SIZE AT DEPTH
DFT .              GEL BENEX : DRILLING FLUID TYPE
DFD .                    9.2 : DRILLING FLUID DENSITY
DFV .                     80 : DRILLING FLUID VISCOSITY
DFPH.                   10.5 : DRILLING FLUID PH
DFL .                     12 : DRILLING FLUID LOSS
MSS .             CIRCULATED : MUD SAMPLE SOURCE
RMS .OHMM               0.49 : RESISTIVITY MUD SAMPLE
MST .DEGF                 64 : MUD SAMPLE TEMPERATURE
RMF .OHMM               0.35 : RESISTIVITY MUD FILTRATE SAMPLE
MFST.DEGF                 66 : MUD FILTRATE SAMPLE TEMPERATURE
RMB .OHMM               0.17 : RESISTIVITY MUD AT BHT
TCS .HRS                 2.5 : TIME CIRCULATED STOPPED
LUN .                   7809 : LOGGING UNIT NUMBER
LUL .                    EDM : LOGGING UNIT LOCATION
ENGI.      CROCKFORD BUSHMAN : RECORDING ENGINEER
WITN.      KIRKPATRICK MOORE : WITNESSED BY
CLNT.                A2DTECH : CLIENT CODE
ORIG.            2" 5" PRINT : ORIGIN OF DATA
UWI .       100090107716W500 : UNIQUE WELL ID
DICO. A2D Technologies, Inc. : DIGITIZING COMPANY
~Other -----------------------------------------------------
DIL-CNFD LOG RUN
RHOBED & DRHOED VERIFY FROM 2" SCALE
~ASCII -----------------------------------------------------
# ...
 1850.00000    8.58360    8.58360  496.76130    0.18030    2.38110    -999.25    0.16300    0.19230    2.01490    0.18030   97.44230   97.44230    2.01490    1.71340    2.16430    1.71340    -999.25    0.38890    0.34590    2.13680  -82.51320  -17.97500    2.16430
 1900.00000    7.87480    7.87480  497.95840    0.00170    2.38680    -999.25    0.15950    0.18900    2.00820    0.00170   73.22650   73.22650    2.00820    2.32080    3.90350    2.32080    -999.25    0.34230    0.29860    2.14400  -97.19050  -32.88350    3.90350
 1950.00000    7.88450    7.88450  505.10160    0.02960    2.38780    -999.25    0.15890    0.18840    1.97980    0.02960   67.80020   67.80020    1.97980    2.34390    4.93110    2.34390    -999.25    0.32380    0.27990    2.15600  -99.73340  -35.65910    4.93110
 2000.00000    8.08140    8.08140  329.57620    0.08560    2.51340    -999.25    0.08280    0.11500    3.03420    0.08560   90.39270   90.39270    3.03420    3.18430    3.93040    3.18430    -999.25    0.29860    0.25460    2.27350  -89.04170  -25.19860    3.93040
 2050.00000    8.22930    8.22930  313.01840    0.06550    2.63320    -999.25    0.01020    0.04490    3.19470    0.06550   98.40110   98.40110    3.19470    3.30670    3.57780    3.30670    -999.25    0.32440    0.28050    2.40030  -84.67230  -21.06040    3.57780
 2100.00000    8.24220    8.24220  265.90960    0.01260    2.47700    -999.25    0.10490    0.13630    3.76980    0.01260   85.84510   85.84510    3.76980    2.84860    3.68920    2.84860    -999.25    0.30890    0.26500    2.25820  -88.52360  -25.14440    3.68920
 2150.00000    8.15230    8.15230  300.38150    0.14770    2.68580    -999.25   -0.02170    0.01410    3.32910    0.14770   92.79730   92.79730    3.32910    3.21470    3.73180    3.21470    -999.25    0.30520    0.26120    2.37170  -86.00820  -22.86020    3.73180
 2200.00000    8.22300    8.22300  246.27370    0.19180    2.54280    -999.25    0.06490    0.09780    4.06090    0.19180   84.18780   84.18780    4.06090    3.62480    3.95280    3.62480    -999.25    0.34670    0.30300    2.31690  -84.10010  -21.18480    3.95280
 2250.00000    8.65940    8.65940  268.97630    0.04320    2.58500    -999.25    0.03940    0.07310    3.71780    0.04320   86.67270   86.67270    3.71780    5.01410    5.63850    5.01410    -999.25    0.25130    0.20740    2.34230  -83.45670  -20.77260    5.63850
 2300.00000    9.04750    9.04750  231.22990    0.03880    2.59440    -999.25    0.03370    0.06760    4.32470    0.03880   86.71530   86.71530    4.32470    4.73560    6.87190    4.73560    -999.25    0.27580    0.23180    2.35850  -87.14570  -24.69280    6.87190
 2350.00000    9.32200    9.32200  132.29380    0.06320    2.62400    -999.25    0.01580    0.05030    7.57810    0.06320   84.38520   84.38520    7.57810    5.78190    6.97620    5.78190    -999.25    0.27830    0.23430    2.40340  -90.44640  -28.22620    6.97620
 2400.00000    8.36850    8.36850  246.15380    0.04430    2.62690    -999.25    0.01400    0.04860    4.06250    0.04430  105.49160  105.49160    4.06250    3.89060    4.31600    3.89060    -999.25    0.27840    0.23440    2.36180  -84.82380  -22.83480    4.31600
 2450.00000    7.87550    7.87550   43.59000    0.04180    2.82680    -999.25   -0.10720   -0.06830   23.02640    0.04180   65.06770   65.06770   23.02640   19.63380   23.78210   19.63380    -999.25    0.15720    0.11440    2.58570  -88.56490  -26.80860   23.78210
 2500.00000    8.19750    8.19750  222.18770    0.03210    2.60170    -999.25    0.02930    0.06340    4.50070    0.03210   98.44650   98.44650    4.50070    4.32040    5.18650    4.32040    -999.25    0.27830    0.23430    2.36250  -89.09810  -27.57300    5.18650
 2550.00000    8.48430    8.48430  203.83200    0.09620    2.70530    -999.25   -0.03350    0.00280    4.90600    0.09620  100.70370  100.70370    4.90600    4.73680    5.44420    4.73680    -999.25    0.25870    0.21480    2.48000  -89.02640  -27.73250    5.44420
 2600.00000    9.08680    9.08680  236.73180    0.12970    2.66370    -999.25   -0.00830    0.02710    4.22510    0.12970   98.61780   98.61780    4.22510    3.92550    5.44910    3.92550    -999.25    0.26530    0.22130    2.43560  -82.64450  -21.58330    5.44910
 2650.00000    8.33330    8.33330   91.41100   -0.00130    2.59820    -999.25    0.03140    0.06540   10.93960   -0.00130   81.80780   81.80780   10.93960   16.74350   29.24180   16.74350    -999.25    0.23550    0.19170    2.37460  -89.03560  -28.20560   29.24180
 2700.00000    8.28180    8.28180  136.74400    0.03320    2.44000    0.15790   -0.01020    0.15790    7.31560    0.03320  102.62840  102.62840    7.31560    7.07240    7.43650    7.07240    0.31570    0.24770    0.31570    2.42230  -86.56700  -25.96970    7.43650
 2750.00000    8.33300    8.33300  177.14480    0.02570    2.49850    0.12370   -0.06970    0.12370    5.64510    0.02570   96.91370   96.91370    5.64510    5.77640    6.97120    5.77640    0.29060    0.20490    0.29060    2.52060  -87.85650  -27.49040    6.97120
 2800.00000    7.85020    7.85020  443.97090    0.08790    2.31570    0.23060    0.00110    0.23060    2.25240    0.08790   39.95570   39.95570    2.25240    2.83120    9.95020    2.83120    0.18590    0.08090    0.18590    2.42550 -105.26800  -45.13310    9.95020
 2850.00000    9.49820    9.49820  332.89460    0.09530    2.46880    0.14110   -0.06090    0.14110    3.00420    0.09530   94.48430   94.48430    3.00420    2.81440    2.98230    2.81440    0.40600    0.28020    0.40600    2.50710  -84.10700  -24.20490    2.98230
 2900.00000    8.03060    8.03060   96.10030    0.13280    2.31350    0.23190    0.05020    0.23190   10.40580    0.13280   33.20260   33.20260   10.40580    9.07760   11.26910    9.07760    0.35140    0.27230    0.35140    2.31890 -108.15520  -48.48420   11.26910
 2950.00000    8.45930    8.45930  163.61900    0.02640    2.42770    0.16510   -0.02940    0.16510    6.11310    0.02640   36.98390   36.98390    6.11310    6.31640   12.46490    6.31640    0.34980    0.23970    0.34980    2.46020 -113.45750  -54.01930   12.46490
 3000.00000    7.88470    7.88470  143.96570    0.01040    2.46050    0.14590   -0.00200    0.14590    6.94610    0.01040   39.21040   39.21040    6.94610    9.01540   13.86860    9.01540    0.32100    0.22540    0.32100    2.41580 -106.75370  -47.54670   13.86860
 3050.00000    9.02940    9.02940  298.52530    0.12190    2.53780    0.10070   -0.09240    0.10070    3.34980    0.12190   76.78320   76.78320    3.34980    3.51050    6.91340    3.51050    0.31040    0.21900    0.31040    2.56730  -92.28570  -33.30980    6.91340
 3100.00000    8.36700    8.36700   35.71600    0.01360    2.55990    0.08780   -0.10960    0.08780   28.01410    0.01360   24.20680   24.20680   28.01410   29.45360   72.67580   29.45360    0.11970    0.01700    0.11970    2.58810  -99.12070  -40.37760   72.67580
 3150.00000    8.54450    8.54450   42.06450   -0.00890    2.59540    0.06700   -0.11990    0.06700   23.77300   -0.00890   34.03110   34.03110   23.77300   20.60550  110.07980   20.60550    0.07920   -0.02560    0.07920    2.60280  -94.09230  -35.58040  110.07980
 3200.00000    8.12330    8.12330  294.85780    0.02090    2.35600    0.20700    0.04820    0.20700    3.39520    0.02090   27.98450   27.98450    3.39520    4.82930   10.13070    4.82930    0.34120    0.24310    0.34120    2.36770 -106.09390  -47.81470   10.13070
 3250.00000    8.14260    8.14260   65.97050    0.00800    2.60040    0.06410    -999.25    0.06410   15.15830    0.00800   30.70170   30.70170   15.15830   19.26200   40.44190   19.26200    0.09370    -999.25    0.09370    2.58570  -98.32380  -40.27580   40.44190
 3300.00000    8.73320    8.73320  140.24850    0.02740    2.60570    0.06100    -999.25    0.06100    7.13020    0.02740   30.51220   30.51220    7.13020    7.37120   15.46930    7.37120    0.17280    -999.25    0.17280    2.60620  -96.50380  -38.68700   15.46930
 3350.00000    8.42310    8.42310   64.02750    0.05620    2.55550    0.09040    -999.25    0.09040   15.61830    0.05620   27.40030   27.40030   15.61830   20.72730   42.26340   20.72730    0.12070    -999.25    0.12070    2.55130  -96.14490  -38.56080   42.26340
