~Version ---------------------------------------------------
VERS.      2.0 : CWLS log ASCII Standard -VERSION 2.0
WRAP.       NO : One line per depth step
CREA. 08/02/17 : LAS Creation Date
~Well ------------------------------------------------------
STRT.FT                  1250.0 : START DEPTH
STOP.FT                 11600.0 : STOP DEPTH
STEP.FT                50.00000 : STEP LENGTH
NULL.                   -999.25 : NULL VALUE
COMP.           SUN OIL COMPANY : COMPANY
WELL. SUN PAN AM TONY 6-5-63-22 : WELL
FLD .                        WC : FIELD
LOC .                           : LOCATION
CTRY.                    CANADA : COUNTRY
SRVC.              Schlumberger : SERVICE COMPANY
DATE.               27-Jan-1962 : LOGDATE
PROV.                   Alberta : PROVINCE
UWI .          100060506322W500 : UNIQUE WELL ID
SLAT.WGS84             54.41969 : SURFACE LATITUDE
SLON.WGS84            -117.2926 : SURFACE LONGITUDE
~Curve Information -----------------------------------------
DEPT  .FT    : Depth Curve
CALSED.IN    : CALIPER FROM SL-GR-CAL LOG
CALWS .IN    : CALIPER [CALSED]
CILDED.MMHO  : DEEP INDUCTION CONDUCTIVITY FROM IEL LOG
CONDWS.MMHO  : CONDUCTIVITY [CILDED]
DRESWS.OHMM  : DEEP RESISTIVITY [CALCULATED FROM 1000/CILDED, IF ILDED<1, ILDED]
DTED  .US/F  : DELTA-T (INTERVAL TRANSIT TIME) FROM SL-GR-CAL LOG
DTWS  .US/F  : COMPRESSIONAL  SONIC [DTED]
GRNED .GAPI  : GAMMA RAY FROM GRN LOG [ADJ. TO GRSED]
GRSED .GAPI  : GAMMA RAY FROM SL-GR-CAL LOG
GRWS  .GAPI  : GAMMA RAY [GRSED, GRWS+14 FOR DEPTH 7054'TO 7101']
ILDED .OHMM  : DEEP INDUCTION FROM IEL LOG
MCALED.IN    : MLT (MICROLOG) CALIPER FROM ML-CAL LOG [ADJ. TO CALSED]
NEUTED.NAPI  : NEUTRON FROM GRN LOG [ADJ. TO GRSED]
NEUTWS.NAPI  : NEUTRON [NEUTED]
SNED  .OHMM  : SHORT NORMAL INDUCTION FROM IEL LOG
SPRED .MV    : SPONTANEOUS POTENTIAL FROM IEL LOG
SPWS  .MV    : SPONTANEOUS POTENTIAL [BASELINE 0 MV, SPRED]
SRESWS.OHMM  : SHALLOW RESISTIVITY [SNED]
~Params ----------------------------------------------------
PD  .                     GL : PERMANENT DATUM
EPD .FT                 2875 : ELEVATION PERMANENT DATUM
LMF .                     KB : LOG MEASURED FROM
DAPD.FT                   15 : FEET ABOVE PERMANENT DATUM
EKB .FT                 2890 : KELLY BUSHING
EGL .FT                 2875 : GROUND LEVEL
DATE.               03/09/62 : RUN DATE
RUN .                      2 : RUN NUMBER
DD  .FT                11625 : DEPTH DRILLER
DL  .FT                11622 : DEPTH LOGGER
BLI .FT                11621 : BOTTOM LOG INTERVAL
TLI .FT                 7100 : TOP LOG INTERVAL
BS  .IN                 8.75 : BIT SIZE
BSD .FT                11625 : BIT SIZE AT DEPTH
DFT .               EMUL GEL : DRILLING FLUID TYPE
DFD .                    9.8 : DRILLING FLUID DENSITY
DFV .                    120 : DRILLING FLUID VISCOSITY
DFPH.                      9 : DRILLING FLUID PH
DFL .                      8 : DRILLING FLUID LOSS
RMS .OHMM               2.62 : RESISTIVITY MUD SAMPLE
MST .DEGF                 88 : MUD SAMPLE TEMPERATURE
RMF .OHMM               2.52 : RESISTIVITY MUD FILTRATE SAMPLE
MFST.DEGF                 72 : MUD FILTRATE SAMPLE TEMPERATURE
RMC .OHMM               2.97 : RESISTIVITY MUD CAKE
MCST.DEGF                 76 : MUD CAKE SAMPLE TEMPERATURE
RMB .OHMM               1.13 : RESISTIVITY MUD AT BHT
TCS .HRS                   5 : TIME CIRCULATED STOPPED
LUN .                   3534 : LOGGING UNIT NUMBER
LUL .                    WCT : LOGGING UNIT LOCATION
ENGI.                   GRAY : RECORDING ENGINEER
WITN.                SANFORD : WITNESSED BY
CLNT.                A2DTECH : CLIENT CODE
ORIG.            2" 5" PRINT : ORIGIN OF DATA
UWI .       100060506322W500 : UNIQUE WELL ID
DICO. A2D Technologies, Inc. : DIGITIZING COMPANY
~Other -----------------------------------------------------
~ASCII -----------------------------------------------------
# ...
 9050.00000    9.51410    9.51410    3.37800    3.37800  333.92480   55.79150   55.79150    8.33270   24.38390   24.38390  333.92480    -999.25  699.75030  699.75030  199.20280  -97.34200  -35.18820  199.20280
 9100.00000    8.92340    8.92340    2.60410    2.60410  370.40770   53.54430   53.54430    6.54200   24.00900   24.00900  370.40770    -999.25  872.56590  872.56590  278.47090 -112.27970  -51.14490  278.47090
 9150.00000    8.93390    8.93390    1.51960    1.51960  604.20890   53.14480   53.14480    6.42960   16.70330   16.70330  604.20890    -999.25  913.84110  913.84110  281.14190 -146.84730  -86.72480  281.14190
 9200.00000    9.55830    9.55830    1.06940    1.06940  616.26310   50.86530   50.86530    9.09010   22.36740   22.36740  616.26310    -999.25  751.04860  751.04860  288.60890 -141.95750  -82.85400  288.60890
 9250.00000    9.33170    9.33170    1.13270    1.13270  613.22950   51.34280   51.34280    8.40700   20.82760   20.82760  613.22950    -999.25  632.49190  632.49190  228.61780 -156.54120  -98.45000  228.61780
 9300.00000    9.16390    9.16390    3.11670    3.11670  376.19580   57.10250   57.10250    5.97290   20.16640   20.16640  376.19580    -999.25  603.70580  603.70580  195.10300 -173.50650 -116.42760  195.10300
 9350.00000    9.97030    9.97030    1.24560    1.24560  615.86720   54.03670   54.03670    7.17590   19.48320   19.48320  615.86720    -999.25  736.49130  736.49130  232.15270 -182.16770 -126.10780  232.15270
 9400.00000    9.90890    9.90890    5.98080    5.98080  188.06780   49.37000   49.37000    6.10860   14.90020   14.90020  188.06780    -999.25  730.83390  730.83390  147.61830 -181.28110 -126.23350  147.61830
 9450.00000   10.06410   10.06410    1.34550    1.34550  596.13500   50.16600   50.16600    7.45260   22.86170   22.86170  596.13500    -999.25  581.78950  581.78950  240.18540 -199.64120 -145.61260  240.18540
 9500.00000    9.54830    9.54830    0.97040    0.97040  605.84150   51.46100   51.46100    6.98100   21.00010   21.00010  605.84150    -999.25  644.07040  644.07040  275.07570 -191.93160 -138.91530  275.07570
 9550.00000    9.39690    9.39690    2.50390    2.50390  479.39410   51.69960   51.69960    5.92810   16.99610   16.99610  479.39410    -999.25  670.92480  670.92480  208.41490 -179.66790 -127.66390  208.41490
 9600.00000    9.52070    9.52070    1.28010    1.28010  613.35610   49.42230   49.42230    3.87320   15.54070   15.54070  613.35610    -999.25  656.70080  656.70080  295.17470 -193.98760 -143.00260  295.17470
 9650.00000    9.79140    9.79140    2.98340    2.98340  365.39720   52.50260   52.50260    4.82610   19.86950   19.86950  365.39720    -999.25  642.52720  642.52720  185.96320 -191.41720 -141.44450  185.96320
 9700.00000    9.56950    9.56950    7.24180    7.24180  160.73040   55.55160   55.55160    5.37580   14.89720   14.89720  160.73040    -999.25  739.50940  739.50940  128.72840 -196.55100 -147.59730  128.72840
 9750.00000    9.09200    9.09200   10.41450   10.41450  107.61390   50.44560   50.44560    4.79530   15.25790   15.25790  107.61390    -999.25  798.56620  798.56620   96.70210 -197.44560 -149.50420   96.70210
 9800.00000    9.15490    9.15490   13.01740   13.01740   84.57090   56.82650   56.82650    2.66080   16.66860   16.66860   84.57090    -999.25 1049.37260 1049.37260   82.22770 -206.34400 -159.41490   82.22770
 9850.00000    8.91900    8.91900   68.21730   68.21730   19.23260   52.56630   52.56630    7.68360   23.95800   23.95800   19.23260    -999.25  634.19360  634.19360   30.08560 -190.80470 -144.89460   30.08560
 9900.00000    7.62830    7.62830   13.23050   13.23050   78.42010   52.48690   52.48690    -999.25   13.22950   13.22950   78.42010    -999.25    -999.25    -999.25  146.42980 -244.01500 -199.11720  146.42980
 9950.00000    9.27280    9.27280   18.96000   18.96000   56.00700   59.11810   59.11810    -999.25   17.42270   17.42270   56.00700    -999.25    -999.25    -999.25  112.91540 -222.45770 -178.57880  112.91540
 10000.00000    8.72580    8.72580    2.79600    2.79600  466.92970   56.02740   56.02740    -999.25   24.61630   24.61630  466.92970    -999.25    -999.25    -999.25  244.96450 -167.43110 -124.56460  244.96450
 10050.00000    8.75580    8.75580    4.87970    4.87970  248.59500   53.59690   53.59690    -999.25   36.37850   36.37850  248.59500    -999.25    -999.25    -999.25  163.32870 -109.45290  -67.59870  163.32870
 10100.00000    8.90710    8.90710    4.52180    4.52180  251.89280   57.10690   57.10690    -999.25   35.14130   35.14130  251.89280    -999.25    -999.25    -999.25  174.60180 -111.60180  -70.76660  174.60180
 10150.00000    8.76770    8.76770    4.96450    4.96450  245.03450   54.75730   54.75730    -999.25   31.36000   31.36000  245.03450    -999.25    -999.25    -999.25  174.47490 -122.62260  -82.79970  174.47490
 10200.00000    8.56390    8.56390    3.35160    3.35160  387.39150   54.16490   54.16490    -999.25   31.82370   31.82370  387.39150    -999.25    -999.25    -999.25  285.43100 -127.77240  -88.96840  285.43100
 10250.00000    8.66060    8.66060    4.95600    4.95600  245.17940   55.09090   55.09090    -999.25   38.82470   38.82470  245.17940    -999.25    -999.25    -999.25  177.49280  -99.97320  -62.18160  177.49280
 10300.00000    8.65320    8.65320    4.23360    4.23360  319.68610   55.37620   55.37620    -999.25   25.27850   25.27850  319.68610    -999.25    -999.25    -999.25  247.25430 -106.20610  -69.42680  247.25430
 10350.00000    8.71020    8.71020    5.72750    5.72750  208.42700   55.89600   55.89600    -999.25   27.94510   27.94510  208.42700    -999.25    -999.25    -999.25  176.97510  -97.82720  -62.06680  176.97510
 10400.00000    8.73670    8.73670    8.18410    8.18410  136.14100   56.60240   56.60240    -999.25   32.98230   32.98230  136.14100    -999.25    -999.25    -999.25  139.50200  -95.00710  -60.25910  139.50200
 10450.00000    8.84800    8.84800   17.59110   17.59110   56.67200   58.94020   58.94020    -999.25   33.84330   33.84330   56.67200    -999.25    -999.25    -999.25   76.46300  -91.17800  -57.44890   76.46300
 10500.00000   10.55040   10.55040   63.59980   63.59980   15.81140   65.76960   65.76960    -999.25   55.39430   55.39430   15.81140    -999.25    -999.25    -999.25   23.53010  -72.02540  -39.30860   23.53010
 10550.00000    9.15730    9.15730  107.27300  107.27300    9.41780   74.81980   74.81980    -999.25   76.27590   76.27590    9.41780    -999.25    -999.25    -999.25   13.88270  -69.29530  -37.59090   13.88270
 10600.00000    9.16510    9.16510  244.77100  244.77100    3.92460   80.10600   80.10600    -999.25   90.86230   90.86230    3.92460    -999.25    -999.25    -999.25    6.37740  -83.55540  -52.86990    6.37740
 10650.00000   11.47760   11.47760  187.55500  187.55500    5.15580   77.16960   77.16960    -999.25   78.45650   78.45650    5.15580    -999.25    -999.25    -999.25    7.71500  -85.92350  -56.25030    7.71500
 10700.00000    9.03830    9.03830   58.80460   58.80460   18.98770   62.25090   62.25090    -999.25   57.34190   57.34190   18.98770    -999.25    -999.25    -999.25   25.00090  -73.94060  -45.28640   25.00090
 10750.00000    9.08210    9.08210   69.60600   69.60600   14.41340   64.43360   64.43360    -999.25   67.01270   67.01270   14.41340    -999.25    -999.25    -999.25   22.54450  -67.97090  -40.32900   22.54450
 10800.00000    9.02590    9.02590  104.52420  104.52420    9.91200   68.99920   68.99920    -999.25   79.13320   79.13320    9.91200    -999.25    -999.25    -999.25   14.60920  -60.40170  -33.77210   14.60920
 10850.00000    9.12340    9.12340   93.34340   93.34340   10.81310   68.18210   68.18210    -999.25   70.38750   70.38750   10.81310    -999.25    -999.25    -999.25   16.52730  -55.90220  -30.29160   16.52730
 10900.00000    9.23370    9.23370  126.44850  126.44850    7.80440   68.52350   68.52350    -999.25   83.98930   83.98930    7.80440    -999.25    -999.25    -999.25   12.78680  -65.24090  -40.64260   12.78680
 10950.00000    9.41350    9.41350  131.33980  131.33980    7.55700   77.32710   77.32710    -999.25   97.96420   97.96420    7.55700    -999.25    -999.25    -999.25   13.46400  -65.99010  -42.41080   13.46400
