~Version ---------------------------------------------------
VERS.      2.0 : CWLS log ASCII Standard -VERSION 2.0
WRAP.       NO : ONE LINE PER DEPTH STEP
CREA. 08/19/13 : LAS CREATION DATE
~Well ------------------------------------------------------
STRT.M                           400.0 : START DEPTH
STOP.M                          3350.0 : STOP DEPTH
STEP.M                        50.00000 : STEP LENGTH
NULL.                          -999.25 : NULL VALUE
COMP.                SUNCOR ENERGY INC : COMPANY
WELL. SUNCOR ET AL ROSEVEAR 3-24-54-16 : WELL
FLD .                                  : FIELD
LOC .                                  : LOCATION
CTRY.                           CANADA : COUNTRY
SRVC.                     Schlumberger : SERVICE COMPANY
DATE.                      09-Sep-2000 : LOGDATE
PROV.                          Alberta : PROVINCE
UWI .                 100032405416W500 : UNIQUE WELL ID
SLAT.WGS84                     53.6741 : SURFACE LATITUDE
SLON.WGS84                   -116.2231 : SURFACE LONGITUDE
~Curve Information -----------------------------------------
DEPT    .M      : DEPTH METERS
AHIBDED .MM     : 
AHT10ED .OHMM   : 10 INCH RESISTIVITY TWO FOOT RESOLUTION FROM AIT LOG
AHT20ED .OHMM   : 20 INCH RESISTIVITY TWO FOOT RESOLUTION FROM AIT LOG
AHT30ED .OHMM   : 30 INCH RESISTIVITY TWO FOOT RESOLUTION FROM AIT LOG
AHT60ED .OHMM   : 60 INCH RESISTIVITY TWO FOOT RESOLUTION FROM AIT LOG
AHT90ED .OHMM   : 90 INCH RESISTIVITY TWO FOOT RESOLUTION FROM AIT LOG
CAL2ED  .MM     : CALIPER 2 FROM SONIC LOG
CALWS   .MM     : CALIPER [HCALDED]
CONDWS  .MMHO   : CONDUCTIVITY [1000/DRESWS]
DCORWS  .KG/M3  : DENSITY CORRECTION [HDRAED]
DENWS   .KG/M3  : BULK DENSITY [M=2710 F=1000] [CALULATED FROM DPHZLSED]
DPHZLSED.V/V    : DENSITY POROSITY [M=2710 F=1000] FROM DENSITY LOG
DPOLSED .V/V    : DENSITY POROSITY [M=2710 F=1000] FROM DENSITY LOG
DPOLSWS .V/V    : DENSITY POROSITY [M=2710 F=1000] [CALULATED FROM DENWS]
DRESWS  .OHMM   : DEEP RESISTIVITY [AHT90ED]
DRHED   .KG/M3  : DENSITY CORRECTION FROM DENSITY LOG
DTED    .US/M   : DELTA TIME FROM SONIC LOG
DTWS    .US/M   : DELTA TIME [DTED]
GRDED   .GAPI   : GAMMA RAY FROM DENSITY LOG
GRRED   .GAPI   : GAMMA RAY FROM RESISTIVITY LOG
GRWS    .GAPI   : GAMMA RAY [GRDED, CSG < 449M]
HCALDED .MM     : HILT CALIPER FROM DENSITY LOG
HDRAED  .KG/M3  : DENSITY CORRECTION FROM DENSITY LOG
LCALDED .MM     : LDS CALIPER FROM DENSITY LOG
LCALRED .MM     : LDS CALIPER FROM RESISTIVITY LOG
MRESWS  .OHMM   : MEDIUM RESISTIVITY [AHT30ED]
NPOLSWS .V/V    : NEUTRON POROSITY LIMESTONE [NPORLSED, CSG < 449M]
NPORLSED.V/V    : NEUTRON POROSITY LIMESTONE FROM DENSITY LOG
PEFLED  .B/E    : LDS LONG PHOTOELECTRIC FACTOR
PEFWS   .B/E    : PHOTOELECTRIC FACTOR [PEFZED]
PEFZED  .B/E    : PHOTOELECTRIC FACTOR STANDARD RESOLUTION FROM DENSITY LOG
RHOMED  .KG/M3  : LDS BULK DENSITY FROM DENSITY LOG
RHOZED  .KG/M3  : BULK DENSITY STANDARD RESOLUTION FROM DENSITY LOG
RXOZED  .OHMM   : STANDARD RESOLUTION INVADED ZONE RESISTIVITY
SPRED   .MV     : SPONTANEOUS POTENTIAL FROM RESISTIVITY LOG
SPWS    .MV     : SPONTANEOUS POTENTIAL [BASELINE 0 MV] [SPRED]
SRESWS  .OHMM   : SHALLOW RESISTIVITY [AHT20ED]
TENDED  .N      : TENSION FROM DENSITY LOG
TENRED  .N      : TENSION FROM RESISTIVITY LOG
TENSED  .N      : TENSION FROM SONIC LOG
~Params ----------------------------------------------------
PD  .                         GL : PERMANENT DATUM
EPD .M                     847.2 : ELEVATION PERMANENT DATUM
LMF .                         KB : LOG MEASURED FROM
DAPD.M                       6.9 : FEET ABOVE PERMANENT DATUM
DMF .                         KB : DRILLING MEASURED FROM
EKB .M                     853.5 : KELLY BUSHING
EDF .M                     853.2 : DRILLING FLOOR
EGL .M                     847.2 : GROUND LEVEL
DATE.                   09/09/00 : RUN DATE
RUN .                          1 : RUN NUMBER
DD  .M                      3376 : DEPTH DRILLER
DL  .M                      3377 : DEPTH LOGGER
BLI .M                    3974.6 : BOTTOM LOG INTERVAL
TLI .M                      3199 : TOP LOG INTERVAL
CS  .MM                    177.8 : CASING SIZE
CBD .M                      3198 : CASING BOTTOM DRILLER
CBL .M                      3199 : CASING BOTTOM LOGGER
BS  .M                       156 : BIT SIZE
BSD .M                      3376 : BIT SIZE AT DEPTH
DFT .                   GEL CHEM : DRILLING FLUID TYPE
DFD .                       1100 : DRILLING FLUID DENSITY
DFV .                         60 : DRILLING FLUID VISCOSITY
DFPH.                         11 : DRILLING FLUID PH
DFL .                        9.5 : DRILLING FLUID LOSS
MSS .                   FLOWLINE : MUD SAMPLE SOURCE
RMS .OHMM                    0.9 : RESISTIVITY MUD SAMPLE
MST .DEGC                     17 : MUD SAMPLE TEMPERATURE
RMF .OHMM                   0.76 : RESISTIVITY MUD FILTRATE SAMPLE
MFST.DEGC                     17 : MUD FILTRATE SAMPLE TEMPERATURE
RMB .OHMM                  0.295 : RESISTIVITY MUD AT BHT
TCS .HRS                    1330 : TIME CIRCULATED STOPPED
TLAB.HRS                    2040 : TIME LOGGER AT BOTTOM
LUN .                       3052 : LOGGING UNIT NUMBER
LUL .                      NISKU : LOGGING UNIT LOCATION
ENGI.                     FRENCH : RECORDING ENGINEER
WITN.                       KEIR : WITNESSED BY
CLNT.                    A2DTECH : CLIENT CODE
ORIG. 6.5"/100M 16.5"/100M PRINT : ORIGIN OF DATA
UWI .           100032405416W500 : UNIQUE WELL ID
DICO.     A2D Technologies, Inc. : DIGITIZING COMPANY
~Other -----------------------------------------------------
~ASCII -----------------------------------------------------
# ...
 2200.00000  215.77680   27.20080   15.56560   30.47560   20.90900   23.43930    -999.25  215.19690   42.66340   79.27880 2412.11800    0.17420    0.18070    0.17420   23.43930   44.87170  237.61060  237.61060   29.01490   29.68780   29.01490  215.19690   79.27880  216.61280  213.26610   30.47560    0.10220    0.10220    1.79500    1.81360    1.81360 2426.91630 2396.32890   35.92720  -86.17630  -10.00800   15.56560 19025.20310 9393.93950 18737.90430
 2250.00000  255.44930   36.77600   12.07730   11.12520   11.14210   10.60400    -999.25  250.96030   94.30400  395.53370 2511.29800    0.11620    0.03300    0.11620   10.60400   -1.63780  249.97810  249.97810  121.95990  121.64330  121.95990  250.96030  395.53370  224.87390  224.35470   11.12520    0.19790    0.19790    2.70650    2.61080    2.61080 2645.19020 2518.56570    3.87640  -95.41460  -20.23220   12.07730 18634.95120 9715.29300 19564.78520
 2300.00000  219.43230    -999.25   63.39940  122.83130  138.36170  200.33270    -999.25  218.75930    4.99170   22.46120 2617.83100    0.05390    0.07050    0.05390  200.33270   -4.71530  186.28660  186.28660   33.46090   30.77990   33.46090  218.75930   22.46120  219.55070  217.57150  122.83130    0.03740    0.03740    2.83440    3.01020    3.01020 2612.55540 2615.73970   34.99700  -87.46440  -13.26790   63.39940 19094.04300 9921.44630 19633.84570
 2350.00000  250.21290    -999.25   36.05110   36.94940   32.10670   29.01250    -999.25  246.38930   34.46790  497.09470 2746.08100   -0.02110   -0.00560   -0.02110   29.01250   -3.36260  167.97100  167.97100   31.73650   32.52030   31.73650  246.38930  497.09470  225.60040  225.25470   36.94940    0.06970    0.06970    3.15110    2.87270    2.87270 2811.16720 2731.45950   14.64630  -99.44220  -26.23160   36.05110 19842.69140 9825.53810 19971.50980
 2400.00000  257.25330    -999.25 1421.79360 1864.58910 1643.79260  643.85680    -999.25  257.46500    1.55310  322.71590 2653.22800    0.03320   -0.04500    0.03320  643.85680   -1.54150  154.94650  154.94650   14.98270   15.55740   14.98270  257.46500  322.71590  217.29670  216.87410 1864.58910    0.06480    0.06480    3.06520    2.89190    2.89190 2784.98360 2653.21510    6.96500  -96.72590  -24.50120 1421.79360 19612.71480 9877.74320 19777.62300
 2450.00000  223.22280   25.95810   13.89570   15.00030   13.17080   12.62100    -999.25  222.95900   79.23300   -1.45140 2718.03700   -0.00470   -0.00200   -0.00470   12.62100   -2.62240  185.23540  185.23540   81.06810   81.11820   81.06810  222.95900   -1.45140  222.07870  222.01060   15.00030    0.11820    0.11820    3.09280    3.04150    3.04150 2713.37870 2716.55660   21.87710  -78.90680   -7.66800   13.89570 20058.54880 9963.79690 20020.55080
 2500.00000  223.67450    -999.25   62.06240   65.57390   71.91440   83.92130    -999.25  223.99640   11.91590   47.11840 2717.52400   -0.00440    0.02530   -0.00440   83.92130   19.89640  175.74630  175.74630   30.80580   29.79990   30.80580  223.99640   47.11840  219.20600  220.12280   65.57390    0.03500    0.03500    3.30700    3.69110    3.69110 2674.09640 2712.38500  123.93820  -76.78910   -6.53620   62.06240 20450.93160 10233.99220 20048.46480
 2550.00000  224.39560    -999.25   42.26500   38.43300   45.61510   47.16220    -999.25  222.81140   21.20340   -5.81560 2701.96300    0.00470   -0.00430    0.00470   47.16220   -8.39140  189.97090  189.97090   59.54280   59.42070   59.54280  222.81140   -5.81560  223.57220  222.78470   38.43300    0.07670    0.07670    3.42190    3.87510    3.87510 2716.81980 2699.10110   57.55710  -84.07850  -14.81150   42.26500 20743.74020 10433.94240 20785.90820
 2600.00000  219.18210    -999.25   80.33260  184.78010  352.81740  404.03910    -999.25  218.87350    2.47500   -4.42550 2710.85500   -0.00050    0.07710   -0.00050  404.03910    1.40510  162.70950  162.70950   18.29700   18.59600   18.29700  218.87350   -4.42550  259.15350  261.12780  184.78010    0.01650    0.01650    3.78060    4.80220    4.80220 2644.57620 2714.78270  571.68950  -76.56280   -7.74260   80.33260 21393.38870 10567.61040 21368.57420
 2650.00000  218.61160    -999.25   55.46030   81.18460  200.16660  322.61130    -999.25  218.27750    3.09970   -2.62900 2776.86100   -0.03910   -0.01740   -0.03910  322.61130    7.69630  158.72180  158.72180   15.53670   15.55310   15.53670  218.27750   -2.62900  261.97070  262.02970   81.18460    0.02930    0.02930    3.46070    3.83910    3.83910 2697.44510 2782.07100   83.66750  -88.84310  -18.60210   55.46030 21340.90820 10581.76560 21230.10740
 2700.00000    -999.25  159.31160  428.29520  795.75700  209.65300  262.28400    -999.25  408.65230    3.81270  159.30910 2297.54800    0.24120    0.03470    0.24120  262.28400   -8.08710  168.19030  168.19030   18.49570   18.39340   18.49570  408.65230  159.30910  221.31530  221.22590  795.75700    0.03920    0.03920    4.29520    4.05700    4.05700 2666.27370 2295.59770    2.65800  -89.18740  -17.52560  428.29520 21532.73240 10735.47850 21706.43160
 2750.00000  220.79410    -999.25   35.70150  876.41050 1631.34520 1686.57150    -999.25  219.61190    0.59290    5.79390 2807.81200   -0.05720    0.16160   -0.05720 1686.57150    -999.25  163.81450  163.81450   14.97610   14.41180   14.97610  219.61190    5.79390  253.60750  251.53020  876.41050    0.00820    0.00820    3.20070    4.52560    4.52560 2418.36040 2832.60450  320.77660 -102.34400  -29.26130   35.70150 21680.06640 10836.87010 21919.64060
 2800.00000  223.17940    -999.25  712.84200  631.52800  636.95620  904.01880    -999.25  220.01160    1.10620    1.17360 2890.06300   -0.10530   -0.10390   -0.10530  904.01880   -1.18190  159.49660  159.49660   15.35470   15.66050   15.35470  220.01160    1.17360  223.57390  220.30380  631.52800   -0.00760   -0.00760    4.20990    4.33350    4.33350 2952.48440 2881.72970    -999.25  -93.09390  -18.59040  712.84200 21379.06050 10739.20800 21567.22660
 2850.00000  235.84570    -999.25  119.31300  386.11120  196.17810  247.49500    -999.25  236.59530    4.04050  321.40890 2846.11600   -0.07960   -0.01760   -0.07960  247.49500   -2.83450  165.85400  165.85400   35.25890   35.18560   35.25890  236.59530  321.40890  226.98870  227.04530  386.11120    0.03460    0.03460    4.30330    4.17910    4.17910 2738.15060 2845.72970   82.88240 -117.62970  -41.70530  119.31300 21621.36910 10913.02050 21980.07230
 2900.00000  249.62280    6.94330    8.87010    9.03400    8.24630    7.68120    -999.25  249.93290  130.18800   71.93750 2636.81200    0.04280    0.03470    0.04280    7.68120   69.99700  226.57980  226.57980   96.23280   95.88300   96.23280  249.93290   71.93750  236.97840  235.29890    9.03400    0.17940    0.17940    3.05740    3.83210    3.83210 2641.69480 2647.64260   10.03580  -92.81820  -15.47300    8.87010 22530.96880 11371.07320 22844.54490
 2950.00000  235.52580    -999.25   48.09680   51.02680   36.74040   37.87290    -999.25  234.70360   26.40410   67.50560 2672.72200    0.02180    0.07680    0.02180   37.87290   47.08120  216.22020  216.22020   94.10850   93.93870   94.10850  234.70360   67.50560  211.25300  210.95310   51.02680    0.14630    0.14630    3.20960    3.75490    3.75490 2573.23100 2674.98120   90.91800 -117.06530  -38.29930   48.09680 25833.82030 13018.25880 26814.32420
 3000.00000  220.13950  221.06890   50.87070   19.20440   19.62990   28.78320    -999.25  221.63660   34.74250   89.34480 2687.08600    0.01340    0.07310    0.01340   28.78320  151.77580  184.32390  184.32390   73.70090   73.71240   73.70090  221.63660   89.34480  212.64720  212.96130   19.20440    0.10730    0.10730    3.50050    4.19120    4.19120 2609.49680 2738.14530   31.84380  -98.94890  -18.76200   50.87070 24159.49020 12264.85160 24429.84380
 3050.00000  221.40800    -999.25   22.26380   28.77500   28.51470   27.74270    -999.25  221.06520   36.04550    5.91890 2588.93200    0.07080    0.01200    0.07080   27.74270   48.26580  192.78250  192.78250   74.41210   74.46850   74.41210  221.06520    5.91890  208.84320  208.86370   28.77500    0.09210    0.09210    3.70800    4.30630    4.30630 2670.86940 2705.80370   40.37420  -99.76270  -18.15500   22.26380 24656.27730 12340.59860 24568.81250
