~Version ---------------------------------------------------
VERS. 2.0 : CWLS log ASCII Standard -VERSION 2.0
WRAP.  NO : ONE LINE PER DEPTH STEP
~Well ------------------------------------------------------
STRT.F                           1100.0 : START DEPTH
STOP.F                          10200.0 : STOP DEPTH
STEP.F                         50.00000 : STEP LENGTH
NULL.                           -999.25 : NULL VALUE
COMP.              CHEVRON STANDARD LTD : COMPANY
WELL. CHEVRON GULF FOX CREEK 7-14-62-18 : WELL
FLD .                         FOX CREEK : FIELD
LOC .                                   : LOCATION
CTRY.                            CANADA : COUNTRY
SRVC.                      Schlumberger : SERVICE COMPANY
DATE.                       09-Dec-1976 : LOGDATE
PROV.                           Alberta : PROVINCE
UWI .                  100071406218W500 : UNIQUE WELL ID
SLAT.WGS84                     54.36034 : SURFACE LATITUDE
SLON.WGS84                    -116.5836 : SURFACE LONGITUDE
~Curve Information -----------------------------------------
DEPT   .F                 : 
CALD   .IN   70 280 01 00 : CALIPER FROM DENSITY LOG
CALS   .IN                : CALIPER FROM SONIC LOG
DPHI_LS.DEC  45 890 10 00 : DENSITY POROSITY LIMESTONE
DT     .US/F 60 520 00 00 : DELTA TIME FROM SONIC LOG
GRD    .GAPI              : GAMMA RAY FROM DENSITY LOG
GRS    .GAPI              : GAMMA RAY FROM SONIC LOG
ILD    .OHMM 06 121 12 00 : INDUCTION LOG RESISTIVITY
ILM    .OHMM 07 120 44 00 : INDUCTION LOG MEDIUM RESISTIVITY
LL8    .OHMM              : LATEROLOG-8 RESISTIVITY
NPHI_LS.DEC               : ENCHANCED THERMAL NEUTRON POROSITY IN SELECTED LITHOLOGY SANDSTONE
NPHI_SS.DEC               : NEUTRON POROSITY SANDSTONE
RHOB   .G/C3 45 350 01 00 : BULK DENSITY
SPR    .MV                : SPONTANEOUS POTENTIAL FROM RESISTIVITY
TEND   .LB                : TENSION FROM DENSITY LOG
TENS   .LB   15 635 01 00 : TENSION FROM GAMMA RAY-NEUTRON LOG
DRHO   .G/C3 45 356 01 00 : DENSITY CORRECTION
DPHI_SS.DEC               : POROSITY SANDSTONE
~Params ----------------------------------------------------
PD  .                     GL : PERMANENT DATUM
EPD .FT               2939.3 : ELEVATION PERMANENT DATUM
LMF .                     KB : LOG MEASURED FROM
DAPD.FT                 14.7 : FEET ABOVE PERMANENT DATUM
EKB .FT                 2954 : KELLY BUSHING
EDF .FT                 2939 : DRILLING FLOOR
DATE.               12/09/76 : RUN DATE
RUN .                      1 : RUN NUMBER
DD  .FT                10196 : DEPTH DRILLER
DL  .FT                10201 : DEPTH LOGGER
BLI .FT                10195 : BOTTOM LOG INTERVAL
TLI .FT                 1133 : TOP LOG INTERVAL
CBD .FT                 1131 : CASING BOTTOM DRILLER
CBL .FT                 1133 : CASING BOTTOM LOGGER
BS  .IN                 8.75 : BIT SIZE
BSD .FT                10196 : BIT SIZE AT DEPTH
DFT .               GEL CHEM : DRILLING FLUID TYPE
DFD .                    8.9 : DRILLING FLUID DENSITY
DFV .                     84 : DRILLING FLUID VISCOSITY
DFPH.                   10.5 : DRILLING FLUID PH
DFL .                      9 : DRILLING FLUID LOSS
MSS .               FLOWLINE : MUD SAMPLE SOURCE
RMS .OHMM               2.18 : RESISTIVITY MUD SAMPLE
MST .DEGF                 95 : MUD SAMPLE TEMPERATURE
RMF .OHMM               2.63 : RESISTIVITY MUD FILTRATE SAMPLE
MFST.DEGF                 66 : MUD FILTRATE SAMPLE TEMPERATURE
RMC .OHMM               2.34 : RESISTIVITY MUD CAKE
MCST.DEGF                 56 : MUD CAKE SAMPLE TEMPERATURE
TCS .HRS                 6.5 : TIME CIRCULATED STOPPED
LUN .                   7691 : LOGGING UNIT NUMBER
LUL .                    WCT : LOGGING UNIT LOCATION
ENGI.                  LEGEE : RECORDING ENGINEER
WITN.             RICHARDSON : WITNESSED BY
CLNT.                A2DTECH : CLIENT CODE
ORIG.            2" 5" PRINT : ORIGIN OF DATA
UWI .       100071406218W500 : UNIQUE WELL ID
DICO. A2D Technologies, Inc. : DIGITIZING COMPANY
~Other -----------------------------------------------------
~ASCII -----------------------------------------------------
# ...
 5200.00000    -999.25   10.66780    -999.25   95.59310    -999.25  122.55380    2.88850    3.06770    3.77310    -999.25    -999.25    -999.25  -13.88030    -999.25 2032.99600    -999.25    -999.25
 5250.00000    -999.25   10.86530    -999.25   99.07560    -999.25  127.53150    3.17300    3.36880    3.96590    -999.25    -999.25    -999.25  -13.13930    -999.25 1569.26010    -999.25    -999.25
 5300.00000   10.76670   10.08390    -999.25   93.92620  103.47320  132.48390    3.67810    3.82270    4.73670    -999.25    0.32410    2.47450  -11.68800 1711.92090 1779.96810    0.05420    0.12040
 5350.00000   10.80990    9.41060    -999.25   86.57990   90.54020  127.42900    7.80380    8.24770    9.59790    -999.25    0.28200    2.34350  -10.44740 1694.32230 1603.47890    0.17240    0.20800
 5400.00000   11.08060    9.57710    -999.25   72.70180   76.90240   96.09380    8.75350    9.30500   11.65240    -999.25    0.19010    2.42570  -11.05590 1489.28420 1688.40710    0.25930    0.13600
 5450.00000   10.76660   10.12490    -999.25   63.63270   72.18520   85.98550    7.16890    7.86700   17.04780    -999.25    0.28840    2.29920   -8.18230 1496.38480 1662.01950    0.00490    0.15740
 5500.00000   10.30450   10.04190    -999.25   75.50550   76.37310  107.05440   10.02800   10.49880   18.17090    -999.25    0.27040    2.53890   -9.78700 1296.18070 1497.69860    0.09170    0.08540
 5550.00000    -999.25   10.26960    -999.25   72.66870    -999.25   70.50160   13.01070   14.21020   20.50460    -999.25    -999.25    -999.25  -22.01460    -999.25 1425.80180    -999.25    -999.25
 5600.00000    -999.25   10.95840    -999.25   77.81770    -999.25  116.05910    7.53190    7.41360    9.91290    -999.25    -999.25    -999.25   -4.17490    -999.25 2094.52590    -999.25    -999.25
 5650.00000    -999.25    9.56640    -999.25   68.18630    -999.25   68.01140   10.95100   13.12950   21.19980    -999.25    -999.25    -999.25  -25.87100    -999.25 2037.88510    -999.25    -999.25
 5700.00000    -999.25    9.80670    -999.25   70.80630    -999.25   76.30540   10.41400   11.08330   13.80440    -999.25    -999.25    -999.25   -1.87490    -999.25 1894.92810    -999.25    -999.25
 5750.00000    -999.25    9.55060    -999.25   73.98690    -999.25  110.29550   17.50540   18.48030   32.82320    -999.25    -999.25    -999.25   -5.45250    -999.25 2025.61340    -999.25    -999.25
 5800.00000    -999.25    9.41970    -999.25   69.47460    -999.25   98.46150   12.93290   14.06520   16.52860    -999.25    -999.25    -999.25  -13.42520    -999.25 1850.92960    -999.25    -999.25
 5850.00000    -999.25    9.46640    -999.25   69.18170    -999.25   65.46660   22.05690   30.33240   48.54690    -999.25    -999.25    -999.25  -48.88570    -999.25 1846.60450    -999.25    -999.25
 5900.00000    -999.25    9.72700    -999.25   68.23830    -999.25   66.74750   12.48590   15.96200   24.90410    -999.25    -999.25    -999.25  -53.30860    -999.25 1858.58920    -999.25    -999.25
 5950.00000    -999.25    9.88910    -999.25   75.06870    -999.25   84.46860    5.62350    6.36890    9.64890    -999.25    -999.25    -999.25  -51.81160    -999.25 1684.38790    -999.25    -999.25
 6000.00000    -999.25    9.56200    -999.25   75.11190    -999.25  111.61690    9.71530   10.98550   13.61950    -999.25    -999.25    -999.25  -32.10570    -999.25 1695.48140    -999.25    -999.25
 6050.00000    -999.25    9.68390    -999.25   71.52380    -999.25  110.27510   10.39290   11.80320   17.15260    -999.25    -999.25    -999.25  -23.41070    -999.25 1664.52440    -999.25    -999.25
 6100.00000    9.39950    9.67860    -999.25   81.34140   92.99030  104.41190    6.97850    7.46700    8.52740    -999.25    0.31770    2.39310  -27.14520  631.80270 1697.11900    0.11550    0.19570
 6150.00000    9.77010    9.63700    -999.25   63.50390   48.27370   79.04220    7.32650    7.90190    9.38410    -999.25    0.21140    2.51760  -28.36180  715.16500 1675.16100    0.00300    0.19030
 6200.00000   11.03300   10.04000    -999.25   69.15580   78.74150  112.49970    9.67970   10.11950   12.71710    -999.25    0.40300    2.58720  -10.66220  679.25590 1500.35000    0.03240    0.03680
 6250.00000   12.61060   10.25210    -999.25   76.73440   62.36550   78.31850   14.54690   16.03740   26.41450    -999.25    0.25070    2.33670  -26.59080  465.85740 1658.66910    0.24200    0.24580
 6300.00000    8.96890    9.17240    -999.25   69.03800   23.41660   32.09170   23.90740   38.04950  106.05520    -999.25    0.11210    2.49920  -58.91500  752.23240 1809.93440    0.14180    0.08960
 6350.00000   13.02830   11.41480    -999.25   84.05370   98.41780  114.23840    3.47280    3.70540    4.97320    -999.25    0.41600    2.36530  -11.61750  386.71290 1732.19370    0.11470    0.19660
 6400.00000   12.57720   12.00010    -999.25   81.56640   91.57000  111.36390    4.19910    4.44990    5.93820    -999.25    0.41270    2.26000  -11.47150  540.44730 1567.66050    0.15730    0.27790
 6450.00000    -999.25    9.90600    -999.25   88.76560    -999.25  164.47830   20.94170    6.98460   68.74940    -999.25    -999.25    -999.25  -12.21450    -999.25 1615.14200    -999.25    -999.25
 6500.00000    -999.25   10.34980    -999.25   89.06990    -999.25  114.64620    8.93280    7.79840   10.89130    -999.25    -999.25    -999.25   -4.23410    -999.25 1782.21950    -999.25    -999.25
 6550.00000    -999.25    9.34360    -999.25   60.49430    -999.25  107.12660  218.37870  353.88720  640.47910    -999.25    -999.25    -999.25  -60.78720    -999.25 1604.58310    -999.25    -999.25
 6600.00000    -999.25    9.43250    -999.25   64.28460    -999.25  128.56030    5.32800    5.55780    6.93060    -999.25    -999.25    -999.25  -34.86300    -999.25 1567.37950    -999.25    -999.25
 6650.00000    -999.25    9.50920    -999.25   63.79290    -999.25  124.00400   12.43730   13.47290   19.40830    -999.25    -999.25    -999.25  -24.79190    -999.25 1630.09850    -999.25    -999.25
 6700.00000    -999.25    9.32710    -999.25   57.65160    -999.25   37.01100    9.18480   12.81340   71.33510    -999.25    -999.25    -999.25 -106.62540    -999.25 1675.44510    -999.25    -999.25
 6750.00000    -999.25    9.46650    -999.25   56.88650    -999.25   46.33400   22.31620   31.80880  242.22050    -999.25    -999.25    -999.25  -67.01230    -999.25 1693.04830    -999.25    -999.25
 6800.00000    -999.25    9.78570    -999.25   51.48550    -999.25   50.66830   88.67570  101.36390  322.35870    -999.25    -999.25    -999.25  -22.96780    -999.25 1837.47180    -999.25    -999.25
 6850.00000    -999.25    9.36220    -999.25   57.02340    -999.25   57.66160    9.14460   14.58360   34.48260    -999.25    -999.25    -999.25  -59.01390    -999.25 1823.63790    -999.25    -999.25
 6900.00000    -999.25    9.45600    -999.25   58.53090    -999.25   48.86630    8.82390   14.55640   43.86890    -999.25    -999.25    -999.25  -84.97910    -999.25 1813.88570    -999.25    -999.25
 6950.00000    -999.25    9.32360    -999.25   54.48480    -999.25   46.17850   31.32390   40.83910  220.60710    -999.25    -999.25    -999.25  -54.34770    -999.25 1664.46190    -999.25    -999.25
 7000.00000    -999.25   10.49400    -999.25   49.72260    -999.25   10.31640  181.32520  232.53660 1472.91060    -999.25    -999.25    -999.25 -105.70210    -999.25 1610.14620    -999.25    -999.25
 7050.00000    -999.25    9.37020    -999.25   51.19720    -999.25   16.65780   25.11240   37.57820  187.02540    -999.25    -999.25    -999.25 -138.50080    -999.25 2270.31010    -999.25    -999.25
 7100.00000    -999.25    9.50620    -999.25   50.33870    -999.25   16.36610   53.64220   73.71150  161.21980    -999.25    -999.25    -999.25  -99.00370    -999.25 2214.89620    -999.25    -999.25
 7150.00000    -999.25    9.38910    -999.25   63.41900    -999.25   91.81090    3.65700    3.88050    5.80130    -999.25    -999.25    -999.25  -13.33890    -999.25 2200.55760    -999.25    -999.25
 7200.00000    -999.25    9.21800    -999.25   61.25280    -999.25   92.02380    8.00550    9.46980   12.74620    -999.25    -999.25    -999.25    7.26240    -999.25 2099.97140    -999.25    -999.25
