~Version ---------------------------------------------------
VERS.      2.0 : CWLS log ASCII Standard -VERSION 2.0
WRAP.       NO : One line per depth step
CREA. 08/31/17 : LAS Creation Date
~Well ------------------------------------------------------
STRT.FT                                       1500.0 : START DEPTH
STOP.FT                                      11100.0 : STOP DEPTH
STEP.FT                                     50.00000 : STEP LENGTH
NULL.                                        -999.25 : NULL VALUE
COMP. GREAT PLAINS DEVELOPMENT COMPANY OF CANADA LTD : COMPANY
WELL.                 GPD ET AL ROSEVEAR 10-14-54-16 : WELL
FLD .                                                : FIELD
LOC .                                                : LOCATION
CTRY.                                         CANADA : COUNTRY
SRVC.                                   Schlumberger : SERVICE COMPANY
DATE.                                    01-Feb-1978 : LOGDATE
PROV.                                        Alberta : PROVINCE
UWI .                               100101405416W500 : UNIQUE WELL ID
SLAT.WGS84                                  53.66484 : SURFACE LATITUDE
SLON.WGS84                                 -116.2439 : SURFACE LONGITUDE
~Curve Information -----------------------------------------
DEPT    .FT    : Depth Curve
CALDED  .IN    : CALIPER FROM DENSITY LOG
CALSED  .IN    : CALIPER FROM SONIC LOG [ADJ. TO RESISTIVITY LOG]
CALWS   .IN    : CALIPER [CALDED]
CONDWS  .MMHO  : CONDUCTIVITY [1000/DRESWS]
DCORWS  .G/C3  : DENSITY CORRECTION [DRHOED]
DENWS   .G/C3  : FORMATION BULK DENSITY [RHOBED]
DPHILSED.V/V   : DENSITY POROSITY LIME [M=2.71, F=1.0] FROM DENSITY LOG [ADJ. TO RHOBED]
DPHISSED.V/V   : DENSITY POROSITY SAND [M=2.65, F=1.0] FROM DENSITY LOG [ADJ. TO RHOBED]
DPOLSWS .V/V   : DENSITY POROSITY LIME [CALC FROM DENWS, M=2.71, F=1.0]
DRESWS  .OHMM  : DEEP RESISTIVITY [LLDED]
DRHOED  .G/C3  : DENSITY CORRECTION FROM DENSITY LOG
DTED    .US/F  : DELTA TIME FROM SONIC LOG [ADJ. TO RESISTIVITY LOG]
DTWS    .US/F  : COMPRESSIONAL SONIC [DTED]
GRDED   .GAPI  : GAMMA RAY FROM DENSITY LOG
GRSED   .GAPI  : GAMMA RAY FROM SONIC LOG [ADJ. TO RESISTIVITY LOG]
GRWS    .GAPI  : GAMMA RAY [GRSED]
LLDED   .OHMM  : LATEROLOG DEEP RESISTIVITY FROM RESISTIVITY LOG
LLSED   .OHMM  : LATEROLOG SHALLOW RESISTIVITY FROM RESISTIVITY LOG
NPHILSED.V/V   : NEUTRON POROSITY LIME FROM DENSITY LOG [ADJ. TO RHOBED]
NPOLSWS .V/V   : NEUTRON POROSITY LIME [SS MATRIX(SLB) CONVERTED TO LS, SPL. TO NPHILSED @ 7520']
NPORSSED.V/V   : NEUTRON POROSITY  SAND FROM DENSITY LOG [ADJ. TO RHOBED]
RHOBED  .G/C3  : BULK DENSITY FROM DENSITY LOG
SPRED   .MV    : SPONTANEOUS POTENTIAL FROM RESISTIVITY LOG
SPWS    .MV    : SPONTANEOUS POTENTIAL [BASELINE 0 MV, SPRED]
SRESWS  .OHMM  : SHALLOW RESISTIVITY [LLSED]
~Params ----------------------------------------------------
PD  .                     GL : PERMANENT DATUM
EPD .FT                 2743 : ELEVATION PERMANENT DATUM
LMF .                     KB : LOG MEASURED FROM
DAPD.FT                 21.4 : FEET ABOVE PERMANENT DATUM
EKB .FT               2764.4 : KELLY BUSHING
EGL .FT                 2743 : GROUND LEVEL
DATE.               02/01/78 : RUN DATE
RUN .                      1 : RUN NUMBER
DD  .FT                11140 : DEPTH DRILLER
DL  .FT                11134 : DEPTH LOGGER
BLI .FT                11133 : BOTTOM LOG INTERVAL
TLI .FT                 1512 : TOP LOG INTERVAL
CBD .FT                 1512 : CASING BOTTOM DRILLER
CBL .FT                 1512 : CASING BOTTOM LOGGER
BS  .IN                 8.75 : BIT SIZE
BSD .FT                11140 : BIT SIZE AT DEPTH
DFT .            KCL POLYMER : DRILLING FLUID TYPE
DFD .                    9.4 : DRILLING FLUID DENSITY
DFV .                     45 : DRILLING FLUID VISCOSITY
DFPH.                    9.5 : DRILLING FLUID PH
DFL .                     16 : DRILLING FLUID LOSS
RMS .OHMM              0.205 : RESISTIVITY MUD SAMPLE
MST .DEGF                 39 : MUD SAMPLE TEMPERATURE
RMF .OHMM              0.163 : RESISTIVITY MUD FILTRATE SAMPLE
MFST.DEGF                 38 : MUD FILTRATE SAMPLE TEMPERATURE
RMC .OHMM              0.032 : RESISTIVITY MUD CAKE
MCST.DEGF                118 : MUD CAKE SAMPLE TEMPERATURE
RMB .OHMM              0.032 : RESISTIVITY MUD AT BHT
TCS .HRS                   7 : TIME CIRCULATED STOPPED
LUN .                   7772 : LOGGING UNIT NUMBER
LUL .                    EDM : LOGGING UNIT LOCATION
ENGI.                BODYMAN : RECORDING ENGINEER
WITN.                  BATES : WITNESSED BY
CLNT.                A2DTECH : CLIENT CODE
ORIG.               5" PRINT : ORIGIN OF DATA
UWI .       100101405416W500 : UNIQUE WELL ID
DICO. A2D Technologies, Inc. : DIGITIZING COMPANY
~Other -----------------------------------------------------
~ASCII -----------------------------------------------------
# ...
 4300.00000   14.39210   11.11620   14.39210  101.12140    0.18040    2.43410    -999.25    0.13130    0.16430    9.88910    0.18040   80.62200   80.62200   73.04320   66.07540   66.07540    9.88910    8.45450    -999.25    0.29750    0.34120    2.43410  -88.01450    3.28930    8.45450
 4350.00000   13.64560   11.09820   13.64560  120.36820    0.24940    2.46350    -999.25    0.11260    0.14620    8.30810    0.24940   84.45980   84.45980   80.85580   82.16280   82.16280    8.30810    7.84370    -999.25    0.32760    0.37090    2.46350  -89.00330    1.50490    7.84370
 4400.00000   11.83410   10.17160   11.83410   91.97600    0.22780    2.46760    -999.25    0.11280    0.14320   10.87240    0.22780   82.56670   82.56670   97.04690   88.49150   88.49150   10.87240   11.85870    -999.25    0.29370    0.33750    2.46760  -89.81830   -0.10050   11.85870
 4450.00000   12.46940   11.20500   12.46940   97.29810    0.25080    2.34850    -999.25    0.18920    0.21560   10.27770    0.25080   81.39320   81.39320  106.20220   98.64840   98.64840   10.27770   10.87010    -999.25    0.27810    0.32200    2.34850  -89.47180   -0.28020   10.87010
 4500.00000   10.79540   10.90950   10.79540   96.77540    0.02270    2.60130    -999.25    0.02730    0.06220   10.34550    0.02270   78.31330   78.31330  104.18630   93.40810   93.40810   10.34550   11.47930    -999.25    0.23340    0.27740    2.60130  -89.58530   -0.65230   11.47930
 4550.00000   11.19940   11.11230   11.19940   64.78610    0.03050    2.61330    -999.25    0.02500    0.05920   15.43540    0.03050   77.39140   77.39140  106.00130  101.99770  101.99770   15.43540   14.32080    -999.25    0.23410    0.27810    2.61330  -89.66180   -0.98740   14.32080
 4600.00000   11.25190   11.74510   11.25190   78.00630    0.05410    2.63160    -999.25    0.01410    0.04650   12.82890    0.05410   81.24890   81.24890  117.90540  108.71060  108.71060   12.82890   12.02170    -999.25    0.25620    0.30010    2.63160  -89.49630   -1.08220   12.02170
 4650.00000   11.57010   10.97290   11.57010   80.69530    0.04180    2.62100    -999.25    0.02000    0.05340   12.39230    0.04180   84.06420   84.06420  119.93580  111.78950  111.78950   12.39230   11.56120    -999.25    0.27910    0.32300    2.62100  -88.90410   -0.74840   11.56120
 4700.00000   11.32850   10.91460   11.32850   94.97550    0.03220    2.52510    -999.25    0.07730    0.10720   10.55510    0.03220   84.73140   84.73140  133.61820  122.67830  122.67830   10.55510   11.60210    -999.25    0.29100    0.33470    2.52510  -88.78080   -0.88540   11.60210
 4750.00000   11.76260   10.98430   11.76260   70.76500    0.22890    2.40830    -999.25    0.15030    0.17660   14.13140    0.22890   82.78290   82.78290  111.09190  108.01070  108.01070   14.13140   14.93390    -999.25    0.28180    0.32560    2.40830  -89.47960   -1.84280   14.93390
 4800.00000   11.49760   10.90310   11.49760   81.56210    0.17770    2.51810    -999.25    0.07920    0.11670   12.26060    0.17770   84.24890   84.24890  119.12770  113.57470  113.57470   12.26060   12.67310    -999.25    0.26960    0.31350    2.51810  -89.10540   -1.72720   12.67310
 4850.00000   12.04640   11.04820   12.04640  130.48110    0.24100    2.31740    -999.25    0.20480    0.22920    7.66580    0.24100   84.43080   84.43080  120.82400  107.84590  107.84590    7.66580    8.48770    -999.25    0.29960    0.34330    2.31740  -88.50300   -1.38510    8.48770
 4900.00000   12.77910   11.33130   12.77910  108.77720    0.24930    2.48070    -999.25    0.09640    0.14190    9.19310    0.24930   83.23830   83.23830  109.31150  115.73990  115.73990    9.19310    9.74890    -999.25    0.25790    0.30190    2.48070  -88.26120   -1.40180    9.74890
 4950.00000   12.13770   11.01300   12.13770   88.52680    0.25000    2.40240    -999.25    0.14920    0.17920   11.31070    0.25000   74.94250   74.94250   97.89440  102.52350  102.52350   11.31070   12.09120    -999.25    0.23790    0.28190    2.40240  -88.45790   -1.85880   12.09120
 5000.00000   12.69750   11.86470   12.69750  104.44560    0.25000    2.42830    -999.25    0.12380    0.16300    9.57670    0.25000   77.14530   77.14530  103.61270  109.18880  109.18880    9.57670   10.11900    -999.25    0.25190    0.29590    2.42830  -88.38900   -2.04850   10.11900
 5050.00000   12.79030   11.29830   12.79030  110.49970    0.25120    2.40840    -999.25    0.15680    0.17410    9.04980    0.25120   78.55060   78.55060   99.90750  103.25530  103.25530    9.04980    9.93240    -999.25    0.23810    0.28210    2.40840  -88.41180   -2.32990    9.93240
 5100.00000   12.45030   11.50270   12.45030  106.39930    0.23280    2.35360    -999.25    0.18670    0.20810    9.39970    0.23280   79.08480   79.08480  106.63390  106.75680  106.75680    9.39970   10.10030    -999.25    0.26770    0.31170    2.35360  -88.18910   -2.36740   10.10030
 5150.00000   13.73550   11.81630   13.73550  110.12250    0.24850    2.30810    -999.25    0.20420    0.23610    9.08080    0.24850   82.18850   82.18850  122.82850  117.60120  117.60120    9.08080    9.50830    -999.25    0.28150    0.32540    2.30810  -88.02960   -2.46640    9.50830
 5200.00000   13.26070   11.59210   13.26070  116.30120    0.23440    2.11370    -999.25    0.32400    0.34970    8.60050    0.23440   78.78710   78.78710  114.50570  111.75780  111.75780    8.60050    9.05930    -999.25    0.30090    0.34460    2.11370  -87.34570   -2.04270    9.05930
 5250.00000   12.73050   11.11580   12.73050  105.16670    0.21000    2.38730    -999.25    0.15910    0.18460    9.51130    0.21000   82.41250   82.41250  117.69440  109.99540  109.99540    9.51130    9.88950    -999.25    0.29110    0.33490    2.38730  -87.60480   -2.56050    9.88950
 5300.00000   11.55140   10.75630   11.55140   94.07250    0.25000    2.38730    -999.25    0.16940    0.19580   10.63010    0.25000   79.72840   79.72840  111.89680  113.10900  113.10900   10.63010   11.19980    -999.25    0.24170    0.28570    2.38730  -87.91170   -3.12600   11.19980
 5350.00000   10.59180   10.17020   10.59180   66.66530    0.19090    2.60470    -999.25    0.03080    0.06200   15.00100    0.19090   72.84720   72.84720  105.28030  100.18240  100.18240   15.00100   16.15130    -999.25    0.17980    0.22350    2.60470  -87.41470   -2.88930   16.15130
 5400.00000   12.91240   11.42200   12.91240   89.55040    0.25000    2.46730    -999.25    0.11810    0.13670   11.16690    0.25000   76.31470   76.31470  117.10800  104.79030  104.79030   11.16690   10.14830    -999.25    0.23210    0.27610    2.46730  -87.26850   -3.00160   10.14830
 5450.00000   11.98310   10.79900   11.98310   77.35730    0.22090    2.53470    -999.25    0.05390    0.10110   12.93200    0.22090   74.84540   74.84540  108.58670  111.29270  111.29270   12.93200   13.76060    -999.25    0.20140    0.24530    2.53470  -86.51490   -2.50820   13.76060
 5500.00000   12.44650   10.95260   12.44650  102.11380    0.25000    2.39130    -999.25    0.15860    0.18470    9.79330    0.25000   78.93030   78.93030  118.98510  114.75160  114.75160    9.79330   10.29860    -999.25    0.24150    0.28550    2.39130  -86.19580   -2.44780   10.29860
 5550.00000   12.03390   10.55090   12.03390   69.71170    0.25000    2.45750    -999.25    0.12130    0.14630   14.34480    0.25000   75.98580   75.98580  108.25900  101.93370  101.93370   14.34480   14.84650    -999.25    0.20040    0.24430    2.45750  -85.61850   -2.12900   14.84650
 5600.00000   12.23750   10.66530   12.23750   98.12180    0.25000    2.45040    -999.25    0.12310    0.15220   10.19480    0.25000   81.08110   81.08110  120.41320  119.68690  119.68690   10.19480   12.07920    -999.25    0.24280    0.28680    2.45040  -84.83490   -1.60570   12.07920
 5650.00000   11.11630   10.31230   11.11630   95.41530    0.24300    2.37740    -999.25    0.16870    0.19560   10.48050    0.24300   88.85570   88.85570  123.76130  125.36690  125.36690   10.48050   12.62100    -999.25    0.31260    0.35620    2.37740  -83.78090   -0.81010   12.62100
