~Version ---------------------------------------------------
VERS.      2.0 : CWLS log ASCII Standard -VERSION 2.0
WRAP.       NO : One line per depth step
CREA. 08/01/17 : LAS Creation Date
~Well ------------------------------------------------------
STRT.FT                            1050.0 : START DEPTH
STOP.FT                           10000.0 : STOP DEPTH
STEP.FT                          50.00000 : STEP LENGTH
NULL.                             -999.25 : NULL VALUE
COMP.               UNOCAL CANADA LIMITED : COMPANY
WELL. UNION LL&E SHINING BANK 11-24-56-14 : WELL
FLD .                                  WC : FIELD
LOC .                                     : LOCATION
CTRY.                              CANADA : COUNTRY
SRVC.                        Schlumberger : SERVICE COMPANY
DATE.                         03-Aug-1971 : LOGDATE
PROV.                             Alberta : PROVINCE
UWI .                    100112405614W500 : UNIQUE WELL ID
SLAT.WGS84                  53.8561852475 : SURFACE LATITUDE
SLON.WGS84                -115.9502838878 : SURFACE LONGITUDE
~Curve Information -----------------------------------------
DEPT  .FT    : Depth Curve
CALSED.IN    : CALIPER FROM BCS LOG
CALWS .IN    : CALIPER [CALSED]
CILDED.MMHO  : DEEP INDUCTION CONDUCTIVITY FROM DIL LOG
CONDWS.MMHO  : CONDUCTIVITY [1000/DRESWS]
DRESWS.OHMM  : DEEP RESISTIVITY [1000/CILDED IF ILDED<4, ILDED]
DTED  .US/F  : DELTA-T (INTERVAL TRANSIT TIME) FROM BCS LOG
DTWS  .US/F  : COMPRESSIONAL  SONIC [DTED]
GRSED .GAPI  : GAMMA RAY FROM BCS LOG
GRWS  .GAPI  : GAMMA RAY [GRSED]
ILDED .OHMM  : DEEP INDUCTION RESISTIVITY FROM DIL LOG
ILMED .OHMM  : INDUCTION MEDIUM RESISTIVITY FROM DIL LOG
LL8ED .OHMM  : LATEROLOG 8 FROM DIL LOG
MRESWS.OHMM  : MEDIUM RESISTIVITY [ILMED]
SPRED .MV    : SPONTANEOUS POTENTIAL FROM DIL LOG
SPWS  .MV    : SPONTANEOUS POTENTIAL [BASELINE 0 MV, SPRED]
SRESWS.OHMM  : SHALLOW RESISTIVITY [LL8ED]
~Params ----------------------------------------------------
PD  .                     GL : PERMANENT DATUM
EPD .FT                 2733 : ELEVATION PERMANENT DATUM
LMF .                     KB : LOG MEASURED FROM
DAPD.FT                15.25 : FEET ABOVE PERMANENT DATUM
EKB .FT              2748.25 : KELLY BUSHING
EGL .FT                 2733 : GROUND LEVEL
DATE.                      1 : RUN DATE
RUN .               08/03/71 : RUN NUMBER
DD  .FT                10035 : DEPTH DRILLER
DL  .FT                10039 : DEPTH LOGGER
BLI .FT                10033 : BOTTOM LOG INTERVAL
TLI .FT                 1030 : TOP LOG INTERVAL
CBD .FT                 1030 : CASING BOTTOM DRILLER
CBL .FT                 1030 : CASING BOTTOM LOGGER
BS  .IN                 8.75 : BIT SIZE
BSD .FT                10035 : BIT SIZE AT DEPTH
DFT .                    GEL : DRILLING FLUID TYPE
DFD .                    9.5 : DRILLING FLUID DENSITY
DFV .                     85 : DRILLING FLUID VISCOSITY
DFPH.                     10 : DRILLING FLUID PH
DFL .                     10 : DRILLING FLUID LOSS
MSS .               FLOWLINE : MUD SAMPLE SOURCE
RMS .OHMM               1.45 : RESISTIVITY MUD SAMPLE
MST .DEGF                 84 : MUD SAMPLE TEMPERATURE
RMF .OHMM               1.21 : RESISTIVITY MUD FILTRATE SAMPLE
MFST.DEGF                 82 : MUD FILTRATE SAMPLE TEMPERATURE
RMB .OHMM               0.59 : RESISTIVITY MUD AT BHT
TCS .HRS                   4 : TIME CIRCULATED STOPPED
LUN .                   5628 : LOGGING UNIT NUMBER
LUL .                    EDM : LOGGING UNIT LOCATION
ENGI.                 ZANUSS : RECORDING ENGINEER
WITN.       HARRIS LEVLINLLE : WITNESSED BY
CLNT.                A2DTECH : CLIENT CODE
ORIG.            2" 5" PRINT : ORIGIN OF DATA
UWI .       100112405614W500 : UNIQUE WELL ID
DICO. A2D Technologies, Inc. : DIGITIZING COMPANY
~Other -----------------------------------------------------
GR & DT HAVE BEEN TAKEN FROM 1" @CSG. TO 5480'.
SP & RESISTIVITY CURVES HAVE BEEN TAKEN IN 1" SECTION @CSG.  TO 2556' & 3846' TO 5480'.
~ASCII -----------------------------------------------------
# ...
 3200.00000    9.89870    9.89870    -999.25   82.10230   12.19460   80.32530   80.32530   48.99070   48.99070   12.19460   12.84400   13.91660   12.84400 -128.40090   -4.23600   13.91660
 3250.00000    9.90960    9.90960    -999.25  162.19550    6.16540   85.81630   85.81630   56.31960   56.31960    6.16540    6.35920    7.24590    6.35920 -126.46030   -2.53670    7.24590
 3300.00000   10.30450   10.30450    -999.25  238.85730    4.18660   97.20470   97.20470   59.49470   59.49470    4.18660    4.61110    5.44750    4.61110 -124.88630   -1.20390    5.44750
 3350.00000   11.21780   11.21780    -999.25  212.83870    4.70210  101.59020  101.59020   58.50930   58.50930    4.70210    5.08950    5.86970    5.08950 -124.06370   -0.62420    5.86970
 3400.00000   10.38720   10.38720    -999.25  197.82390    5.05500   86.37130   86.37130   59.93130   59.93130    5.05500    5.28800    5.73510    5.28800 -124.16300   -0.96480    5.73510
 3450.00000   10.70300   10.70300    -999.25  142.87580    7.01720   86.11460   86.11460   48.79100   48.79100    7.01720    8.37790   11.64630    8.37790 -126.75680   -3.80140   11.64630
 3500.00000    9.96460    9.96460    -999.25   88.11190   11.34920   79.22090   79.22090   51.94740   51.94740   11.34920   12.57660   17.47370   12.57660 -130.25400   -7.53990   17.47370
 3550.00000    9.65280    9.65280    -999.25  132.68760    7.53650   74.52770   74.52770   44.36200   44.36200    7.53650    9.75500   24.47450    9.75500 -143.50810  -21.03530   24.47450
 3600.00000    9.91220    9.91220    -999.25  145.55700    6.87380   81.17620   81.17620   63.24250   63.24250    6.87380    7.58540   10.44650    7.58540 -125.68560   -3.45570   10.44650
 3650.00000   10.54450   10.54450    -999.25  185.44620    5.39240   89.29580   89.29580   63.85740   63.85740    5.39240    5.83080    7.19550    5.83080 -123.64660   -1.65800    7.19550
 3700.00000   10.75910   10.75910    -999.25  166.98250    5.98860   86.26620   86.26620   63.89030   63.89030    5.98860    6.45500    7.21810    6.45500 -122.27420   -1.61030    7.21810
 3750.00000   10.79130   10.79130    -999.25  136.54110    7.32380   86.06790   86.06790   81.22310   81.22310    7.32380    7.91490    8.13110    7.91490 -123.97770   -1.37760    8.13110
 3800.00000   11.06440   11.06440    -999.25  130.56710    7.65890   85.06100   85.06100   82.55630   82.55630    7.65890    8.26550    8.71100    8.26550 -125.42990   -1.02930    8.71100
 3850.00000   11.37590   11.37590  130.49200  134.35140    7.44320   82.96190   82.96190   91.37870   91.37870    7.44320    -999.25    7.92140    -999.25 -126.15060   -1.50180    7.92140
 3900.00000   11.02820   11.02820  114.15900  114.15260    8.76020   88.61630   88.61630   83.38740   83.38740    8.76020    -999.25    9.43020    -999.25 -126.80940   -2.96390    9.43020
 3950.00000   11.21710   11.21710  123.98760  123.90020    8.07110   91.62320   91.62320   87.76440   87.76440    8.07110    -999.25    9.09720    -999.25 -124.99970   -1.96270    9.09720
 4000.00000   10.91020   10.91020  103.41490  107.81090    9.27550   94.19340   94.19340  118.35390  118.35390    9.27550    -999.25   12.29120    -999.25 -123.36760   -1.13380   12.29120
 4050.00000   11.89620   11.89620  129.18130  129.16060    7.74230   88.55800   88.55800   88.54210   88.54210    7.74230    -999.25    9.15730    -999.25 -123.75990   -0.99300    9.15730
 4100.00000   11.48330   11.48330  129.75910  129.64900    7.71310   87.67320   87.67320   93.06580   93.06580    7.71310    -999.25    8.81870    -999.25 -126.43690   -2.41330    8.81870
 4150.00000   11.22620   11.22620  164.65690  152.73700    6.54720   84.82590   84.82590   70.24150   70.24150    6.54720    -999.25    7.06780    -999.25 -127.69970   -2.62960    7.06780
 4200.00000   11.76020   11.76020  145.57690  135.57320    7.37610   84.24010   84.24010   85.51200   85.51200    7.37610    -999.25    7.93020    -999.25 -126.36930   -1.76040    7.93020
 4250.00000   11.42020   11.42020  130.78190  125.97160    7.93830   80.56520   80.56520   79.91700   79.91700    7.93830    -999.25    8.41740    -999.25 -124.38940   -0.23860    8.41740
 4300.00000   10.78530   10.78530  139.09410  131.24570    7.61930   85.09530   85.09530   87.75860   87.75860    7.61930    -999.25    7.95140    -999.25 -124.92060   -1.22790    7.95140
 4350.00000   10.61120   10.61120  149.77380  142.21940    7.03200   84.78330   84.78330   87.06280   87.06280    7.03200    -999.25    7.60750    -999.25 -124.01410   -0.78240    7.60750
 4400.00000   10.73620   10.73620  168.84650  154.71250    6.46360   85.82380   85.82380   88.69220   88.69220    6.46360    -999.25    6.70220    -999.25 -123.61430   -0.84080    6.70220
 4450.00000   11.14560   11.14560  136.44560  128.10780    7.80600   77.72830   77.72830   81.69820   81.69820    7.80600    -999.25    8.33980    -999.25 -124.44730   -2.16210    8.33980
 4500.00000   11.23070   11.23070  130.69720  125.24420    7.98440   82.22460   82.22460   83.00430   83.00430    7.98440    -999.25    8.23050    -999.25 -124.30430   -2.50590    8.23050
 4550.00000   10.45370   10.45370   77.46190   73.88250   13.53500   74.00350   74.00350   68.70040   68.70040   13.53500    -999.25   14.26320    -999.25 -125.13890   -3.82730   14.26320
 4600.00000   11.40000   11.40000  116.45080  114.18320    8.75800   79.47300   79.47300   85.77800   85.77800    8.75800    -999.25    9.03380    -999.25 -124.16740   -3.34580    9.03380
 4650.00000   10.57030   10.57030  131.55960  127.85110    7.82160   82.38300   82.38300   89.06670   89.06670    7.82160    -999.25    8.43380    -999.25 -123.28870   -2.95390    8.43380
 4700.00000   10.68480   10.68480  109.93590  107.01860    9.34490   78.30330   78.30330   80.96840   80.96840    9.34490    -999.25    9.87270    -999.25 -122.44540   -2.60060    9.87270
 4750.00000   10.67940   10.67940  146.49090  133.52030    7.48950   88.57010   88.57010   84.41960   84.41960    7.48950    -999.25    7.90430    -999.25 -121.11910   -1.99960    7.90430
 4800.00000   10.80550   10.80550  149.33070  136.99940    7.29930   93.83500   93.83500   91.95350   91.95350    7.29930    -999.25    8.32900    -999.25 -120.36990   -2.27030    8.32900
 4850.00000   10.58950   10.58950  125.70160  120.20540    8.31920   91.16140   91.16140   91.28650   91.28650    8.31920    -999.25    9.96130    -999.25 -119.26760   -2.19460    9.96130
 4900.00000   11.19280   11.19280  135.08860  124.11880    8.05680   89.56730   89.56730   90.37900   90.37900    8.05680    -999.25    9.25790    -999.25 -118.72640   -2.67340    9.25790
 4950.00000   10.47800   10.47800  100.40740   96.32540   10.38150   84.16890   84.16890  100.26570  100.26570   10.38150    -999.25   12.80220    -999.25 -117.54620   -2.51990   12.80220
 5000.00000   10.47620   10.47620   90.02340   86.47380   11.56420   90.97550   90.97550  104.65420  104.65420   11.56420    -999.25   14.29110    -999.25 -115.71080   -1.70440   14.29110
 5050.00000   10.26120   10.26120   95.01180   89.29050   11.19940   87.21270   87.21270   97.24090   97.24090   11.19940    -999.25   12.76510    -999.25 -116.15890   -2.92410   12.76510
 5100.00000   10.41520   10.41520  122.81070  118.22440    8.45860   96.03640   96.03640   99.56380   99.56380    8.45860    -999.25   10.95920    -999.25 -115.03390   -1.79910   10.95920
 5150.00000   10.76460   10.76460  145.86170  133.96390    7.46470   84.66300   84.66300   80.82640   80.82640    7.46470    -999.25    8.93300    -999.25 -116.61710   -3.38230    8.93300
 5200.00000   11.15980   11.15980  159.19780  151.58440    6.59790   85.31540   85.31540   87.56110   87.56110    6.59790    -999.25    7.67930    -999.25 -114.93060   -1.69580    7.67930
 5250.00000   10.73580   10.73580  151.04450  141.18710    7.08280   75.51360   75.51360   91.27260   91.27260    7.08280    -999.25    8.80320    -999.25 -115.13030   -1.89550    8.80320
 5300.00000   11.13990   11.13990  212.62400  190.15380    5.25890   86.80210   86.80210   90.34030   90.34030    5.25890    -999.25    6.19130    -999.25 -113.05650   -0.57300    6.19130
