~Version ---------------------------------------------------
VERS.      2.0 : CWLS log ASCII Standard -VERSION 2.0
WRAP.       NO : One line per depth step
CREA. 08/26/13 : LAS Creation Date
~Well ------------------------------------------------------
STRT.M                          350.0 : START DEPTH
STOP.M                         2650.0 : STOP DEPTH
STEP.M                       50.00000 : STEP LENGTH
NULL.                         -999.25 : NULL VALUE
COMP.        CHEVRON CANADA RESOURCES : COMPANY
WELL. CHEVRON UNIT SNIPELK 6-35-70-18 : WELL
FLD .                                 : FIELD
LOC .                                 : LOCATION
CTRY.                          CANADA : COUNTRY
SRVC.                  Atlas Wireline : SERVICE COMPANY
DATE.                     19-Mar-1993 : LOGDATE
PROV.                         Alberta : PROVINCE
UWI .                100063507018W500 : UNIQUE WELL ID
SLAT.WGS84                   55.10361 : SURFACE LATITUDE
SLON.WGS84                  -116.6358 : SURFACE LONGITUDE
~Curve Information -----------------------------------------
DEPT    .M      : DEPTH METER
ACED    .US/M   : ACOUSTIC FROM SONIC LOG
C13DED  .MM     : CALIPER 13 FROM DENSITY LOG [ADJ. TO RESISTIVITY LOG]
C13SED  .MM     : CALIPER 13 FROM SONIC LOG
C24SED  .MM     : CALIPR 24 FROM SONIC LOG
CALWS   .MM     : CALIPER [C13SED]
CNCLSED .V/V    : NEUTRON POROSITY LIMESTONE FROM DENSITY LOG [ADJ. TO RESISTIVITY LOG]
CNCSSED .V/V    : NEUTRON POROSITY SANDSTONE FROM DENSITY LOG [ADJ. TO RESISTIVITY LOG]
CONDWS  .MMHO   : CONDUCTIVITY [1000/DRESWS]
DCORWS  .KG/M3  : DENSITY CORRECTION [ZCORED]
DENWS   .KG/M3  : FORMATION BULK DENSITY [CALC. FROM DPOLSWS, M=2710, F=1000]
DPOLSWS .V/V    : DENSITY POROSITY LIMESTONE [PORZSSED CONVERTED TO LIMESTONE MATRIX, M=2710, F=1000, SPL. TO PORZLSED @ 1362.2 M]
DRESWS  .OHMM   : DEEP RESISTIVITY [RIPDED]
DTWS    .US/M   : COMPRESSIONAL SONIC [ACED]
GRDED   .GAPI   : GAMMA RAY FROM DENSITY LOG [ADJ. TO RESISTIVITY LOG]
GRRED   .GAPI   : GAMMA RAY FROM RESISTIVITY LOG
GRWS    .GAPI   : GAMMA RAY [GRRED SPL. TO GRDED @ 2638M]
MRESWS  .OHMM   : MEDIUM RESISTIVITY [RIPMED]
NPOLSWS .V/V    : NEUTRON POROSITY LIMESTONE [CNCSSED CONVERSION FOR LIMESTONE MATRIX, SPL. TO CNCLSED @ 1362 M]
PEED    .B/E    : PHOTO ELECTRIC CROSS SECTION FROM DENSITY LOG [ADJ. TO RESISTIVITY LOG]
PEFWS   .B/E    : PHOTO ELECTRIC FACTOR [PEED]
PORZLSED.V/V    : DENSITY POROSITY LIMESTONE [M=2710, F=1000] FROM DENSITY LOG [ADJ. TO RESISTIVITY LOG]
PORZSSED.V/V    : DENSITY POROSITY SANDSTONE [M=2650, F=1000] FROM DENSITY LOG [ADJ. TO RESISTIVITY LOG]
RIPDED  .OHMM   : DEEP RESISTIVITY FROM RESISTIVITY LOG
RIPMED  .OHMM   : MEDIUM RESISTIVITY FROM RESISTIVITY LOG
RSFLED  .OHMM   : RAW SPHERICALLY FOCUSED FROM RESISTIVITY LOG
SPRED   .MV     : SPONTANEOUS POTENTIAL FROM RESISTIVITY LOG
SPWS    .MV     : SPONTANEOUS POTENTIAL [BASELINE 0 MV, SPRED]
SRESWS  .OHMM   : SHALLOW RESISTIVITY [RSFLED]
TENDED  .N      : TENSION FROM DENSITY LOG [ADJ. TO RESISTIVITY LOG]
TENRED  .N      : TENSION FROM RESISTIVITY LOG
ZCORED  .KG/M3  : DENSITY CORRECTION FROM DENSITY LOG [ADJ. TO RESISTIVITY LOG]
ZDENED  .KG/M3  : FORMATION BULK DENSITY FROM DENSITY LOG [ADJ. TO PORZLSED/PORZSSED/RESISTIVITY LOG]
~Params ----------------------------------------------------
PD  .                         GL : PERMANENT DATUM
EPD .M                     785.8 : ELEVATION PERMANENT DATUM
LMF .                         KB : LOG MEASURED FROM
DAPD.M                       6.6 : FEET ABOVE PERMANENT DATUM
DMF .                         KB : DRILLING MEASURED FROM
EKB .M                     792.4 : KELLY BUSHING
EGL .M                     785.8 : GROUND LEVEL
DATE.                   03/19/93 : RUN DATE
RUN .                          1 : RUN NUMBER
DD  .M                      2665 : DEPTH DRILLER
DL  .M                    2663.6 : DEPTH LOGGER
BLI .M                    2660.3 : BOTTOM LOG INTERVAL
TLI .M                     346.5 : TOP LOG INTERVAL
CS  .MM                    219.1 : CASING SIZE
CBD .M                     347.8 : CASING BOTTOM DRILLER
CBL .M                     346.5 : CASING BOTTOM LOGGER
BS  .MM                      200 : BIT SIZE
BSD .M                      2665 : BIT SIZE AT DEPTH
DFT .               GEL CHEMICAL : DRILLING FLUID TYPE
DFD .                       1225 : DRILLING FLUID DENSITY
DFV .                         55 : DRILLING FLUID VISCOSITY
DFPH.                          9 : DRILLING FLUID PH
DFL .                          9 : DRILLING FLUID LOSS
MSS .                   FLOWLINE : MUD SAMPLE SOURCE
RMS .OHMM                    0.7 : RESISTIVITY MUD SAMPLE
MST .DEGC                     15 : MUD SAMPLE TEMPERATURE
RMF .OHMM                  0.551 : RESISTIVITY MUD FILTRATE SAMPLE
MFST.DEGC                   14.9 : MUD FILTRATE SAMPLE TEMPERATURE
RMC .OHMM                      1 : RESISTIVITY MUD CAKE
MCST.DEGC                     15 : MUD CAKE SAMPLE TEMPERATURE
MFSS.                   MEASURED : MUD FILTRATE SAMPLE SOURCE
MCSS.                   MEASURED : MUD CAKE SAMPLE SOURCE
RMB .OHMM                   0.26 : RESISTIVITY MUD AT BHT
TCS .HRS                      12 : TIME CIRCULATED STOPPED
LUN .                    HL 6444 : LOGGING UNIT NUMBER
LUL .                 GR PRAIRIE : LOGGING UNIT LOCATION
ENGI.                       BUCK : RECORDING ENGINEER
WITN.                      CLARK : WITNESSED BY
CLNT.                    A2DTECH : CLIENT CODE
ORIG. 6.5"/100M 16.5"/100M PRINT : ORIGIN OF DATA
UWI .           100063507018W500 : UNIQUE WELL ID
DICO.     A2D Technologies, Inc. : DIGITIZING COMPANY
~Other -----------------------------------------------------
DPI-ZDL-CNL-BHC LOG RUN
RHOB FROM SMALL SCALE LOG
~ASCII -----------------------------------------------------
  350.00000  445.05790    -999.25  356.28020  303.30730  356.28020    -999.25    -999.25  224.91120    -999.25    -999.25    -999.25    4.44620  445.05790    -999.25   46.33400   46.33400    3.71030    -999.25    -999.25    -999.25    -999.25    -999.25    4.44620    3.71030    3.36700   -6.52250   -2.07570    3.36700    -999.25 -2432.84420    -999.25    -999.25
  400.00000  373.63410    -999.25  289.78460  230.72550  289.78460    -999.25    -999.25  218.23100    -999.25    -999.25    -999.25    4.58230  373.63410    -999.25   51.16130   51.16130    3.80600    -999.25    -999.25    -999.25    -999.25    -999.25    4.58230    3.80600    3.37650  -28.20730   -9.47320    3.37650    -999.25 -1298.77480    -999.25    -999.25
  450.00000  398.47490    -999.25  480.43300  293.36740  480.43300    -999.25    -999.25  128.52480    -999.25    -999.25    -999.25    7.78060  398.47490    -999.25   42.73650   42.73650    5.41330    -999.25    -999.25    -999.25    -999.25    -999.25    7.78060    5.41330    4.28940  -17.75290   -3.17760    4.28940    -999.25 -2496.60690    -999.25    -999.25
  500.00000  428.75940    -999.25  413.01210  400.34500  413.01210    -999.25    -999.25  146.11550    -999.25    -999.25    -999.25    6.84390  428.75940    -999.25   56.74260   56.74260    4.87190    -999.25    -999.25    -999.25    -999.25    -999.25    6.84390    4.87190    5.55920  -20.39190   -2.44090    5.55920    -999.25 1461.06440    -999.25    -999.25
  550.00000  402.40480    -999.25  457.55540  391.81340  457.55540    -999.25    -999.25  148.41200    -999.25    -999.25    -999.25    6.73800  402.40480    -999.25   58.38610   58.38610    4.94610    -999.25    -999.25    -999.25    -999.25    -999.25    6.73800    4.94610    5.67570  -27.98510   -8.15460    5.67570    -999.25 -1393.81720    -999.25    -999.25
  600.00000  464.95060    -999.25  297.75850  354.97450  297.75850    -999.25    -999.25  119.13840    -999.25    -999.25    -999.25    8.39360  464.95060    -999.25   57.75850   57.75850    6.15060    -999.25    -999.25    -999.25    -999.25    -999.25    8.39360    6.15060    6.82930  -31.04830   -9.33840    6.82930    -999.25 -2295.00000    -999.25    -999.25
  650.00000  635.70360    -999.25  509.61340  546.83370  509.61340    -999.25    -999.25  128.74980    -999.25    -999.25    -999.25    7.76700  635.70360    -999.25   48.12200   48.12200    3.97950    -999.25    -999.25    -999.25    -999.25    -999.25    7.76700    3.97950    5.21670  -28.45820   -4.86880    5.21670    -999.25 -2228.49810    -999.25    -999.25
  700.00000  397.79440    -999.25  238.63320  340.37060  238.63320    -999.25    -999.25  153.90770    -999.25    -999.25    -999.25    6.49740  397.79440    -999.25   82.20260   82.20260    5.44260    -999.25    -999.25    -999.25    -999.25    -999.25    6.49740    5.44260    6.23080  -28.71110   -3.24220    6.23080    -999.25 -2584.62640    -999.25    -999.25
  750.00000  367.85270    -999.25  272.47580  407.29640  272.47580    -999.25    -999.25  210.53960    -999.25    -999.25    -999.25    4.74970  367.85270    -999.25   62.27000   62.27000    4.09340    -999.25    -999.25    -999.25    -999.25    -999.25    4.74970    4.09340    4.28600  -33.37590   -9.72050    4.28600    -999.25 -2893.28290    -999.25    -999.25
  800.00000  328.55570    -999.25  207.25790  248.86730  207.25790    -999.25    -999.25  202.19180    -999.25    -999.25    -999.25    4.94580  328.55570    -999.25   80.41810   80.41810    4.74400    -999.25    -999.25    -999.25    -999.25    -999.25    4.94580    4.74400    6.06120  -41.21530  -16.81790    6.06120    -999.25 -3180.47560    -999.25    -999.25
  850.00000  343.01930    -999.25  246.92130  378.75560  246.92130    -999.25    -999.25  223.96920    -999.25    -999.25    -999.25    4.46490  343.01930    -999.25   79.92860   79.92860    4.03720    -999.25    -999.25    -999.25    -999.25    -999.25    4.46490    4.03720    4.40890  -32.36850  -10.28150    4.40890    -999.25 -5463.45040    -999.25    -999.25
  900.00000  385.09040    -999.25  260.51520  373.03950  260.51520    -999.25    -999.25  454.02950    -999.25    -999.25    -999.25    2.20250  385.09040    -999.25   75.31450   75.31450    2.11670    -999.25    -999.25    -999.25    -999.25    -999.25    2.20250    2.11670    2.31590  -22.90340   -4.02130    2.31590    -999.25 -3029.98660    -999.25    -999.25
  950.00000  329.34810    -999.25  195.23100  193.25050  195.23100    -999.25    -999.25  358.51290    -999.25    -999.25    -999.25    2.78930  329.34810    -999.25   16.90570   16.90570    4.03910    -999.25    -999.25    -999.25    -999.25    -999.25    2.78930    4.03910    8.27850  -88.45700  -70.88680    8.27850    -999.25 -1316.70920    -999.25    -999.25
 1000.00000  228.27040    -999.25  215.66520  210.42680  215.66520    -999.25    -999.25  142.07170    -999.25    -999.25    -999.25    7.03870  228.27040    -999.25   42.94650   42.94650   11.04990    -999.25    -999.25    -999.25    -999.25    -999.25    7.03870   11.04990   16.14530  -61.51730  -41.98720   16.14530    -999.25 -2418.37630    -999.25    -999.25
 1050.00000  200.72760    -999.25  234.03520  227.83620  234.03520    -999.25    -999.25   96.26580    -999.25    -999.25    -999.25   10.38790  200.72760    -999.25   33.47870   33.47870   14.24660    -999.25    -999.25    -999.25    -999.25    -999.25   10.38790   14.24660   21.90860  -51.20640  -27.73510   21.90860    -999.25 -2036.69810    -999.25    -999.25
 1100.00000  321.68710    -999.25  254.88500  273.27850  254.88500    -999.25    -999.25  213.12420    -999.25    -999.25    -999.25    4.69210  321.68710    -999.25   51.14910   51.14910    6.05840    -999.25    -999.25    -999.25    -999.25    -999.25    4.69210    6.05840    9.28550  -49.54460  -26.07330    9.28550    -999.25 -1154.60820    -999.25    -999.25
 1150.00000  278.92380    -999.25  214.71010  212.65760  214.71010    -999.25    -999.25   61.49720    -999.25    -999.25    -999.25   16.26090  278.92380    -999.25   36.69530   36.69530   19.31750    -999.25    -999.25    -999.25    -999.25    -999.25   16.26090   19.31750   21.22720  -60.10710  -36.63580   21.22720    -999.25 -1293.39540    -999.25    -999.25
 1200.00000  271.96630    -999.25  275.31430  310.39530  275.31430    -999.25    -999.25  315.56690    -999.25    -999.25    -999.25    3.16890  271.96630    -999.25   40.97700   40.97700    4.81840    -999.25    -999.25    -999.25    -999.25    -999.25    3.16890    4.81840    6.99960  -57.95150  -37.28460    6.99960    -999.25 -1634.65170    -999.25    -999.25
 1250.00000  301.55210  300.68070  274.44400  306.90660  274.44400    -999.25    -999.25  232.93730  207.10000 2364.22000    0.20220    4.29300  301.55210   94.58850   88.28930   88.28930    4.12980    -999.25    6.94700    6.94700    -999.25    0.17320    4.29300    4.12980    3.66870  -31.84690  -17.85710    3.66870    -999.25 -2651.79280  207.10000 2359.30000
 1300.00000  299.65090  269.54790  268.23110  269.77700  268.23110    -999.25    0.33910  110.13090   27.60000 2312.57500    0.23240    9.08010  299.65090   61.77120   58.17500   58.17500    9.29840    0.28670    4.78340    4.78340    -999.25    0.20450    9.08010    9.29840   14.99800  -43.56370  -39.47280   14.99800  969.84900 -1150.62970   27.60000 2320.75000
 1350.00000  342.70570  255.50850  251.29390  235.23630  251.29390    -999.25    0.48110  111.84310   82.40000 2303.33500    0.23780    8.94110  342.70570   81.38550   84.99280   84.99280    8.11520    0.43340    5.28340    5.28340    -999.25    0.21010    8.94110    8.11520   12.30380    4.03840   -2.87810   12.30380 -1523.51590 -1646.00320   82.40000 2258.40000
 1400.00000  262.26890    -999.25  236.14320  232.93500  236.14320    -999.25    -999.25   49.13570    -999.25    -999.25    -999.25   20.35180  262.26890    -999.25   22.64210   22.64210   22.82060    -999.25    -999.25    -999.25    -999.25    -999.25   20.35180   22.82060   25.84790 -113.01480 -108.71650   25.84790    -999.25 -474.52040    -999.25    -999.25
