~Version ---------------------------------------------------
VERS. 2.0 : CWLS log ASCII Standard -VERSION 2.0
WRAP.  NO : ONE LINE PER DEPTH STEP
~Well ------------------------------------------------------
STRT.M                          450.0 : START DEPTH
STOP.M                         3450.0 : STOP DEPTH
STEP.M                       50.00000 : STEP LENGTH
NULL.                         -999.25 : NULL VALUE
COMP.          CHEVRON CANADA LIMITED : COMPANY
WELL. CHEVRON ET AL STURLS 5-10-68-26 : WELL
FLD .                                 : FIELD
LOC .                                 : LOCATION
CTRY.                          CANADA : COUNTRY
SRVC.                    Schlumberger : SERVICE COMPANY
DATE.                     08-Mar-1981 : LOGDATE
PROV.                         Alberta : PROVINCE
UWI .                100051006826W500 : UNIQUE WELL ID
SLAT.WGS84                   54.87124 : SURFACE LATITUDE
SLON.WGS84                  -117.8893 : SURFACE LONGITUDE
~Curve Information -----------------------------------------
DEPT   .M                  : 
SPR    .MV    07 010 01 00 : SPONTANEOUS POTENTIAL FROM RESISTIVITY LOG
ILD    .OHMM  07 120 46 00 : INDUCTION DEEP RESISTIVITY
ILM    .OHMM  07 120 44 00 : INDUCTION MEDIUM RESISTIVITY
SFL    .OHMM  07 220 01 00 : SPHERICALLY FOCUSED LOG
GRS    .GAPI  60 310 01 00 : GAMMA RAY FROM SONIC LOG
DT     .US/M  60 500 00 00 : DELTA-T (INTERVAL TRANSIT TIME)
CALS   .MM    60 280 50 00 : CALIPER FROM SONIC LOG
GRD    .GAPI  45 310 01 00 : GAMMA RAY FROM DENSITY LOG
RHOB   .KG/M3 45 350 01 00 : BULK DENSITY
CALD   .MM    45 280 60 00 : CALIPER FROM DENSITY LOG
TEND   .LB    45 635 00 00 : TENSION FROM DENSITY LOG
CORR   .KG/M3 45 356 01 00 : DENSITY CORRECTION
NPHI_LS.DEC   42 890 01 00 : NEUTRON POROSITY LIMESTONE
DPHI_LS.DEC   45 890 10 00 : DENSITY POROSITY LIMESTONE
CILD   .MMHO  07 110 46 00 : INDUCTION DEEP CONDUCTIVITY
NPOR_SS.DEC                : ENCHANCED THERMAL NEUTRON POROSITY IN SELECTED LITHOLOGY SANDSTONE
DPHI_SS.DEC   45 890 12 00 : DENSITY POROSITY SANDSTONE
TENS   .LB    60 635 00 00 : TENSION FROM SONIC LOG
~Params ----------------------------------------------------
PD  .                     GL : PERMANENT DATUM
EPD .M                 679.3 : ELEVATION PERMANENT DATUM
LMF .                     KB : LOG MEASURED FROM
DAPD.M                   9.4 : FEET ABOVE PERMANENT DATUM
DMF .                     KB : DRILLING MEASURED FROM
EKB .M                 688.7 : KELLY BUSHING
EGL .M                 679.3 : GROUND LEVEL
DATE.               03/08/81 : RUN DATE
RUN .                      1 : RUN NUMBER
DD  .M                  3458 : DEPTH DRILLER
DL  .M                  3461 : DEPTH LOGGER
BLI .M                  3459 : BOTTOM LOG INTERVAL
TLI .M                   466 : TOP LOG INTERVAL
CS  .IN                226.6 : CASING SIZE
CBD .M                466.13 : CASING BOTTOM DRILLER
CBL .M                   466 : CASING BOTTOM LOGGER
BS  .IN                  222 : BIT SIZE
BSD .M                  3458 : BIT SIZE AT DEPTH
DFT .               CHEM GEL : DRILLING FLUID TYPE
DFD .                   1100 : DRILLING FLUID DENSITY
DFV .                    110 : DRILLING FLUID VISCOSITY
DFPH.                   10.5 : DRILLING FLUID PH
DFL .                    8.4 : DRILLING FLUID LOSS
MSS .               FLOWLINE : MUD SAMPLE SOURCE
RMS .OHMM               0.91 : RESISTIVITY MUD SAMPLE
RMF .OHMM               0.72 : RESISTIVITY MUD FILTRATE SAMPLE
MFST.DEGC               23.5 : MUD FILTRATE SAMPLE TEMPERATURE
RMC .OHMM                0.9 : RESISTIVITY MUD CAKE
MCST.DEGC               23.0 : MUD CAKE SAMPLE TEMPERATURE
MFSS.           FILTER PRESS : MUD FILTRATE SAMPLE SOURCE
RMB .OHMM                0.3 : RESISTIVITY MUD AT BHT
TCS .HRS                 100 : TIME CIRCULATED STOPPED
TLAB.HRS                1330 : TIME LOGGER AT BOTTOM
LUN .                   8155 : LOGGING UNIT NUMBER
LUL .                     GP : LOGGING UNIT LOCATION
ENGI.                 BRYDON : RECORDING ENGINEER
WITN.               ANDERSON : WITNESSED BY
CLNT.                A2DTECH : CLIENT CODE
ORIG.                      1 : 6" 1:240" PRINT:   ORIGIN OF DATA
UWI .       100051006826W500 : UNIQUE WELL ID
DICO. A2D Technologies, Inc. : DIGITIZING COMPANY
~Other -----------------------------------------------------
~ASCII -----------------------------------------------------
# ...
 2400.00000 -173.12250  154.85390  116.29230  180.01120   11.82800  164.64200  233.06850   12.27830 2683.62430  227.27120 3613.87990   -1.10960    0.00990    0.01600    6.58810    -999.25    -999.25 3583.97490
 2450.00000 -109.78760   10.70980   12.58130   12.06310   67.81890  219.88690  233.89340   52.35750 2645.53390  226.94960 3652.24170   -3.34780    0.14700    0.06080   86.76960    -999.25    -999.25 3641.09160
 2500.00000 -131.91890   44.41840   45.92820   91.99930   40.21220  182.63790  226.87850   40.94300 2669.42360  222.82880 3770.19900   50.26510    0.05850    0.02610   23.14580    -999.25    -999.25 3719.62650
 2550.00000 -118.53250   75.75660   75.01690  102.09670   37.01820  181.24100  220.39090   38.32140 2690.84130  218.45850 3802.88550    2.62750    0.03910    0.01100   12.92010    -999.25    -999.25 3771.78220
 2600.00000 -113.14010   30.96190   32.14940   44.48760   51.44000  195.02910  221.59840   53.07480 2685.63960  222.46830 3874.30270   -3.09280    0.07210    0.01490   31.94300    -999.25    -999.25 3832.77610
 2650.00000 -205.66960    -999.25  957.20180 1827.57780   12.75720  164.11840  224.06790   14.17460 2720.92750  246.88470 3925.23240  250.84130    0.00720   -0.00180    0.00040    -999.25    -999.25 3844.60910
 2700.00000 -186.82550    -999.25  283.57920  877.07750   10.60660  162.33420  228.18880    9.17080 2673.46460  244.75810 3970.40330  250.09710    0.00280    0.02110    0.00040    -999.25    -999.25 3929.33860
 2750.00000 -197.05910    -999.25  259.49420  692.30380    9.82170  161.84930  236.38410   11.72830 2692.67110  259.08170 4040.12820  250.37820    0.00000    0.01150    0.00040    -999.25    -999.25 4001.51370
 2800.00000 -208.73340    -999.25  229.28500 1182.09030   11.29300  163.64580  238.43700   14.12660 2496.55640  287.91670 4104.56590  242.24480    0.00240    0.12310    0.00040    -999.25    -999.25 4075.59620
 2850.00000 -189.51750   32.79220   31.19100   54.68870   10.14970  169.11200  228.27900   10.80840 2620.26730  233.55640 4169.67380  110.78510    0.01810    0.05090   28.98760    -999.25    -999.25 4142.52150
 2900.00000 -267.66450    -999.25    -999.25 1245.20560   16.71100  162.46730  231.21800   16.62250 2743.09590  229.34190 4205.68510   -7.26410    0.00140   -0.02170    0.00040    -999.25    -999.25 4159.85990
 2950.00000 -291.85500    -999.25  328.38780 1977.18790   16.82840  162.19000  243.56030   14.77490 2836.32690  241.20410 4231.84470   -5.87040   -0.00340   -0.07490    0.00040    -999.25    -999.25 4210.41700
 3000.00000 -221.28120    -999.25 1949.74380    -999.25    6.73340  163.58560  237.79450   18.93870 2953.79100  226.41730 4277.86720   -0.60460    0.00050   -0.14190    0.00040    -999.25    -999.25 4273.75880
 3050.00000 -155.29700   42.40690   44.57190   56.54160   32.62730  185.47600  226.14150   39.83240 2678.73580  224.53620 4429.04740   -1.40120    0.08840    0.02150   21.14190    -999.25    -999.25 4380.02590
 3100.00000 -184.53480    3.20940    3.36850    4.10490   83.76390  268.22730  305.72470   83.93350 2319.06880  372.93860 4503.22610  213.14250    0.37900    0.24270  318.46210    -999.25    -999.25 4463.29540
 3150.00000 -152.31070    7.78670    8.75960   13.60540   66.66150  214.43890  226.54570   67.58850 2648.27510  229.23540 4521.63530  128.13850    0.18410    0.03660  135.81910    -999.25    -999.25 4483.94290
 3200.00000  -99.04990    6.57070    7.35670    9.71070   66.74900  217.98050  223.06300   74.17180 2739.66820  221.73560 4658.89990   83.56050    0.16530   -0.01100  152.67880    -999.25    -999.25 4535.77200
 3250.00000 -144.20200    4.70730    4.89330    6.35620   93.39230  261.97140  252.30580   92.70880 2733.28130  250.07390 4853.96340  250.11070    0.22340   -0.02470  208.17240    -999.25    -999.25 4605.93650
 3300.00000 -109.46120   20.38920   22.71450   33.06760   39.04580  181.32810  226.13800   49.27070 2702.06490  223.03640 4833.63720    2.19940    0.06840    0.00120   48.23690    -999.25    -999.25 4645.90190
 3350.00000 -128.53070   58.04520   55.77600   83.02960   32.65680  175.28950  226.54420   38.15060 2711.09330  220.77660 4750.78520    1.57970    0.04010   -0.00070   18.77200    -999.25    -999.25 4742.62700
 3400.00000 -144.49570   13.72690   12.79600   23.52610  156.66300  248.50050  250.32230  155.23080 2644.69020  224.22910 4723.88380  114.85200    0.24330    0.03930   73.18350    -999.25    -999.25 4756.48440
 3450.00000 -122.91230   59.52190   63.31120   89.01150   30.94480  177.06720  216.19230  131.78070 2679.87650  213.21540 4821.08980    7.92400    0.04450    0.01820   16.78400    -999.25    -999.25 4814.41890
