~Version ---------------------------------------------------
VERS.      2.0 : CWLS log ASCII Standard -VERSION 2.0
WRAP.       NO : One line per depth step
CREA. 12/07/17 : LAS Creation Date
~Well ------------------------------------------------------
STRT.FT                                  350.0 : START DEPTH
STOP.FT                                 9450.0 : STOP DEPTH
STEP.FT                               50.00000 : STEP LENGTH
NULL.                                  -999.25 : NULL VALUE
COMP. THE BRITISH AMERICAN OIL COMPANY LIMITED : COMPANY
WELL.              B.A. GOOSE RIVER 4-32-66-18 : WELL
FLD .                                          : FIELD
LOC .                                          : LOCATION
CTRY.                                   CANADA : COUNTRY
SRVC.                             Schlumberger : SERVICE COMPANY
DATE.                              02-Dec-1964 : LOGDATE
PROV.                                  Alberta : PROVINCE
UWI .                         100043206618W500 : UNIQUE WELL ID
SLAT.WGS84                            54.75185 : SURFACE LATITUDE
SLON.WGS84                           -116.6939 : SURFACE LONGITUDE
~Curve Information -----------------------------------------
DEPT  .FT    : Depth Curve
CALSED.IN    : CALIPER FROM SONIC LOG  [ADJ. TO RESISTIVITY LOG]
CALWS .IN    : CALIPER [CALSED]
CILDED.MMHO  : DEEP INDUCTION CONDUCTIVITY FROM RESISTIVITY LOG
CONDWS.MMHO  : CONDUCTIVITY [1000/DRESWS]
DRESWS.OHMM  : DEEP RESISTIVITY [1000/CILDED IF ILDED <1, ILDED]
DT1ED .US/F  : DELTA-T (INTERVAL TRANSIT TIME) (SPAN 1') FROM SONIC LOG  [ADJ. TO RESISTIVITY LOG]
DTED  .US/F  : DELTA-T (INTERVAL TRANSIT TIME) (SPAN 3') FROM SONIC LOG [ADJ. TO RESISTIVITY LOG]
DTWS  .US/F  : COMPRESSIONAL SONIC [DTED]
GRED  .GAPI  : GAMMA RAY FROM CBL LOG
GRNED .GAPI  : GAMMA RAY FROM GRN LOG  [ADJ. TO RESISTIVITY LOG]
GRSED .GAPI  : GAMMA RAY FROM SONIC LOG  [ADJ. TO RESISTIVITY LOG]
GRWS  .GAPI  : GAMMA RAY [GRED SPL. TO GRSED @ 717']
ILDED .OHMM  : DEEP INDUCTION RESISTIVITY FROM RESISTIVITY LOG
NEUTED.NAPI  : NEUTRON  FROM GRN LOG  [ADJ. TO RESISTIVITY LOG]
NEUTWS.NAPI  : NEUTRON [NEUTED]
SNED  .OHMM  : SHORT NORMAL RESISTIVITY FROM RESISTIVITY LOG
SPRED .MV    : SPONTANEOUS POTENTIAL FROM RESISTIVITY LOG
SPWS  .MV    : SPONTANEOUS POTENTIAL [BASELINE 0 MV,SPRED]
SRESWS.OHMM  : SHALLOW RESISTIVITY [SNED]
~Params ----------------------------------------------------
PD  .                     GL : PERMANENT DATUM
EPD .FT                 2485 : ELEVATION PERMANENT DATUM
LMF .                     KB : LOG MEASURED FROM
DAPD.FT                   15 : FEET ABOVE PERMANENT DATUM
EKB .FT                 2500 : KELLY BUSHING
EGL .FT                 2485 : GROUND LEVEL
DATE.               12/02/64 : RUN DATE
RUN .                      1 : RUN NUMBER
DD  .FT                 9461 : DEPTH DRILLER
DL  .FT                 9460 : DEPTH LOGGER
BLI .FT                 9459 : BOTTOM LOG INTERVAL
TLI .FT                  781 : TOP LOG INTERVAL
CBD .FT                  784 : CASING BOTTOM DRILLER
CBL .FT                  781 : CASING BOTTOM LOGGER
BS  .IN                7.625 : BIT SIZE
BSD .FT                 9461 : BIT SIZE AT DEPTH
DFT .               GEL CHEM : DRILLING FLUID TYPE
DFD .                    9.8 : DRILLING FLUID DENSITY
DFV .                     95 : DRILLING FLUID VISCOSITY
DFPH.                    9.5 : DRILLING FLUID PH
DFL .                    7.4 : DRILLING FLUID LOSS
RMS .OHMM               2.38 : RESISTIVITY MUD SAMPLE
MST .DEGF                 64 : MUD SAMPLE TEMPERATURE
RMF .OHMM                2.1 : RESISTIVITY MUD FILTRATE SAMPLE
MFST.DEGF                 66 : MUD FILTRATE SAMPLE TEMPERATURE
RMC .OHMM               2.32 : RESISTIVITY MUD CAKE
MCST.DEGF                 66 : MUD CAKE SAMPLE TEMPERATURE
RMB .OHMM               0.84 : RESISTIVITY MUD AT BHT
TCS .HRS                   6 : TIME CIRCULATED STOPPED
LUN .                   3534 : LOGGING UNIT NUMBER
LUL .                    V V : LOGGING UNIT LOCATION
ENGI.               CHENOSKY : RECORDING ENGINEER
WITN.                  WEISS : WITNESSED BY
CLNT.                A2DTECH : CLIENT CODE
ORIG.            2" 5" PRINT : ORIGIN OF DATA
UWI .       100043206618W500 : UNIQUE WELL ID
DICO. A2D Technologies, Inc. : DIGITIZING COMPANY
~Other -----------------------------------------------------
IEL-BHC-GRN CBL LOG RUN
~ASCII -----------------------------------------------------
# ...
 7750.00000    8.24840    8.24840   49.74900   49.41240   20.24170    -999.25   54.95030   54.95030    -999.25    -999.25   34.78400   34.78400   20.24170    -999.25    -999.25   33.84880  -90.52110  -73.70680   33.84880
 7800.00000    9.00920    9.00920   46.92520   46.38490   21.57440    -999.25   59.21890   59.21890    -999.25    -999.25   60.24840   60.24840   21.57440    -999.25    -999.25   27.73400  -29.99920  -13.34460   27.73400
 7850.00000    8.13990    8.13990    0.82350    1.75830  568.72630    -999.25   50.80730   50.80730    -999.25    -999.25   17.89910   17.89910  568.72630    -999.25    -999.25  215.82510  -49.27530  -32.78150  215.82510
 7900.00000    8.16920    8.16920   82.59470   86.49490   11.56230    -999.25   61.02920   61.02920    -999.25    -999.25   54.45420   54.45420   11.56230    -999.25    -999.25   17.93960  -30.22560  -13.89150   17.93960
 7950.00000    8.94180    8.94180   51.74240   52.55970   19.02600    -999.25   61.83080   61.83080    -999.25    -999.25   45.35310   45.35310   19.02600    -999.25    -999.25   23.48140  -22.11740   -5.94400   23.48140
 8000.00000    8.48740    8.48740   84.36060   79.43800   12.65600    -999.25   51.80410   51.80410    -999.25    -999.25   46.77710   46.77710   12.65600    -999.25    -999.25   18.60000  -30.48100  -14.31290   18.60000
 8050.00000   11.42000   11.42000  197.58270  210.06360    4.76050    -999.25   74.52110   74.52110    -999.25    -999.25   81.12740   81.12740    4.76050    -999.25    -999.25    6.44370  -38.86660  -22.69850    6.44370
 8100.00000   11.11530   11.11530  229.62130  246.68820    4.05370    -999.25   80.79350   80.79350    -999.25    -999.25   92.30510   92.30510    4.05370    -999.25    -999.25    5.33910  -48.64880  -32.48070    5.33910
 8150.00000   10.23900   10.23900  250.64740  272.02520    3.67610    -999.25   84.19750   84.19750    -999.25    -999.25   91.98350   91.98350    3.67610    -999.25    -999.25    4.60690  -54.96910  -38.80100    4.60690
 8200.00000    9.05800    9.05800  184.17440  191.94960    5.20970    -999.25   76.40970   76.40970    -999.25    -999.25   82.98820   82.98820    5.20970    -999.25    -999.25    5.85930  -59.44000  -43.27190    5.85930
 8250.00000    8.31900    8.31900  241.70350  252.68520    3.95750    -999.25   82.68080   82.68080    -999.25    -999.25   92.81600   92.81600    3.95750    -999.25    -999.25    4.24040  -56.84770  -40.67960    4.24040
 8300.00000    8.05130    8.05130  224.00640  245.01620    4.08140    -999.25   81.98270   81.98270    -999.25    -999.25   88.44670   88.44670    4.08140    -999.25    -999.25    4.89880  -44.18250  -28.01440    4.89880
 8350.00000   11.03070   11.03070  246.03830  261.11020    3.82980    -999.25   82.28370   82.28370    -999.25    -999.25   81.00320   81.00320    3.82980    -999.25    -999.25    5.24610  -35.44230  -19.27420    5.24610
 8400.00000    7.99850    7.99850   79.10600   82.65970   12.09780    -999.25   64.76060   64.76060    -999.25    -999.25   70.61130   70.61130   12.09780    -999.25    -999.25   18.99570  -31.65540  -15.48730   18.99570
 8450.00000    8.09920    8.09920   84.86730   87.87580   11.37970    -999.25   65.38530   65.38530    -999.25    -999.25   76.43990   76.43990   11.37970    -999.25    -999.25   17.43660  -32.50190  -16.33380   17.43660
 8500.00000    8.18450    8.18450   89.77600   92.92990   10.76080    -999.25   66.42280   66.42280    -999.25    -999.25   86.96030   86.96030   10.76080    -999.25    -999.25   16.55590  -35.35810  -19.19000   16.55590
 8550.00000    8.36240    8.36240  108.63060  111.39330    8.97730    -999.25   69.65590   69.65590    -999.25    -999.25   84.46660   84.46660    8.97730    -999.25    -999.25   13.95750  -47.28110  -31.11300   13.95750
 8600.00000    8.65090    8.65090  103.38240  105.17790    9.50770    -999.25   68.73490   68.73490    -999.25    -999.25   80.91100   80.91100    9.50770    -999.25    -999.25   15.32600  -51.59610  -35.42800   15.32600
 8650.00000    8.77850    8.77850  119.24920  123.71630    8.08310    -999.25   69.16570   69.16570    -999.25    -999.25   85.27490   85.27490    8.08310    -999.25    -999.25   12.76880  -50.57010  -34.40200   12.76880
 8700.00000    9.79390    9.79390  138.82620  143.97810    6.94550    -999.25   66.90460   66.90460    -999.25    -999.25   99.45030   99.45030    6.94550    -999.25    -999.25   10.54620  -54.09100  -37.92290   10.54620
 8750.00000    9.00110    9.00110  159.37400  160.43000    6.23330    -999.25   78.85390   78.85390    -999.25    -999.25   91.16970   91.16970    6.23330    -999.25    -999.25   10.20520  -40.55230  -24.38420   10.20520
 8800.00000    8.52270    8.52270  119.88660  119.26940    8.38910    -999.25   68.73250   68.73250    -999.25    -999.25   87.52190   87.52190    8.38910    -999.25    -999.25   13.22270  -30.89560  -14.72750   13.22270
 8850.00000    8.17100    8.17100    6.69810    5.86060  170.63240    -999.25   67.66140   67.66140    -999.25    -999.25   83.17670   83.17670  170.63240    -999.25    -999.25  116.08670  -30.48510  -14.31700  116.08670
 8900.00000    7.96610    7.96610   36.40140   35.70410   28.01720    -999.25   58.17840   58.17840    -999.25    -999.25   48.20070   48.20070   28.01720    -999.25    -999.25   42.52050  -22.80140   -6.63330   42.52050
 8950.00000    8.34250    8.34250   24.28770   22.78400   43.89050    -999.25   93.48600   93.48600    -999.25    -999.25  168.91570  168.91570   43.89050    -999.25    -999.25   59.06540  -24.94010   -8.77200   59.06540
 9000.00000    7.85560    7.85560   14.13360    8.56900  123.79060    -999.25   55.99140   55.99140    -999.25   25.20680   35.97510   35.97510  123.79060 1218.60560 1218.60560   86.38770  -28.69460  -12.52650   86.38770
 9050.00000    7.83830    7.83830   32.99470   21.18960   47.29950    -999.25   55.23780   55.23780    -999.25   24.72130   41.69710   41.69710   47.29950 1174.71400 1174.71400   48.10280  -39.11120  -22.94310   48.10280
 9100.00000    7.83630    7.83630   20.50520   18.74010   53.36160    -999.25   55.41480   55.41480    -999.25   26.30570   37.54370   37.54370   53.36160 1243.55790 1243.55790   53.47880  -39.31940  -23.15130   53.47880
 9150.00000    7.97260    7.97260   16.11640   11.21460   91.26340   50.38650   51.27630   51.27630    -999.25   20.37130   33.04340   33.04340   91.26340 1474.11840 1474.11840   71.83200  -37.89180  -21.72370   71.83200
 9200.00000    7.76760    7.76760   24.88860   23.19440   43.11390   55.12560   54.10700   54.10700    -999.25    9.76910   14.32050   14.32050   43.11390 1365.53910 1365.53910  106.03520 -161.36780 -145.19970  106.03520
 9250.00000    7.64390    7.64390   14.52620   12.24760   81.72200   52.55180   51.54870   51.54870    -999.25    9.13460   14.41720   14.41720   81.72200 1790.28670 1790.28670   86.02260 -139.94390 -123.77580   86.02260
 9300.00000    7.64090    7.64090    8.38940    4.69660  219.90890   49.59280   50.54550   50.54550    -999.25   11.58740   12.82670   12.82670  219.90890 1953.88120 1953.88120  124.05580 -156.46120 -140.29310  124.05580
 9350.00000    7.61170    7.61170    2.76640    1.76240  567.42000   51.27500   50.84080   50.84080    -999.25   12.56300   19.19610   19.19610  567.42000 1795.57630 1795.57630  371.12030 -108.33270  -92.16460  371.12030
 9400.00000    7.42910    7.42910   46.40610   44.32490   22.75400   54.54520   57.05540   57.05540    -999.25   39.13340   65.10380   65.10380   22.75400 1364.78870 1364.78870  107.36630  -36.58690  -20.41880  107.36630
 9450.00000    7.24020    7.24020 1796.28520 1796.28520    0.55670    -999.25    -999.25    -999.25    -999.25    -999.25    -999.25    -999.25    0.35750    -999.25    -999.25    4.88800 -182.25490 -166.08680    4.88800
