~Version ---------------------------------------------------
VERS.      2.0 : CWLS log ASCII Standard -VERSION 2.0
WRAP.       NO : One line per depth step
CREA. 10/25/17 : LAS Creation Date
~Well ------------------------------------------------------
STRT.FT                 1200.0 : START DEPTH
STOP.FT                12350.0 : STOP DEPTH
STEP.FT               50.00000 : STEP LENGTH
NULL.                  -999.25 : NULL VALUE
COMP.     CHEVRON STANDARD LTD : COMPANY
WELL. CHEVRON EDSON 7-28-52-17 : WELL
FLD .                          : FIELD
LOC .                          : LOCATION
CTRY.                   CANADA : COUNTRY
SRVC.             Schlumberger : SERVICE COMPANY
DATE.              18-Oct-1968 : LOGDATE
PROV.                  Alberta : PROVINCE
UWI .         100072805217W500 : UNIQUE WELL ID
SLAT.WGS84             53.5164 : SURFACE LATITUDE
SLON.WGS84           -116.4412 : SURFACE LONGITUDE
~Curve Information -----------------------------------------
DEPT    .FT    : Depth Curve
CALDED  .IN    : CALIPER FROM FDC LOG [ADJ.TO RESISTIVITY LOG]
CALNED  .IN    : CALIPER FROM SNP LOG [ADJ.TO RESISTIVITY LOG]
CALSED  .IN    : CALIPER FROM SONIC LOG [ADJ. TO RESISTIVITY LOG]
CALWS   .IN    : CALIPER [CALSED]
CILDED  .MMHO  : DEEP CONDUCTIVITY FROM RESISTIVITY LOG
CONDWS  .MMHO  : CONDUCTIVITY [1000/DRESWS]
DCORED  .G/C3  : DENSITY CORRECTION FROM FDC LOG  [ADJ.TO RESISTIVITY LOG]
DCORWS  .G/C3  : DENSITY CORRECTION [DCORED]
DENWS   .G/C3  : FORMATION BULK DENSITY [RHOBED]
DPHILSED.V/V   : DENSITY POROSITY LIMESTONE [M=2.71, F=1.00] FROM FDC LOG [ADJ. TO RESISTIVITY LOG]
DPOLSWS .V/V   : DENSITY POROSITY LIMESTONE [DPHILSED]
DRESWS  .OHMM  : DEEP RESISTIVITY [ILDED]
DTED    .US/F  : DELTA TIME FROM SONIC LOG [ADJ. TO RESISTIVITY LOG]
DTWS    .US/F  : COMPRESSIONAL SONIC [DTED]
GRDED   .GAPI  : GAMMA RAY FROM SNP-FDC LOG [ADJ. TO RESISTIVITY LOG]
GRNED   .GAPI  : GAMMA RAY FROM SNP LOG  [ADJ. TO RESISTIVITY LOG]
GRSED   .GAPI  : GAMMA RAY FROM SONIC LOG [ADJ. TO RESISTIVITY LOG]
GRWS    .GAPI  : GAMMA RAY [GRSED SPL. TO GRDED @ 12330']
ILDED   .OHMM  : DEEP INDUCTION FROM RESISTIVITY LOG
NPOLSWS .V/V   : NEUTRON POROSITY LIMESONTE [SNPLSED]
RHOBED  .G/C3  : BULK DENSITY FROM FDC LOG [ADJ.TO RESISTIVITY LOG]
SNED    .OHMM  : SHORT NORMAL 16" FROM RESISTIVITY LOG
SNPLSED .V/V   : SIDEWALL NEUTRON POROSITY LIMESONTE FROM SNP LOG [ADJ.TO RESISTIVITY LOG]
SPRED   .MV    : SPONTANEOUS POTENTIAL FROM RESISTIVITY LOG
SPWS    .MV    : SPONTANEOUS POTENTIAL [BASELINE 0 MV, SPRED]
SRESWS  .OHMM  : SHALLOW RESISTIVITY [SNED]
~Params ----------------------------------------------------
PD  .                     GL : PERMANENT DATUM
EPD .FT                 3060 : ELEVATION PERMANENT DATUM
LMF .                     KB : LOG MEASURED FROM
DAPD.FT                   13 : FEET ABOVE PERMANENT DATUM
EKB .FT                 3073 : KELLY BUSHING
EGL .FT                 3060 : GROUND LEVEL
DATE.               10/18/68 : RUN DATE
RUN .                      1 : RUN NUMBER
DD  .FT                12360 : DEPTH DRILLER
DL  .FT                12367 : DEPTH LOGGER
BLI .FT                12366 : BOTTOM LOG INTERVAL
TLI .FT                 1258 : TOP LOG INTERVAL
CBD .FT                 1258 : CASING BOTTOM DRILLER
CBL .FT                 1258 : CASING BOTTOM LOGGER
BS  .IN                 8.75 : BIT SIZE
BSD .FT                12360 : BIT SIZE AT DEPTH
DFT .                    GEL : DRILLING FLUID TYPE
DFD .                    9.8 : DRILLING FLUID DENSITY
DFV .                     69 : DRILLING FLUID VISCOSITY
DFPH.                   10.5 : DRILLING FLUID PH
DFL .                    6.3 : DRILLING FLUID LOSS
RMF .OHMM               0.93 : RESISTIVITY MUD FILTRATE SAMPLE
MFST.DEGF                 63 : MUD FILTRATE SAMPLE TEMPERATURE
RMC .OHMM               1.94 : RESISTIVITY MUD CAKE
MCST.DEGF                 67 : MUD CAKE SAMPLE TEMPERATURE
TCS .HRS                   4 : TIME CIRCULATED STOPPED
LUN .                   7501 : LOGGING UNIT NUMBER
LUL .                    EDM : LOGGING UNIT LOCATION
ENGI.               CHADDOCK : RECORDING ENGINEER
WITN.                HOVDEBO : WITNESSED BY
CLNT.                A2DTECH : CLIENT CODE
ORIG.            2" 5" PRINT : ORIGIN OF DATA
UWI .       100072805217W500 : UNIQUE WELL ID
DICO. A2D Technologies, Inc. : DIGITIZING COMPANY
~Other -----------------------------------------------------
~ASCII -----------------------------------------------------
# ...
 5250.00000    -999.25    -999.25   12.98420   12.90040   90.59220   99.16500    -999.25    -999.25    -999.25    -999.25    -999.25   10.08420   81.68420   81.68420    -999.25    -999.25   59.20660   59.08680   10.08420    -999.25    -999.25   12.32700    -999.25 -149.00320   -2.71090   12.32700
 5300.00000    -999.25    -999.25   13.22370   13.60490   79.52500   87.18150    -999.25    -999.25    -999.25    -999.25    -999.25   11.47120   65.57590   65.57590    -999.25    -999.25   71.68530   68.13930   11.47120    -999.25    -999.25   13.72810    -999.25 -149.12770   -2.88650   13.72810
 5350.00000    -999.25    -999.25   11.81650   12.08570   80.35100   88.01730    -999.25    -999.25    -999.25    -999.25    -999.25   11.36140   78.21330   78.21330    -999.25    -999.25   72.93540   74.26880   11.36140    -999.25    -999.25   13.38760    -999.25 -150.22880   -4.03910   13.38760
 5400.00000    -999.25    -999.25   12.20960   12.20350   82.77640   89.43980    -999.25    -999.25    -999.25    -999.25    -999.25   11.18070   78.81090   78.81090    -999.25    -999.25   73.99470   73.98520   11.18070    -999.25    -999.25   13.39400    -999.25 -150.10860   -3.97010   13.39400
 5450.00000    -999.25    -999.25   11.61860   11.61860   64.71300   69.42370    -999.25    -999.25    -999.25    -999.25    -999.25   14.40430   74.18920   74.18920    -999.25    -999.25   74.25940   74.25940   14.40430    -999.25    -999.25   15.97370    -999.25 -149.50520   -3.41810   15.97370
 5500.00000    -999.25    -999.25   12.18430   12.17020   86.83260   95.45900    -999.25    -999.25    -999.25    -999.25    -999.25   10.47570   80.10420   80.10420    -999.25    -999.25   86.80130   87.04650   10.47570    -999.25    -999.25   12.62820    -999.25 -149.58000   -3.54410   12.62820
 5550.00000    -999.25    -999.25   12.03520   12.02940   98.86120  108.69680    -999.25    -999.25    -999.25    -999.25    -999.25    9.20030   82.48600   82.48600    -999.25    -999.25   78.83190   78.01560    9.20030    -999.25    -999.25   12.34120    -999.25 -148.70640   -2.72160   12.34120
 5600.00000    -999.25    -999.25   11.73050   11.74310   87.92430   96.50740    -999.25    -999.25    -999.25    -999.25    -999.25   10.36190   84.47450   84.47450    -999.25    -999.25   89.58340   89.87130   10.36190    -999.25    -999.25   13.95280    -999.25 -148.59200   -2.65870   13.95280
 5650.00000    -999.25    -999.25   11.15730   11.16020   79.84760   86.00670    -999.25    -999.25    -999.25    -999.25    -999.25   11.62700   89.35100   89.35100    -999.25    -999.25   96.59120   94.56260   11.62700    -999.25    -999.25   15.69440    -999.25 -147.50100   -1.61890   15.69440
 5700.00000    -999.25    -999.25   11.26380   11.26380   94.29060  101.72110    -999.25    -999.25    -999.25    -999.25    -999.25    9.83080   84.50810   84.50810    -999.25    -999.25   79.84450   79.84450    9.83080    -999.25    -999.25   13.35780    -999.25 -148.35630   -2.52560   13.35780
 5750.00000    -999.25    -999.25   12.22600   12.22600  106.40630  114.69860    -999.25    -999.25    -999.25    -999.25    -999.25    8.71850   83.89050   83.89050    -999.25    -999.25   85.09290   85.09290    8.71850    -999.25    -999.25    9.77920    -999.25 -148.18860   -2.40910    9.77920
 5800.00000    -999.25    -999.25   12.80500   12.99640  112.76410  124.15380    -999.25    -999.25    -999.25    -999.25    -999.25    8.05550   82.99130   82.99130    -999.25    -999.25   79.25060   79.91560    8.05550    -999.25    -999.25   10.40230    -999.25 -148.68630   -2.95790   10.40230
 5850.00000    -999.25    -999.25   13.24000   13.62420  128.67230  141.80980    -999.25    -999.25    -999.25    -999.25    -999.25    7.05170   86.53360   86.53360    -999.25    -999.25   82.54100   86.23810    7.05170    -999.25    -999.25    9.26280    -999.25 -149.23230   -3.55540    9.26280
 5900.00000    -999.25    -999.25   12.09190   12.04430  148.62960  160.84150    -999.25    -999.25    -999.25    -999.25    -999.25    6.21730   83.61850   83.61850    -999.25    -999.25   86.58200   85.31650    6.21730    -999.25    -999.25    7.81720    -999.25 -149.70170   -4.07600    7.81720
 5950.00000    -999.25    -999.25   12.14330   11.79560  135.12610  148.24920    -999.25    -999.25    -999.25    -999.25    -999.25    6.74540   78.80510   78.80510    -999.25    -999.25   77.13600   77.29200    6.74540    -999.25    -999.25    8.46150    -999.25 -148.82590   -3.25160    8.46150
 6000.00000    -999.25    -999.25   11.58680   11.34490  127.21010  142.85710    -999.25    -999.25    -999.25    -999.25    -999.25    7.00000   80.36500   80.36500    -999.25    -999.25   74.25570   75.13400    7.00000    -999.25    -999.25    9.00450    -999.25 -149.02150   -3.49840    9.00450
 6050.00000    -999.25    -999.25   11.69190   11.69410  144.35220  162.12840    -999.25    -999.25    -999.25    -999.25    -999.25    6.16800   81.91970   81.91970    -999.25    -999.25   82.21650   78.13610    6.16800    -999.25    -999.25    8.20830    -999.25 -148.12650   -2.65450    8.20830
 6100.00000    -999.25    -999.25   12.36270   12.09610  123.46150  136.39220    -999.25    -999.25    -999.25    -999.25    -999.25    7.33180   78.17150   78.17150    -999.25    -999.25   74.33930   73.59440    7.33180    -999.25    -999.25    9.53840    -999.25 -147.82740   -2.40690    9.53840
 6150.00000    -999.25    -999.25   12.65530   13.11320  131.63810  144.56300    -999.25    -999.25    -999.25    -999.25    -999.25    6.91740   83.15220   83.15220    -999.25    -999.25   86.66920   85.23590    6.91740    -999.25    -999.25    8.68690    -999.25 -148.06320   -2.69380    8.68690
 6200.00000    -999.25    -999.25   13.45930   13.51310  125.60370  137.63110    -999.25    -999.25    -999.25    -999.25    -999.25    7.26580   80.98580   80.98580    -999.25    -999.25   82.68820   80.29420    7.26580    -999.25    -999.25    8.96110    -999.25 -147.02820   -1.71030    8.96110
 6250.00000    -999.25    -999.25   13.47590   13.60740  151.54420  167.41450    -999.25    -999.25    -999.25    -999.25    -999.25    5.97320   81.67380   81.67380    -999.25    -999.25   79.37310   77.40210    5.97320    -999.25    -999.25    7.54170    -999.25 -146.89540   -1.89870    7.54170
 6300.00000    -999.25    -999.25   11.22560   11.40350  140.50080  156.44580    -999.25    -999.25    -999.25    -999.25    -999.25    6.39250   83.10650   83.10650    -999.25    -999.25   72.84940   72.43060    6.39250    -999.25    -999.25    7.50600    -999.25 -146.85400   -2.69760    7.50600
 6350.00000    -999.25    -999.25   11.60530   11.39670  102.62420  114.90160    -999.25    -999.25    -999.25    -999.25    -999.25    8.70310   78.71330   78.71330    -999.25    -999.25   74.21300   74.61220    8.70310    -999.25    -999.25   10.26170    -999.25 -146.50170   -3.19110   10.26170
 6400.00000    -999.25    -999.25    9.84040    9.88950   62.45300   67.79890    -999.25    -999.25    -999.25    -999.25    -999.25   14.74950   75.79020   75.79020    -999.25    -999.25   48.78530   47.83310   14.74950    -999.25    -999.25   13.12240    -999.25 -146.15370   -3.68350   13.12240
 6450.00000    -999.25    -999.25   12.19180   12.19990   77.44530   83.76050    -999.25    -999.25    -999.25    -999.25    -999.25   11.93880   73.09040   73.09040    -999.25    -999.25   73.91960   69.23120   11.93880    -999.25    -999.25   13.80240    -999.25 -145.94340   -4.31900   13.80240
 6500.00000    -999.25    -999.25   12.49620   12.28470  102.95060  111.66320    -999.25    -999.25    -999.25    -999.25    -999.25    8.95550   79.59100   79.59100    -999.25    -999.25   77.21410   79.87240    8.95550    -999.25    -999.25   10.62960    -999.25 -144.83450   -4.05050   10.62960
 6550.00000    -999.25    -999.25   12.54160   12.47050   92.51790  102.28090    -999.25    -999.25    -999.25    -999.25    -999.25    9.77700   78.56000   78.56000    -999.25    -999.25   74.85000   75.88590    9.77700    -999.25    -999.25   11.91660    -999.25 -143.79070   -3.84700   11.91660
