~Version ---------------------------------------------------
VERS.      2.0 : CWLS log ASCII Standard -VERSION 2.0
WRAP.       NO : One line per depth step
CREA. 12/21/17 : LAS Creation Date
~Well ------------------------------------------------------
STRT.FT                 1500.0 : START DEPTH
STOP.FT                10050.0 : STOP DEPTH
STEP.FT               50.00000 : STEP LENGTH
NULL.                  -999.25 : NULL VALUE
COMP.     CHEVRON STANDARD LTD : COMPANY
WELL. CHEVRON PEMBINA 6-3-51-7 : WELL
FLD .                          : FIELD
LOC .                          : LOCATION
CTRY.                   CANADA : COUNTRY
SRVC.             Schlumberger : SERVICE COMPANY
DATE.              05-Jul-1978 : LOGDATE
PROV.                  Alberta : PROVINCE
UWI .         100060305107W500 : UNIQUE WELL ID
SLAT.WGS84            53.37366 : SURFACE LATITUDE
SLON.WGS84           -114.9508 : SURFACE LONGITUDE
~Curve Information -----------------------------------------
DEPT    .FT    : Depth Curve
CALDED  .IN    : CALIPER FROM DENSITY LOG [ADJ.TO RESISTIVITY LOG]
CALSED  .IN    : CALIPER FROM SONIC LOG [ADJ.TO RESISTIVITY LOG]
CALWS   .IN    : CALIPER [CALDED]
CONDWS  .MMHO  : CONDUCTIVITY [1000/DRESWS]
DCORED  .G/C3  : DENSITY CORRECTION FROM DENSITY LOG [ADJ.TO RESISTIVITY LOG]
DCORWS  .G/C3  : DENSITY CORRECTION [DCORED]
DENWS   .G/C3  : FORMATION BULK DENSITY [RHOBED]
DPHILSED.V/V   : DENSITY POROSITY LIMESTONE [M=2.71,F=1.0] FROM DENSITY LOG [RESISTIVITY LOG]
DPHISSED.V/V   : DENSITY POROSITY SANDSTONE [M=2.65,F=1.0] FROM DENSITY LOG [RESISTIVITY LOG]
DPOLSWS .V/V   : DENSITY POROSITY LIMESTONE [CALC FROM DENWS,M=2.71, F=1.00]]
DRESWS  .OHMM  : DEEP RESISTIVITY [ILDED]
DTED    .US/F  : DELTA TIME FROM SONIC LOG [ADJ.TO RESISTIVITY LOG]
DTWS    .US/F  : COMPRESSIONAL SONIC [DTED]
GRDED   .GAPI  : GAMMA RAY FROM DENSITY LOG [ADJ.TO RESISTIVITY LOG]
GRSED   .GAPI  : GAMMA RAY FROM SONIC LOG [ADJ.TO RESISTIVITY LOG]
GRWS    .GAPI  : GAMMA RAY [GRSED SPL.TO GRDED @ 1554.5']
ILDED   .OHMM  : DEEP INDUCTION FROM RESISTIVITY LOG
ILMED   .OHMM  : MEDIUM INDUCTION FROM RESISTIVITY LOG
MRESWS  .OHMM  : MEDIUM RESISTIVITY [ILMED]
NPHILSED.V/V   : NEUTRON POROSITY LIMESTONE FROM DENSITY LOG [RESISTIVITY LOG]
NPHISSED.V/V   : NEUTRON POROSITY SANDSTONE FROM DENSITY LOG [RESISTIVITY LOG]
NPOLSWS .V/V   : NEUTRON POROSITY LIMESTONE [NPHISSED MATRIX SLB CONVERSION FOR LIMESTONE, SPL.TO NPHILSED @ 6010']
RHOBED  .G/C3  : BULK DENSITY FROM DENSITY LOG [ADJ.TO RESISTIVITY LOG]
SFLED   .OHMM  : SPHERICALLY FOCUSED FROM RESISTIVITY LOG
SPRED   .MV    : SPONTANEOUS POTENTIAL FROM RESISTIVITY LOG
SPWS    .MV    : SPONTANEOUS POTENTIAL [BASELINE 0 MV, SPRED]
SRESWS  .OHMM  : SHALLOW RESISTIVITY [SFLED]
~Params ----------------------------------------------------
PD  .                     GL : PERMANENT DATUM
EPD .FT               2688.6 : ELEVATION PERMANENT DATUM
LMF .                     KB : LOG MEASURED FROM
DAPD.FT                 17.4 : FEET ABOVE PERMANENT DATUM
EKB .FT                 2706 : KELLY BUSHING
EGL .FT               2688.6 : GROUND LEVEL
DATE.                0705/78 : RUN DATE
RUN .                      1 : RUN NUMBER
DD  .FT              3066.28 : DEPTH DRILLER
DL  .FT              3065.67 : DEPTH LOGGER
BLI .FT              3064.76 : BOTTOM LOG INTERVAL
TLI .FT               473.96 : TOP LOG INTERVAL
CBD .FT               473.96 : CASING BOTTOM DRILLER
CBL .FT               472.44 : CASING BOTTOM LOGGER
BS  .IN                 8.75 : BIT SIZE
BSD .FT              3066.28 : BIT SIZE AT DEPTH
DFT .                    GEL : DRILLING FLUID TYPE
DFD .                    110 : DRILLING FLUID DENSITY
DFV .                     75 : DRILLING FLUID VISCOSITY
DFPH.                    9.5 : DRILLING FLUID PH
MSS .            CIRCULATION : MUD SAMPLE SOURCE
RMS .OHMM               0.33 : RESISTIVITY MUD SAMPLE
MST .DEGF                 58 : MUD SAMPLE TEMPERATURE
RMF .OHMM               0.14 : RESISTIVITY MUD FILTRATE SAMPLE
MFST.DEGF                 68 : MUD FILTRATE SAMPLE TEMPERATURE
RMC .OHMM               0.15 : RESISTIVITY MUD CAKE
MCST.DEGF                 68 : MUD CAKE SAMPLE TEMPERATURE
TCS .HRS                   8 : TIME CIRCULATED STOPPED
LUN .                   7738 : LOGGING UNIT NUMBER
LUL .                    EDM : LOGGING UNIT LOCATION
ENGI.                ALVAREZ : RECORDING ENGINEER
WITN.                SPRAGUE : WITNESSED BY
CLNT.                A2DTECH : CLIENT CODE
ORIG.            2" 5" PRINT : ORIGIN OF DATA
UWI .       100060305107W500 : UNIQUE WELL ID
DICO. A2D Technologies, Inc. : DIGITIZING COMPANY
~Other -----------------------------------------------------
~ASCII -----------------------------------------------------
# ...
 9300.00000    8.83200    8.34760    8.83200  232.52030   -0.06230   -0.06230    2.63370    0.03870    -999.25    0.04460    4.30070   57.89660   57.89660   81.95660   89.33670   81.95660    4.30070    5.56720    5.56720    0.13280    -999.25    0.13280    2.63370   21.08580  -31.18840   -8.04530   21.08580
 9350.00000    8.80790    8.33280    8.80790   80.47770   -0.04830   -0.04830    2.65540    0.03400    -999.25    0.03190   12.42580   65.94740   65.94740  109.10130  116.49320  109.10130   12.42580   15.17400   15.17400    0.18100    -999.25    0.18100    2.65540   20.94740  -25.58460   -3.94490   20.94740
 9400.00000    8.72070    8.35240    8.72070   67.23730   -0.04340   -0.04340    2.70350    0.00290    -999.25    0.00380   14.87270   61.67740   61.67740  101.32150  106.64480  101.32150   14.87270   17.04110   17.04110    0.19190    -999.25    0.19190    2.70350   18.17400  -18.09010   -2.18940   18.17400
 9450.00000    9.10290    8.76550    9.10290   62.85470   -0.04510   -0.04510    2.69030    0.01600    -999.25    0.01150   15.90970   63.43490   63.43490  129.95050  155.89210  129.95050   15.90970   18.18540   18.18540    0.20550    -999.25    0.20550    2.69030   19.47740  -20.56250  -12.31790   19.47740
 9500.00000    9.24570    8.92980    9.24570   40.71740    0.00090    0.00090    2.36570    0.22210    -999.25    0.20130   24.55950   62.84290   62.84290   95.89370   98.31980   95.89370   24.55950   31.57700   31.57700    0.18110    -999.25    0.18110    2.36570   32.93660   -6.34210   -3.37330   32.93660
 9550.00000    9.07240    8.41770    9.07240   89.45420    0.00240    0.00240    2.67630    0.01610    -999.25    0.01970   11.17890   51.21280   51.21280   35.66460   39.86130   35.66460   11.17890   12.64700   12.64700    0.12320    -999.25    0.12320    2.67630   10.29580  -81.79780  -75.77060   10.29580
 9600.00000    8.59590    8.28640    8.59590   82.90710   -0.06720   -0.06720    2.67340    0.01590    -999.25    0.02140   12.06170   54.98730   54.98730   75.90220   83.82240   75.90220   12.06170   13.67480   13.67480    0.17530    -999.25    0.17530    2.67340   14.85880  -13.64660   -4.54090   14.85880
 9650.00000    8.24450    8.18110    8.24450   76.82730   -0.05220   -0.05220    2.70080    0.00160    -999.25    0.00540   13.01620   53.36360   53.36360   48.81520   52.18570   48.81520   13.01620   14.98890   14.98890    0.13090    -999.25    0.13090    2.70080   14.87450  -35.02420  -26.15700   14.87450
 9700.00000    7.98380    7.61130    7.98380 1257.07100   -0.05470   -0.05470    2.47880    0.13200    -999.25    0.13520    0.79550   60.45680   60.45680   17.70030   19.07070   17.70030    0.79550    1.21560    1.21560    0.21660    -999.25    0.21660    2.47880    8.33580 -130.83380 -122.36680    8.33580
 9750.00000    8.24240    8.16380    8.24240   27.58190   -0.04520   -0.04520    2.58540    0.07010    -999.25    0.07290   36.25570   58.34000   58.34000   97.35460  118.93490   97.35460   36.25570   38.93370   38.93370    0.07120    -999.25    0.07120    2.58540   44.49010  -25.43060  -17.36110   44.49010
 9800.00000    8.77580    8.29970    8.77580   15.39920    0.01350    0.01350    2.61040    0.04640    -999.25    0.05830   64.93840   52.16200   52.16200   53.18180   55.21820   53.18180   64.93840   91.03110   91.03110    0.02590    -999.25    0.02590    2.61040  126.11200  -32.36400  -14.58770  126.11200
 9850.00000    9.28220    8.37270    9.28220  179.33040    0.06660    0.06660    2.29890    0.24480    -999.25    0.24040    5.57630   71.32980   71.32980   95.23310   99.42440   95.23310    5.57630    6.36730    6.36730    0.25160    -999.25    0.25160    2.29890    6.79880  -32.87240   -7.51700    6.79880
 9900.00000    9.32750    8.68020    9.32750   74.21540   -0.00080   -0.00080    2.30240    0.24180    -999.25    0.23840   13.47430   73.37140   73.37140  145.02700  146.62930  145.02700   13.47430   19.26030   19.26030    0.23140    -999.25    0.23140    2.30240   15.26480  -24.25450   -7.13730   15.26480
 9950.00000    8.49110    8.29480    8.49110   78.14390   -0.04040   -0.04040    2.56590    0.08060    -999.25    0.08430   12.79690   65.54200   65.54200  119.73690  127.64050  119.73690   12.79690   17.52160   17.52160    0.17450    -999.25    0.17450    2.56590   16.44480  -20.72270   -8.85760   16.44480
 10000.00000    8.51680    7.84960    8.51680  134.29310    0.00940    0.00940    2.50690    0.11710    -999.25    0.11880    7.44640   72.20390   72.20390  170.81490  159.64900  170.81490    7.44640    7.90820    7.90820    0.16370    -999.25    0.16370    2.50690    9.52670  -34.63860  -10.47430    9.52670
 10050.00000    8.35440    7.82730    8.35440  100.27070    -999.25    -999.25    -999.25    -999.25    -999.25    -999.25    9.97300    -999.25    -999.25    -999.25    -999.25    -999.25    9.97300   11.33310   11.33310    -999.25    -999.25    -999.25    -999.25   14.37170  -58.50100   -8.91620   14.37170
