~Version ---------------------------------------------------
VERS.      2.0 : CWLS log ASCII Standard -VERSION 2.0
WRAP.       NO : One line per depth step
CREA. 08/12/13 : LAS Creation Date
~Well ------------------------------------------------------
STRT.M                            400.0 : START DEPTH
STOP.M                           2750.0 : STOP DEPTH
STEP.M                         50.00000 : STEP LENGTH
NULL.                           -999.25 : NULL VALUE
COMP.                MONT RESOURCES LTD : COMPANY
WELL. LINK ET AL SNIPE LAKE 16-36-69-18 : WELL
FLD .                                   : FIELD
LOC .                                   : LOCATION
CTRY.                            CANADA : COUNTRY
SRVC.                           Unknown : SERVICE COMPANY
DATE.                       27-Jan-1980 : LOGDATE
PROV.                           Alberta : PROVINCE
UWI .                  100163606918W500 : UNIQUE WELL ID
SLAT.WGS84                     55.02242 : SURFACE LATITUDE
SLON.WGS84                    -116.5976 : SURFACE LONGITUDE
~Curve Information -----------------------------------------
DEPT    .M      : Depth Curve
CALDED  .MM     : CALIPER FROM DENSITY LOG [ADJ. TO RESISTIVITY LOG]
CALSED  .MM     : CALIPER FROM SONIC LOG [ADJ. TO RESISTIVITY LOG]
CALWS   .MM     : CALIPER [CALSED]
CONDWS  .MMHO   : CONDUCTIVITY [1000/DRESWS]
DCORED  .KG/M3  : DENSITY CORRECTION FROM DENSITY LOG [ADJ. TO RESISTIVITY LOG]
DCORWS  .KG/M3  : DENSITY CORRECTION [DCORED]
DENWS   .KG/M3  : FORMATION BULK DENSITY [RHOBED]
DPHILSED.V/V    : DENSITY POROSITY LIMESTONE [M=2710,F=1000] FROM DENSITY LOG [ADJ. TO RESISTIVITY LOG]
DPHISSED.V/V    : DENSITY POROSITY SANDSTONE [M=2650,F=1000] FROM DENSITY LOG [ADJ. TO RESISTIVITY LOG]
DPOLSWS .V/V    : DENSITY POROSITY LIMESTONE [CALC FROM DENWS, M=2710,F=1000]
DRESWS  .OHMM   : DEEP RESISTIVITY [ILDED]
DTED    .US/M   : DELTA TIME FROM SONIC LOG [ADJ. TO RESISTIVITY LOG]
DTWS    .US/M   : COMPRESSIONAL  SONIC [DTED]
GRDED   .GAPI   : GAMMA RAY FROM DENSITY LOG [ADJ. TO RESISTIVITY LOG]
GRSED   .GAPI   : GAMMA RAY FROM SONIC LOG [ADJ. TO RESISTIVITY LOG]
GRWS    .GAPI   : GAMMA RAY [GRDED]
ILDED   .OHMM   : DEEP INDUCTION FROM RESISTIVITY LOG
ILMED   .OHMM   : MEDIUM INDUCTION FROM RESISTIVITY LOG
MRESWS  .OHMM   : MEDIUM RESISTIVITY [ILMED]
NPHILSED.V/V    : NEUTRON POROSITY LIMESTONE FROM DENSITY LOG [ADJ. TO RESISTIVITY LOG]
NPHISSED.V/V    : NEUTRON POROSITY SANDSTONE FROM DENSITY LOG [ADJ. TO RESISTIVITY LOG]
NPOLSWS .V/V    : NEUTRON POROSITY LIMESTONE [NPHISSED MATRIX CONVERSION FOR LIMESTONE, SPL. TO NPHILSED @1520M]
RHOBED  .KG/M3  : BULK DENSITY FROM DENSITY LOG [ADJ. TO RESISTIVITY LOG]
SFLED   .OHMM   : SPHERICALLY FOCUSED RESISTIVITY FROM RESISTIVITY LOG
SPRED   .MV     : SPONTANEOUS POTENTIAL FROM RESISTIVITY LOG
SPWS    .MV     : SPONTANEOUS POTENTIAL [BASELINE 0 MV, SPRED]
SRESWS  .OHMM   : SHALLOW RESISTIVITY [SFLED]
~Params ----------------------------------------------------
PD  .                         GL : PERMANENT DATUM
EPD .M                     889.8 : ELEVATION PERMANENT DATUM
LMF .                         KB : LOG MEASURED FROM
DAPD.M                       5.2 : FEET ABOVE PERMANENT DATUM
DMF .                         KB : DRILLING MEASURED FROM
EKB .M                       895 : KELLY BUSHING
EGL .M                     889.8 : GROUND LEVEL
DATE.                   01/27/80 : RUN DATE
RUN .                          1 : RUN NUMBER
DD  .M                      2765 : DEPTH DRILLER
DL  .M                    2766.4 : DEPTH LOGGER
BLI .M                    2765.4 : BOTTOM LOG INTERVAL
TLI .M                     371.1 : TOP LOG INTERVAL
CS  .MM                      244 : CASING SIZE
CBD .M                       370 : CASING BOTTOM DRILLER
CBL .M                     371.1 : CASING BOTTOM LOGGER
BS  .MM                      222 : BIT SIZE
BSD .M                      2765 : BIT SIZE AT DEPTH
DFT .                        GEL : DRILLING FLUID TYPE
DFD .                       1165 : DRILLING FLUID DENSITY
DFV .                         83 : DRILLING FLUID VISCOSITY
DFPH.                        9.5 : DRILLING FLUID PH
DFL .                          7 : DRILLING FLUID LOSS
MSS .                CIRCULATION : MUD SAMPLE SOURCE
RMS .OHMM                   2.22 : RESISTIVITY MUD SAMPLE
MST .DEGC                     16 : MUD SAMPLE TEMPERATURE
RMF .OHMM                   1.86 : RESISTIVITY MUD FILTRATE SAMPLE
MFST.DEGC                     20 : MUD FILTRATE SAMPLE TEMPERATURE
MFSS.                  MUD PRESS : MUD FILTRATE SAMPLE SOURCE
MCSS.                  MUD PRESS : MUD CAKE SAMPLE SOURCE
RMB .OHMM                  0.927 : RESISTIVITY MUD AT BHT
TCS .HRS                    1030 : TIME CIRCULATED STOPPED
TLAB.HRS                    1700 : TIME LOGGER AT BOTTOM
LUN .                       7802 : LOGGING UNIT NUMBER
LUL .                        EDM : LOGGING UNIT LOCATION
ENGI.                 RIVOLLIMER : RECORDING ENGINEER
WITN.                     HOMMEL : WITNESSED BY
CLNT.                    A2DTECH : CLIENT CODE
ORIG. 6.5"/100M 16.5"/100M PRINT : ORIGIN OF DATA
UWI .           100163606918W500 : UNIQUE WELL ID
DICO.     A2D Technologies, Inc. : DIGITIZING COMPANY
~Other -----------------------------------------------------
DIL-SFL-CNL-LDT-BCS LOG RAN
CALS HAVE BEEN VERIFIED FROM SMALL SECTION @1778M-1970M,2350M-2700M.
~ASCII -----------------------------------------------------
  400.00000  231.76290  233.98460  233.98460  329.14230   89.21780   89.21780 1943.44750    -999.25    0.42240    0.44830    3.03820    -999.25    -999.25   53.76710    -999.25   53.76710    3.03820    2.86630    2.86630    -999.25    0.58980    0.55510 1943.44750    2.56570  -43.39220   -2.95340    2.56570
  450.00000  284.74700  250.19670  250.19670  181.89760   66.02700   66.02700 2190.85570    -999.25    0.27690    0.30360    5.49760    -999.25    -999.25   60.51580    -999.25   60.51580    5.49760    5.03310    5.03310    -999.25    0.49420    0.45410 2190.85570    4.44850  -68.56790  -12.38310    4.44850
  500.00000  316.63870  257.99520  257.99520  222.66760   23.37180   23.37180 2196.44480    -999.25    0.27970    0.30030    4.49100    -999.25    -999.25   53.95610    -999.25   53.95610    4.49100    4.18710    4.18710    -999.25    0.42720    0.38490 2196.44480    3.71610  -67.67140  -10.85830    3.71610
  550.00000  234.54200  229.86260  229.86260  218.73220  127.44190  127.44190 2111.44650    -999.25    0.33970    0.35000    4.57180    -999.25    -999.25   54.83530    -999.25   54.83530    4.57180    4.29910    4.29910    -999.25    0.50820    0.46880 2111.44650    3.60850  -63.83020   -6.38880    3.60850
  600.00000  313.13100  279.02590  279.02590  252.38500  117.22400  117.22400 2180.25340    -999.25    0.28730    0.30980    3.96220    -999.25    -999.25   68.07400    -999.25   68.07400    3.96220    3.68700    3.68700    -999.25    0.50320    0.46360 2180.25340    3.52110  -63.53090   -5.67010    3.52110
  650.00000    -999.25  316.77800  316.77800  177.44970    -999.25    -999.25    -999.25    -999.25    -999.25    -999.25    5.63540    -999.25    -999.25    -999.25    -999.25    -999.25    5.63540    5.01720    5.01720    -999.25    -999.25    -999.25    -999.25    5.26850  -69.74540  -12.61320    5.26850
  700.00000    -999.25  267.84270  267.84270  203.03740    -999.25    -999.25    -999.25    -999.25    -999.25    -999.25    4.92520    -999.25    -999.25    -999.25    -999.25    -999.25    4.92520    4.53060    4.53060    -999.25    -999.25    -999.25    -999.25    5.04810  -65.50340   -9.09990    5.04810
  750.00000    -999.25  297.34200  297.34200  153.44250    -999.25    -999.25    -999.25    -999.25    -999.25    -999.25    6.51710    -999.25    -999.25    -999.25    -999.25    -999.25    6.51710    5.83780    5.83780    -999.25    -999.25    -999.25    -999.25    5.59810  -72.11950  -16.44460    5.59810
  800.00000    -999.25  365.16100  365.16100  145.63250    -999.25    -999.25    -999.25    -999.25    -999.25    -999.25    6.86660    -999.25    -999.25    -999.25    -999.25    -999.25    6.86660    6.00720    6.00720    -999.25    -999.25    -999.25    -999.25    5.75220  -71.54780  -16.60150    5.75220
  850.00000    -999.25  249.98410  249.98410  214.19240    -999.25    -999.25    -999.25    -999.25    -999.25    -999.25    4.66870    -999.25    -999.25    -999.25    -999.25    -999.25    4.66870    4.39580    4.39580    -999.25    -999.25    -999.25    -999.25    4.91400  -63.85460   -9.63690    4.91400
  900.00000    -999.25  251.32370  251.32370  161.74420    -999.25    -999.25    -999.25    -999.25    -999.25    -999.25    6.18260    -999.25    -999.25    -999.25    -999.25    -999.25    6.18260    5.91630    5.91630    -999.25    -999.25    -999.25    -999.25    7.11310  -61.70100   -8.21190    7.11310
  950.00000    -999.25  248.65180  248.65180  222.11860    -999.25    -999.25    -999.25    -999.25    -999.25    -999.25    4.50210    -999.25    -999.25    -999.25    -999.25    -999.25    4.50210    4.36210    4.36210    -999.25    -999.25    -999.25    -999.25    4.56580  -57.76480   -5.00440    4.56580
 1000.00000    -999.25  243.16210  243.16210  227.10240    -999.25    -999.25    -999.25    -999.25    -999.25    -999.25    4.40330    -999.25    -999.25    -999.25    -999.25    -999.25    4.40330    4.06380    4.06380    -999.25    -999.25    -999.25    -999.25    4.23770  -58.66060   -6.62880    4.23770
 1050.00000    -999.25  263.03180  263.03180  493.87590    -999.25    -999.25    -999.25    -999.25    -999.25    -999.25    2.02480    -999.25    -999.25    -999.25    -999.25    -999.25    2.02480    1.90620    1.90620    -999.25    -999.25    -999.25    -999.25    2.24160  -52.23930   -0.93610    2.24160
 1100.00000  285.93610  255.09600  255.09600  330.05480   81.70390   81.70390 2404.28910    -999.25    0.14670    0.17880    3.02980    -999.25    -999.25  100.34650    -999.25  100.34650    3.02980    2.92810    2.92810    -999.25    0.41850    0.37600 2404.28910    3.43210  -56.05830   -5.48370    3.43210
 1150.00000  253.20540  245.42430  245.42430  324.85460   34.67040   34.67040 2428.74510    -999.25    0.14690    0.16450    3.07830    -999.25    -999.25   75.29150    -999.25   75.29150    3.07830    3.23270    3.23270    -999.25    0.41920    0.37670 2428.74510    4.00860  -55.29870   -5.33810    4.00860
 1200.00000  236.41930  238.97500  238.97500  294.79390   61.46380   61.46380 2399.52560    -999.25    0.15940    0.18160    3.39220    -999.25    -999.25   48.44650    -999.25   48.44650    3.39220    4.15820    4.15820    -999.25    0.31000    0.26610 2399.52560    7.97370  -91.04550  -37.40380    7.97370
 1250.00000  234.58730  233.75930  233.75930  440.76160    9.81400    9.81400 2238.05880    -999.25    0.25780    0.27600    2.26880    -999.25    -999.25   59.92160    -999.25   59.92160    2.26880    3.36950    3.36950    -999.25    0.41000    0.36730 2238.05880    4.83120 -111.57750  -55.81460    4.83120
 1300.00000  215.78320  214.16040  214.16040  284.59220   59.57090   59.57090 2377.53520    -999.25    0.17470    0.19440    3.51380    -999.25    -999.25   48.36440    -999.25   48.36440    3.51380    6.03990    6.03990    -999.25    0.31130    0.26740 2377.53520   13.96950 -134.21480  -78.94140   13.96950
 1350.00000  223.81990  227.03670  227.03670  328.19170   11.24340   11.24340 2258.39790    -999.25    0.24460    0.26410    3.04700    -999.25    -999.25   65.82990    -999.25   65.82990    3.04700    4.91390    4.91390    -999.25    0.38590    0.34280 2258.39790    9.87770 -120.07150  -65.28760    9.87770
 1400.00000  281.91090  265.85870  265.85870  228.72300    1.44490    1.44490 2513.23730    -999.25    0.09110    0.11510    4.37210    -999.25    -999.25  100.65760    -999.25  100.65760    4.37210    4.65010    4.65010    -999.25    0.34100    0.29730 2513.23730    4.83880  -64.36070  -10.06630    4.83880
 1450.00000  245.78660  252.38490  252.38490  118.76340   -2.13710   -2.13710 2496.46410    -999.25    0.09750    0.12490    8.42010    -999.25    -999.25   79.72490    -999.25   79.72490    8.42010    9.12260    9.12260    -999.25    0.31270    0.26880 2496.46410   12.97930  -78.15740  -24.35250   12.97930
 1500.00000  231.39400  219.82550  219.82550  424.44820   59.21620   59.21620 2383.23510    -999.25    0.16160    0.19110    2.35600    -999.25    -999.25   46.85920    -999.25   46.85920    2.35600    3.46490    3.46490    -999.25    0.27790    0.23390 2383.23510    7.70710 -141.56340  -88.24790    7.70710
 1550.00000  215.27360  215.80070  215.80070  557.72450   60.69180   60.69180 2463.69070    0.16140    0.11710    0.14400    1.79300  254.50760  254.50760   75.57020   77.89020   75.57020    1.79300    2.96460    2.96460    0.21450    0.27490    0.21450 2463.69070   10.93400 -144.83430  -92.00830   10.93400
 1600.00000  220.06370  220.96320  220.96320  296.94740   55.62690   55.62690 2698.86400    0.00920    -999.25    0.00650    3.36760  195.01800  195.01800   31.89170   34.74510   31.89170    3.36760    4.57850    4.57850    0.16700    -999.25    0.16700 2698.86400   18.62310 -163.65590 -111.31940   18.62310
 1650.00000  257.69160  254.49130  254.49130   76.33240  115.70880  115.70880 2592.30980    0.07640    -999.25    0.06880   13.10060  205.27240  205.27240   57.23630   65.86750   57.23630   13.10060   15.17960   15.17960    0.12350    -999.25    0.12350 2592.30980   14.57710  -67.08890  -15.14530   14.57710
