~Version ---------------------------------------------------
VERS.      2.0 : CWLS log ASCII Standard -VERSION 2.0
WRAP.       NO : One line per depth step
CREA. 11/21/17 : LAS Creation Date
~Well ------------------------------------------------------
STRT.FT                          1000.0 : START DEPTH
STOP.FT                         13800.0 : STOP DEPTH
STEP.FT                        50.00000 : STEP LENGTH
NULL.                           -999.25 : NULL VALUE
COMP. HUDSONS BAY OIL & GAS COMPANY LTD : COMPANY
WELL. HB AMOCO FINA BAYBERNE 11-5-57-18 : WELL
FLD .                                   : FIELD
LOC .                                   : LOCATION
CTRY.                            CANADA : COUNTRY
SRVC.                           Unknown : SERVICE COMPANY
DATE.                       13-Aug-1977 : LOGDATE
PROV.                           Alberta : PROVINCE
UWI .                  100110505718W500 : UNIQUE WELL ID
SLAT.WGS84                     53.89911 : SURFACE LATITUDE
SLON.WGS84                    -116.6428 : SURFACE LONGITUDE
~Curve Information -----------------------------------------
DEPT    .FT    : Depth Curve
CALDED  .IN    : CALIPER FROM DENSITY LOG [ADJ. TO RESISTIVITY LOG]
CALSED  .IN    : CALIPER FROM SONIC LOG
CALWS   .IN    : CALIPER [CALSED SPL. TO CALDED @ 5994']
CILDED  .MMHO  : CONDUCTIVITY FROM RESISTIVITY LOG
CONDWS  .MMHO  : CONDUCTIVITY [1000/DRESWS]
DCORWS  .G/C3  : DENSITY CORRECTION [DRHOED]
DENWS   .G/C3  : FORMATION BULK DENSITY [RHOBED]
DPHILSED.V/V   : DENSITY POROSITY LIMESTONE [M=2.71, F=1.00] FROM DENSITY LOG [ADJ. TO RESISTIVITY LOG]
DPHISSED.V/V   : DENSITY POROSITY SANDSTONE [M=2.65, F=1.00] FROM DENSITY LOG [ADJ. TO RESISTIVITY LOG]
DPOLSWS .V/V   : DENSITY POROSITY LIMESTONE [CALC. FROM DENWS, M=2.71, F=1.00]
DRESWS  .OHMM  : DEEP RESISTIVITY [ILDED]
DRHOED  .G/C3  : DENSITY CORRECTION FROM DENSITY LOG [ADJ. TO RESISTIVITY LOG]
DTED    .US/F  : DELTA TIME FROM SONIC LOG
DTWS    .US/F  : COMPRESSIONAL SONIC [DTED]
GRDED   .GAPI  : GAMMA RAY FROM DENSITY LOG [ADJ. TO RESISTIVITY LOG]
GRSED   .GAPI  : GAMMA RAY FROM SONIC LOG
GRWS    .GAPI  : GAMMA RAY [GRSED SPL. TO GRDED @ 13780']
ILDED   .OHMM  : DEEP INDUCTION RESISTIVITY FROM RESISTIVITY LOG
ILMED   .OHMM  : MEDIUM INDUCTION RESISTIVITY FROM RESISTIVITY LOG
LL8ED   .OHMM  : LATEROLOG-8 RESISTIVITY FROM RESISTIVITY LOG
MRESWS  .OHMM  : MEDIUM RESISTIVITY [ILMED]
NPHILSED.V/V   : NEUTRON POROSITY LIMESTONE FROM DENSITY LOG [ADJ. TO RESISTIVITY LOG]
NPHISSED.V/V   : NEUTRON POROSITY SANDSTONE FROM DENSITY LOG [ADJ. TO RESISTIVITY LOG]
NPOLSWS .V/V   : NEUTRON POROSITY LIMESTONE [NPHISSED MATRIX CONVERSION FOR LIMESTONE, SPL. TO NPHILSED @ 8509']
RHOBED  .G/C3  : BULK DENSITY FROM DENSITY LOG [ADJ. TO RESISTIVITY LOG]
SPRED   .MV    : SPONTANEOUS POTENTIAL FROM RESISTIVITY LOG [ADJ. TO RESISTIVITY LOG]
SPWS    .MV    : SPONTANEOUS POTENTIAL [BASELINE 0 MV, SPRED]
SRESWS  .OHMM  : SHALLOW RESISTIVITY [LL8ED]
~Params ----------------------------------------------------
PD  .                     GL : PERMANENT DATUM
EPD .FT               3898.7 : ELEVATION PERMANENT DATUM
LMF .                     KB : LOG MEASURED FROM
DAPD.FT                 20.4 : FEET ABOVE PERMANENT DATUM
DMF .                     KB : DRILLING MEASURED FROM
EKB .FT               3919.1 : KELLY BUSHING
EGL .FT               3898.7 : GROUND LEVEL
DATE.               08/13/77 : RUN DATE
RUN .                      2 : RUN NUMBER
DD  .FT                13825 : DEPTH DRILLER
DL  .FT                13826 : DEPTH LOGGER
BLI .FT                13820 : BOTTOM LOG INTERVAL
TLI .FT                 8771 : TOP LOG INTERVAL
CBD .FT                 8770 : CASING BOTTOM DRILLER
CBL .FT                 8771 : CASING BOTTOM LOGGER
BS  .IN                  8.5 : BIT SIZE
BSD .FT                13825 : BIT SIZE AT DEPTH
DFT .                    GEL : DRILLING FLUID TYPE
DFD .                    8.9 : DRILLING FLUID DENSITY
DFV .                    120 : DRILLING FLUID VISCOSITY
DFPH.                     11 : DRILLING FLUID PH
DFL .                   11.2 : DRILLING FLUID LOSS
MSS .                    MUD : MUD SAMPLE SOURCE
RMS .OHMM               1.38 : RESISTIVITY MUD SAMPLE
MST .DEGF                 62 : MUD SAMPLE TEMPERATURE
RMF .OHMM                1.0 : RESISTIVITY MUD FILTRATE SAMPLE
MFST.DEGF                 62 : MUD FILTRATE SAMPLE TEMPERATURE
RMC .OHMM               1.72 : RESISTIVITY MUD CAKE
MCST.DEGF                 64 : MUD CAKE SAMPLE TEMPERATURE
RMB .OHMM               0.24 : RESISTIVITY MUD AT BHT
TCS .HRS                 3.5 : TIME CIRCULATED STOPPED
LUN .                   7809 : LOGGING UNIT NUMBER
LUL .                    EDM : LOGGING UNIT LOCATION
ENGI.     CROCKFORD DEROCHIE : RECORDING ENGINEER
WITN.       NORTON GILBREATH : WITNESSED BY
CLNT.                A2DTECH : CLIENT CODE
ORIG.            2" 5" PRINT : ORIGIN OF DATA
UWI .       100110505718W500 : UNIQUE WELL ID
DICO. A2D Technologies, Inc. : DIGITIZING COMPANY
~Other -----------------------------------------------------
DIL-FDC-CNL-BHC LOG RUN
ALL RESISTIVITY & SONIC DATA FROM SMALL SECTION @ TOP-5928'
CALS INVALID FROM 4993' TO CASING ON MAIN PASS, THEREFORE THIS SECTION WAS RELOGGED
~ASCII -----------------------------------------------------
# ...
 4750.00000    -999.25   12.56810   12.56810   67.97050   64.13260    -999.25    -999.25    -999.25    -999.25    -999.25   15.59270    -999.25   63.13940   63.13940    -999.25   62.70340   62.70340   15.59270    -999.25   12.76130    -999.25    -999.25    -999.25    -999.25    -999.25 -111.59430  -14.46580   12.76130
 4800.00000    -999.25   15.66450   15.66450  150.02270  148.13740    -999.25    -999.25    -999.25    -999.25    -999.25    6.75150    -999.25   80.38450   80.38450    -999.25   92.61340   92.61340    6.75150    -999.25    5.01370    -999.25    -999.25    -999.25    -999.25    -999.25  -99.59600   -2.41340    5.01370
 4850.00000    -999.25   14.14210   14.14210  150.05710  144.58390    -999.25    -999.25    -999.25    -999.25    -999.25    6.91640    -999.25   75.62020   75.62020    -999.25   74.05020   74.05020    6.91640    -999.25    6.02450    -999.25    -999.25    -999.25    -999.25    -999.25 -105.25730   -8.02020    6.02450
 4900.00000    -999.25   13.86000   13.86000  107.36010  104.44520    -999.25    -999.25    -999.25    -999.25    -999.25    9.57440    -999.25   77.24810   77.24810    -999.25   74.03590   74.03590    9.57440    -999.25    9.17090    -999.25    -999.25    -999.25    -999.25    -999.25 -103.89280   -6.60160    9.17090
 4950.00000    -999.25   14.51950   14.51950   87.93580   81.00970    -999.25    -999.25    -999.25    -999.25    -999.25   12.34420    -999.25   74.95660   74.95660    -999.25   68.58290   68.58290   12.34420    -999.25    9.60310    -999.25    -999.25    -999.25    -999.25    -999.25 -107.99760  -10.65190    9.60310
 5000.00000    -999.25   14.62100   14.62100  184.10590  184.20960    -999.25    -999.25    -999.25    -999.25    -999.25    5.42860    -999.25   82.81740   82.81740    -999.25   84.24860   84.24860    5.42860    -999.25    4.49000    -999.25    -999.25    -999.25    -999.25    -999.25 -108.29460  -10.89480    4.49000
 5050.00000    -999.25   13.78860   13.78860  115.07060  115.09890    -999.25    -999.25    -999.25    -999.25    -999.25    8.70610    -999.25   78.63340   78.63340    -999.25   84.10770   84.10770    8.70610    -999.25    6.71160    -999.25    -999.25    -999.25    -999.25    -999.25 -104.00300   -6.54910    6.71160
 5100.00000    -999.25   13.85730   13.85730  134.08460  129.18730    -999.25    -999.25    -999.25    -999.25    -999.25    7.74070    -999.25   85.04660   85.04660    -999.25   84.31350   84.31350    7.74070    -999.25    5.58870    -999.25    -999.25    -999.25    -999.25    -999.25 -100.53990   -3.03150    5.58870
 5150.00000    -999.25   13.63300   13.63300  111.63160  110.46430    -999.25    -999.25    -999.25    -999.25    -999.25    9.05270    -999.25   79.53930   79.53930    -999.25   83.06180   83.06180    9.05270    -999.25    6.85830    -999.25    -999.25    -999.25    -999.25    -999.25  -99.86130   -2.29880    6.85830
 5200.00000    -999.25   13.84550   13.84550  224.32390  224.65850    -999.25    -999.25    -999.25    -999.25    -999.25    4.45120    -999.25   84.59920   84.59920    -999.25   99.21850   99.21850    4.45120    -999.25    5.55290    -999.25    -999.25    -999.25    -999.25    -999.25 -109.83730  -12.22040    5.55290
 5250.00000    -999.25   13.19400   13.19400   61.41900   56.90740    -999.25    -999.25    -999.25    -999.25    -999.25   17.57240    -999.25   72.46770   72.46770    -999.25   61.52550   61.52550   17.57240    -999.25   15.62010    -999.25    -999.25    -999.25    -999.25    -999.25 -120.67980  -23.00880   15.62010
 5300.00000    -999.25   13.26730   13.26730  104.28580  100.31600    -999.25    -999.25    -999.25    -999.25    -999.25    9.97200    -999.25   75.67370   75.67370    -999.25   89.56990   89.56990    9.97200    -999.25    9.44590    -999.25    -999.25    -999.25    -999.25    -999.25 -102.66540   -4.94030    9.44590
 5350.00000    -999.25   13.25550   13.25550   90.52470   84.27230    -999.25    -999.25    -999.25    -999.25    -999.25   11.86630    -999.25   73.99170   73.99170    -999.25   85.42900   85.42900   11.86630    -999.25    9.02940    -999.25    -999.25    -999.25    -999.25    -999.25 -105.17930   -7.38970    9.02940
 5400.00000    -999.25   13.34790   13.34790  146.11620  142.07570    -999.25    -999.25    -999.25    -999.25    -999.25    7.03850    -999.25   83.55590   83.55590    -999.25   97.33820   97.33820    7.03850    -999.25    6.00680    -999.25    -999.25    -999.25    -999.25    -999.25 -101.18110   -3.32110    6.00680
 5450.00000    -999.25   13.55390   13.55390  123.18920  117.80510    -999.25    -999.25    -999.25    -999.25    -999.25    8.48860    -999.25   81.27070   81.27070    -999.25  139.50300  139.50300    8.48860    -999.25    5.71830    -999.25    -999.25    -999.25    -999.25    -999.25 -103.12390   -5.19310    5.71830
 5500.00000    -999.25   13.29980   13.29980  119.25200  114.61840    -999.25    -999.25    -999.25    -999.25    -999.25    8.72460    -999.25   80.07070   80.07070    -999.25  132.48900  132.48900    8.72460    -999.25    6.14410    -999.25    -999.25    -999.25    -999.25    -999.25 -103.15830   -5.15710    6.14410
 5550.00000    -999.25   13.03370   13.03370  112.59520  107.44830    -999.25    -999.25    -999.25    -999.25    -999.25    9.30680    -999.25   77.32570   77.32570    -999.25  130.71990  130.71990    9.30680    -999.25    8.83210    -999.25    -999.25    -999.25    -999.25    -999.25 -102.55990   -4.48830    8.83210
 5600.00000    -999.25   13.20440   13.20440  131.20030  127.80530    -999.25    -999.25    -999.25    -999.25    -999.25    7.82440    -999.25   79.58410   79.58410    -999.25  131.02770  131.02770    7.82440    -999.25    8.30840    -999.25    -999.25    -999.25    -999.25    -999.25 -102.20150   -4.05900    8.30840
 5650.00000    -999.25   12.93760   12.93760  115.26500  109.51340    -999.25    -999.25    -999.25    -999.25    -999.25    9.13130    -999.25   85.37990   85.37990    -999.25  145.83310  145.83310    9.13130    -999.25   10.45960    -999.25    -999.25    -999.25    -999.25    -999.25 -101.67230   -3.45940   10.45960
 5700.00000    -999.25   12.90550   12.90550   84.86020   79.29270    -999.25    -999.25    -999.25    -999.25    -999.25   12.61150    -999.25   76.14070   76.14070    -999.25  138.29700  138.29700   12.61150    -999.25   16.57700    -999.25    -999.25    -999.25    -999.25    -999.25 -102.43000   -4.14620   16.57700
 5750.00000    -999.25   13.16330   13.16330  108.28820  101.34180    -999.25    -999.25    -999.25    -999.25    -999.25    9.86760    -999.25   79.14280   79.14280    -999.25  131.63880  131.63880    9.86760    -999.25   11.62880    -999.25    -999.25    -999.25    -999.25    -999.25 -102.53780   -4.18360   11.62880
 5800.00000    -999.25   12.79520   12.79520  127.14270  123.00690    -999.25    -999.25    -999.25    -999.25    -999.25    8.12970    -999.25   83.79920   83.79920    -999.25  140.47490  140.47490    8.12970    -999.25    9.03790    -999.25    -999.25    -999.25    -999.25    -999.25 -102.82350   -4.39890    9.03790
 5850.00000    -999.25   13.04890   13.04890  149.82000  143.15980    -999.25    -999.25    -999.25    -999.25    -999.25    6.98520    -999.25   83.25300   83.25300    -999.25  132.25080  132.25080    6.98520    -999.25    6.86060    -999.25    -999.25    -999.25    -999.25    -999.25 -103.78060   -5.28520    6.86060
 5900.00000    -999.25   12.77210   12.77210  127.64750  124.55780    -999.25    -999.25    -999.25    -999.25    -999.25    8.02840    -999.25   81.48480   81.48480    -999.25  143.12380  143.12380    8.02840    -999.25    6.70290    -999.25    -999.25    -999.25    -999.25    -999.25 -103.76940   -5.20360    6.70290
 5950.00000    -999.25   13.58550   13.58550    -999.25  166.68060    -999.25    -999.25    -999.25    -999.25    -999.25    5.99950    -999.25   79.40820   79.40820    -999.25  132.82320  132.82320    5.99950    8.00190    8.46500    8.00190    -999.25    -999.25    -999.25    -999.25 -103.67420   -5.03750    8.46500
