~Version ---------------------------------------------------
VERS. 2.0 : CWLS log ASCII Standard -VERSION 2.0
WRAP.  NO : ONE LINE PER DEPTH STEP
~Well ------------------------------------------------------
STRT.F                     1250.0 : START DEPTH
STOP.F                     9750.0 : STOP DEPTH
STEP.F                   50.00000 : STEP LENGTH
NULL.                     -999.25 : NULL VALUE
COMP.  PHILLIPS PETROLEUM COMPANY : COMPANY
WELL. PHILLIPS KAYBOB 10-34-64-19 : WELL
FLD .                             : FIELD
LOC .                             : LOCATION
CTRY.                      CANADA : COUNTRY
SRVC.                       Welex : SERVICE COMPANY
DATE.                 14-Dec-1960 : LOGDATE
PROV.                     Alberta : PROVINCE
UWI .            100103406419W500 : UNIQUE WELL ID
SLAT.WGS84               54.58335 : SURFACE LATITUDE
SLON.WGS84               -116.782 : SURFACE LONGITUDE
~Curve Information -----------------------------------------
DEPT.F    0   1   0  0 : 1 MEASURED DEPTH
GRN .CPS  35 310 30 00 : GAMMA RAY FROM GRN LOG
NEUT.CPS  35 330 30 00 : NEUTRON
MCAL.IN   15 280 01 00 : MLT (MICROLOG) CALIPER
LAT9.OHMM 01 070 09 00 : LATERAL 9'
LT16.OHMM 01 070 16 00 : LATERAL 16'
SN  .OHMM 01 040 18 00 : SHORT NORMAL RESISTIVITY
SPR .MV   01 010 01 00 : SPONTANEOUS POTENTIAL FROM RESISTIVITY LOG
~Params ----------------------------------------------------
PD  .                             SCF : PERMANENT DATUM
LMF .                              KB : LOG MEASURED FROM
DAPD.FT                         14.41 : FEET ABOVE PERMANENT DATUM
DMF .                              KB : DRILLING MEASURED FROM
EKB .FT                          2452 : KELLY BUSHING
EGL .FT                          2437 : GROUND LEVEL
DATE.                        12/14/60 : RUN DATE
RUN .                               1 : RUN NUMBER
DD  .FT                          9756 : DEPTH DRILLER
DL  .FT                          9757 : DEPTH LOGGER
BLI .FT                          9756 : BOTTOM LOG INTERVAL
TLI .FT                          1245 : TOP LOG INTERVAL
CS  .IN                         9.625 : CASING SIZE
CBD .FT                          1253 : CASING BOTTOM DRILLER
CBL .FT                          1245 : CASING BOTTOM LOGGER
BS  .IN                         7.875 : BIT SIZE
BSD .FT                          9756 : BIT SIZE AT DEPTH
DFT . OIL EMULSION GEL CAUSTIC TANNEX : DRILLING FLUID TYPE
DFD .                            10.5 : DRILLING FLUID DENSITY
DFV .                             115 : DRILLING FLUID VISCOSITY
DFPH.                             9.5 : DRILLING FLUID PH
DFL .                             5.3 : DRILLING FLUID LOSS
MSS .                      CIRCULATED : MUD SAMPLE SOURCE
RMS .OHMM                        2.73 : RESISTIVITY MUD SAMPLE
MST .DEGF                          72 : MUD SAMPLE TEMPERATURE
RMF .OHMM                        1.07 : RESISTIVITY MUD FILTRATE SAMPLE
MFST.DEGF                         195 : MUD FILTRATE SAMPLE TEMPERATURE
RMC .OHMM                        1.14 : RESISTIVITY MUD CAKE
MCST.DEGF                         195 : MUD CAKE SAMPLE TEMPERATURE
RMB .OHMM                        1.09 : RESISTIVITY MUD AT BHT
ENGI.                          DOWHAN : RECORDING ENGINEER
WITN.                        WILLIAMS : WITNESSED BY
CLNT.                         A2DTECH : CLIENT CODE
ORIG.                     2" 5" PRINT : ORIGIN OF DATA
UWI .                100103406419W500 : UNIQUE WELL ID
DICO.          A2D Technologies, Inc. : DIGITIZING COMPANY
~Other -----------------------------------------------------
~ASCII -----------------------------------------------------
# ...
 5750.00000   54.62300  527.79990    8.84880  422.28370  859.75920  397.11400  -62.32680
 5800.00000   87.88070  431.64820    9.90780   13.98620   16.14750   22.29740  -71.36710
 5850.00000   62.90460  405.27710   10.01100    7.01210    7.12790   27.92760  -84.70540
 5900.00000   75.23360  413.08270   10.59870   22.77970   21.72810   33.92390  -55.28070
 5950.00000   62.53900  420.43440    9.32840   17.92390   32.68360   34.72560  -76.13040
 6000.00000   35.70500  515.64430    8.78960  158.24190   88.48440  115.64290 -146.03720
 6050.00000   42.79010  590.19700    9.55340  201.55490  105.73860   99.38830 -114.63830
 6100.00000   40.30440  520.44820   10.54910  119.62840   40.85070   57.43940 -104.52290
 6150.00000   56.95370  571.95640    9.09300   85.50500  160.21510  121.26380  -54.06090
 6200.00000   52.89720  462.22860    8.84420  134.66080  157.25740  125.08850  -49.31950
 6250.00000   49.95140  633.26820    9.12600   76.62260   24.67040   51.16010 -121.81600
 6300.00000   41.61160  516.56020    9.48460   73.84280   15.59830   46.95790  -88.73660
 6350.00000   72.02420  399.66250    9.72190   19.49400    7.15670   21.02180  -82.97840
 6400.00000   28.14310  693.09960    9.18650  242.89960  266.23940  258.58520 -144.33570
 6450.00000   30.55760  686.63580    9.50780  192.64460  200.00140  143.67050 -160.99210
 6500.00000   27.20030  699.54640    9.01090  233.28890  286.06300  146.74310 -146.47330
 6550.00000   88.84290  415.00190    8.91500    8.61030   13.22580   12.20340  -74.45260
 6600.00000   63.78360  389.71510    9.64550    2.90960    4.46650    8.46590  -88.50960
 6650.00000   53.54510  425.76460    9.23800   16.37680   12.14380   29.16890  -73.80970
 6700.00000   50.61700  537.55630    9.76890   48.57640   32.37960   50.29390  -49.55560
 6750.00000   33.16270  715.74440   10.00380  414.04330  345.28540  165.43000  -69.02860
 6800.00000   45.18470  651.47660    8.55300  219.15500  211.24530  140.63580 -137.99090
 6850.00000   33.74020  588.56500   10.56880  206.64320  249.69250  155.98680 -142.61430
 6900.00000   31.56890  546.79970    8.87110   21.16080   16.06030   69.20840 -108.22280
 6950.00000   38.46270  652.22720    8.67710  145.36700   76.47750  139.82360  -53.11160
 7000.00000   44.75250  676.72990    8.60370  182.26030  187.10490  156.74180  -57.04050
 7050.00000   65.37130  568.31390    8.67730   85.59770  136.95770  106.90230  -55.65280
 7100.00000   56.21550  586.11210    8.41520   91.61370   89.04850   81.50550  -61.98730
 7150.00000   66.34260  510.26500   11.16270  141.26300  134.69610  203.97130  -87.82750
 7200.00000  199.89880  705.41080    8.62870  170.54630   37.42550  408.07890  -82.17060
 7250.00000   31.35460  738.80900    9.27240  477.28270  993.99710  260.07890 -131.66240
 7300.00000   29.38200  794.77030    9.75630  452.92900  830.88640  339.39940 -109.87070
 7350.00000   29.29290  783.96830    9.21620  376.27640  640.64250  321.92460 -125.09290
 7400.00000   25.62480  740.70220    9.89720  462.07520  871.22740  270.28080 -130.76010
 7450.00000   29.76780  770.28150    9.25020  456.32840  808.60470  337.35870 -140.29400
 7500.00000   25.00690  751.67180    9.87700  223.54170  312.17220  344.31200 -155.57170
 7550.00000   25.57670  747.51720    8.60570  226.64960  459.68930  191.20890 -170.71820
 7600.00000   24.46150  801.17680    9.75070  199.05060  272.67890  282.46590 -167.97320
 7650.00000   26.85150  765.22030    9.43820  311.38480  656.26680  234.04680 -160.30210
 7700.00000   26.02990  721.30200   10.19120  494.04460 1229.37550  494.92100 -144.36120
 7750.00000   27.09860  753.16160    9.47910  895.89610 2287.90280  316.07660 -155.99860
 7800.00000   25.59650  755.05260    9.19060  291.23120  478.15470  151.59220 -205.62600
 7850.00000   24.42650  811.19170    9.24770  366.36570  408.96620  298.69820 -181.28290
 7900.00000   31.47660  733.39120    7.79860  548.91940  676.80330  155.09660 -214.86070
 7950.00000   36.75760  554.92740    8.20500  245.58320  379.02830  153.68090 -175.41250
 8000.00000   33.00890  618.52670    8.87760  272.33210  162.46310  152.15520 -161.88660
 8050.00000   27.60430  399.81840    9.65460  148.82290  157.12660   36.61460 -135.16900
 8100.00000   39.10210  554.19750    8.68750  486.98280  761.97480  364.23630  -67.64670
 8150.00000   34.96070  497.71320    8.91630  459.76520  857.73010  171.43670  -66.69430
 8200.00000   51.00660  378.19310   11.06180   76.30240   58.42640   40.45540  -84.56630
 8250.00000   44.51400  583.84380    8.96000  348.09610  243.03990  181.39790  -93.92730
 8300.00000   50.64710  566.25810    8.32850   51.64690   57.59290   52.20120  -85.57850
 8350.00000   56.44500  558.59310    8.42640   18.65200   18.79180   41.03570  -84.60960
 8400.00000   54.68990  544.70540    8.29600   43.08960   34.39420   56.85030  -79.02920
 8450.00000   51.11870  542.11990    8.19060   41.14950   47.39190   73.60690  -75.92690
 8500.00000   75.22320  367.80560    9.80440   13.14830   17.53130   25.95270  -79.34500
 8550.00000   81.38860  303.22520   10.74990    7.68250   10.31830   13.82550  -78.13500
 8600.00000   78.48390  273.30820   11.32170    3.79630    5.03930    9.37150  -81.32150
 8650.00000   78.25550  290.50580   11.92270    5.34370    5.97600   10.57450  -85.65570
 8700.00000   76.91870  278.61700   12.59470    4.76710    5.16340    9.22870  -93.78800
 8750.00000   71.23360  265.46970   12.76960    4.91170    5.65090    9.26670  -87.43770
 8800.00000   77.23680  295.87670    9.15490    5.02200    5.55080   18.05900  -87.43610
 8850.00000   73.94670  436.43000    8.95160   12.19360   13.96560   21.57700  -83.83310
 8900.00000   85.44400  386.01160    9.04580   10.49610   10.45110   19.69820  -85.99040
 8950.00000   87.22870  392.39510    8.65720    9.57580    9.75350   21.24440  -85.01600
 9000.00000   82.43710  388.87190    8.62000   12.15460   12.77810   25.36360  -88.39090
 9050.00000   99.73490  319.80260    9.33750    6.92460    7.58910   16.86440  -88.51910
 9100.00000  103.20290  336.43410    8.67600    6.63030    7.89460   17.48620  -86.37170
 9150.00000   70.93770  361.97260    9.07350   11.00100   11.49270   14.53240  -87.00030
 9200.00000  106.02310  386.29740    7.84530   14.27260   14.82610  209.61090  -80.00460
 9250.00000   98.02750  443.24500    7.96990  381.65070  510.59290  305.26460  -69.07570
 9300.00000   52.12490  569.43900    7.96810  214.11120  130.58880  141.10840  -69.22880
 9350.00000  151.77740  324.58470    7.97640   57.16200   56.65860  120.45110  -68.39300
 9400.00000   88.66360  469.02630    7.94060   64.62320   20.80790   52.79300  -73.01220
 9450.00000   59.68800  502.12820    7.93910   72.23300   50.74320   58.93320  -81.10370
 9500.00000   75.07370  455.82760    7.80320   34.03400   62.05860  179.06540 -136.27450
 9550.00000   26.98630  583.50950    7.48820  250.72970  201.24250  137.81100 -250.19440
 9600.00000   25.55530  591.33440    7.47320  367.00810  480.14650  197.82430 -250.50890
 9650.00000   24.48900  622.69590    7.62190  201.62940  172.80590  137.88410 -247.87790
 9700.00000   29.18240  808.09840    7.76200  648.51630 1613.86570 1266.43620 -187.96880
 9750.00000   29.35030  816.55490    7.76700  214.56300  418.90520 1097.59860 -177.85010
