~Version ---------------------------------------------------
VERS.      2.0 : CWLS log ASCII Standard -VERSION 2.0
WRAP.       NO : One line per depth step
CREA. 01/05/18 : LAS Creation Date
~Well ------------------------------------------------------
STRT.FT                              1700.0 : START DEPTH
STOP.FT                             14300.0 : STOP DEPTH
STEP.FT                            50.00000 : STEP LENGTH
NULL.                               -999.25 : NULL VALUE
COMP. CANADA CITIES SERVICE PETROLEUM CORP. : COMPANY
WELL.                 CS BRAZ R 11-22-43-13 : WELL
FLD .                                    WC : FIELD
LOC .                                       : LOCATION
CTRY.                                CANADA : COUNTRY
SRVC.                Schlumberger of Canada : SERVICE COMPANY
DATE.                           10-Oct-1970 : LOGDATE
PROV.                               Alberta : PROVINCE
UWI .                      100112204313W500 : UNIQUE WELL ID
SLAT.WGS84                         52.72078 : SURFACE LATITUDE
SLON.WGS84                        -115.8058 : SURFACE LONGITUDE
~Curve Information -----------------------------------------
DEPT    .FT       : Depth Curve
CALDED  .IN       : CALIPER FROM DENSITY LOG [ADJ. TO RESISTIVITY LOG]
CALNED  .IN       : CALIPER FROM SNP LOG [ADJ. TO RESISTIVITY LOG]
CALSED  .IN       : CALIPER FROM SONIC LOG
CALWS   .IN       : CALIPER [CALSED SPL. TO CALDED @ 10242']
CILDED  .MMHO     : CONDUCTIVITY FROM IEL LOG
CONDWS  .MMHO     : CONDUCTIVITY [1000/DRESWS]
DCORWS  .G/C3     : DENSITY CORRECTION [DRHOED]
DENWS   .G/C3     : FORMATION BULK DENSITY [RHOBED]
DPHIDMED.V/V      : DENSITY POROSITY DOLOMITE [M=2.87 F=1.00] FROM DENSITY LOG [ADJ. TO RESISTIVITY LOG]
DPHILSED.V/V      : DENSITY POROSITY LIMESTONE [M=2.71 F=1.00] FROM DENSITY LOG [ADJ. TO RESISTIVITY LOG]
DPHISSED.V/V      : DENSITY POROSITY SANDSTONE [M=2.65 F=1.00] FROM DENSITY LOG [ADJ. TO RESISTIVITY LOG]
DPOLSWS .V/V      : DENSITY POROSITY LIMESTONE [CALC. FROM DENWS, M=2.71 F=1.00]
DRESWS  .OHMM     : DEEP RESISTIVITY [1000/CILDED, IF ILDED< 2.5, ILDED SPL. TO ILDED @ 11263']
DRHOED  .G/C3     : DENSITY CORRECTIONFROM DENSITY LOG [ADJ. TO RESISTIVITY LOG]
DTED    .US/F     : DELTA TIME FROM SONIC LOG
DTWS    .US/F     : COMPRESSIONAL SONIC [DTED]
GRDED   .CU       : GAMMA RAY (GRD SPL @ 10670'-11252' TO GRD_1) FROM DENSITY LOG [ADJ. TO RESISTIVITY LOG]
GRN1ED  .GAPI     : GAMMA RAY FROM SNP LOG [ADJ. TO RESISTIVITY LOG]
GRNED   .Unknown  : GAMMA RAY FROM GRN LOG
GRSED   .GAPI     : GAMMA RAY (GRS SPL @10670'-10750' TO GRS_1) FROM SONIC LOG
GRWS    .GAPI     : GAMMA RAY [GRSED SPL @ 14288' TO GRDED]
ILDED   .OHMM     : DEEP INDUCTION LOG FROM DIL LOG
ILMED   .OHMM     : MEDIUM INDUCTION LOG FROM DIL LOG
LL8ED   .OHMM     : LATEROLOG 8 RESISTIVITY FROM DIL LOG
MRESWS  .OHMM     : MEDIUM RESISTIVITY [ILMED]
NEUTED  .NAPI     : NEUTRON FROM GRN LOG [ADJ. TO RESISTIVITY LOG]
NEUTWS  .NAPI     : NEUTRON [NEUTED]
NPOLSWS .V/V      : NEUTRON POROSITY LIMESTONE [SNPLSED]
RHOBED  .G/C3     : BULK DENSITYFROM DENSITY LOG [ADJ. TO RESISTIVITY LOG]
SNED    .OHMM     : SHORT NORMAL FROM IEL LOG
SNPLSED .V/V      : SIDEWALL NEUTRON POROSITY LIMESTONE FROM SNP LOG [ADJ. TO RESISTIVITY LOG]
SPHILSED.V/V      : SONIC POROSITY LIMESTONE [DTM=47.6, DTF=189] FROM SNP LOG
SPOLSWS .V/V      : SONIC POROSITY LIMESTONE [SPHILSED]
SPRED   .MV       : SPONTANEOUS POTENTIAL FROM IEL LOG <11250'> FROM DIL LOG
SPWS    .MV       : SPONTANEOUS POTENTIAL [BASELINE 0 MV, SPRED]
SRESWS  .OHMM     : SHALLOW RESISTIVITY [SNED SPL. TO LL8ED @ 12244']
~Params ----------------------------------------------------
PD  .                     GL : PERMANENT DATUM
EPD .FT                 3657 : ELEVATION PERMANENT DATUM
LMF .                     KB : LOG MEASURED FROM
DAPD.FT                 14.5 : FEET ABOVE PERMANENT DATUM
EKB .FT               3671.5 : KELLY BUSHING
EGL .FT                 3657 : GROUND LEVEL
DATE.               10/10/70 : RUN DATE
RUN .                      1 : RUN NUMBER
DD  .FT                14316 : DEPTH DRILLER
DL  .FT                14316 : DEPTH LOGGER
BLI .FT                14312 : BOTTOM LOG INTERVAL
TLI .FT                11258 : TOP LOG INTERVAL
CBD .FT                11258 : CASING BOTTOM DRILLER
CBL .FT                11258 : CASING BOTTOM LOGGER
BS  .IN                    6 : BIT SIZE
BSD .FT                14316 : BIT SIZE AT DEPTH
DFT .               GEL CHEM : DRILLING FLUID TYPE
DFD .                    9.2 : DRILLING FLUID DENSITY
DFV .                     51 : DRILLING FLUID VISCOSITY
DFPH.                   10.5 : DRILLING FLUID PH
DFL .                    8.8 : DRILLING FLUID LOSS
MSS .               FLOWLINE : MUD SAMPLE SOURCE
RMS .OHMM               1.22 : RESISTIVITY MUD SAMPLE
MST .DEGF                 98 : MUD SAMPLE TEMPERATURE
RMF .OHMM               1.23 : RESISTIVITY MUD FILTRATE SAMPLE
MFST.DEGF                 79 : MUD FILTRATE SAMPLE TEMPERATURE
RMB .OHMM                0.3 : RESISTIVITY MUD AT BHT
TCS .HRS                 3.5 : TIME CIRCULATED STOPPED
LUN .                   7004 : LOGGING UNIT NUMBER
LUL .                     RD : LOGGING UNIT LOCATION
ENGI.                  PERRY : RECORDING ENGINEER
WITN.       SHIER MENEGHETTI : WITNESSED BY
CLNT.                A2DTECH : CLIENT CODE
ORIG.            2" 5" PRINT : ORIGIN OF DATA
UWI .       100112204313W500 : UNIQUE WELL ID
DICO. A2D Technologies, Inc. : DIGITIZING COMPANY
~Other -----------------------------------------------------
~ASCII -----------------------------------------------------
# ...
 9700.00000   11.90280    -999.25    9.57570    9.57570  152.51400  158.80780    0.24630    2.40830    -999.25    -999.25    0.13910    0.17640    6.30630    0.24630   75.20020   75.20020   43.95360    -999.25    -999.25   44.73420   44.73420    6.30630    -999.25    -999.25    -999.25    -999.25    -999.25    -999.25    2.40830    8.37920    -999.25    -999.25    -999.25  -89.26830   -9.72080    8.37920
 9750.00000    -999.25    -999.25    9.54930    9.54930  119.92320  126.96960    -999.25    -999.25    -999.25    -999.25    -999.25    -999.25    7.87590    -999.25   78.20920   78.20920    -999.25    -999.25    -999.25   49.91930   49.91930    7.87590    -999.25    -999.25    -999.25    -999.25    -999.25    -999.25    -999.25   10.23360    -999.25    -999.25    -999.25  -87.44390   -8.44000   10.23360
 9800.00000    -999.25    -999.25   11.59570   11.59570  128.40290  128.31700    -999.25    -999.25    -999.25    -999.25    -999.25    -999.25    7.79320    -999.25  100.03210  100.03210    -999.25    -999.25    -999.25   50.47970   50.47970    7.79320    -999.25    -999.25    -999.25    -999.25    -999.25    -999.25    -999.25    7.94380    -999.25    -999.25    -999.25  -85.50590   -7.04840    7.94380
 9850.00000    -999.25    -999.25   10.02800   10.02800  147.03530  153.31310    -999.25    -999.25    -999.25    -999.25    -999.25    -999.25    6.52260    -999.25   82.36980   82.36980    -999.25    -999.25    -999.25   55.34200   55.34200    6.52260    -999.25    -999.25    -999.25    -999.25    -999.25    -999.25    -999.25    8.31940    -999.25    -999.25    -999.25  -83.51910   -5.60800    8.31940
 9900.00000    -999.25    -999.25    9.49860    9.49860   70.52360   73.25520    -999.25    -999.25    -999.25    -999.25    -999.25    -999.25   13.65090    -999.25   71.96080   71.96080    -999.25    -999.25    -999.25   37.19940   37.19940   13.65090    -999.25    -999.25    -999.25    -999.25    -999.25    -999.25    -999.25   16.07250    -999.25    -999.25    -999.25  -86.12130   -8.75660   16.07250
 9950.00000    -999.25    -999.25    9.54000    9.54000   61.44060   63.22630    -999.25    -999.25    -999.25    -999.25    -999.25    -999.25   15.83550    -999.25   69.40850   69.40850    -999.25    -999.25    -999.25   29.47510   29.47510   15.83550    -999.25    -999.25    -999.25    -999.25    -999.25    -999.25    -999.25   14.72110    -999.25    -999.25    -999.25  -85.66420   -8.84870   14.72110
 10000.00000    -999.25    -999.25    9.59760    9.59760  107.25890  111.75560    -999.25    -999.25    -999.25    -999.25    -999.25    -999.25    8.94810    -999.25   75.52460   75.52460    -999.25    -999.25   37.91650   44.81350   44.81350    8.94810    -999.25    -999.25    -999.25  786.70070  786.70070    -999.25    -999.25   11.39000    -999.25    -999.25    -999.25  -82.79570   -6.52380   11.39000
 10050.00000    -999.25    -999.25    9.63950    9.63950  104.86040  109.16910    -999.25    -999.25    -999.25    -999.25    -999.25    -999.25    9.16010    -999.25   73.24840   73.24840    -999.25    -999.25   33.11420   38.14430   38.14430    9.16010    -999.25    -999.25    -999.25  808.70650  808.70650    -999.25    -999.25   11.95130    -999.25    -999.25    -999.25  -85.00100   -9.27550   11.95130
 10100.00000    -999.25    -999.25   10.36210   10.36210  218.96810  222.80650    -999.25    -999.25    -999.25    -999.25    -999.25    -999.25    4.48820    -999.25   96.09350   96.09350    -999.25    -999.25   46.55890   58.50590   58.50590    4.48820    -999.25    -999.25    -999.25  718.00290  718.00290    -999.25    -999.25    7.20920    -999.25    -999.25    -999.25  -80.03240   -4.85330    7.20920
 10150.00000    -999.25    -999.25    9.81750    9.81750  101.46720  107.17080    -999.25    -999.25    -999.25    -999.25    -999.25    -999.25    9.33090    -999.25   72.57450   72.57450    -999.25    -999.25   44.07740   44.32270   44.32270    9.33090    -999.25    -999.25    -999.25  725.79950  725.79950    -999.25    -999.25   11.78000    -999.25    -999.25    -999.25  -80.96570   -6.33300   11.78000
 10200.00000    9.72370    -999.25    9.43850    9.43850   95.31620   99.27990    0.00140    2.61770    -999.25    -999.25    0.01090    0.05400   10.07550    0.00140   70.88840   70.88840   42.86880    -999.25   39.81320   43.81760   43.81760   10.07550    -999.25    -999.25    -999.25  765.49240  765.49240    -999.25    2.61770   12.89450    -999.25    -999.25    -999.25  -81.15310   -7.06960   12.89450
 10250.00000    9.52270    -999.25    9.41710    9.41710  115.86220  121.41960    0.00670    2.63670    -999.25    -999.25    0.00380    0.04290    8.23590    0.00670   74.04700   74.04700   49.43990    -999.25   47.73070   46.32210   46.32210    8.23590    -999.25    -999.25    -999.25  710.72130  710.72130    -999.25    2.63670   11.12870    -999.25    -999.25    -999.25  -79.17390   -5.63400   11.12870
 10300.00000    9.55660    -999.25    9.24590    9.24590   79.20680   80.32390    0.02470    2.68480    -999.25    -999.25   -0.02830    0.01470   12.44960    0.02470   56.06300   56.06300   22.30360    -999.25   21.16980   27.13320   27.13320   12.44960    -999.25    -999.25    -999.25  893.34990  893.34990    -999.25    2.68480   18.39150    -999.25    -999.25    -999.25  -77.50220   -4.50870   18.39150
 10350.00000    9.46610    -999.25    9.07020    9.07020   58.59290   57.22560    0.00960    2.66750    -999.25    -999.25   -0.02040    0.02490   17.47470    0.00960   63.90480   63.90480   39.81620    -999.25   44.83920   41.69150   41.69150   17.47470    -999.25    -999.25    -999.25  722.79410  722.79410    -999.25    2.66750   20.95030    -999.25    -999.25    -999.25  -77.98810   -5.54100   20.95030
 10400.00000    9.39880    -999.25    9.26920    9.26920   76.41840   80.24460    0.02080    2.70670    -999.25    -999.25   -0.04370    0.00190   12.46190    0.02080   71.35040   71.35040   58.77180    -999.25   44.57920   52.77560   52.77560   12.46190    -999.25    -999.25    -999.25  728.36290  728.36290    -999.25    2.70670   16.22280    -999.25    -999.25    -999.25  -78.92660   -7.02590   16.22280
 10450.00000    9.25070    -999.25    9.07820    9.07820   41.12320   44.11300    0.03160    2.71880    -999.25    -999.25   -0.05160   -0.00510   22.68270    0.03160   65.66820   65.66820   48.28170    -999.25   49.50920   50.61410   50.61410   22.68270    -999.25    -999.25    -999.25  693.41010  693.41010    -999.25    2.71880   27.40840    -999.25    -999.25    -999.25  -77.66440   -6.31290   27.40840
 10500.00000   11.11290    -999.25    9.64630    9.64630   40.45410   44.22550    0.20020    2.33820    -999.25    -999.25    0.17820    0.21740   22.61140    0.20020   68.64510   68.64510   31.47450    -999.25   29.67240   33.67550   33.67550   22.61140    -999.25    -999.25    -999.25  834.18420  834.18420    -999.25    2.33820   25.99100    -999.25    -999.25    -999.25  -76.54800   -5.74010   25.99100
 10550.00000   10.41930    -999.25    9.44470    9.44470  116.06430  120.91610    0.22970    2.42770    0.14440    -999.25    0.13940    0.16510    8.27020    0.22970   78.92880   78.92880   61.19380    -999.25   87.75390   58.74910   58.74910    8.27020    -999.25    -999.25    -999.25  419.39280  419.39280    -999.25    2.42770   11.77450    -999.25    -999.25    -999.25  -74.08380   -3.82230   11.77450
 10600.00000   11.46980    -999.25    9.25480    9.25480   21.23600   21.02940    0.21520    2.34790    0.14360    -999.25    0.18080    0.21180   47.55240    0.21520   67.63100   67.63100   15.45330    -999.25   57.92490   17.00000   17.00000   47.55240    -999.25    -999.25    -999.25  631.91220  631.91220    -999.25    2.34790   42.10530    -999.25    -999.25    -999.25  -76.43170   -6.71660   42.10530
 10650.00000    9.38560    -999.25    9.03090    9.03090   90.53370   92.48040    0.03430    2.63350    0.12170    -999.25    0.01010    0.04470   10.81310    0.03430   64.10870   64.10870   23.58940    -999.25   67.62980   29.51830   29.51830   10.81310    -999.25    -999.25    -999.25  550.59910  550.59910    -999.25    2.63350   14.07760    -999.25    -999.25    -999.25  -86.14640  -17.09710   14.07760
