~Version ---------------------------------------------------
VERS.      2.0 : CWLS log ASCII Standard -VERSION 2.0
WRAP.       NO : One line per depth step
CREA. 08/29/13 : LAS Creation Date
~Well ------------------------------------------------------
STRT.M                            300.0 : START DEPTH
STOP.M                           3900.0 : STOP DEPTH
STEP.M                         50.00000 : STEP LENGTH
NULL.                           -999.25 : NULL VALUE
COMP.  CHEVRON CANADA RESOURCES LIMITED : COMPANY
WELL. CHEVRON SHELL SIMONETTE 2-3-64-26 : WELL
FLD .                                   : FIELD
LOC .                                   : LOCATION
CTRY.                            CANADA : COUNTRY
SRVC.                      Schlumberger : SERVICE COMPANY
DATE.                       03-Oct-1995 : LOGDATE
PROV.                           Alberta : PROVINCE
UWI .                  100163406326W500 : UNIQUE WELL ID
SLAT.WGS84                     54.49935 : SURFACE LATITUDE
SLON.WGS84                    -117.8368 : SURFACE LONGITUDE
~Curve Information -----------------------------------------
DEPT    .M      : DEPTH METER
CAL2ED  .MM     : CALIPER 2 FROM DENSITY LOG [ADJ. TO RESISTIVITY LOG]
CALDED  .MM     : CALIPER FROM DENSITY LOG [ADJ. TO RESISTIVITY LOG]
CALWS   .MM     : CALIPER [CALDED]
CONDWS  .MMHO   : CONDUCTIVITY [1000/DRESWS]
DCORWS  .KG/M3  : DENSITY CORRECTION [DRHOED]
DENWS   .KG/M3  : FORMATION BULK DENSITY [CALC FROM DPOLSWS, M=2710,F=1000]
DPHILSED.V/V    : DENSITY POROSITY LIMESTONE [M=2710,F=1000] FROM DENSITY LOG [ADJ. TO RESISTIVITY LOG]
DPHISSED.V/V    : DENSITY POROSITY SANDSTONE [M=2650,F=1000] FROM DENSITY LOG [ADJ. TO RESISTIVITY LOG]
DPOLSWS .V/V    : DENSITY POROSITY LIMESTONE [DPHISSED CONVERTED TO LIMESTONE MATRIX, M=2710,F=1000, SPL TO DPHILSED @ 2366.7M]
DRESWS  .OHMM   : DEEP RESISTIVITY [IDPHED]
DRHOED  .KG/M3  : DENSITY CORRECTION FROM DENSITY LOG [ADJ. TO RESISTIVITY LOG]
DTED    .US/M   : DELTA TIME FROM SONIC LOG
DTWS    .US/M   : COMPRESSIONAL  SONIC [DTED]
GRDED   .GAPI   : GAMMA RAY FROM DENSITY LOG [ADJ. TO RESISTIVITY LOG]
GRSED   .GAPI   : GAMMA RAY FROM SONIC LOG
GRWS    .GAPI   : GAMMA RAY [GRSED SPL TO GRDED @3890M]
HDED    .MM     : HOLE DIAMETER FROM SONIC LOG
IDPHED  .OHMM   : DEEP INDUCTION PHASE RESISTIVITY FROM RESISTIVITY LOG
IMPHED  .OHMM   : MEDIUM INDUCTION PHASE RESISTIVITY FROM RESISTIVITY LOG
MRESWS  .OHMM   : MEDIUM RESISTIVITY [IMPHED]
NPOLSWS .V/V    : NEUTRON POROSITY LIMESTONE [NPORSSED MATRIX CONVERSION FOR LIMESTONE, SPL. TO NPORLSED @2366.7M]
NPORLSED.V/V    : NEUTRON POROSITY LIMESTONE FROM DENSITY LOG [ADJ. TO RESISTIVITY LOG]
NPORSSED.V/V    : NEUTRON POROSITY SANDSTONE FROM DENSITY LOG [ADJ. TO RESISTIVITY LOG]
PEFED   .B/E    : PHOTOELECTRIC FACTOR FROM DENSITY LOG [ADJ. TO RESISTIVITY LOG]
PEFWS   .B/E    : PHOTOLELECTRIC FACTOR [PEFED]
RHOBED  .KG/M3  : BULK DENSITY FROM DENSITY LOG [ADJ. TO RESISTIVITY LOG]
SFLUED  .OHMM   : SPHERICALLY FOCUSED RESISTIVITY FROM RESISTIVITY LOG
SPRED   .MV     : SPONTANEOUS POTENTIAL FROM RESISTIVITY LOG
SPWS    .MV     : SPONTANEOUS POTENTIAL [BASELINE 0 MV, SPRED]
SRESWS  .OHMM   : SHALLOW RESISTIVITY [SFLUED]
TENDED  .N      : TENSION FROM DENSITY LOG [ADJ. TO RESISTIVITY LOG]
TENRED  .N      : TENSION FROM RESISTIVITY LOG
~Params ----------------------------------------------------
PD  .                         GL : PERMANENT DATUM
EPD .M                    814.11 : ELEVATION PERMANENT DATUM
LMF .                         KB : LOG MEASURED FROM
DAPD.M                       6.9 : FEET ABOVE PERMANENT DATUM
DMF .                         KB : DRILLING MEASURED FROM
EKB .M                    920.96 : KELLY BUSHING
EDF .M                    920.66 : DRILLING FLOOR
EGL .M                    914.11 : GROUND LEVEL
DATE.                   10/03/95 : RUN DATE
RUN .                          1 : RUN NUMBER
DD  .M                      3912 : DEPTH DRILLER
DL  .M                      3914 : DEPTH LOGGER
BLI .M                    3912.1 : BOTTOM LOG INTERVAL
TLI .M                     457.5 : TOP LOG INTERVAL
CS  .MM                    244.5 : CASING SIZE
CBD .M                     457.5 : CASING BOTTOM DRILLER
CBL .M                     457.5 : CASING BOTTOM LOGGER
BS  .MM                      222 : BIT SIZE
BSD .M                      3912 : BIT SIZE AT DEPTH
DFT .                GEL POLYMER : DRILLING FLUID TYPE
DFD .                       1190 : DRILLING FLUID DENSITY
DFV .                         73 : DRILLING FLUID VISCOSITY
DFPH.                       10.5 : DRILLING FLUID PH
DFL .                          6 : DRILLING FLUID LOSS
MSS .                   FLOWLINE : MUD SAMPLE SOURCE
RMS .OHMM                   1.54 : RESISTIVITY MUD SAMPLE
MST .DEGC                     13 : MUD SAMPLE TEMPERATURE
RMF .OHMM                   1.83 : RESISTIVITY MUD FILTRATE SAMPLE
MFST.DEGC                     16 : MUD FILTRATE SAMPLE TEMPERATURE
RMC .OHMM                   2.08 : RESISTIVITY MUD CAKE
MCST.DEGC                     16 : MUD CAKE SAMPLE TEMPERATURE
MFSS.                   MEASURED : MUD FILTRATE SAMPLE SOURCE
MCSS.                   MEASURED : MUD CAKE SAMPLE SOURCE
RMB .OHMM                  0.487 : RESISTIVITY MUD AT BHT
TLAB.HRS                    1200 : TIME LOGGER AT BOTTOM
LUN .                       8381 : LOGGING UNIT NUMBER
LUL .              GRANDE PRAIRE : LOGGING UNIT LOCATION
ENGI.                     FENSKY : RECORDING ENGINEER
WITN.                       LANG : WITNESSED BY
CLNT.                    A2DTECH : CLIENT CODE
ORIG. 6.5"/100M 16.5"/100M PRINT : ORIGIN OF DATA
UWI .           100163406326W500 : UNIQUE WELL ID
DICO.     A2D Technologies, Inc. : DIGITIZING COMPANY
~Other -----------------------------------------------------
PI-SFL-BCS LOG RAN IN COMBO & CNL-LDT LOG RAN
RHOB FROM SMALL SCALE SECTION
NEUTRON MATRIX CONVERSION USING SCHLUMBERGER CHART
~ASCII -----------------------------------------------------
  300.00000    -999.25    -999.25    -999.25    -999.25    -999.25    -999.25    -999.25    -999.25    -999.25    -999.25    -999.25    -999.25    -999.25    -999.25   40.49240   40.49240    -999.25    -999.25    -999.25    -999.25    -999.25    -999.25    -999.25    -999.25    -999.25    -999.25    -999.25    -999.25    -999.25    -999.25    -999.25    -999.25
  350.00000    -999.25    -999.25    -999.25    -999.25    -999.25    -999.25    -999.25    -999.25    -999.25    -999.25    -999.25    -999.25    -999.25    -999.25   53.04180   53.04180    -999.25    -999.25    -999.25    -999.25    -999.25    -999.25    -999.25    -999.25    -999.25    -999.25    -999.25    -999.25    -999.25    -999.25    -999.25    -999.25
  400.00000    -999.25    -999.25    -999.25    -999.25    -999.25    -999.25    -999.25    -999.25    -999.25    -999.25    -999.25    -999.25    -999.25    -999.25   57.06890   57.06890    -999.25    -999.25    -999.25    -999.25    -999.25    -999.25    -999.25    -999.25    -999.25    -999.25    -999.25    -999.25    -999.25    -999.25    -999.25    -999.25
  450.00000    -999.25    -999.25    -999.25    -999.25    -999.25    -999.25    -999.25    -999.25    -999.25    -999.25    -999.25    -999.25    -999.25   40.65780   43.19720   43.19720    -999.25    -999.25    -999.25    -999.25    -999.25    -999.25    -999.25    -999.25    -999.25    -999.25    -999.25    -999.25    -999.25    -999.25    -999.25    -999.25
  500.00000  223.03290  240.83310  240.83310  214.12820    -999.25    -999.25    -999.25    -999.25    -999.25    4.67010    -999.25  351.21800  351.21800   84.17630   87.29160   87.29160  248.55700    4.67010    4.04940    4.04940    -999.25    -999.25    -999.25    -999.25    -999.25    -999.25    3.97450  -17.21830   -6.58050    3.97450 8639.19630 7317.80220
  550.00000  231.31710  357.67820  357.67820  191.50850    -999.25    -999.25    -999.25    -999.25    -999.25    5.22170    -999.25  411.42690  411.42690   74.83100   69.02960   69.02960  248.42860    5.22170    3.85580    3.85580    -999.25    -999.25    -999.25    -999.25    -999.25    -999.25    5.13920  -19.39650   -8.31720    5.13920 9154.68650 7624.44290
  600.00000  240.25430  277.55020  277.55020  204.83410    -999.25    -999.25    -999.25    -999.25    -999.25    4.88200    -999.25  312.86930  312.86930   79.79110   70.73160   70.73160  246.50740    4.88200    4.48400    4.48400    -999.25    -999.25    -999.25    -999.25    -999.25    -999.25    4.53940  -13.58780   -8.19970    4.53940 9048.00200 7686.05570
  650.00000  226.61510  239.77840  239.77840   99.86820    -999.25    -999.25    -999.25    -999.25    -999.25   10.01320    -999.25  302.91640  302.91640   63.71390   52.53760   52.53760  230.15720   10.01320    9.64990    9.64990    -999.25    -999.25    -999.25    -999.25    -999.25    -999.25   10.35970   -9.39120   -4.04590   10.35970 9517.28910 7873.11870
  700.00000  229.49670  258.85540  258.85540   91.54830    -999.25    -999.25    -999.25    -999.25    -999.25   10.92320    -999.25  293.07120  293.07120   67.58800   63.50840   63.50840  240.50660   10.92320    9.66830    9.66830    -999.25    -999.25    -999.25    -999.25    -999.25    -999.25    9.09240  -18.67900  -19.03360    9.09240 9342.18950 7704.75930
  750.00000  226.35770  256.88660  256.88660  153.23560    -999.25    -999.25    -999.25    -999.25    -999.25    6.52590    -999.25  303.58550  303.58550   89.39480   90.74550   90.74550  230.86590    6.52590    6.04740    6.04740    -999.25    -999.25    -999.25    -999.25    -999.25    -999.25    6.11000    7.65310   -6.67320    6.11000 10142.14260 7903.92140
  800.00000  240.59720  246.70510  246.70510  183.82020    -999.25    -999.25    -999.25    -999.25    -999.25    5.44010    -999.25  332.91660  332.91660   76.12210   75.91240   75.91240  239.76250    5.44010    5.12460    5.12460    -999.25    -999.25    -999.25    -999.25    -999.25    -999.25    5.06000    6.57040   -8.89740    5.06000 10603.54690 8197.60940
  850.00000  277.22100  286.66440  286.66440  108.64490    -999.25    -999.25    -999.25    -999.25    -999.25    9.20430    -999.25  275.40930  275.40930   75.38510   70.20210   70.20210  254.98360    9.20430    8.31160    8.31160    -999.25    -999.25    -999.25    -999.25    -999.25    -999.25    7.38150    8.39110   -6.29350    7.38150 10232.94430 8295.25780
  900.00000  227.18920  252.03940  252.03940  215.11850    -999.25    -999.25    -999.25    -999.25    -999.25    4.64860    -999.25  327.00320  327.00320   77.97040   76.82370   76.82370  235.24890    4.64860    4.40460    4.40460    -999.25    -999.25    -999.25    -999.25    -999.25    -999.25    4.56730    2.93960   -9.19950    4.56730 10799.61910 8492.29000
  950.00000  317.77910  223.11840  223.11840  196.86590    -999.25    -999.25    -999.25    -999.25    -999.25    5.07960    -999.25  314.00640  314.00640   76.98740   74.56950   74.56950  233.29310    5.07960    4.66410    4.66410    -999.25    -999.25    -999.25    -999.25    -999.25    -999.25    4.39140    3.11320   -4.06910    4.39140 10840.34770 9209.09860
 1000.00000  254.32880  256.28420  256.28420  142.20710    -999.25    -999.25    -999.25    -999.25    -999.25    7.03200    -999.25  279.88860  279.88860   47.87530   51.40840   51.40840  277.02250    7.03200    6.35560    6.35560    -999.25    -999.25    -999.25    -999.25    -999.25    -999.25    6.08180   -5.29830   -6.40580    6.08180 10766.90040 9272.50100
 1050.00000  234.28200  255.76950  255.76950  154.12830    -999.25    -999.25    -999.25    -999.25    -999.25    6.48810    -999.25  275.84230  275.84230   64.11600   59.79270   59.79270  234.90410    6.48810    6.01260    6.01260    -999.25    -999.25    -999.25    -999.25    -999.25    -999.25    5.89340    6.06950   -2.89950    5.89340 11151.64840 9490.52340
 1100.00000  248.35870  271.39090  271.39090  188.94310    -999.25    -999.25    -999.25    -999.25    -999.25    5.29260    -999.25  311.46450  311.46450   62.52230   63.21350   63.21350  233.51810    5.29260    4.92650    4.92650    -999.25    -999.25    -999.25    -999.25    -999.25    -999.25    4.90620    5.77700   -4.00740    4.90620 11553.99220 9508.13380
 1150.00000  254.94480  318.55700  318.55700  152.15610    -999.25    -999.25    -999.25    -999.25    -999.25    6.57220    -999.25  363.23700  363.23700   64.87430   59.18770   59.18770  249.88040    6.57220    4.60020    4.60020    -999.25    -999.25    -999.25    -999.25    -999.25    -999.25    4.19600    6.14660   -4.45310    4.19600 11416.46880 9817.86430
 1200.00000  242.23410  288.51670  288.51670  108.03920    -999.25    -999.25    -999.25    -999.25    -999.25    9.25590    -999.25  276.29090  276.29090   68.32900   65.77590   65.77590  256.37450    9.25590    9.09790    9.09790    -999.25    -999.25    -999.25    -999.25    -999.25    -999.25    8.83980    0.82770   -8.10670    8.83980 11446.46000 9837.83790
 1250.00000  276.09030  284.18400  284.18400   98.08630    -999.25    -999.25    -999.25    -999.25    -999.25   10.19510    -999.25  279.56960  279.56960  100.55820   88.56210   88.56210  267.50520   10.19510    9.41430    9.41430    -999.25    -999.25    -999.25    -999.25    -999.25    -999.25    9.22280   -8.77160  -15.92110    9.22280 11874.50680 9947.88480
 1300.00000  290.60020  367.59780  367.59780   77.72120    -999.25    -999.25    -999.25    -999.25    -999.25   12.86650    -999.25  278.20720  278.20720   84.38460   78.70130   78.70130  305.28450   12.86650   11.21730   11.21730    -999.25    -999.25    -999.25    -999.25    -999.25    -999.25   12.01760   -6.27920  -11.64380   12.01760 12076.79490 10555.51660
 1350.00000  240.72900  306.37340  306.37340  106.82050    -999.25    -999.25    -999.25    -999.25    -999.25    9.36150    -999.25  282.99080  282.99080   91.06570   88.45330   88.45330  292.99740    9.36150    8.10260    8.10260    -999.25    -999.25    -999.25    -999.25    -999.25    -999.25    8.38210    0.33120   -3.24850    8.38210 12474.45510 10643.08590
