~Version ---------------------------------------------------
VERS.      2.0 : CWLS log ASCII Standard -VERSION 2.0
WRAP.       NO : One line per depth step
CREA. 09/02/13 : LAS Creation Date
~Well ------------------------------------------------------
STRT.M                         300.0 : START DEPTH
STOP.M                        2900.0 : STOP DEPTH
STEP.M                      50.00000 : STEP LENGTH
NULL.                        -999.25 : NULL VALUE
COMP.            LYLETON CORPORATION : COMPANY
WELL. LYLETON ET AL VIRGHILLS 16-9-6 : WELL
FLD .                                : FIELD
LOC .                                : LOCATION
CTRY.                         CANADA : COUNTRY
SRVC.                        Unknown : SERVICE COMPANY
DATE.                    19-Oct-1984 : LOGDATE
PROV.                        Alberta : PROVINCE
UWI .               100160906613W500 : UNIQUE WELL ID
SLAT.WGS84                  54.70177 : SURFACE LATITUDE
SLON.WGS84                 -115.8965 : SURFACE LONGITUDE
~Curve Information -----------------------------------------
DEPT   .M      : DEPTH METER
CALWS  .MM     : CALIPER [CALXSED SPL. TO CALXDED @ 2920.8 M]
CALXDED.MM     : CALIPER X FROM DENSITY LOG [ADJ. TO RESISTIVITY LOG]
CALXSED.MM     : CALIPER S FROM SONIC LOG
CALYDED.MM     : CALIPER Y FROM DENSITY LOG [ADJ. TO RESISTIVITY LOG]
CDLLSED.V/V    : DENSITY POROSITY LIMESTONE [M=2710, F=1000] FROM DENSITY LOG [ADJ. TO RESISTIVITY LOG]
CDLSSED.V/V    : DENSITY POROSITY SANDSTONE [M=2650, F=1000] FROM DENSITY LOG [ADJ. TO RESISTIVITY LOG]
CNSLSED.V/V    : NEUTRON POROSITY LIMESTONE FROM DENSITY LOG [ADJ. TO RESISTIVITY LOG]
CNSSSED.V/V    : NEUTRON POROSITY SANDSTONE FROM DENSITY LOG [ADJ. TO RESISTIVITY LOG]
CONDWS .MMHO   : CONDUCTIVITY [1000/DRESWS]
DCORWS .KG/M3  : DENSITY CORRECTION [DRHOED]
DENWS  .KG/M3  : FORMATION BULK DENSITY [CALC FROM DPOLSWS, M=2710, F=1000]
DPOLSWS.V/V    : DENSITY POROSITY LIMESTONE [CNSSED CONVERTED TO LIMESTONE MATRIX , SPL TO CNSLSED @ 2299.7 M]
DRESWS .OHMM   : DEEP RESISTIVITY [RILDED]
DRHOED .KG/M3  : DENSITY CORRECTION FROM DENSITY LOG [ADJ. TO RESISTIVITY LOG]
DTED   .US/M   : DELTA -T FROM SONIC LOG
DTWS   .US/M   : COMPRESSIONAL SONIC [DTED]
GRDED  .GAPI   : GAMMA RAY FROM DENSITY LOG [ADJ. TO RESISTIVITY LOG]
GRSED  .GAPI   : GAMMA RAY FROM SONIC LOG
GRWS   .GAPI   : GAMMA RAY [GRSED SPL. TO GRDED @ 2923 M]
MRESWS .OHMM   : MEDIUM RESISTIVITY [RILMED]
NPOLSWS.V/V    : NEUTRON POROSITY LIMESTONE [CNSSSED MATRIX CONVERSION FOR LIMESTONE, SPL. TO CNSLSED @ 2299.6 M]
RHOBED .KG/M3  : BULK DENSITY FROM DENSITY LOG [ADJ. TO RESISTIVITY LOG]
RILDED .OHMM   : DEEP RESISTIVITY FROM RESISTIVITY LOG
RILMED .OHMM   : MEDIUM RESISTIVITY FROM RESISTIVITY LOG
RLLED  .OHMM   : SHALLOW RESISTIVITY FROM RESISTIVITY LOG
SPRED  .MV     : SPONTANEOUS POTENTIAL FROM RESISTIVITY LOG
SPWS   .MV     : SPONTANEOUS POTENTIAL [BASELINE 0 MV, SPRED]
SRESWS .OHMM   : SHALLOW RESISTIVITY [RLLED]
~Params ----------------------------------------------------
PD  .                         GL : PERMANENT DATUM
EPD .M                   1167.92 : ELEVATION PERMANENT DATUM
LMF .                         KB : LOG MEASURED FROM
DAPD.M                      4.32 : FEET ABOVE PERMANENT DATUM
DMF .                         KB : DRILLING MEASURED FROM
EKB .M                   1172.24 : KELLY BUSHING
EGL .M                   1167.92 : GROUND LEVEL
DATE.                   10/19/84 : RUN DATE
RUN .                          1 : RUN NUMBER
DD  .M                      2939 : DEPTH DRILLER
DL  .M                      2936 : DEPTH LOGGER
BLI .M                    2935.4 : BOTTOM LOG INTERVAL
TLI .M                       190 : TOP LOG INTERVAL
CBD .M                       190 : CASING BOTTOM DRILLER
CBL .M                       190 : CASING BOTTOM LOGGER
BS  .MM                      200 : BIT SIZE
BSD .M                      2939 : BIT SIZE AT DEPTH
DFT .                   GEL CHEM : DRILLING FLUID TYPE
DFD .                       1140 : DRILLING FLUID DENSITY
DFV .                         65 : DRILLING FLUID VISCOSITY
DFPH.                         10 : DRILLING FLUID PH
DFL .                          9 : DRILLING FLUID LOSS
RMS .OHMM                    2.9 : RESISTIVITY MUD SAMPLE
MST .DEGC                     20 : MUD SAMPLE TEMPERATURE
RMF .OHMM                    2.4 : RESISTIVITY MUD FILTRATE SAMPLE
MFST.DEGC                     23 : MUD FILTRATE SAMPLE TEMPERATURE
RMC .OHMM                    2.4 : RESISTIVITY MUD CAKE
MCST.DEGC                     21 : MUD CAKE SAMPLE TEMPERATURE
RMB .OHMM                    1.1 : RESISTIVITY MUD AT BHT
TCS .HRS                       8 : TIME CIRCULATED STOPPED
LUN .                        321 : LOGGING UNIT NUMBER
LUL .            GRANDE PARAIRIE : LOGGING UNIT LOCATION
ENGI.                    LEWYCKY : RECORDING ENGINEER
WITN.                     GODWIN : WITNESSED BY
CLNT.                    A2DTECH : CLIENT CODE
ORIG. 6.5"/100M 16.5"/100M PRINT : ORIGIN OF DATA
UWI .           100160906613W500 : UNIQUE WELL ID
DICO.     A2D Technologies, Inc. : DIGITIZING COMPANY
~Other -----------------------------------------------------
DIL-BHC-CDCN LOG RAN
BHC RAN IN COMBINATION WITH DIL
NEUTRON POROSITY SS CONVERTED TO LS BY THE HELP OF COMPULOG/CNS CHART
~ASCII -----------------------------------------------------
  300.00000  385.11930    -999.25  385.11930    -999.25    -999.25    -999.25    -999.25    -999.25  219.54860    -999.25    -999.25    -999.25    4.55480    -999.25  580.96880  580.96880    -999.25   55.48840   55.48840    5.07750    -999.25    -999.25    4.55480    5.07750   10.13400   41.42510   -7.72050   10.13400
  350.00000  197.10690    -999.25  197.10690    -999.25    -999.25    -999.25    -999.25    -999.25  112.18180    -999.25    -999.25    -999.25    8.91410    -999.25  355.14690  355.14690    -999.25   73.15400   73.15400    9.75380    -999.25    -999.25    8.91410    9.75380   11.28310   35.60250  -13.54770   11.28310
  400.00000  252.37230    -999.25  252.37230    -999.25    -999.25    -999.25    -999.25    -999.25  275.45170    -999.25    -999.25    -999.25    3.63040    -999.25  431.40300  431.40300    -999.25   80.18090   80.18090    3.41770    -999.25    -999.25    3.63040    3.41770    4.27650   47.36310   -4.29430    4.27650
  450.00000  192.72720    -999.25  192.72720    -999.25    -999.25    -999.25    -999.25    -999.25  151.29280    -999.25    -999.25    -999.25    6.60970    -999.25  353.11000  353.11000    -999.25   64.61600   64.61600    5.95260    -999.25    -999.25    6.60970    5.95260    6.04160   37.61030  -16.56500    6.04160
  500.00000  194.44840    -999.25  194.44840    -999.25    -999.25    -999.25    -999.25    -999.25  138.74240    -999.25    -999.25    -999.25    7.20760    -999.25  334.57560  334.57560    -999.25   58.72140   58.72140    7.68710    -999.25    -999.25    7.20760    7.68710    7.47390   39.24520  -17.50220    7.47390
  550.00000  238.63700    -999.25  238.63700    -999.25    -999.25    -999.25    -999.25    -999.25  384.18690    -999.25    -999.25    -999.25    2.60290    -999.25  404.73160  404.73160    -999.25   78.06610   78.06610    2.46200    -999.25    -999.25    2.60290    2.46200    2.81000   53.77370   -4.54450    2.81000
  600.00000  226.42310    -999.25  226.42310    -999.25    -999.25    -999.25    -999.25    -999.25  272.36080    -999.25    -999.25    -999.25    3.67160    -999.25  342.79210  342.79210    -999.25   80.35930   80.35930    3.94730    -999.25    -999.25    3.67160    3.94730    3.76070   56.09460   -3.28010    3.76070
  650.00000  275.45210    -999.25  275.45210    -999.25    -999.25    -999.25    -999.25    -999.25  408.59690    -999.25    -999.25    -999.25    2.44740    -999.25  365.82450  365.82450    -999.25   79.73140   79.73140    2.58910    -999.25    -999.25    2.44740    2.58910    3.09980   56.40800   -3.59220    3.09980
  700.00000  260.88230    -999.25  260.88230    -999.25    -999.25    -999.25    -999.25    -999.25  420.92860    -999.25    -999.25    -999.25    2.37570    -999.25  464.58790  464.58790    -999.25   80.30430   80.30430    2.49020    -999.25    -999.25    2.37570    2.49020    2.81310   51.37750   -7.66770    2.81310
  750.00000  340.93520    -999.25  340.93520    -999.25    -999.25    -999.25    -999.25    -999.25  338.62720    -999.25    -999.25    -999.25    2.95310    -999.25  429.62320  429.62320    -999.25   58.26530   58.26530    3.00980    -999.25    -999.25    2.95310    3.00980    5.13930   53.73280   -3.43240    5.13930
  800.00000  226.98620    -999.25  226.98620    -999.25    -999.25    -999.25    -999.25    -999.25  257.72530    -999.25    -999.25    -999.25    3.88010    -999.25  366.94820  366.94820    -999.25   58.23570   58.23570    3.66830    -999.25    -999.25    3.88010    3.66830    3.42870   51.73460   -5.70080    3.42870
  850.00000  342.54990    -999.25  342.54990    -999.25    -999.25    -999.25    -999.25    -999.25  327.97640    -999.25    -999.25    -999.25    3.04900    -999.25  371.78440  371.78440    -999.25   66.22960   66.22960    3.22620    -999.25    -999.25    3.04900    3.22620    4.10070   54.80450   -2.94940    4.10070
  900.00000  228.77450    -999.25  228.77450    -999.25    -999.25    -999.25    -999.25    -999.25  327.55740    -999.25    -999.25    -999.25    3.05290    -999.25  469.29830  469.29830    -999.25   66.66600   66.66600    2.91960    -999.25    -999.25    3.05290    2.91960    3.68940   55.51190   -2.51040    3.68940
  950.00000  195.01230    -999.25  195.01230    -999.25    -999.25    -999.25    -999.25    -999.25  100.96010    -999.25    -999.25    -999.25    9.90490    -999.25  352.58300  352.58300    -999.25   49.47980   49.47980   10.54090    -999.25    -999.25    9.90490   10.54090    8.27760   36.76220  -22.76810    8.27760
 1000.00000  325.52260    -999.25  325.52260    -999.25    -999.25    -999.25    -999.25    -999.25  252.52530    -999.25    -999.25    -999.25    3.96000    -999.25  345.49630  345.49630    -999.25   78.13770   78.13770    4.18140    -999.25    -999.25    3.96000    4.18140    4.40920   55.14420   -5.18550    4.40920
 1050.00000  287.68350    -999.25  287.68350    -999.25    -999.25    -999.25    -999.25    -999.25  235.71560    -999.25    -999.25    -999.25    4.24240    -999.25  378.81110  378.81110    -999.25  123.28320  123.28320    4.46780    -999.25    -999.25    4.24240    4.46780    5.62790   56.73790   -2.52010    5.62790
 1100.00000  255.81030    -999.25  255.81030    -999.25    -999.25    -999.25    -999.25    -999.25  199.61280    -999.25    -999.25    -999.25    5.00970    -999.25  360.78720  360.78720    -999.25   90.43690   90.43690    4.85460    -999.25    -999.25    5.00970    4.85460    5.14690   54.99240   -3.19390    5.14690
 1150.00000  294.67380    -999.25  294.67380    -999.25    -999.25    -999.25    -999.25    -999.25  206.44100    -999.25    -999.25    -999.25    4.84400    -999.25  325.03810  325.03810    -999.25   88.16360   88.16360    4.98570    -999.25    -999.25    4.84400    4.98570    5.25310   55.11160   -2.00300    5.25310
 1200.00000  335.64700    -999.25  335.64700    -999.25    -999.25    -999.25    -999.25    -999.25  179.18580    -999.25    -999.25    -999.25    5.58080    -999.25  401.81410  401.81410    -999.25  100.36390  100.36390    5.18510    -999.25    -999.25    5.58080    5.18510    4.94550   56.68920   -3.54040    4.94550
 1250.00000  239.86920    -999.25  239.86920    -999.25    -999.25    -999.25    -999.25    -999.25  185.90820    -999.25    -999.25    -999.25    5.37900    -999.25  343.38150  343.38150    -999.25  113.97100  113.97100    5.23420    -999.25    -999.25    5.37900    5.23420    4.98540   61.31630   -3.64050    4.98540
 1300.00000  234.48380    -999.25  234.48380    -999.25    -999.25    -999.25    -999.25    -999.25  214.08230    -999.25    -999.25    -999.25    4.67110    -999.25  327.38960  327.38960    -999.25  102.24210  102.24210    4.79800    -999.25    -999.25    4.67110    4.79800    5.10030   59.35870   -8.31130    5.10030
 1350.00000  244.72480    -999.25  244.72480    -999.25    -999.25    -999.25    -999.25    -999.25  239.54960    -999.25    -999.25    -999.25    4.17450    -999.25  311.02850  311.02850    -999.25  112.31600  112.31600    3.91990    -999.25    -999.25    4.17450    3.91990    3.78620   65.64890   -2.00600    3.78620
 1400.00000  289.47910    -999.25  289.47910    -999.25    -999.25    -999.25    -999.25    -999.25  213.58850    -999.25    -999.25    -999.25    4.68190    -999.25  294.18500  294.18500    -999.25  101.22000  101.22000    4.90000    -999.25    -999.25    4.68190    4.90000    4.50460   54.59920  -12.36900    4.50460
 1450.00000  294.94440  227.76060  294.94440  307.27870    -999.25    0.25420    -999.25    0.30170  392.01850  199.04410 2230.57000    0.28040    2.55090  199.04410  313.91470  313.91470   93.48450   97.15930   97.15930    2.84780    0.25910 2232.27220    2.55090    2.84780    2.97020   59.06930   -7.21220    2.97020
 1500.00000  221.64330    -999.25  221.64330    -999.25    -999.25    -999.25    -999.25    -999.25  167.46210    -999.25    -999.25    -999.25    5.97150    -999.25  277.69950  277.69950    -999.25   76.06990   76.06990    6.69900    -999.25    -999.25    5.97150    6.69900    7.87030   47.99770  -19.08180    7.87030
