~Version ---------------------------------------------------
VERS.      2.0 : CWLS log ASCII Standard -VERSION 2.0
WRAP.       NO : One line per depth step
CREA. 12/20/17 : LAS Creation Date
~Well ------------------------------------------------------
STRT.FT                    300.0 : START DEPTH
STOP.FT                   9750.0 : STOP DEPTH
STEP.FT                 50.00000 : STEP LENGTH
NULL.                    -999.25 : NULL VALUE
COMP.     PHILLIPS PETROLEUM CO. : COMPANY
WELL. PHILLIPS KAYBOB 2-15-64-19 : WELL
FLD .                            : FIELD
LOC .                            : LOCATION
CTRY.                     CANADA : COUNTRY
SRVC.                    Unknown : SERVICE COMPANY
DATE.                28-Jul-1959 : LOGDATE
PROV.                    Alberta : PROVINCE
UWI .           100021506419W500 : UNIQUE WELL ID
SLAT.WGS84              54.53255 : SURFACE LATITUDE
SLON.WGS84             -116.7821 : SURFACE LONGITUDE
~Curve Information -----------------------------------------
DEPT  .FT    : Depth Curve
CALWS .IN    : CALIPER [MCALED]
CONDWS.MMHO  : CONDUCTIVITY [1000/DRESWS]
DRESWS.OHMM  : DEEP RESISTIVITY [LAT9ED]
GRED  .CU    : GAMMA RAY FROM GR LOG, DEPTH ADJUSTED WITH [SPRED]
GRNED .CPS   : GAMMA RAY FROM NEUTRON LOG, DEPTH ADJUSTED WITH [SPRED]
GRWS  .CPS   : GAMMA RAY [GRNED], SPLICED WITH [GRED] FROM TOP-1186'
LAT9ED.OHMM  : LATERAL 9' FROM RES. LOG
LT16ED.OHMM  : LATERAL 16' FROM RES. LOG
MCALED.IN    : CALIPER FROM MICROLOG
NEUTED.CPS   : NEUTRON FROM NEUTRON LOG, DEPTH ADJUSTED WITH [SPRED]
NEUTWS.CPS   : NEUTRON [NEUED]
SNED  .OHMM  : 16 INCH SHORT NORMAL RESISTIVITY FROM IEL
SPRED .MV    : SPONTANEOUS POTENTIAL FROM RESISTIVITY LOG
SPWS  .MV    : SPONTANEOUS POTENTIAL [BASELINE 0 MV] [SPRED]
SRESWS.OHMM  : SHALLOW RESISTIVITY [SNED]
~Params ----------------------------------------------------
PD  .                    CSG : PERMANENT DATUM
LMF .                     KB : LOG MEASURED FROM
DMF .                     KB : DRILLING MEASURED FROM
EKB .FT                 2446 : KELLY BUSHING
EDF .FT                 2443 : DRILLING FLOOR
EGL .FT                 2433 : GROUND LEVEL
DATE.               07/28/59 : RUN DATE
RUN .                      1 : RUN NUMBER
DD  .FT                 9800 : DEPTH DRILLER
DL  .FT                 9799 : DEPTH LOGGER
BLI .FT                 9798 : BOTTOM LOG INTERVAL
TLI .FT                 1276 : TOP LOG INTERVAL
CS  .IN                9.625 : CASING SIZE
CBD .FT                 1266 : CASING BOTTOM DRILLER
CBL .FT                 1276 : CASING BOTTOM LOGGER
BS  .IN                7.875 : BIT SIZE
BSD .FT                 9800 : BIT SIZE AT DEPTH
DFT .   OIL EMULSION AQUAGEL : DRILLING FLUID TYPE
DFD .                   10.7 : DRILLING FLUID DENSITY
DFV .                    110 : DRILLING FLUID VISCOSITY
DFPH.                   10.5 : DRILLING FLUID PH
DFL .                    4.6 : DRILLING FLUID LOSS
RMS .OHMM                2.6 : RESISTIVITY MUD SAMPLE
MST .DEGF                 58 : MUD SAMPLE TEMPERATURE
RMF .OHMM                2.1 : RESISTIVITY MUD FILTRATE SAMPLE
MFST.DEGF                 58 : MUD FILTRATE SAMPLE TEMPERATURE
RMC .OHMM                3.4 : RESISTIVITY MUD CAKE
MCST.DEGF                 58 : MUD CAKE SAMPLE TEMPERATURE
RMB .OHMM               0.84 : RESISTIVITY MUD AT BHT
LUN .                   6101 : LOGGING UNIT NUMBER
ENGI.                 FOWLER : RECORDING ENGINEER
WITN.        HANKINS JACKSON : WITNESSED BY
CLNT.                A2DTECH : CLIENT CODE
ORIG.            2" 5" PRINT : ORIGIN OF DATA
UWI .       100021506419W500 : UNIQUE WELL ID
DICO. A2D Technologies, Inc. : DIGITIZING COMPANY
~Other -----------------------------------------------------
~ASCII -----------------------------------------------------
  300.00000    -999.25    -999.25    -999.25   63.51360    -999.25   33.51360    -999.25    -999.25    -999.25    -999.25    -999.25    -999.25    -999.25    -999.25    -999.25
  350.00000    -999.25    -999.25    -999.25   37.40530    -999.25    7.40530    -999.25    -999.25    -999.25    -999.25    -999.25    -999.25    -999.25    -999.25    -999.25
  400.00000    -999.25    -999.25    -999.25   81.73460    -999.25   51.73460    -999.25    -999.25    -999.25    -999.25    -999.25    -999.25    -999.25    -999.25    -999.25
  450.00000    -999.25    -999.25    -999.25   75.93450    -999.25   45.93450    -999.25    -999.25    -999.25    -999.25    -999.25    -999.25    -999.25    -999.25    -999.25
  500.00000    -999.25    -999.25    -999.25   70.37730    -999.25   40.37730    -999.25    -999.25    -999.25    -999.25    -999.25    -999.25    -999.25    -999.25    -999.25
  550.00000    -999.25    -999.25    -999.25   74.32510    -999.25   44.32510    -999.25    -999.25    -999.25    -999.25    -999.25    -999.25    -999.25    -999.25    -999.25
  600.00000    -999.25    -999.25    -999.25   53.12110    -999.25   23.12110    -999.25    -999.25    -999.25    -999.25    -999.25    -999.25    -999.25    -999.25    -999.25
  650.00000    -999.25    -999.25    -999.25   47.30320    -999.25   17.30320    -999.25    -999.25    -999.25    -999.25    -999.25    -999.25    -999.25    -999.25    -999.25
  700.00000    -999.25    -999.25    -999.25   53.93810    -999.25   23.93810    -999.25    -999.25    -999.25    -999.25    -999.25    -999.25    -999.25    -999.25    -999.25
  750.00000    -999.25    -999.25    -999.25   65.82380    -999.25   35.82380    -999.25    -999.25    -999.25    -999.25    -999.25    -999.25    -999.25    -999.25    -999.25
  800.00000    -999.25    -999.25    -999.25   70.86340    -999.25   40.86340    -999.25    -999.25    -999.25    -999.25    -999.25    -999.25    -999.25    -999.25    -999.25
  850.00000    -999.25    -999.25    -999.25   81.78260    -999.25   51.78260    -999.25    -999.25    -999.25    -999.25    -999.25    -999.25    -999.25    -999.25    -999.25
  900.00000    -999.25    -999.25    -999.25   99.62590    -999.25   69.62590    -999.25    -999.25    -999.25    -999.25    -999.25    -999.25    -999.25    -999.25    -999.25
  950.00000    -999.25    -999.25    -999.25   84.36960    -999.25   54.36960    -999.25    -999.25    -999.25    -999.25    -999.25    -999.25    -999.25    -999.25    -999.25
 1000.00000    -999.25    -999.25    -999.25   94.44200    -999.25   64.44200    -999.25    -999.25    -999.25    -999.25    -999.25    -999.25    -999.25    -999.25    -999.25
 1050.00000    -999.25    -999.25    -999.25   94.46960    -999.25   64.46960    -999.25    -999.25    -999.25    -999.25    -999.25    -999.25    -999.25    -999.25    -999.25
 1100.00000    -999.25    -999.25    -999.25   90.31530    -999.25   60.31530    -999.25    -999.25    -999.25    -999.25    -999.25    -999.25    -999.25    -999.25    -999.25
 1150.00000    -999.25    -999.25    -999.25  105.70590    -999.25   75.70590    -999.25    -999.25    -999.25    -999.25    -999.25    -999.25    -999.25    -999.25    -999.25
 1200.00000    -999.25    -999.25    -999.25   98.11700   67.68850   67.68850    -999.25    -999.25    -999.25  360.68050  360.68050    -999.25    -999.25    -999.25    -999.25
 1250.00000    -999.25    -999.25    -999.25   99.02320   70.13970   70.13970    -999.25    -999.25    -999.25  365.79670  365.79670    -999.25    -999.25    -999.25    -999.25
 1300.00000   10.76740  275.11830    3.63480   90.87020   85.05780   85.05780    3.63480    4.60430   10.76740  374.56540  374.56540    1.87550  -92.34090   -2.56270    1.87550
 1350.00000   10.33880  278.38090    3.59220  107.07090   89.01840   89.01840    3.59220    1.04500   10.33880  393.67510  393.67510    1.14170  -90.93210   -1.07300    1.14170
 1400.00000   10.31730  511.29970    1.95580   89.40440   97.55970   97.55970    1.95580    2.74830   10.31730  374.84760  374.84760    2.20670  -91.74110   -1.80110    2.20670
 1450.00000    9.89000  189.11770    5.30870   67.40710   77.14180   77.14180    5.30870    8.00070    9.89000  449.94720  449.94720    4.03420  -92.93320   -2.91190    4.03420
 1500.00000   10.13000  410.62700    2.43530   59.98730   81.22930   81.22930    2.43530    2.80660   10.13000  412.56350  412.56350    2.01590  -90.66410   -0.56230    2.01590
 1550.00000    9.97250  179.03820    5.58540   42.72100   74.35300   74.35300    5.58540    5.78850    9.97250  398.64460  398.64460    3.83140  -93.30300   -3.12030    3.83140
 1600.00000   11.07510  330.49110    3.02580   39.75210   84.32430   84.32430    3.02580    4.12230   11.07510  367.94560  367.94560    0.50830  -90.35010   -0.08640    0.50830
 1650.00000    9.96940  358.83450    2.78680   70.08940   74.06260   74.06260    2.78680    2.91060    9.96940  414.38250  414.38250    2.70320  -90.86440   -0.51980    2.70320
 1700.00000   10.76710  324.62800    3.08040   70.08060   76.13820   76.13820    3.08040    3.38850   10.76710  399.54960  399.54960    2.59960  -92.90810   -2.48220    2.59960
 1750.00000   10.27140  230.75500    4.33360   66.53790   80.63890   80.63890    4.33360    4.24720   10.27140  341.36190  341.36190    0.36950  -92.33770   -1.83130    0.36950
 1800.00000   10.46580  297.80520    3.35790  145.19320   78.28140   78.28140    3.35790    3.31740   10.46580  328.11790  328.11790    2.28770  -94.12360   -3.53630    2.28770
 1850.00000    9.20360   67.73550   14.76330   89.76040   69.59460   69.59460   14.76330   12.98660    9.20360  393.15980  393.15980   12.24240 -104.99170  -14.32350   12.24240
 1900.00000   10.01350  153.10420    6.53150   10.40530   68.36100   68.36100    6.53150    4.65840   10.01350  372.11240  372.11240    1.96480  -95.25510   -4.50600    1.96480
 1950.00000    9.66600  215.60080    4.64510   31.77740   75.71520   75.71520    4.64510    8.38960    9.66600  324.62050  324.62050    2.95760  -95.24110   -4.41070    2.95760
 2000.00000    9.87220  439.40590    2.27580   11.15720   70.14370   70.14370    2.27580    3.46740    9.87220  305.03970  305.03970    1.81690  -94.16080   -3.24980    1.81690
 2050.00000    9.88870  303.06700    3.29960   68.73280   71.07950   71.07950    3.29960    5.53340    9.88870  357.47780  357.47780    1.87300  -95.84300   -4.85110    1.87300
 2100.00000    9.39450  353.16970    2.83150   17.33490   70.34200   70.34200    2.83150    5.22680    9.39450  346.79820  346.79820    2.03680  -96.03570   -4.96290    2.03680
 2150.00000    8.80990  133.84550    7.47130   30.73960   65.63680   65.63680    7.47130    9.01660    8.80990  342.51880  342.51880   12.21000 -105.90160  -14.74790   12.21000
 2200.00000    9.49500   68.14190   14.71380   42.26260   62.92230   62.92230   14.71380   11.40650    9.49500  356.78870  356.78870   12.29010 -103.84430  -12.60920   12.29010
 2250.00000    9.60600  345.51860    2.89420   12.00070   72.08010   72.08010    2.89420    3.25770    9.60600  343.62240  343.62240    1.79950  -96.03170   -4.71620    1.79950
 2300.00000   10.03830  120.65200    8.28830   10.24820   66.25110   66.25110    8.28830   10.99350   10.03830  364.87090  364.87090    9.49090 -104.50800  -13.11160    9.49090
 2350.00000    9.50390  292.43190    3.41960    9.14300   73.54150   73.54150    3.41960    4.36320    9.50390  398.77470  398.77470    2.47800  -96.04360   -4.56630    2.47800
 2400.00000    8.83020  202.23670    4.94470   11.83560   63.69870   63.69870    4.94470    7.99910    8.83020  483.97200  483.97200   10.16200 -101.52150   -9.96330   10.16200
 2450.00000   10.59500  119.43840    8.38150   20.06940   79.92880   79.92880    8.38150    6.09110   10.59500  335.59220  335.59220    2.81170  -97.03430   -5.39480    2.81170
 2500.00000    9.66170  152.01030    6.57850   21.88300   75.75110   75.75110    6.57850    5.18500    9.66170  343.59160  343.59160    4.62190  -98.37060   -6.65050    4.62190
 2550.00000    9.11430  120.62730    8.29000   13.74580   74.75210   74.75210    8.29000    4.98930    9.11430  397.27750  397.27750    5.13740 -101.27430   -9.47330    5.13740
