~Version ---------------------------------------------------
VERS.      2.0 : CWLS log ASCII Standard -VERSION 2.0
WRAP.       NO : One line per depth step
CREA. 11/10/17 : LAS Creation Date
~Well ------------------------------------------------------
STRT.FT                    1200.0 : START DEPTH
STOP.FT                   11350.0 : STOP DEPTH
STEP.FT                  50.00000 : STEP LENGTH
NULL.                     -999.25 : NULL VALUE
COMP.      PHILLIPS PETROLEUM CO. : COMPANY
WELL. PHILLIPS A TONY 10-27-62-21 : WELL
FLD .                          WC : FIELD
LOC .                             : LOCATION
CTRY.                      CANADA : COUNTRY
SRVC.      Schlumberger of Canada : SERVICE COMPANY
DATE.                 01-Mar-1958 : LOGDATE
PROV.                     Alberta : PROVINCE
UWI .            100102706221W500 : UNIQUE WELL ID
SLAT.WGS84               54.39406 : SURFACE LATITUDE
SLON.WGS84              -117.0596 : SURFACE LONGITUDE
~Curve Information -----------------------------------------
DEPT  .FT         : Depth Curve
CALMED.IN         : CALIPER FROM MICROLOG
CALWS .IN         : CALIPER [CALMED]
CONDWS.MMHO       : CONDUCTIVITY [1000/DRESWS]
DRESWS.OHMM       : DEEP RESISTIVITY [LNED]
GRNED .UgRa-Eq/T  : GAMMA RAY FROM GRN LOG [ADJ. TO EL LOG]
GRWS  .GAPI       : GAMMA RAY [GRNED*16.5]
LATED .OHMM       : 18 FOOT 8 INCH LATERAL RESISTIVITY FROM EL LOG
LLED  .OHMM       : LATERAL RESISTIVITY FROM LL RESISTIVITY LOG [ADJ. TO EL LOG]
LNED  .OHMM       : 64 INCH LONG NORMAL RESISTIVITY FROM EL LOG
NEUTED.CPS        : NEUTRON FROM GRN LOG [ADJ. TO EL LOG]
NEUTWS.CPS        : NEUTRON [NEUTED]
SNED  .OHMM       : 16 INCH SHORT NORMAL RESISTIVITY FROM EL LOG
SPR1ED.MV         : SPONTANEOUS POTENTIAL FROM LL RESISTIVITY LOG [ADJ. TO EL LOG]
SPRED .MV         : SPONTANEOUS POTENTIAL FROM EL LOG
SPWS  .MV         : SPONTANEOUS POTENTIAL [BASELINE 0MV, SPRED]
SRESWS.OHMM       : SHALLOW RESISTIVITY [SNED]
~Params ----------------------------------------------------
LMF .                     KB : LOG MEASURED FROM
DMF .                     KB : DRILLING MEASURED FROM
EKB .FT                 2925 : KELLY BUSHING
EDF .FT                 2922 : DRILLING FLOOR
EGL .FT                 2910 : GROUND LEVEL
DATE.               03/01/58 : RUN DATE
RUN .                      1 : RUN NUMBER
DD  .FT                11400 : DEPTH DRILLER
DL  .FT                11400 : DEPTH LOGGER
BLI .FT                11399 : BOTTOM LOG INTERVAL
TLI .FT                 1533 : TOP LOG INTERVAL
CBD .FT                 1532 : CASING BOTTOM DRILLER
CBL .FT                 1533 : CASING BOTTOM LOGGER
BS  .IN                12.25 : BIT SIZE
BSD .FT                11400 : BIT SIZE AT DEPTH
DFT .                    GEL : DRILLING FLUID TYPE
DFD .                   10.6 : DRILLING FLUID DENSITY
DFV .                    115 : DRILLING FLUID VISCOSITY
DFPH.                    9.7 : DRILLING FLUID PH
DFL .                      4 : DRILLING FLUID LOSS
RMF .OHMM               0.41 : RESISTIVITY MUD FILTRATE SAMPLE
MFST.DEGF                 71 : MUD FILTRATE SAMPLE TEMPERATURE
RMC .OHMM                1.2 : RESISTIVITY MUD CAKE
MCST.DEGF                 74 : MUD CAKE SAMPLE TEMPERATURE
RMB .OHMM               0.53 : RESISTIVITY MUD AT BHT
TCS .HRS                   6 : TIME CIRCULATED STOPPED
LUN .                   1785 : LOGGING UNIT NUMBER
LUL .                     WC : LOGGING UNIT LOCATION
ENGI.                LAVERTY : RECORDING ENGINEER
WITN.         FOSTER TIBBITT : WITNESSED BY
CLNT.                A2DTECH : CLIENT CODE
ORIG.            2" 5" PRINT : ORIGIN OF DATA
UWI .       100102706221W500 : UNIQUE WELL ID
DICO. A2D Technologies, Inc. : DIGITIZING COMPANY
~Other -----------------------------------------------------
~ASCII -----------------------------------------------------
 1200.00000    -999.25    -999.25    -999.25    -999.25    3.54870   58.55360    -999.25    -999.25    -999.25  162.12800  162.12800    -999.25    -999.25    -999.25    -999.25    -999.25
 1250.00000    -999.25    -999.25    -999.25    -999.25    3.83910   63.34520    -999.25    -999.25    -999.25  160.46950  160.46950    -999.25    -999.25    -999.25    -999.25    -999.25
 1300.00000    -999.25    -999.25    -999.25    -999.25    3.80750   62.82290    -999.25    -999.25    -999.25  171.21960  171.21960    -999.25    -999.25    -999.25    -999.25    -999.25
 1350.00000    -999.25    -999.25    -999.25    -999.25    4.13380   68.20770    -999.25    -999.25    -999.25  178.56110  178.56110    -999.25    -999.25    -999.25    -999.25    -999.25
 1400.00000    -999.25    -999.25    -999.25    -999.25    4.00990   66.16420    -999.25    -999.25    -999.25  164.88560  164.88560    -999.25    -999.25    -999.25    -999.25    -999.25
 1450.00000    -999.25    -999.25    -999.25    -999.25    3.79600   62.63400    -999.25    -999.25    -999.25  166.05530  166.05530    -999.25    -999.25    -999.25    -999.25    -999.25
 1500.00000    -999.25    -999.25    -999.25    -999.25    4.02330   66.38450    -999.25    -999.25    -999.25  158.92600  158.92600    -999.25    -999.25    -999.25    -999.25    -999.25
 1550.00000   12.81160   12.81160   90.69970   11.02640    5.05460   83.40010    -999.25    7.04910   11.02640  219.61490  219.61490    9.31740 -160.74850 -166.62990   -5.36290    9.31740
 1600.00000   15.65470   15.65470  181.81160    5.50020    5.61030   92.56990    7.03340    3.99100    5.50020  228.20930  228.20930    4.16320 -162.99480 -166.69900   -5.46190    4.16320
 1650.00000   15.08560   15.08560  152.08810    6.57550    5.75940   95.02930    4.40260    5.81950    6.57550  200.87540  200.87540    4.50710 -162.97130 -167.86500   -6.65760    4.50710
 1700.00000    9.57640    9.57640   84.52440   11.83090    4.82050   79.53830    9.59710    7.89300   11.83090  207.06830  207.06830    8.68870 -165.35680 -170.29890   -9.12140    8.68870
 1750.00000   12.69170   12.69170  260.68140    3.83610    5.87530   96.94330    7.76290    4.20670    3.83610  210.46150  210.46150    2.74810 -159.43980 -164.28750   -3.13970    2.74810
 1800.00000   11.45810   11.45810  231.51060    4.31980    6.22310  102.68120    5.55830    3.88230    4.31980  206.04910  206.04910    1.95870 -159.88890 -164.07330   -2.95530    1.95870
 1850.00000   10.81640   10.81640  113.04800    8.84580    5.01750   82.78880    9.84810   10.18310    8.84580  221.37550  221.37550    9.70810 -162.12140 -165.74720   -4.65910    9.70810
 1900.00000   10.50230   10.50230  116.11660    8.61860    4.97700   82.12050    9.05060    7.36320    8.61860  220.06870  220.06870    6.97220 -164.35420 -166.17800   -5.11960    6.97220
 1950.00000    9.54050    9.54050  146.07280    6.84590    4.51490   74.49590   16.05360    9.26200    6.84590  251.64280  251.64280    7.97460 -162.65530 -165.26340   -4.23490    7.97460
 2000.00000   10.27820   10.27820  197.32430    5.06780    5.73550   94.63580    4.75740    4.67430    5.06780  198.56290  198.56290    3.10310 -157.64940 -164.85940   -3.86060    3.10310
 2050.00000    9.73200    9.73200   48.11450   20.78430    4.41130   72.78690   19.50390   19.49120   20.78430  230.66240  230.66240   15.20360 -172.87030 -180.08010  -19.11100   15.20360
 2100.00000   12.17630   12.17630  200.79110    4.98030    6.33810  104.57870    5.86870    5.92920    4.98030  191.01020  191.01020    2.70970 -159.07890 -163.74250   -2.80330    2.70970
 2150.00000   12.45020   12.45020  207.51560    4.81900    6.02490   99.41000    5.75700    4.03610    4.81900  213.65170  213.65170    2.99770 -157.14450 -163.20830   -2.29880    2.99770
 2200.00000   12.11730   12.11730  138.85220    7.20190    5.81120   95.88480   12.55080    5.97260    7.20190  179.91820  179.91820    5.03340 -157.14260 -163.87670   -2.99710    5.03340
 2250.00000   11.36340   11.36340   88.35720   11.31770    4.80150   79.22480   19.19830    6.11250   11.31770  217.33430  217.33430    8.40360 -167.94000 -175.40940  -14.55950    8.40360
 2300.00000   10.96750   10.96750  200.17650    4.99560    5.49760   90.71040   26.19320    4.55580    4.99560  191.30900  191.30900    3.70300 -159.81410 -164.00050   -3.18040    3.70300
 2350.00000   10.98960   10.98960  205.19130    4.87350    5.52100   91.09650   10.24080    6.24210    4.87350  241.10900  241.10900    5.29110 -159.01040 -162.56040   -1.77020    5.29110
 2400.00000   10.80460   10.80460   64.84720   15.43370    6.01660   99.27310    9.67600   21.07950   15.43370  223.04800  223.04800   16.72570 -161.93720 -167.54840   -6.78790   16.72570
 2450.00000    9.49140    9.49140  153.34840    6.52110    5.79130   95.55640   10.89480    5.98280    6.52110  226.75640  226.75640    5.54860 -155.99560 -163.53560   -2.80500    5.54860
 2500.00000   15.84950   15.84950  236.77050    4.22350    5.71810   94.34860    6.71030    4.16680    4.22350  213.65410  213.65410    3.08370 -156.52230 -162.37930   -1.67840    3.08370
 2550.00000   10.15800   10.15800  180.57290    5.53860    5.69590   93.98230    5.10190    5.89820    5.53860  221.68690  221.68690    4.21530 -158.04530 -163.61520   -2.94400    4.21530
 2600.00000    9.15430    9.15430  140.00110    7.14280    5.32470   87.85840    8.88250    8.17690    7.14280  236.90820  236.90820    6.50810 -157.91150 -164.98850   -4.34720    6.50810
 2650.00000   12.77330   12.77330  191.96080    5.20940    5.94740   98.13210    7.01750    5.17770    5.20940  210.73720  210.73720    4.02860 -157.25990 -162.38300   -1.77140    4.02860
 2700.00000    8.48960    8.48960   65.94520   15.16410    4.87800   80.48700   12.49520   14.30680   15.16410  226.82190  226.82190   14.72170 -166.80590 -171.99260  -11.41090   14.72170
 2750.00000   10.10610   10.10610  170.41870    5.86790    6.46870  106.73360   13.85240    5.27510    5.86790  200.19150  200.19150    3.77160 -156.40000 -163.05320   -2.50120    3.77160
 2800.00000   13.46900   13.46900  164.25560    6.08820    5.55600   91.67360    4.10740    6.01240    6.08820  208.21340  208.21340    4.21970 -155.79410 -162.96480   -2.44250    4.21970
 2850.00000   14.23350   14.23350  114.49770    8.73380    5.37200   88.63800   11.25810    6.48160    8.73380  206.35630  206.35630    3.94220 -157.15100 -163.52580   -3.03350    3.94220
 2900.00000   11.10260   11.10260  124.62710    8.03090    5.84990   96.52420    5.64120    9.40840    8.03090  214.90470  214.90470    6.44740 -156.24710 -164.21700   -3.75440    6.44740
 2950.00000   11.09600   11.09600  103.12260    9.69720    5.54130   91.43140    8.34840    9.62280    9.69720  211.31380  211.31380    7.45720 -157.84470 -163.63040   -3.19770    7.45720
 3000.00000   10.74560   10.74560  102.06690    9.79750    4.77640   78.81060   12.54950   11.28710    9.79750  231.51540  231.51540   10.85940 -162.74730 -166.81310   -6.41010   10.85940
 3050.00000   10.91870   10.91870  152.97620    6.53840    5.08550   83.91070   13.76590    9.94980    6.53840  219.57630  219.57630    6.24390 -155.11410 -162.96690   -2.59360    6.24390
 3100.00000    9.77250    9.77250  123.31980    8.10900    5.09610   84.08570    4.62360    4.91130    8.10900  197.85770  197.85770    3.94700 -156.19590 -163.63560   -3.29220    3.94700
 3150.00000   15.06480   15.06480   99.38920   10.06160    4.84810   79.99360   16.72190    5.99340   10.06160  191.70400  191.70400    4.49180 -159.16510 -164.71780   -4.40410    4.49180
 3200.00000   11.00570   11.00570  157.27230    6.35840    5.13810   84.77860    6.56080    5.56070    6.35840  202.98770  202.98770    4.15160 -157.80560 -162.74290   -2.45910    4.15160
 3250.00000   13.54180   13.54180  141.88220    7.04810    5.10960   84.30760    7.90160    6.36110    7.04810  209.88320  209.88320    4.64350 -157.76920 -163.27240   -3.18780    4.64350
 3300.00000    9.62600    9.62600  100.55140    9.94520    5.05050   83.33320   10.75690    9.34880    9.94520  221.04640  221.04640    6.74090 -164.13770 -165.16120   -5.47950    6.74090
