~Version ---------------------------------------------------
VERS.      2.0 : CWLS log ASCII Standard -VERSION 2.0
WRAP.       NO : One line per depth step
CREA. 12/11/17 : LAS Creation Date
~Well ------------------------------------------------------
STRT.FT                          1000.0 : START DEPTH
STOP.FT                         10450.0 : STOP DEPTH
STEP.FT                        50.00000 : STEP LENGTH
NULL.                           -999.25 : NULL VALUE
COMP.     CANADIAN SUPERIOR OIL COMPANY : COMPANY
WELL. CDN-SUP CEGO FOX CR 10-11SH-62-18 : WELL
FLD .                                   : FIELD
LOC .                                   : LOCATION
CTRY.                            CANADA : COUNTRY
SRVC.                      Schlumberger : SERVICE COMPANY
DATE.                       29-Mar-1977 : LOGDATE
PROV.                           Alberta : PROVINCE
UWI .                  102101106218W500 : UNIQUE WELL ID
SLAT.WGS84                     54.35151 : SURFACE LATITUDE
SLON.WGS84                    -116.5828 : SURFACE LONGITUDE
~Curve Information -----------------------------------------
DEPT    .FT    : Depth Curve
CALDED  .IN    : CALIPER) FROM DENSITY LOG [ADJ. TO RESISTIVITY LOG]
CALSED  .IN    : CALIPER) FROM SONIC LOG [ADJ. TO RESISTIVITY LOG]
CALWS   .IN    : CALIPER [CALDED]
CILDED  .MMHO  : CONDUCTIVITY FROM RESISTIVITY LOG
CONDWS  .MMHO  : CONDUCIVITY [1000/DRESWS]
DCORED  .G/C3  : DENSITY CORRECTION FROM DENSITY LOG [ADJ. TO RESISTIVITY LOG]
DCORWS  .G/C3  : DENSITY CORRECTION [DCORED]
DENWS   .G/C3  : FORMATION BULK DENSITY [RHOBED]
DPOLSWS .V/V   : DENSITY POROSITY LIMESTONE [CALC. FROM DENWS M=2.71, F=1.00]
DPORLSED.V/V   : DENSITY POROSITY LIMESTONE [M=2.71, F=1.00] FROM DENSITY LOG [ADJ. TO RESISTIVITY LOG]
DPORSSED.V/V   : DENSITY POROSITY SANDSTONE [M=2.65, F=1.00] FROM DENSITY LOG [ADJ. TO RESISTIVITY LOG]
DRESWS  .OHMM  : DEEP RESISTIVITY [ILDED]
DTED    .US/F  : DELTA-T FROM SONIC LOG [ADJ. TO RESISTIVITY LOG]
DTWS    .US/F  : COMPRESSIONAL SONIC [DTED]
GRDED   .GAPI  : GAMMA RAY FROM DENSITY LOG [ADJ. TO RESISTIVITY LOG]
GRSED   .GAPI  : GAMMA RAY FROM SONIC LOG [ADJ. TO RESISTIVITY LOG]
GRWS    .GAPI  : GAMMA RAY [GRSED SPL. TO GRDED @ 1070']
ILDED   .OHMM  : DEEP INDUCTION FROM RESISTIVITY LOG
ILMED   .OHMM  : MEDIUM INDUCTION FROM RESISTIVITY LOG
LL8ED   .OHMM  : LATEROLOG-8 FROM RESISTIVITY LOG
MRESWS  .OHMM  : MEDIUM RESISTIVITY [ILMED]
NPOLSWS .V/V   : NEUTRON POROSITY LIMESTONE [NPHISSED MATRIX CONVERSION FOR LIMESTONE, SPL. TO NPHILSED @ 6496']
NPORLSED.V/V   : NEUTRON POROSITY LIMESTONE FROM DENISTY LOG [ADJ. TO RESISTIVITY LOG]
NPORSSED.V/V   : NEUTRON POROSITY SANDSTONE FROM DENSITY LOG [ADJ. TO RESISTIVITY LOG]
RHOBED  .G/C3  : BULK DENSITY FROM DENSITY LOG [ADJ. TO RESISTIVITY LOG]
SPRED   .MV    : SPONTANEOUS POTENTIAL FROM RESISTIVITY LOG
SPWS    .MV    : SPONTANEOUS POTENTIAL [BASELINE 0 MV, SPRED]
SRESWS  .OHMM  : SHALLOW RESISTIVITY [LL8ED]
~Params ----------------------------------------------------
PD  .                     GL : PERMANENT DATUM
EPD .FT                 2963 : ELEVATION PERMANENT DATUM
LMF .                     KB : LOG MEASURED FROM
DAPD.FT                   13 : FEET ABOVE PERMANENT DATUM
EKB .FT                 2976 : KELLY BUSHING
EGL .FT                 2963 : GROUND LEVEL
DATE.               03/29/77 : RUN DATE
RUN .                      1 : RUN NUMBER
DD  .FT                10475 : DEPTH DRILLER
DL  .FT                10478 : DEPTH LOGGER
BLI .FT                10472 : BOTTOM LOG INTERVAL
TLI .FT                 1071 : TOP LOG INTERVAL
CBD .FT                 1070 : CASING BOTTOM DRILLER
CBL .FT                 1071 : CASING BOTTOM LOGGER
BS  .IN                 8.75 : BIT SIZE
BSD .FT                10475 : BIT SIZE AT DEPTH
DFT .               GEL CHEM : DRILLING FLUID TYPE
DFD .                    9.2 : DRILLING FLUID DENSITY
DFV .                     81 : DRILLING FLUID VISCOSITY
DFPH.                    9.5 : DRILLING FLUID PH
DFL .                      8 : DRILLING FLUID LOSS
MSS .             CIRCULATED : MUD SAMPLE SOURCE
RMS .OHMM                1.1 : RESISTIVITY MUD SAMPLE
MST .DEGF                 62 : MUD SAMPLE TEMPERATURE
RMF .OHMM               0.76 : RESISTIVITY MUD FILTRATE SAMPLE
MFST.DEGF                 62 : MUD FILTRATE SAMPLE TEMPERATURE
TCS .HRS                   4 : TIME CIRCULATED STOPPED
LUN .                   7690 : LOGGING UNIT NUMBER
LUL .                    EDM : LOGGING UNIT LOCATION
ENGI.                WOROWUK : RECORDING ENGINEER
WITN.                  KELLY : WITNESSED BY
CLNT.                A2DTECH : CLIENT CODE
ORIG.            2" 5" PRINT : ORIGIN OF DATA
UWI .       102101106218W500 : UNIQUE WELL ID
DICO. A2D Technologies, Inc. : DIGITIZING COMPANY
~Other -----------------------------------------------------
DIL-BHC-CNL-FDC LOG RUN
SCH(CNL-NPHI) USED FOR NEUTRON MATRIX CONVERSION
CILD DIG'ED FROM 2" LINEAR LOG
~ASCII -----------------------------------------------------
# ...
 8500.00000    9.49740    8.67820    9.49740    -999.25   17.75670    0.06640    0.06640    2.62060    0.05230    0.04640    -999.25   56.31680   51.13320   51.13320   10.29370    5.97230   10.29370   56.31680   40.57720  137.33250   40.57720    0.00860    0.00860    -999.25    2.62060 -166.16990  -98.71040  137.33250
 8550.00000    9.23640    9.11470    9.23640    -999.25   27.74390    0.03570    0.03570    2.86600   -0.09120   -0.09870    -999.25   36.04400   52.32440   52.32440   31.58630   19.05020   31.58630   36.04400   36.82810   82.37540   36.82810    0.02490    0.02490    -999.25    2.86600 -125.13420  -59.08400   82.37540
 8600.00000    8.87410    9.02450    8.87410    -999.25   11.07860    0.02640    0.02640    2.82630   -0.06800   -0.07450    -999.25   90.26440   48.75860   48.75860   16.00320   10.03410   16.00320   90.26440   89.32310  944.62880   89.32310    0.02840    0.02840    -999.25    2.82630 -147.11200  -82.48030  944.62880
 8650.00000   13.56880    9.80490   13.56880    -999.25    7.83970    0.23990    0.23990    2.46410    0.14380    0.14240    -999.25  127.55670   50.28450   50.28450   15.78820   11.48250   15.78820  127.55670   50.85120  177.94550   50.85120    0.05410    0.05410    -999.25    2.46410 -160.64360  -97.42120  177.94550
 8700.00000   13.31990    9.50690   13.31990    -999.25   35.98180    0.18250    0.18250    2.47270    0.13880    0.14060    -999.25   27.79180   51.25060   51.25060   21.21170   11.80290   21.21170   27.79180   33.28040   56.70640   33.28040    0.10090    0.10090    -999.25    2.47270 -145.35340  -83.54950   56.70640
 8750.00000    9.34630    9.07040    9.34630    -999.25    5.16700    0.09420    0.09420    2.70020    0.00570   -0.00190    -999.25  193.53480   50.70510   50.70510   22.30200   15.23520   22.30200  193.53480  174.85100  376.75740  174.85100    0.01750    0.01750    -999.25    2.70020  -96.83120  -36.43660  376.75740
 8800.00000    9.19970    9.09870    9.19970    -999.25    8.55400    0.05360    0.05360    2.73970   -0.01740   -0.02590    -999.25  116.90500   51.94390   51.94390   29.92240   18.33460   29.92240  116.90500   99.67310  192.78970   99.67310    0.03260    0.03260    -999.25    2.73970  -85.64830  -26.66300  192.78970
 8850.00000    9.25520    9.11300    9.25520    -999.25    4.79400    0.02370    0.02370    2.70580    0.00250   -0.00010    -999.25  208.59230   51.53570   51.53570   24.87960   16.10170   24.87960  208.59230  165.51920  309.27200  165.51920    0.01610    0.01610    -999.25    2.70580 -109.43210  -51.86530  309.27200
 8900.00000    8.98840    9.03120    8.98840    -999.25    3.20100    0.02150    0.02150    2.69220    0.01040    0.00170    -999.25  312.39960   50.90630   50.90630   22.19530   14.67200   22.19530  312.39960  267.57170  670.73650  267.57170    0.00840    0.00840    -999.25    2.69220 -110.80790  -54.65040  670.73650
 8950.00000    9.04540    9.10340    9.04540    -999.25    8.13040    0.02000    0.02000    2.72960   -0.01150   -0.01990    -999.25  122.99520   51.58560   51.58560   18.30450   14.76420   18.30450  122.99520  114.33630  181.13040  114.33630    0.01170    0.01170    -999.25    2.72960  -88.74240  -34.00350  181.13040
 9000.00000    9.16780    9.15820    9.16780    -999.25   42.23760    0.03730    0.03730    2.69690    0.00770   -0.00250    -999.25   23.67560   57.66650   57.66650   35.95260   25.81150   35.95260   23.67560   24.63630   29.34280   24.63630    0.06160    0.06160    -999.25    2.69690  -59.39950   -6.06980   29.34280
 9050.00000    9.34510    9.35710    9.34510    -999.25   85.04700    0.01800    0.01800    2.67760    0.01890    0.01530    -999.25   11.75820   64.20570   64.20570   54.57640   42.01930   54.57640   11.75820   11.19290   14.08010   11.19290    0.10940    0.10940    -999.25    2.67760  -55.20130   -3.28090   14.08010
 9100.00000    9.29780    9.24690    9.29780    -999.25   80.05760    0.01730    0.01730    2.68340    0.01560    0.00520    -999.25   12.49100   63.18810   63.18810   51.91520   36.46330   51.91520   12.49100   11.86830   15.60850   11.86830    0.10100    0.10100    -999.25    2.68340  -54.52350   -4.01330   15.60850
 9150.00000    9.32700    9.27170    9.32700    -999.25   96.20560    0.01220    0.01220    2.66440    0.02670    0.02480    -999.25   10.39440   66.22070   66.22070   59.02930   40.97010   59.02930   10.39440    9.83640   12.75630    9.83640    0.12260    0.12260    -999.25    2.66440  -53.15560   -3.91270   12.75630
 9200.00000    9.15320    9.07610    9.15320    -999.25   71.45310    0.05700    0.05700    2.71090   -0.00050   -0.00780    -999.25   13.99520   64.23690   64.23690   56.60530   39.41420   56.60530   13.99520   14.72960   18.84860   14.72960    0.12670    0.12670    -999.25    2.71090  -51.85820   -3.89090   18.84860
 9250.00000    9.26980    9.13550    9.26980    -999.25   30.20420    0.04280    0.04280    2.67110    0.02270    0.02070    -999.25   33.10800   66.88210   66.88210   70.17200   50.95050   70.17200   33.10800   29.95350   43.57750   29.95350    0.15900    0.15900    -999.25    2.67110  -54.57530   -7.87530   43.57750
 9300.00000   10.25350    9.54430   10.25350    -999.25   92.16340    0.19590    0.19590    2.72740   -0.01020   -0.01050    -999.25   10.85030   66.01140   66.01140   60.00130   36.58340   60.00130   10.85030   10.48810   14.12750   10.48810    0.11900    0.11900    -999.25    2.72740  -51.51660   -6.08390   14.12750
 9350.00000   11.86110   10.03880   11.86110    -999.25  105.64010    0.23890    0.23890    2.25280    0.26740    0.24840    -999.25    9.46610   75.75220   75.75220   74.25230   52.27960   74.25230    9.46610    8.17170    9.38430    8.17170    0.24360    0.24360    -999.25    2.25280  -54.71180  -10.55480    9.38430
 9400.00000   15.01560   12.81670   15.01560    -999.25  171.70920    0.23530    0.23530    2.10810    0.35200    0.34830    -999.25    5.82380   80.91520   80.91520   76.98190   54.22240   76.98190    5.82380    5.16010    6.40340    5.16010    0.31480    0.31480    -999.25    2.10810  -54.90020  -12.01050    6.40340
 9450.00000    9.48860    9.20300    9.48860    -999.25   68.47910    0.08180    0.08180    2.69950    0.00610   -0.00100    -999.25   14.60300   62.30740   62.30740   64.21340   42.69900   64.21340   14.60300   14.10960   18.64780   14.10960    0.11950    0.11950    -999.25    2.69950  -44.46890   -2.86500   18.64780
 9500.00000    9.40850    9.12130    9.40850    -999.25   79.15650    0.06470    0.06470    2.73130   -0.01250   -0.01770    -999.25   12.63320   65.75570   65.75570   81.74710   56.68740   81.74710   12.63320   11.84210   14.46040   11.84210    0.15400    0.15400    -999.25    2.73130  -44.65800   -4.44010   14.46040
 9550.00000    9.29550    9.13290    9.29550    -999.25   74.60740    0.06670    0.06670    2.66850    0.02430    0.01710    -999.25   13.40350   65.76330   65.76330   68.72310   45.86610   68.72310   13.40350   12.55270   16.50420   12.55270    0.15850    0.15850    -999.25    2.66850  -43.93680   -5.10480   16.50420
 9600.00000   10.84080    9.58980   10.84080    -999.25  120.80210    0.13460    0.13460    2.58230    0.07460    0.07510    -999.25    8.27800   72.12370   72.12370   92.76600   64.23720   92.76600    8.27800    8.04280   10.98270    8.04280    0.23080    0.23080    -999.25    2.58230  -46.20700   -8.77010   10.98270
 9650.00000    9.64860    9.23950    9.64860    -999.25  118.25780    0.24980    0.24980    2.67340    0.02140    0.01060    -999.25    8.45610   70.02660   70.02660   76.86220   54.52860   76.86220    8.45610    8.89530   11.24610    8.89530    0.19130    0.19130    -999.25    2.67340  -37.80610   -1.75520   11.24610
 9700.00000    9.21900    9.28430    9.21900    -999.25  115.12780    0.08280    0.08280    2.68400    0.01520    0.00050    -999.25    8.68600   71.15440   71.15440   82.92310   56.40110   82.92310    8.68600    9.02860   12.30920    9.02860    0.19380    0.19380    -999.25    2.68400  -41.50310   -6.55080   12.30920
