~Version ---------------------------------------------------
VERS.      2.0 : CWLS log ASCII Standard -VERSION 2.0
WRAP.       NO : One line per depth step
CREA. 07/28/17 : LAS Creation Date
~Well ------------------------------------------------------
STRT.FT              650.0 : START DEPTH
STOP.FT             8250.0 : STOP DEPTH
STEP.FT           50.00000 : STEP LENGTH
NULL.              -999.25 : NULL VALUE
COMP.  GULF CANADA LIMITED : COMPANY
WELL. SACHS NO. 10-36-43-1 : WELL
FLD .              WILDCAT : FIELD
LOC .                      : LOCATION
CTRY.               CANADA : COUNTRY
SRVC.              Unknown : SERVICE COMPANY
DATE.          17-Jan-1956 : LOGDATE
PROV.              Alberta : PROVINCE
UWI .     100103604301W500 : UNIQUE WELL ID
SLAT.WGS84        52.75062 : SURFACE LATITUDE
SLON.WGS84       -114.0099 : SURFACE LONGITUDE
~Curve Information -----------------------------------------
DEPT  .FT    : Depth Curve
ASNED .OHMM  : AMPLIFIED SHORT NORMAL 16" FROM EL
CALWS .IN    : MLT (MICROLOG) CALIPER [MCALED]
CONDWS.MMHO  : CONDUCTIVITY [1000/DRESWS]
DRESWS.OHMM  : DEEP RESISTIVITY [LNED]
LLED  .OHMM  : LATEROLOG FROM LL LOG
LNED  .OHMM  : 64 INCH LONG NORMAL RESISTIVITY FROM EL
LT18ED.OHMM  : LATERAL 18' FROM EL
MCALED.IN    : MLT (MICROLOG) CALIPER LOG
SPR1ED.MV    : SPONTANEOUS POTENTIAL FROM MICRO LOG
SPRED .MV    : SPONTANEOUS POTENTIAL FROM EL
SPWS  .MV    : SPONTANEOUS POTENTIAL [BASELINE 0 MV] [SPRED]
SRESWS.OHMM  : SHALLOW RESISTIVITY [ASNED]
~Params ----------------------------------------------------
LMF .                     KB : LOG MEASURED FROM
DMF .                     KB : DRILLING MEASURED FROM
EKB .FT               3073.1 : KELLY BUSHING
DATE.               01/17/56 : RUN DATE
RUN .                      2 : RUN NUMBER
DD  .FT                 8290 : DEPTH DRILLER
DL  .FT                 8288 : DEPTH LOGGER
BLI .FT                 8287 : BOTTOM LOG INTERVAL
TLI .FT                 6100 : TOP LOG INTERVAL
CBD .FT                  611 : CASING BOTTOM DRILLER
CBL .FT                  612 : CASING BOTTOM LOGGER
BS  .IN                    9 : BIT SIZE
BSD .FT                 8290 : BIT SIZE AT DEPTH
DFT .              LIME BASE : DRILLING FLUID TYPE
DFD .                   10.5 : DRILLING FLUID DENSITY
DFV .                     85 : DRILLING FLUID VISCOSITY
DFPH.                     12 : DRILLING FLUID PH
DFL .                    4.4 : DRILLING FLUID LOSS
RMS .OHMM                1.4 : RESISTIVITY MUD SAMPLE
MST .DEGF                 50 : MUD SAMPLE TEMPERATURE
RMB .OHMM                0.5 : RESISTIVITY MUD AT BHT
TCS .HRS                   6 : TIME CIRCULATED STOPPED
LUN .                   1772 : LOGGING UNIT NUMBER
LUL .                     RD : LOGGING UNIT LOCATION
ENGI.               SHOQUIST : RECORDING ENGINEER
WITN.                 EDIGFF : WITNESSED BY
CLNT.                A2DTECH : CLIENT CODE
ORIG.            2" 5" PRINT : ORIGIN OF DATA
UWI .       100103604301W500 : UNIQUE WELL ID
DICO. A2D Technologies, Inc. : DIGITIZING COMPANY
LSRV.                     EL : LOG MNEMONIC
~Other -----------------------------------------------------
~ASCII -----------------------------------------------------
# ...
 6250.00000   11.28990    9.19630   56.25560   17.77600   11.59870   17.77600   23.99520    9.19630  -52.70610  -16.68650   -1.68860   11.28990
 6300.00000   78.69480    9.17830    3.86730  258.57550  176.21280  258.57550  199.03380    9.17830  -78.83910  -42.82400  -29.58310   78.69480
 6350.00000   27.34070    8.50940   15.58650   64.15790  102.50770   64.15790  362.30610    8.50940 -135.51790 -104.08450  -92.60930   27.34070
 6400.00000   73.94570    9.19500    3.45140  289.73820 1085.67690  289.73820  497.15700    9.19500  -44.96960  -11.71920   -1.99230   73.94570
 6450.00000   76.48980    9.16440    2.85330  350.47190 4742.12360  350.47190  794.76450    9.16440  -44.08090  -11.48960   -3.52850   76.48980
 6500.00000   61.48860    9.20650    4.58570  218.06690  113.72820  218.06690  251.85560    9.20650  -48.87340  -17.75210  -11.53920   61.48860
 6550.00000   50.36970    9.04020    6.18920  161.57270  152.98540  161.57270  421.21510    9.04020 -102.84380  -71.69210  -67.23620   50.36970
 6600.00000   62.57560    9.24280    3.88510  257.39630  209.44510  257.39630  581.40250    9.24280  -71.38920  -43.25470  -40.56460   62.57560
 6650.00000   65.15420    9.59440    3.34450  298.99530  230.58130  298.99530  468.72280    9.59440  -68.07320  -41.83440  -40.89250   65.15420
 6700.00000   80.44690    8.96280    2.99460  333.93060  242.23110  333.93060  321.69950    8.96280  -78.28000  -54.27950  -55.10340   80.44690
 6750.00000   93.30980    9.68700    1.92400  519.74110  640.78190  519.74110  820.83230    9.68700  -85.09410  -63.16540  -65.73750   93.30980
 6800.00000   95.50230    9.24570    1.50360  665.08420 2973.52910  665.08420    -999.25    9.24570  -68.90510  -44.19480  -48.52390   95.50230
 6850.00000   74.14250    9.09960    2.73320  365.86640 3218.42770  365.86640    -999.25    9.09960  -41.45620  -15.38610  -21.48090   74.14250
 6900.00000  129.80750    9.05220    1.99810  500.47720 7739.36620  500.47720  683.21930    9.05220  -24.97600    4.25770   -3.58540  129.80750
 6950.00000   82.07550    9.24680    2.71690  368.06910  992.34690  368.06910  593.57790    9.24680  -33.45730   -1.45690  -11.18420   82.07550
 7000.00000  120.83520    9.00670    1.94410  514.38170  852.35510  514.38170  970.88890    9.00670  -52.77660  -16.16500  -27.75790  120.83520
 7050.00000   22.03190    8.95480   18.74240   53.35510   31.91730   53.35510   97.63570    8.95480  -58.91590  -17.82100  -31.28880   22.03190
 7100.00000   67.01070    8.61720    4.21960  236.98900  207.63170  236.98900  364.64230    8.61720 -124.82370  -81.66470  -97.01670   67.01070
 7150.00000   71.85080    8.92790    3.92740  254.62230  459.75220  254.62230  475.35410    8.92790 -123.33420  -78.57460  -95.79210   71.85080
 7200.00000  174.56640    8.95390    1.73290  577.07940 8012.10940  577.07940  309.80780    8.95390 -104.22110  -62.14190  -81.24370  174.56640
 7250.00000   22.89770    8.98280   17.50790   57.11710   28.54150   57.11710  124.47600    8.98280  -38.70110   -1.40710  -22.37440   22.89770
 7300.00000   36.30490    9.02180   12.52830   79.81960   78.92680   79.81960  145.72670    9.02180  -19.88070   11.17260   -8.25360   36.30490
 7350.00000   30.42590    9.02710   15.27660   65.45950   43.21850   65.45950  138.79410    9.02710  -42.65900   -8.21460  -15.22080   30.42590
 7400.00000   22.55740    9.02790   27.78430   35.99160   30.78210   35.99160   35.14400    9.02790  -41.86520   -8.81530   -7.57710   22.55740
 7450.00000   16.97350    9.09910   40.39900   24.75310   16.75220   24.75310   17.49100    9.09910  -48.20560  -13.38370  -10.16750   16.97350
 7500.00000   17.83380    9.12040   37.11770   26.94130   19.03030   26.94130   23.09400    9.12040  -53.14570  -18.37480  -13.20020   17.83380
 7550.00000   19.78890    9.03120   33.86830   29.52610   21.52890   29.52610   27.18990    9.03120  -57.10030  -20.20060  -13.05780   19.78890
 7600.00000   19.88360    9.04990   32.47200   30.79570   20.79170   30.79570   28.60720    9.04990  -57.54290  -20.55520  -11.43430   19.88360
 7650.00000   20.94780    9.07980   28.37890   35.23740   24.97350   35.23740   33.37880    9.07980  -57.08510  -21.84830  -10.76900   20.94780
 7700.00000   16.98260    9.11450   40.68030   24.58190   18.34070   24.58190   24.81980    9.11450  -62.67660  -23.64520  -10.58790   16.98260
 7750.00000   18.94980    9.06120   35.18180   28.42380   20.47690   28.42380   26.93770    9.06120  -63.58400  -28.82700  -13.81130   18.94980
 7800.00000   22.16220    9.03890   27.24330   36.70630   25.14860   36.70630   27.08020    9.03890  -61.67810  -28.04710  -11.06320   22.16220
 7850.00000   23.82770    9.02250   22.66080   44.12910   29.36300   44.12910   50.74600    9.02250  -62.20420  -29.66560  -10.70360   23.82770
 7900.00000   76.84210    9.01680    3.04100  328.83690  996.40270  328.83690  473.21200    9.01680  -59.79230  -26.51000   -5.58970   76.84210
 7950.00000   82.06660    9.09080    3.33670  299.69610  570.20380  299.69610  182.42020    9.09080  -60.55310  -26.64420   -5.38930   82.06660
 8000.00000  131.57880   10.47340    1.02130  979.17180    -999.25  979.17180 1609.88750   10.47340 -127.13680  -89.08190  -67.82700  131.57880
 8050.00000   57.55350    8.11400    4.04730  247.08100  266.74660  247.08100  620.73220    8.11400 -167.75390 -132.16540 -110.91050   57.55350
 8100.00000   61.46540    8.95910    4.49050  222.69370  486.72620  222.69370  585.20990    8.95910 -153.36610 -115.39120  -94.13630   61.46540
 8150.00000   30.21180    8.09450   15.33000   65.23150   39.45470   65.23150   71.71000    8.09450 -160.90990 -125.35260 -104.09770   30.21180
 8200.00000   57.92200    8.88180    4.41370  226.56620  134.02390  226.56620  207.44840    8.88180 -129.92290  -92.93660  -71.68170   57.92200
 8250.00000   51.31050    8.98440    2.56390  390.03370 1342.43260  390.03370 2137.13110    8.98440  -50.32880  -15.65290    5.60200   51.31050
