~Version ---------------------------------------------------
VERS. 2.0 : CWLS log ASCII Standard -VERSION 2.0
WRAP.  NO : ONE LINE PER DEPTH STEP
~Well ------------------------------------------------------
STRT.F                     1250.0 : START DEPTH
STOP.F                     9750.0 : STOP DEPTH
STEP.F                   50.00000 : STEP LENGTH
NULL.                     -999.25 : NULL VALUE
COMP.  PHILLIPS PETROLEUM COMPANY : COMPANY
WELL. PHILLIPS KAYBOB 10-34-64-19 : WELL
FLD .                             : FIELD
LOC .                             : LOCATION
CTRY.                      CANADA : COUNTRY
SRVC.                       Welex : SERVICE COMPANY
DATE.                 14-Dec-1960 : LOGDATE
PROV.                     Alberta : PROVINCE
UWI .            100103406419W500 : UNIQUE WELL ID
SLAT.WGS84               54.58335 : SURFACE LATITUDE
SLON.WGS84               -116.782 : SURFACE LONGITUDE
~Curve Information -----------------------------------------
DEPT.F    0   1   0  0 : 1 MEASURED DEPTH
GRN .CPS  35 310 30 00 : GAMMA RAY FROM GRN LOG
NEUT.CPS  35 330 30 00 : NEUTRON
MCAL.IN   15 280 01 00 : MLT (MICROLOG) CALIPER
LAT9.OHMM 01 070 09 00 : LATERAL 9'
LT16.OHMM 01 070 16 00 : LATERAL 16'
SN  .OHMM 01 040 18 00 : SHORT NORMAL RESISTIVITY
SPR .MV   01 010 01 00 : SPONTANEOUS POTENTIAL FROM RESISTIVITY LOG
~Params ----------------------------------------------------
PD  .                             SCF : PERMANENT DATUM
LMF .                              KB : LOG MEASURED FROM
DAPD.FT                         14.41 : FEET ABOVE PERMANENT DATUM
DMF .                              KB : DRILLING MEASURED FROM
EKB .FT                          2452 : KELLY BUSHING
EGL .FT                          2437 : GROUND LEVEL
DATE.                        12/14/60 : RUN DATE
RUN .                               1 : RUN NUMBER
DD  .FT                          9756 : DEPTH DRILLER
DL  .FT                          9757 : DEPTH LOGGER
BLI .FT                          9756 : BOTTOM LOG INTERVAL
TLI .FT                          1245 : TOP LOG INTERVAL
CS  .IN                         9.625 : CASING SIZE
CBD .FT                          1253 : CASING BOTTOM DRILLER
CBL .FT                          1245 : CASING BOTTOM LOGGER
BS  .IN                         7.875 : BIT SIZE
BSD .FT                          9756 : BIT SIZE AT DEPTH
DFT . OIL EMULSION GEL CAUSTIC TANNEX : DRILLING FLUID TYPE
DFD .                            10.5 : DRILLING FLUID DENSITY
DFV .                             115 : DRILLING FLUID VISCOSITY
DFPH.                             9.5 : DRILLING FLUID PH
DFL .                             5.3 : DRILLING FLUID LOSS
MSS .                      CIRCULATED : MUD SAMPLE SOURCE
RMS .OHMM                        2.73 : RESISTIVITY MUD SAMPLE
MST .DEGF                          72 : MUD SAMPLE TEMPERATURE
RMF .OHMM                        1.07 : RESISTIVITY MUD FILTRATE SAMPLE
MFST.DEGF                         195 : MUD FILTRATE SAMPLE TEMPERATURE
RMC .OHMM                        1.14 : RESISTIVITY MUD CAKE
MCST.DEGF                         195 : MUD CAKE SAMPLE TEMPERATURE
RMB .OHMM                        1.09 : RESISTIVITY MUD AT BHT
ENGI.                          DOWHAN : RECORDING ENGINEER
WITN.                        WILLIAMS : WITNESSED BY
CLNT.                         A2DTECH : CLIENT CODE
ORIG.                     2" 5" PRINT : ORIGIN OF DATA
UWI .                100103406419W500 : UNIQUE WELL ID
DICO.          A2D Technologies, Inc. : DIGITIZING COMPANY
~Other -----------------------------------------------------
~ASCII -----------------------------------------------------
 1250.00000   58.50500  305.52510   11.07040    -999.25    1.39370    3.65850  -52.14850
 1300.00000   81.04910  314.72140   13.22550    4.60530    6.29340    4.05680  -53.36380
 1350.00000   56.00970  394.76010    9.01360   15.58450   11.84000    5.52330  -54.63790
 1400.00000   65.93030  348.14050    9.38710    5.70050    5.99570    8.79690  -59.92470
 1450.00000   55.65280  297.72260   11.39530    5.26810    5.88660    3.78620  -54.29420
 1500.00000   70.38240  337.54220   12.38750    3.12010    3.40590    4.59280  -55.41670
 1550.00000   53.25930  303.26600    9.52380    9.11010    9.90030    6.35870  -62.49750
 1600.00000   65.26190  320.61080   10.60320    2.91290    4.42020    3.89880  -54.74950
 1650.00000   51.78050  368.79330    8.62100   16.31320   13.02640   14.65510  -68.72960
 1700.00000   55.18590  388.18620    8.19450   20.04710   20.29770   15.60530  -68.08480
 1750.00000   45.23190  393.39280   10.43660   30.10830   25.80010    6.43950  -57.62520
 1800.00000   70.93240  293.64950   10.01770    4.30160    5.46980    4.71600  -56.51980
 1850.00000   58.09840  390.45900    8.30540    5.91910    5.79210    7.84700  -56.32860
 1900.00000   58.85910  315.59870    9.69260    6.51110    6.36200    5.93970  -55.14750
 1950.00000   55.36750  315.00960    9.52540    4.85750    5.08300    4.23700  -57.01430
 2000.00000   55.60090  323.84600    9.66980    9.16520   12.54420    6.43050  -58.74260
 2050.00000   56.25800  348.78380   11.10060    5.84220    4.20240    5.00440  -57.17070
 2100.00000   49.36370  310.20900   10.82490    6.71670    5.46630    4.77430  -57.05360
 2150.00000   54.08980  313.80520    9.53400    3.17140    3.97290    5.39910  -57.41150
 2200.00000   46.66590  393.45090    8.63070   26.77830   19.51650   17.13570  -72.53330
 2250.00000   59.98510  398.66980    8.62560   12.35850   10.00370   17.78850  -67.07660
 2300.00000   60.41990  394.05030    9.92990    5.89810    5.79640    5.47820  -56.71510
 2350.00000   64.01570  322.89930   11.90460    4.15810    5.71790    5.40360  -56.93720
 2400.00000   49.59230  409.59680    9.86010   15.80550   10.56650   14.39180  -72.37360
 2450.00000   63.74180  334.75240   10.47310    7.56930    5.41280    7.06470  -57.06920
 2500.00000   64.44070  311.37740   10.23890    6.37320    7.86570    5.81060  -57.29830
 2550.00000   63.96780  326.70360   10.64980    6.56710    5.98710    6.09410  -58.09430
 2600.00000   63.16730  301.79810   10.92230    7.22940    6.10770    7.28800  -61.65010
 2650.00000   84.71150  313.38410    9.38090    8.86490    8.26630    9.20350  -61.84500
 2700.00000   89.08980  289.14100   10.01710    7.91110    8.12800    7.44930  -62.64030
 2750.00000  105.62600  315.40610   10.89900    9.40390    8.09130    8.40690  -59.32250
 2800.00000  105.83980  340.87300   11.28000   13.52300   11.73630   10.87340  -62.46510
 2850.00000   93.63630  302.71500   11.86930    9.44060    8.67140    8.41130  -60.59790
 2900.00000   96.65820  282.98900   12.12920    9.35980    8.06220    7.04720  -63.99910
 2950.00000   92.46380  307.81620   10.52830    8.00750    7.40150    8.73210  -63.19240
 3000.00000   90.77550  317.13170    9.80100   10.53300   11.10130    8.75000  -64.73950
 3050.00000   81.15020  311.11210   10.68850   11.18550   11.11860    9.29910  -62.30540
 3100.00000   91.72350  305.35130   11.31710   10.00860    8.56710    8.28750  -62.66800
 3150.00000   93.77100  292.38890    9.52020    9.07450    8.18340    8.83350  -62.60150
 3200.00000   90.49640  314.79710    9.09550   10.43170    8.88060    9.82620  -62.66670
 3250.00000   94.28220  314.89980   10.61250    9.88510    9.09750    8.48650  -61.96190
 3300.00000   83.40380  313.91490    9.68410   12.08830   10.40780   10.94030  -62.01460
 3350.00000  106.71220  326.02150   10.38150    9.63640    8.69270    9.37790  -61.65460
 3400.00000   97.83260  332.66130   10.75970   10.70890    9.00190    9.89560  -60.17140
 3450.00000   97.88950  327.68710   10.82560    8.74570    9.03770    9.84640  -61.02840
 3500.00000  100.57320  312.37620   10.70300    8.82240    8.05040    8.13280  -60.40220
 3550.00000   97.78160  308.36610   10.56550   10.07550    8.26640    9.12100  -59.74300
 3600.00000  105.17220  294.77620   10.49610    9.07480    7.40010    9.87640  -59.56340
 3650.00000  111.46160  301.47970   10.44850    9.97260    8.94770   10.47870  -58.68010
 3700.00000  103.67450  310.53120    9.94570   10.06710    8.87830   11.24480  -59.54320
 3750.00000  105.44890  312.11220    9.70150    9.56870    9.51990   10.50010  -60.64110
 3800.00000  124.90480  326.53650    8.87860   17.86250    9.24880   20.32900  -59.27980
 3850.00000  116.70270  328.93110    9.43210   10.39150    8.80270   11.01660  -59.98440
 3900.00000   94.15850  338.73050    9.28890    5.63560    5.61820    9.19620  -60.32350
 3950.00000   94.06730  435.08590    9.44700    9.66430    7.00670    9.50150  -59.49280
 4000.00000  100.48950  346.94600    9.75260    8.45630    7.70740    9.63480  -59.86560
 4050.00000   96.32450  333.75950   10.34570    7.30370    5.75770    8.00130  -58.92160
 4100.00000   93.64400  353.64810    9.36200    8.34070    7.43080    9.29490  -58.13720
 4150.00000   95.51740  299.73510   10.72380    5.16930    4.69810    5.98370  -57.04910
 4200.00000   88.37000  297.20710   11.15700    5.81920    5.10090    7.21840  -57.87690
 4250.00000   79.24370  289.68970   11.18180    6.33520    5.20780    7.55300  -56.65840
 4300.00000  108.56640  319.86580   11.52320    4.66020    7.03810    4.88520  -56.40800
 4350.00000  109.21220  324.69590   13.05880    2.79930    2.69320    3.92260  -56.77560
 4400.00000  101.19950  323.32810   13.18050    4.44140    4.81390    6.20900  -57.31180
 4450.00000  112.63590  350.37010   12.75170    5.43080    5.11530    6.04240  -57.24080
 4500.00000  117.55150  436.62390   10.24740   26.49230   26.80940   15.04750  -58.57780
 4550.00000   83.65700  305.99540   11.11050    3.80120    4.57720    3.33390  -57.62250
 4600.00000   59.65190  400.71250    9.52010   25.28520   25.41080    7.77830  -65.57610
 4650.00000   73.58360  376.48190    8.38500   18.83120    3.74100   17.87690  -92.39190
 4700.00000   74.95440  298.30240    9.06840   25.41210   38.67910   19.76110  -64.13090
 4750.00000   62.28760  379.70040   10.21840   28.01180    7.82040   16.82970  -62.31850
 4800.00000   71.60040  402.44950   10.62500   28.37390   26.53690   14.00650  -60.96420
 4850.00000   72.57250  348.13670   10.69640   17.39300    6.22300   19.18950  -57.68450
 4900.00000   93.49330  388.85990   10.69700   14.37280   11.74300   13.12740  -58.17860
 4950.00000   66.95260  415.84100   10.70910    8.50280    7.32640    9.73460  -59.05360
 5000.00000   87.99090  291.79500   10.32890    7.80320   12.84740   20.35610  -50.01210
 5050.00000   77.14510  411.35870   10.16350   15.04540    3.78030   13.94630  -51.28180
 5100.00000   59.34570  449.24040    8.53790   29.35530    8.40760   27.72310 -100.75210
 5150.00000   62.28300  389.79720   10.25730    9.42970    7.90220   13.93140  -61.10990
 5200.00000   69.36000  436.14160    9.97860   12.35880    8.30240   13.45580  -39.63900
 5250.00000   97.93360  415.02980    9.87450   19.31990   14.39160   15.71740  -37.42800
 5300.00000   81.88400  297.56240    9.56570    9.45500    6.72970   11.03060  -36.74610
 5350.00000   77.68060  413.27460   10.73400   36.37800   14.15960   28.39980  -62.60910
 5400.00000   41.49060  450.04380    9.06310   48.12790   22.41500   39.23920  -41.61320
 5450.00000   51.75470  450.34450    8.66760   66.20120   23.73600   39.91390  -81.35690
 5500.00000   62.12530  395.66810   11.32980    7.87500    8.90440   10.48860  -35.62040
 5550.00000  102.67920  283.02080   12.44270    4.05280    3.93980    5.47520  -34.38600
 5600.00000   82.84440  356.19410   10.36580   11.57100    5.48730   11.03390  -31.56590
 5650.00000   89.30200  348.90250    9.73920   16.42410   10.54210   49.55890  -48.37440
 5700.00000  143.11420  333.65510    9.62670   43.62970   42.97740   33.99820  -49.39390
