~Version ---------------------------------------------------
VERS. 2.0 : CWLS log ASCII Standard -VERSION 2.0
WRAP.  NO : ONE LINE PER DEPTH STEP
~Well ------------------------------------------------------
STRT.F                 300.0 : START DEPTH
STOP.F                8300.0 : STOP DEPTH
STEP.F              50.00000 : STEP LENGTH
NULL.                -999.25 : NULL VALUE
COMP.   IMPERIAL OIL LIMITED : COMPANY
WELL. IMP FREEMAN 10-31-63-7 : WELL
FLD .                        : FIELD
LOC .                        : LOCATION
CTRY.                 CANADA : COUNTRY
SRVC. Schlumberger of Canada : SERVICE COMPANY
DATE.            16-Oct-1958 : LOGDATE
PROV.                Alberta : PROVINCE
UWI .       100103106307W500 : UNIQUE WELL ID
SLAT.WGS84          54.49585 : SURFACE LATITUDE
SLON.WGS84         -115.0433 : SURFACE LONGITUDE
~Curve Information -----------------------------------------
DEPT.F    0   1   0  0 : 1 MEASURED DEPTH
GRN .GAPI 35 310 01 00 : GAMMA RAY FROM GRN LOG
NEUT.NAPI 35 330 01 00 : NEUTRON
MCAL.IN   15 280 01 00 : MLT (MICROLOG) CALIPER
CILD.MMHO 01 110 46 00 : INDUCTION DEEP CONDUCTIVITY
ILD .OHMM 01 120 46 00 : INDUCTION DEEP RESISTIVITY
SPR .MV   01 010 01 00 : SPONTANEOUS POTENTIAL FROM RESISTIVITY LOG
SN  .OHMM 01 040 16 00 : SHORT NORMAL RESISTIVITY
~Params ----------------------------------------------------
LMF .                     KB : LOG MEASURED FROM
DMF .                     KB : DRILLING MEASURED FROM
EKB .FT                 2612 : KELLY BUSHING
DATE.               10/16/58 : RUN DATE
RUN .                      1 : RUN NUMBER
TCS .HRS                   4 : TIME CIRCULATED STOPPED
ENGI.                  GOETZ : RECORDING ENGINEER
WITN.                 WILSON : WITNESSED BY
CLNT.                A2DTECH : CLIENT CODE
ORIG.            2" 5" PRINT : ORIGIN OF DATA
UWI .       100103106307W500 : UNIQUE WELL ID
DICO. A2D Technologies, Inc. : DIGITIZING COMPANY
~Other -----------------------------------------------------
~ASCII -----------------------------------------------------
# ...
 4800.00000    0.63700    5.99270    9.73880    7.82130  129.41090 -102.17530   55.64110
 4850.00000    0.64230    8.85110    9.36190   13.95230   81.49690 -109.47840   57.13290
 4900.00000    0.76390    6.40090    9.13590   35.83420   27.88270 -113.97100   38.78810
 4950.00000    0.64870    8.29270    8.32600   27.81430   35.19910 -158.44510   37.05030
 5000.00000    0.63560    5.81800    9.11840  211.50960    5.97540 -140.08350   16.78960
 5050.00000    0.64380    3.64290    8.68310   25.87980   36.61030 -146.05380   34.05130
 5100.00000    0.68120    4.98800    8.63560   59.02040   16.99620 -163.44030   27.76460
 5150.00000    0.67960    7.24760    9.00790   32.09280   30.36510 -143.94960   38.63360
 5200.00000    0.66750    7.11430    9.33820   12.25150   96.11870 -113.26590   59.50140
 5250.00000    0.62830    3.97060    8.67410   39.63360   25.12280 -146.69790   30.95990
 5300.00000    0.61300    7.43460    8.76180   26.60830   35.72480 -155.77750   40.10160
 5350.00000    0.69970    7.84710    9.04980  209.99230    6.25700 -166.79110   21.17600
 5400.00000    0.72460    5.41050    9.47050    4.81790  225.60040 -105.66530   76.99340
 5450.00000    0.83220    5.06570    9.29340  272.93980    4.89300 -129.34560    5.78850
 5500.00000    0.79360    5.36580    8.44400    7.19540  116.24130 -159.27890   62.26610
 5550.00000    0.94000    5.09020    9.08930   53.12260   19.12950 -175.76070   32.86150
 5600.00000    0.98750    5.16410    8.98810   69.11200   13.36500 -171.89590   21.33980
 5650.00000    1.22560    6.07070    9.11160   59.27790   15.75710 -103.69270   17.65230
 5700.00000    1.34630    4.69420    9.33360  116.01800    9.31090  -86.28010   12.36710
 5750.00000    1.37160    3.71940    -999.25  161.59410    6.79930  -83.56100    7.40800
 5800.00000    1.67510    2.34600    -999.25  208.05640    5.44240  -82.35640    6.04880
 5850.00000    1.62630    1.93950    -999.25  493.43920    2.88660  -73.86380    3.13420
 5900.00000    1.35170    5.90420    -999.25   72.63030   12.94910 -101.12460   15.36480
 5950.00000    1.22240    7.14540    -999.25   42.82570   22.71010  -94.32720   19.96830
 6000.00000    1.52750    3.07510    -999.25  249.19400    4.77050  -80.25730    5.29520
 6050.00000    1.69760    2.04010    -999.25  302.78500    4.02490  -59.90030    4.38540
 6100.00000    1.38180    2.07530    -999.25  324.18390    4.14000  -58.45610    4.51790
 6150.00000    1.46020    2.11990    -999.25  247.92840    4.90690  -63.08840    5.28850
 6200.00000    1.40710    1.93540    -999.25  333.51100    3.87400  -53.09780    4.29460
 6250.00000    1.58980    1.95010    -999.25  242.29770    5.04930  -66.42250    5.40640
 6300.00000    1.30220    5.60740    -999.25  309.84580    4.27820  -70.64830    4.97700
 6350.00000    1.35600    4.61750    -999.25   87.64160   11.23020  -66.89300   14.01030
 6400.00000    0.97780    4.25190    -999.25   91.87480   10.70970  -71.48020   13.83380
 6450.00000    1.32870    2.13060    -999.25   79.73430   11.68760  -66.78720   12.93710
 6500.00000    1.07620    4.84330    -999.25  169.12520    6.60590  -70.83690    7.51490
 6550.00000    1.66090    5.04960    -999.25  141.18860    7.52030  -68.77690    8.51130
 6600.00000    1.24580    3.48690    -999.25   17.30360   61.53100  -65.03510   35.91430
 6650.00000    1.13640    4.70520    -999.25   77.33770   12.50230  -66.79810   15.58230
 6700.00000    0.81670    5.21480    -999.25   98.87690   10.01530  -67.35060   11.35860
 6750.00000    1.63010    1.54620    -999.25  115.87190    9.10460  -50.79200    9.73370
 6800.00000    1.45830    1.25180   11.54950  126.95420    8.49760  -67.65350    6.52770
 6850.00000    1.83330    1.14630   11.37730  189.36580    6.10070  -59.16180    6.82140
 6900.00000    0.92510    4.91340    9.34390   51.62780   17.80760  -62.59440   21.12610
 6950.00000    1.35550    2.06690    9.37370  111.56170    9.39640  -70.59830   11.54050
 7000.00000    1.28570    5.11500    9.31940  106.43320    9.77140  -71.70020   11.67190
 7050.00000    1.03090    4.33600    9.42720   33.48540   31.06690  -71.15650   23.90190
 7100.00000    1.25030    4.25750    9.23880   84.90920   11.50980  -52.33470   13.26550
 7150.00000    0.60500   10.39040    9.11930   12.13800   85.84770  -58.92500   38.62580
 7200.00000    1.00060    5.31000    9.16940   18.61470   60.43240  -57.47440   32.08700
 7250.00000    0.73270   10.60670    9.30370   37.11890   40.55810  -59.89350   29.81500
 7300.00000    0.68980    4.39420    9.36110    4.84190  310.77110  -59.36910   64.67350
 7350.00000    0.72330    3.72810    9.36500   13.77970   82.05530  -50.68350   47.98460
 7400.00000    1.04930    2.71230    9.46580   10.36330   96.40090  -51.93500   46.26550
 7450.00000    1.95750    2.25880    9.42910   51.45620   19.85540  -55.86730   23.69660
 7500.00000    1.88220    2.26840    9.43670  138.13810    8.73950  -85.64330   14.05960
 7550.00000    1.97560    2.76490    9.25690  236.80000    4.95900  -92.88960    6.98040
 7600.00000    1.74720    4.83780    9.22250   98.21130   10.21450  -66.11780   14.54590
 7650.00000    2.02460    2.81650    9.20610  108.91130    9.80000  -57.41720   12.11940
 7700.00000    1.99930    2.23110    9.53630   86.22560   11.37150  -70.87870   12.03400
 7750.00000    2.35980    1.54320   10.31950   83.92760   11.40330  -55.53660   12.78330
 7800.00000    2.13930    3.96340    9.78660   97.90210   10.80080  -47.10790   12.40370
 7850.00000    1.75720    6.74920    7.25400   75.23800   13.16290 -157.02890   17.62070
 7900.00000    2.18680    6.94790   12.11670  167.96690    9.91050  -53.68730   14.66540
 7950.00000    2.13820    3.51420    9.04390   77.07790   12.70780  -59.12600   15.18030
 8000.00000    2.22490    5.70250    9.45890   33.06930   29.53810  -51.22830   24.86930
 8050.00000    2.54300    2.87080    9.64500  157.05850    6.96150  -62.96560    8.87870
 8100.00000    2.32870    2.49650   10.10620  288.06390    4.37040 -120.98960    5.52980
 8150.00000    2.10220    4.95230    9.42300  128.32290    8.49770 -128.58330   11.45490
 8200.00000    2.38300    1.68540   11.42030  271.38970    4.75600  -82.90630    6.01780
 8250.00000    2.27920    4.47810    9.11690  173.51270    -999.25  -95.73570   11.64220
 8300.00000    -999.25    -999.25   12.22980    -999.25    -999.25    -999.25    -999.25
