~Version ---------------------------------------------------
VERS. 2.0 : CWLS log ASCII Standard -VERSION 2.0
WRAP. YES : MULTIPLE LINES PER DEPTH STEP
~Well ------------------------------------------------------
STRT.FT                      2000.0 : START DEPTH
STOP.FT                     17600.0 : STOP DEPTH
STEP.FT                    50.00000 : STEP LENGTH
NULL.                      -99925.0 : NULL VALUE
COMP.        SEAFORT PETROLEUM LTD. : COMPANY
WELL. SEAFORT ET AL KAKWA 2-20-61-7 : WELL
FLD .                               : FIELD
LOC .                               : LOCATION
CTRY.                        CANADA : COUNTRY
SRVC.        Schlumberger of Canada : SERVICE COMPANY
DATE.                   12-Aug-1975 : LOGDATE
PROV.                       Alberta : PROVINCE
UWI .              100022006107W600 : UNIQUE WELL ID
SLAT.WGS84                 54.28609 : SURFACE LATITUDE
SLON.WGS84                -119.0081 : SURFACE LONGITUDE
~Curve Information -----------------------------------------
DEPT    .FT    : DEPTH FEET
CALDED  .IN    : CALIPER FROM DENSITY LOG [ADJ TO GRRED]
CALSED  .IN    : CALIPER FROM SONIC LOG
CALWS   .IN    : CALIPER [CALSED]
CONDWS  .MMHO  : CONDUCTIVITY [1000/DRESWS]
DCORED  .G/C3  : DENSITY CORRECTION FROM DENSITY LOG [ADJ TO GRRED]
DCORWS  .G/C3  : DENSITY CORRECTION [DCORED]
DENWS   .G/C3  : BULK DENSITY [M=2.65 F=1.0] <14590> [M=2.71 F=1.0] [RHOBED]
DPHILSED.V/V   : DENSITY POROSITY [M=2.71 F=1.0] FROM DENSITY LOG [ADJ TO GRRED]
DPHISSED.V/V   : DENSITY POROSITY [M=2.65 F=1.0] FROM DENSITY LOG [ADJ TO GRRED]
DPOWS   .V/V   : DENSITY POROSITY [M=2.71 F=1.0] [CALCULATED FROM DENWS]
DRESWS  .OHMM  : DEEP RESISTIVITY [SPL ILDED <14590> LLDED]
DTED    .US/F  : DELTA TIME FROM SONIC LOG
DTWS    .US/F  : DELTA TIME [DTED]
GRDED   .GAPI  : GAMMA RAY FROM DENSITY LOG [ADJ TO GRRED]
GRRED   .GAPI  : GAMMA RAY FROM RESISTIVITY LOG
GRSED   .GAPI  : GAMMA RAY FROM SONIC LOG
GRWS    .GAPI  : GAMMA RAY [GRSED, CSG ABOVE 2005F]
ILDED   .OHMM  : INDUCTION LOG DEEP RESISTIVITY
ILMED   .OHMM  : INDUCTION LOG MEDIUM RESISTIVITY
LL8ED   .OHMM  : 8 INCH LATEROLOG RESISTIVITY
LLDED   .OHMM  : LATEROLOG DEEP RESISTIVITY
LLSED   .OHMM  : LATEROLOG SHALLOW RESISTIVITY
MRESWS  .OHMM  : MEDIUM RESISTIVITY [ILMED]
NPHILSED.V/V   : NEUTRON POROSITY LIMESTONE FROM DENSITY LOG [ADJ TO GRRED]
NPHISSED.V/V   : NEUTRON POROSITY SANDSTONE FROM DENSITY LOG [ADJ TO GRRED]
NPOWS   .V/V   : NEUTRON POROSITY LIMESTONE [CONVERTED NPHISSED TO LIMESTONE SPL WITH NPHILSED @14516F]
RHOBED  .G/C3  : BULK DENSITY FROM DENSITY LOG [ADJ TO GRRED]
SPRED   .MV    : SPONTANEOUS POTENTIAL FROM RESISTIVITY LOG
SPWS    .MV    : SPONTANEOUS POTENTIAL [BASELINE 0 MV] [SPRED]
SRESWS  .OHMM  : SHALLOW RESISTIVITY [SPL LL8ED <14590> LLSED]
~Params ----------------------------------------------------
PD  .                     GL : PERMANENT DATUM
EPD .FT                 3465 : ELEVATION PERMANENT DATUM
LMF .                     KB : LOG MEASURED FROM
DAPD.FT                   21 : FEET ABOVE PERMANENT DATUM
EKB .FT                 3486 : KELLY BUSHING
EGL .FT                 3465 : GROUND LEVEL
DATE.               10/06/75 : RUN DATE
RUN .                      2 : RUN NUMBER
DD  .FT                17618 : DEPTH DRILLER
DL  .FT                17600 : DEPTH LOGGER
BLI .FT                17600 : BOTTOM LOG INTERVAL
TLI .FT                14577 : TOP LOG INTERVAL
CBD .FT                14590 : CASING BOTTOM DRILLER
CBL .FT                14577 : CASING BOTTOM LOGGER
BS  .IN                  9.5 : BIT SIZE
BSD .FT                17618 : BIT SIZE AT DEPTH
DFT .                    GEL : DRILLING FLUID TYPE
DFD .                   13.8 : DRILLING FLUID DENSITY
DFV .                    115 : DRILLING FLUID VISCOSITY
DFPH.                     11 : DRILLING FLUID PH
DFL .                      7 : DRILLING FLUID LOSS
RMS .OHMM              0.809 : RESISTIVITY MUD SAMPLE
MST .DEGF                 75 : MUD SAMPLE TEMPERATURE
WITN.                  BROWN : WITNESSED BY
CLNT.                A2DTECH : CLIENT CODE
ORIG.               5" PRINT : ORIGIN OF DATA
UWI .       100022006107W600 : UNIQUE WELL ID
DICO. A2D Technologies, Inc. : DIGITIZING COMPANY
~Other -----------------------------------------------------
~ASCII -----------------------------------------------------
# ...
 14000.00000   12.36240   13.30480   13.30480   89.39270    0.10870    0.10870    2.41010   -99925.0    0.14430    0.17540   11.18660   50.95510   50.95510   23.51960  227.74570   23.40300   23.40300   11.18660   45.54810   37.01940 8813.70900   93.37870   45.54810   -99925.0    0.03970    0.00820    2.41010 -174.30820  -52.05350   37.01940
 14050.00000   12.18400   13.57510   13.57510   57.38450    0.00700    0.00700    2.72650   -99925.0   -0.05390   -0.00960   17.42630   49.13050   49.13050   20.43060  224.16280   21.47180   21.47180   17.42630  235.73760   68.96650 40198.59380  192.05010  235.73760   -99925.0    0.01260   -0.01080    2.72650 -147.90270  -36.27100   68.96650
 14100.00000   12.24990   13.51240   13.51240   54.74980    0.00950    0.00950    2.77600   -99925.0   -0.08190   -0.03860   18.26490   50.99550   50.99550   38.90220  243.47340   39.32240   39.32240   18.26490  316.16230   44.38290  833.50370  180.13660  316.16230   -99925.0    0.02970    0.00090    2.77600 -102.75900   -0.10410   44.38290
 14150.00000   12.17140   13.06750   13.06750   73.22680   -0.00100   -0.00100    2.74450   -99925.0   -0.06550   -0.02020   13.65620   49.32640   49.32640   31.28730  238.98860   32.10130   32.10130   13.65620   59.38470   52.97870 1576.45100  437.98160   59.38470   -99925.0    0.01420   -0.00980    2.74450 -138.42530  -33.50560   52.97870
 14200.00000   12.27300   13.61990   13.61990   57.85830    0.01580    0.01580    2.80340   -99925.0   -0.09640   -0.05460   17.28360   48.69070   48.69070   26.42710  228.30480   28.13100   28.13100   17.28360   34.83160   45.75040 12175.82320  401.23870   34.83160   -99925.0    0.01200   -0.01120    2.80340 -142.43940  -37.00420   45.75040
 14250.00000   12.27060   12.66730   12.66730   59.52740    0.02280    0.02280    2.71650   -99925.0   -0.04350   -0.00380   16.79900   50.02180   50.02180   28.02430  238.38200   44.42890   44.42890   16.79900   54.88720   41.06020   85.69650   94.22510   54.88720   -99925.0    0.01780   -0.00730    2.71650 -150.82020  -44.86950   41.06020
 14300.00000   12.25330   13.13520   13.13520  103.85400    0.05000    0.05000    2.73530   -99925.0   -0.05530   -0.01480    9.62890   49.30450   49.30450   17.37500  222.38310   22.23720   22.23720    9.62890   76.41480   42.97520 32294.00390  179.55680   76.41480   -99925.0    0.01340   -0.01030    2.73530 -137.54220  -31.07600   42.97520
 14350.00000   12.03410   13.04160   13.04160   21.17940    0.03870    0.03870    2.77780   -99925.0   -0.07590   -0.03960   47.21560   50.48590   50.48590   -99925.0   -99925.0   -99925.0   -99925.0   47.21560 2006.95740   96.09400   -99925.0   -99925.0 2006.95740   -99925.0   -99925.0   -99925.0    2.77780 -138.12020  -31.13850   96.09400
 14400.00000   -99925.0   -99925.0   -99925.0   -99925.0   -99925.0   -99925.0   -99925.0   -99925.0   -99925.0   -99925.0   -99925.0   -99925.0   -99925.0   -99925.0   -99925.0   -99925.0   -99925.0   -99925.0   -99925.0   -99925.0   -99925.0   -99925.0   -99925.0   -99925.0   -99925.0   -99925.0   -99925.0   -99925.0   -99925.0   -99925.0
 14450.00000   -99925.0   -99925.0   -99925.0   -99925.0   -99925.0   -99925.0   -99925.0   -99925.0   -99925.0   -99925.0   -99925.0   -99925.0   -99925.0   -99925.0   -99925.0   -99925.0   -99925.0   -99925.0   -99925.0   -99925.0   -99925.0   -99925.0   -99925.0   -99925.0   -99925.0   -99925.0   -99925.0   -99925.0   -99925.0   -99925.0
 14500.00000   -99925.0   -99925.0   -99925.0   -99925.0   -99925.0   -99925.0   -99925.0   -99925.0   -99925.0   -99925.0   -99925.0   -99925.0   -99925.0   20.75160   -99925.0   -99925.0   -99925.0   -99925.0   -99925.0   -99925.0   -99925.0   -99925.0   -99925.0   -99925.0   -99925.0   -99925.0   -99925.0   -99925.0   -99925.0   -99925.0
 14550.00000   -99925.0   -99925.0   -99925.0   -99925.0   -99925.0   -99925.0   -99925.0   -99925.0   -99925.0   -99925.0   -99925.0   -99925.0   -99925.0   15.84590   11.58600   14.31680   14.31680   -99925.0   -99925.0   -99925.0   -99925.0   -99925.0   -99925.0    0.07400   -99925.0   -99925.0   -99925.0   -99925.0   -99925.0   -99925.0
 14600.00000    9.17910    8.69090    8.69090  111.53870    0.01470    0.01470    2.72000   -0.00190   -99925.0   -0.00580    8.96550   67.99020   67.99020   91.59010   66.45480   89.11210   89.11210   -99925.0   -99925.0   -99925.0    8.96550    7.20490   -99925.0    0.18330   -99925.0    0.18330    2.72000   -99925.0   -99925.0    7.20490
 14650.00000    9.08760    8.94680    8.94680   29.99550    0.03790    0.03790    2.74860   -0.02080   -99925.0   -0.02260   33.33830   55.53080   55.53080   35.98240   30.30250   39.10550   39.10550   -99925.0   -99925.0   -99925.0   33.33830   38.23820   -99925.0    0.04020   -99925.0    0.04020    2.74860   -99925.0   -99925.0   38.23820
 14700.00000    9.24220    8.80900    8.80900   78.80280    0.05440    0.05440    2.76900   -0.03750   -99925.0   -0.03450   12.68990   61.54160   61.54160   71.82320   54.58640   67.61990   67.61990   -99925.0   -99925.0   -99925.0   12.68990   11.31990   -99925.0    0.09850   -99925.0    0.09850    2.76900   -99925.0   -99925.0   11.31990
 14750.00000    9.47790    8.89780    8.89780   66.64760    0.02260    0.02260    2.74240   -0.02130   -99925.0   -0.01890   15.00430   60.45770   60.45770   50.61750   37.29640   49.68280   49.68280   -99925.0   -99925.0   -99925.0   15.00430   13.03260   -99925.0    0.06840   -99925.0    0.06840    2.74240   -99925.0   -99925.0   13.03260
 14800.00000    8.83850    9.05390    9.05390    9.01730    0.04170    0.04170    2.75090   -0.02400   -99925.0   -0.02390  110.89810   52.33400   52.33400   26.84550   21.40970   26.65060   26.65060   -99925.0   -99925.0   -99925.0  110.89810  121.85100   -99925.0    0.01630   -99925.0    0.01630    2.75090   -99925.0   -99925.0  121.85100
 14850.00000    9.25420    9.05270    9.05270   40.63670    0.01180    0.01180    2.70970   -0.00070   -99925.0    0.00020   24.60830   56.56950   56.56950   45.81580   28.83710   40.37460   40.37460   -99925.0   -99925.0   -99925.0   24.60830   27.26410   -99925.0    0.04180   -99925.0    0.04180    2.70970   -99925.0   -99925.0   27.26410
 14900.00000    9.06290    8.75920    8.75920   19.08580    0.04370    0.04370    2.74790   -0.02440   -99925.0   -0.02220   52.39490   53.49860   53.49860   27.92570   22.05000   28.28230   28.28230   -99925.0   -99925.0   -99925.0   52.39490   78.15670   -99925.0    0.01790   -99925.0    0.01790    2.74790   -99925.0   -99925.0   78.15670
 14950.00000    9.26880    8.86070    8.86070   73.66160    0.02520    0.02520    2.68520    0.01500   -99925.0    0.01450   13.57560   63.86880   63.86880   49.62210   35.27270   44.59960   44.59960   -99925.0   -99925.0   -99925.0   13.57560   14.84800   -99925.0    0.07650   -99925.0    0.07650    2.68520   -99925.0   -99925.0   14.84800
 15000.00000    9.43170    8.77930    8.77930  116.29530    0.01680    0.01680    2.68740    0.01510   -99925.0    0.01320    8.59880   68.03530   68.03530   56.43870   39.01470   53.55220   53.55220   -99925.0   -99925.0   -99925.0    8.59880   10.35250   -99925.0    0.10760   -99925.0    0.10760    2.68740   -99925.0   -99925.0   10.35250
 15050.00000    9.51840    8.84400    8.84400  169.28210    0.02930    0.02930    2.70860    0.00620   -99925.0    0.00080    5.90730   74.25680   74.25680   84.52790   59.16050   75.11430   75.11430   -99925.0   -99925.0   -99925.0    5.90730    6.31990   -99925.0    0.16170   -99925.0    0.16170    2.70860   -99925.0   -99925.0    6.31990
 15100.00000    9.21350    8.73110    8.73110   65.78560    0.02330    0.02330    2.74420   -0.02450   -99925.0   -0.02000   15.20090   59.94590   59.94590   83.54370   55.30960   77.80710   77.80710   -99925.0   -99925.0   -99925.0   15.20090   13.97490   -99925.0    0.10980   -99925.0    0.10980    2.74420   -99925.0   -99925.0   13.97490
 15150.00000    9.27700    8.67560    8.67560    1.08400    0.00220    0.00220    2.70560    0.00480   -99925.0    0.00260  922.53330   49.19900   49.19900   14.27620   10.98750   14.99910   14.99910   -99925.0   -99925.0   -99925.0  922.53330  691.61320   -99925.0    0.00670   -99925.0    0.00670    2.70560   -99925.0   -99925.0  691.61320
