~Version ---------------------------------------------------
VERS.      2.0 : CWLS log ASCII Standard -VERSION 2.0
WRAP.       NO : One line per depth step
CREA. 01/09/18 : LAS Creation Date
~Well ------------------------------------------------------
STRT.FT                          1150.0 : START DEPTH
STOP.FT                         12100.0 : STOP DEPTH
STEP.FT                        50.00000 : STEP LENGTH
NULL.                           -999.25 : NULL VALUE
COMP. HUDSONS BAY OIL & GAS COMPANY LTD : COMPANY
WELL. HB ET AL EAST MARLBORO 7-15-55-18 : WELL
FLD .                                   : FIELD
LOC .                                   : LOCATION
CTRY.                            CANADA : COUNTRY
SRVC.            Schlumberger of Canada : SERVICE COMPANY
DATE.                       14-Sep-1968 : LOGDATE
PROV.                           Alberta : PROVINCE
UWI .                  100071505518W500 : UNIQUE WELL ID
SLAT.WGS84                     53.74917 : SURFACE LATITUDE
SLON.WGS84                    -116.5848 : SURFACE LONGITUDE
~Curve Information -----------------------------------------
DEPT    .FT    : Depth Curve
CALDED  .IN    : CALIPER FROM DENSITY LOG, DEPTH ADJUSTED WITH [SPRED]
CALSED  .IN    : CALIPER FROM SONIC LOG, DEPTH ADJUSTED WITH [SPRED]
CALWS   .IN    : CALIPER [CALSED]
CONDWS  .MMHO  : CONDUCTIVITY [1000/DRESWS]
DCORED  .G/C3  : DENSITY CORRECTION FROM DENSITY LOG, DEPTH ADJUSTED WITH [SPRED]
DCORWS  .G/C3  : DENSITY CORRECTION [DCORED]
DENWS   .G/C3  : BULK DENSITY [RHOBED]
DPOLSWS .V/V   : DENITY POROSITY LIMESTONE [CALCULATED FROM DENWS]
DRESWS  .OHMM  : DEEP RESISTIVITY [ILDED]
DTED    .US/F  : DELTA TIME FROM SONIC LOG, DEPTH ADJUSTED WITH [SPRED]
DTWS    .US/F  : DELTA TIME [DTED]
GRNED   .GAPI  : GAMMA RAY FROM NEUTRON LOG, DEPTH ADJUSTED WITH [SPRED]
GRSED   .GAPI  : GAMMA RAY FROM SONIC LOG, DEPTH ADJUSTED WITH [SPRED]
GRWS    .GAPI  : GAMMA RAY [GRSED], SPLICED WITH [GRNED] FROM 8632'-8667'
ILDED   .OHMM  : INDUCTION LOG DEEP RESISTIVITY
ILMED   .OHMM  : INDUCTION LOG MEDIUM RESISTIVITY
LL8ED   .OHMM  : 8 INCH LATEROLOG RESISTIVITY
MRESWS  .OHMM  : MEDIUM RESISTIVITY [ILMED]
NEUTED  .NAPI  : NEUTRON FROM NEUTRON LOG, DEPTH ADJUSTED WITH [SPRED]
NEUTWS  .NAPI  : NEUTRON [NEUTED]
NPOLSWS .V/V   : NEITRON POROSITY LIMESTONE [SNPLSED]
PORLSED .V/V   : DENITY POROSITY LIMESTONE FROM DENSITY LOG, DEPTH ADJUSTED WITH [SPRED]
PORSDMED.V/V   : DENITY POROSITY DOLOMITE FROM DENSITY LOG, DEPTH ADJUSTED WITH [SPRED]
RHOBED  .G/C3  : BULK DENSITY FROM DENSITY LOG, DEPTH ADJUSTED WITH [SPRED]
SNPLSED .V/V   : SIDEWALL NEUTRON POROSITY LIMESTONE FROM DENSITY LOG, DEPTH ADJUSTED WITH [SPRED]
SPRED   .MV    : SPONTANEOUS POTENTIAL FROM RESISTIVITY LOG
SPWS    .MV    : SPONTANEOUS POTENTIAL [BASELINE 0 MV] [SPRED]
SRESWS  .OHMM  : SHALLOW RESISTIVITY [LL8ED]
~Params ----------------------------------------------------
PD  .                     GL : PERMANENT DATUM
EPD .FT                 3167 : ELEVATION PERMANENT DATUM
LMF .                     KB : LOG MEASURED FROM
DAPD.FT                   15 : FEET ABOVE PERMANENT DATUM
EKB .FT                 3182 : KELLY BUSHING
EGL .FT                 3167 : GROUND LEVEL
DATE.               09/14/68 : RUN DATE
RUN .                      3 : RUN NUMBER
DD  .FT                12110 : DEPTH DRILLER
DL  .FT                12109 : DEPTH LOGGER
BLI .FT                12105 : BOTTOM LOG INTERVAL
TLI .FT                11350 : TOP LOG INTERVAL
CBD .FT                 1265 : CASING BOTTOM DRILLER
BS  .IN                 8.75 : BIT SIZE
BSD .FT                12110 : BIT SIZE AT DEPTH
DFT .                    GEL : DRILLING FLUID TYPE
DFD .                   11.1 : DRILLING FLUID DENSITY
DFV .                    300 : DRILLING FLUID VISCOSITY
DFPH.                   11.5 : DRILLING FLUID PH
DFL .                    4.2 : DRILLING FLUID LOSS
MSS .             CIRCULATED : MUD SAMPLE SOURCE
RMS .OHMM               1.59 : RESISTIVITY MUD SAMPLE
MST .DEGF                 52 : MUD SAMPLE TEMPERATURE
RMF .OHMM               0.86 : RESISTIVITY MUD FILTRATE SAMPLE
MFST.DEGF                 58 : MUD FILTRATE SAMPLE TEMPERATURE
RMC .OHMM               1.69 : RESISTIVITY MUD CAKE
MCST.DEGF                 56 : MUD CAKE SAMPLE TEMPERATURE
RMB .OHMM               0.25 : RESISTIVITY MUD AT BHT
TCS .HRS                   4 : TIME CIRCULATED STOPPED
LUN .                   7501 : LOGGING UNIT NUMBER
LUL .                    EDM : LOGGING UNIT LOCATION
ENGI.               STUEHMER : RECORDING ENGINEER
WITN.                 WALKER : WITNESSED BY
CLNT.                A2DTECH : CLIENT CODE
ORIG.            2" 5" PRINT : ORIGIN OF DATA
UWI .       100071505518W500 : UNIQUE WELL ID
DICO. A2D Technologies, Inc. : DIGITIZING COMPANY
~Other -----------------------------------------------------
~ASCII -----------------------------------------------------
# ...
 8650.00000    -999.25    8.64630    8.64630    8.61260    -999.25    -999.25    -999.25    -999.25  116.10890   51.42470   51.42470   37.65370    0.86890   37.65370  116.10890  192.25300  856.55680  192.25300  832.41380  832.41380    -999.25    -999.25    -999.25    -999.25    -999.25  -99.09610  -50.49830  856.55680
 8700.00000    -999.25    9.42590    9.42590   30.58950    -999.25    -999.25    -999.25    -999.25   32.82080   54.08020   54.08020   45.78850   40.65140   40.65140   32.82080   57.30840   78.00580   57.30840  835.57520  835.57520    -999.25    -999.25    -999.25    -999.25    -999.25  -83.16240  -34.57360   78.00580
 8750.00000    -999.25   10.40140   10.40140   21.47180    -999.25    -999.25    -999.25    -999.25   46.57270   54.10610   54.10610   42.07340   32.57250   32.57250   46.57270   55.02270  108.46320   55.02270 1064.51070 1064.51070    -999.25    -999.25    -999.25    -999.25    -999.25  -68.24880  -19.66910  108.46320
 8800.00000    -999.25    9.98680    9.98680    3.78830    -999.25    -999.25    -999.25    -999.25  263.96740   54.52360   54.52360    -999.25   14.82920   14.82920  263.96740 2042.80270 1174.27510 2042.80270    -999.25    -999.25    -999.25    -999.25    -999.25    -999.25    -999.25 -100.33250  -51.76180 1174.27510
 8850.00000    -999.25    9.22300    9.22300   40.80970    -999.25    -999.25    -999.25    -999.25   24.50400   52.35180   52.35180    -999.25   14.17740   14.17740   24.50400   59.77110  139.85330   59.77110    -999.25    -999.25    -999.25    -999.25    -999.25    -999.25    -999.25 -174.09900 -125.53740  139.85330
 8900.00000    -999.25    9.69160    9.69160   30.29990    -999.25    -999.25    -999.25    -999.25   33.00340   53.97630   53.97630    -999.25   48.67830   48.67830   33.00340   40.68590   36.39180   40.68590    -999.25    -999.25    -999.25    -999.25    -999.25    -999.25    -999.25  -77.03000  -28.47750   36.39180
 8950.00000    -999.25    9.21300    9.21300   45.64930    -999.25    -999.25    -999.25    -999.25   21.90650   54.30010   54.30010    -999.25   53.09340   53.09340   21.90650   23.91420   26.66250   23.91420    -999.25    -999.25    -999.25    -999.25    -999.25    -999.25    -999.25  -70.97480  -22.43140   26.66250
 9000.00000    -999.25    9.19800    9.19800   25.01080    -999.25    -999.25    -999.25    -999.25   39.98280   54.23230   54.23230    -999.25   63.28290   63.28290   39.98280   61.71720   80.24970   61.71720    -999.25    -999.25    -999.25    -999.25    -999.25    -999.25    -999.25  -77.85530  -29.32090   80.24970
 9050.00000    -999.25    9.66310    9.66310   25.13710    -999.25    -999.25    -999.25    -999.25   39.78190   53.34210   53.34210    -999.25   46.28220   46.28220   39.78190   72.74490  132.46790   72.74490    -999.25    -999.25    -999.25    -999.25    -999.25    -999.25    -999.25  -65.10130  -16.57600  132.46790
 9100.00000    -999.25    9.55620    9.55620   22.49760    -999.25    -999.25    -999.25    -999.25   44.44910   55.96140   55.96140    -999.25   40.30680   40.30680   44.44910   69.66710   79.23870   69.66710    -999.25    -999.25    -999.25    -999.25    -999.25    -999.25    -999.25  -61.60580  -13.08950   79.23870
 9150.00000    -999.25    9.10990    9.10990   11.18200    -999.25    -999.25    -999.25    -999.25   89.42930   54.69520   54.69520    -999.25   36.58000   36.58000   89.42930  292.68750  207.25980  292.68750    -999.25    -999.25    -999.25    -999.25    -999.25    -999.25    -999.25  -74.24580  -25.73860  207.25980
 9200.00000    -999.25    9.15350    9.15350   15.63820    -999.25    -999.25    -999.25    -999.25   63.94590   54.86630   54.86630    -999.25   34.32660   34.32660   63.94590  140.42830  148.82700  140.42830    -999.25    -999.25    -999.25    -999.25    -999.25    -999.25    -999.25  -67.91280  -19.41470  148.82700
 9250.00000    -999.25    9.29230    9.29230   15.63730    -999.25    -999.25    -999.25    -999.25   63.94980   54.91350   54.91350    -999.25   36.15130   36.15130   63.94980  140.40940  115.93230  140.40940    -999.25    -999.25    -999.25    -999.25    -999.25    -999.25    -999.25  -65.11600  -16.62690  115.93230
 9300.00000    -999.25    9.10090    9.10090   15.97770    -999.25    -999.25    -999.25    -999.25   62.58740   55.61350   55.61350    -999.25   40.95710   40.95710   62.58740  125.40970   98.85370  125.40970    -999.25    -999.25    -999.25    -999.25    -999.25    -999.25    -999.25  -73.05480  -24.57480   98.85370
 9350.00000    -999.25    9.14720    9.14720   12.42580    -999.25    -999.25    -999.25    -999.25   80.47760   54.61320   54.61320    -999.25   30.58820   30.58820   80.47760  181.73370  134.96460  181.73370    -999.25    -999.25    -999.25    -999.25    -999.25    -999.25    -999.25  -79.07230  -30.60140  134.96460
 9400.00000    9.18260    9.29460    9.29460    4.38880   -0.01320   -0.01320    2.75080   -0.02390  227.85400   54.86450   54.86450    -999.25   46.44820   46.44820  227.85400 1976.12870  615.36610 1976.12870    -999.25    -999.25    -999.25    0.02320   -0.09530    2.75080    -999.25  -86.47750  -38.01560  615.36610
 9450.00000   10.21080   10.01650   10.01650    3.51340   -0.11420   -0.11420    2.76210   -0.03040  285.17190   52.19060   52.19060    -999.25   17.13220   17.13220  285.17190 1919.89290 1296.52800 1919.89290    -999.25    -999.25   -0.04800    0.02620   -0.09410    2.76210   -0.04800 -104.68710  -56.23440 1296.52800
 9500.00000   11.88880   10.30600   10.30600    0.79350   -0.07700   -0.07700    2.48400    0.13220 1260.25830   53.56190   53.56190    -999.25   17.28880   17.28880 1260.25830  801.81330  343.17740  801.81330    -999.25    -999.25    0.14080    0.11230   -0.00930    2.48400    0.14080 -115.98270  -67.53890  343.17740
 9550.00000   13.75150   10.93450   10.93450    0.73450   -0.12210   -0.12210    2.29520    0.24260 1361.40820   50.46180   50.46180    -999.25   19.08670   19.08670 1361.40820  186.64340  172.73910  186.64340    -999.25    -999.25    0.19990    0.10280   -0.02000    2.29520    0.19990 -139.47970  -91.04500  172.73910
 9600.00000   14.31530   12.31930   12.31930    0.65960   -0.09560   -0.09560    2.23150    0.27980 1516.05630   51.48660   51.48660    -999.25   17.88550   17.88550 1516.05630  382.89830   87.73840  382.89830    -999.25    -999.25    -999.25    0.22210    0.10010    2.23150    -999.25 -136.83360  -88.40800   87.73840
 9650.00000   14.47060   12.31300   12.31300    7.62620   -0.07920   -0.07920    2.41360    0.17330  131.12690   52.62480   52.62480    -999.25   17.77360   17.77360  131.12690   60.32560  165.53570   60.32560    -999.25    -999.25    0.18810    0.17890    0.05630    2.41360    0.18810 -168.06070 -119.64410  165.53570
 9700.00000    -999.25   12.36910   12.36910    9.09340   -0.08710   -0.08710    1.98620    0.42330  110.65500   53.11590   53.11590    -999.25   12.44620   12.44620  110.65500   85.01620   46.22380   85.01620    -999.25    -999.25    -999.25    0.28280    0.16370    1.98620    -999.25 -149.42460 -101.01720   46.22380
 9750.00000   14.91520   12.91820   12.91820    5.53670   -0.09270   -0.09270    2.07560    0.37100  180.61190   50.34560   50.34560    -999.25   19.39610   19.39610  180.61190  130.94360   85.68790  130.94360    -999.25    -999.25    -999.25    0.27170    0.15300    2.07560    -999.25 -144.29990  -95.90150   85.68790
 9800.00000   10.24270    9.09380    9.09380   11.18920   -0.08740   -0.08740    2.77130   -0.03580   89.37200   49.72270   49.72270    -999.25   14.25310   14.25310   89.37200  419.46680  130.37010  419.46680    -999.25    -999.25   -0.03980    0.02070   -0.09570    2.77130   -0.03980 -139.18330  -90.79390  130.37010
 9850.00000   11.85690   10.28970   10.28970    5.70830   -0.04100   -0.04100    2.72160   -0.00680  175.18240   52.36310   52.36310    -999.25   13.58980   13.58980  175.18240  573.53500  293.90750  573.53500    -999.25    -999.25    0.00410   -0.00610    -999.25    2.72160    0.00410 -146.45890  -98.07860  293.90750
