~Version ---------------------------------------------------
VERS.      2.0 : CWLS log ASCII Standard -VERSION 2.0
WRAP.       NO : One line per depth step
CREA. 08/23/13 : LAS Creation Date
~Well ------------------------------------------------------
STRT.M                         400.0 : START DEPTH
STOP.M                        2600.0 : STOP DEPTH
STEP.M                      50.00000 : STEP LENGTH
NULL.                        -999.25 : NULL VALUE
COMP.            WESTCOAST PETROLEUM : COMPANY
WELL. WESTCOAST ET AL MCGOWAN 10-20- : WELL
FLD .                                : FIELD
LOC .                                : LOCATION
CTRY.                         CANADA : COUNTRY
SRVC.                        Unknown : SERVICE COMPANY
DATE.                    23-Mar-1982 : LOGDATE
PROV.                        Alberta : PROVINCE
UWI .               100102007016W500 : UNIQUE WELL ID
SLAT.WGS84                  55.07847 : SURFACE LATITUDE
SLON.WGS84                 -116.3983 : SURFACE LONGITUDE
~Curve Information -----------------------------------------
DEPT    .M      : DEPTH FEET
CALDED  .MM     : CALIPER FROM DENSITY LOG [ADJ. TO RESISTIVITY LOG]
CALWS   .MM     : CALIPER [CALDED]
CILDED  .MMHO   : CONDUCTIVITY  FROM RESISTIVITY LOG
CONDWS  .MMHO   : CONDUCTIVITY [1000/DRESWS]
DCORWS  .KG/M3  : DENSITY CORRECTION [DRHOED]
DENWS   .KG/M3  : FORMATION BULK DENSITY [CALC. FROM DPOLSWS M=2710,F=1000]
DPHILSED.V/V    : DENSITY POROSITY LIMESTONE [M=2710,F=1000] FROM DENSITY LOG [ADJ. TO RESISTIVITY LOG]
DPHISSED.V/V    : DENSITY POROSITY SANDSTONE [M=2650,F=1000] FROM DENSITY LOG [ADJ. TO RESISTIVITY LOG]
DPOLSWS .V/V    : DENSITY POROSITY LIMESTONE [DPHISSED CONVERTED TO LIMESTONE MATRIX, M=2710,F=1000, SPL. TO DPHILSED @ 1286M]
DRESWS  .OHMM   : DEEP RESISTIVITY [ILDED]
DRHOED  .KG/M3  : BULK DENSITY CORRECTION FROM DENSITY LOG [ADJ. TO RESISTIVITY LOG]
GRDED   .GAPI   : GAMMA RAY FROM DENSITY LOG [ADJ. TO RESISTIVITY LOG]
GRWS    .GAPI   : GAMMA RAY [GRDED]
ILDED   .OHMM   : DEEP  INDUCTION FROM RESISTIVITY LOG
ILMED   .OHMM   : MEDIUM INDUCTION FROM RESISTIVITY LOG
MRESWS  .OHMM   : MEDIUM RESISTIVITY [ILMED]
NPHILSED.V/V    : NEUTRON POROSITY LIMESTONE FROM DENSITY LOG [ADJ. TO RESISTIVITY LOG]
NPHISSED.V/V    : NEUTRON POROSITY SANDSTONE FROM DENSITY LOG [ADJ. TO RESISTIVITY LOG]
NPOLSWS .V/V    : NEUTRON POROSITY LIMESTONE [NPHISSED MATRIX CONVERSION FOR LIMESTONE FROM SLB ( CNL), SPL. TO NPHILSED @ 1292M]
RHOBED  .KG/M3  : BULK DENSITY FROM DENSITY LOG [ADJ. TO RESISTIVITY LOG/DPHILSED/DPHISSED]
SFLUED  .OHMM   : SHALLOW FOCUSED UNAVERAGED FROM RESISTIVITY LOG
SPRED   .MV     : SPONTANEOUS POTENTIAL FROM RESISTIVITY LOG
SPWS    .MV     : SPONTANEOUS POTENTIAL [BASELINE 0 MV, SPRED]
SRESWS  .OHMM   : SHALLOW RESISTIVITY [SFLUED]
~Params ----------------------------------------------------
PD  .                         GL : PERMANENT DATUM
EPD .M                     792.8 : ELEVATION PERMANENT DATUM
LMF .                         KB : LOG MEASURED FROM
DAPD.M                       4.5 : FEET ABOVE PERMANENT DATUM
DMF .                         KB : DRILLING MEASURED FROM
EKB .M                     797.3 : KELLY BUSHING
EGL .M                     792.8 : GROUND LEVEL
DATE.                   03/23/82 : RUN DATE
RUN .                          1 : RUN NUMBER
DD  .M                      2619 : DEPTH DRILLER
DL  .M                      2619 : DEPTH LOGGER
BLI .M                      2618 : BOTTOM LOG INTERVAL
TLI .M                       402 : TOP LOG INTERVAL
CS  .MM                      244 : CASING SIZE
CBD .M                       402 : CASING BOTTOM DRILLER
CBL .M                       402 : CASING BOTTOM LOGGER
BS  .MM                      222 : BIT SIZE
BSD .M                      2619 : BIT SIZE AT DEPTH
DFT .                   GEL CHEM : DRILLING FLUID TYPE
DFD .                       1185 : DRILLING FLUID DENSITY
DFV .                         59 : DRILLING FLUID VISCOSITY
DFPH.                          9 : DRILLING FLUID PH
DFL .                          8 : DRILLING FLUID LOSS
MSS .                   FLOWLINE : MUD SAMPLE SOURCE
RMS .OHMM                   1.22 : RESISTIVITY MUD SAMPLE
MST .DEGC                   28.8 : MUD SAMPLE TEMPERATURE
RMF .OHMM                    1.2 : RESISTIVITY MUD FILTRATE SAMPLE
MFST.DEGC                   23.3 : MUD FILTRATE SAMPLE TEMPERATURE
RMC .OHMM                  0.603 : RESISTIVITY MUD CAKE
MCST.DEGC                   67.7 : MUD CAKE SAMPLE TEMPERATURE
MFSS.                      PRESS : MUD FILTRATE SAMPLE SOURCE
MCSS.                      PRESS : MUD CAKE SAMPLE SOURCE
RMB .OHMM                  0.689 : RESISTIVITY MUD AT BHT
TCS .HRS                    1500 : TIME CIRCULATED STOPPED
TLAB.HRS                    2130 : TIME LOGGER AT BOTTOM
LUN .                       8196 : LOGGING UNIT NUMBER
LUL .                        EDM : LOGGING UNIT LOCATION
ENGI.                NIGHTINGALE : RECORDING ENGINEER
WITN.                      JONES : WITNESSED BY
CLNT.                    A2DTECH : CLIENT CODE
ORIG. 6.5"/100M 16.5"/100M PRINT : ORIGIN OF DATA
UWI .           100102007016W500 : UNIQUE WELL ID
DICO.     A2D Technologies, Inc. : DIGITIZING COMPANY
~Other -----------------------------------------------------
DIL-CNL-CDL LOG RUN
RHOB, DRHO FROM SMALL SCALE SECTION
NEUTRON CONVESION :Schlumberger
~ASCII -----------------------------------------------------
# ...
 1850.00000  251.46440  251.46440    -999.25    7.87670   10.93000 2684.69200    0.01480    -999.25    0.01480  126.95700   10.93000   14.03940   14.03940  126.95700   91.11510   91.11510   -0.00050    -999.25   -0.00050 2689.64890  159.99260 -157.19060  -75.18390  159.99260
 1900.00000  258.74160  258.74160    -999.25   30.16560   18.82540 2595.43000    0.06700    -999.25    0.06700   33.15030   18.82540   15.97240   15.97240   33.15030   36.24870   36.24870    0.02250    -999.25    0.02250 2600.89260  140.19340 -157.84730  -75.84060  140.19340
 1950.00000  272.56800  272.56800    -999.25    0.49270    2.42990 2689.48000    0.01200    -999.25    0.01200 2029.75170    2.42990   12.40610   12.40610 2029.75170  272.65720  272.65720   -0.00520    -999.25   -0.00520 2684.61550  714.89120 -134.94680  -52.94010  714.89120
 2000.00000  240.67210  240.67210    -999.25    6.97390   26.58480 2775.83500   -0.03850    -999.25   -0.03850  143.39180   26.58480   17.40980   17.40980  143.39180  181.37060  181.37060   -0.00060    -999.25   -0.00060 2774.71390  845.90840 -137.96660  -55.95990  845.90840
 2050.00000  234.11020  234.11020    -999.25   21.83020   47.28180 2744.37100   -0.02010    -999.25   -0.02010   45.80800   47.28180   15.58320   15.58320   45.80800   53.13790   53.13790    0.08000    -999.25    0.08000 2731.16580  148.12950 -159.91770  -77.91100  148.12950
 2100.00000  232.47930  232.47930    -999.25    4.02850   -2.22520 2710.34200   -0.00020    -999.25   -0.00020  248.22980   -2.22520   10.44920   10.44920  248.22980  150.08470  150.08470    0.00200    -999.25    0.00200 2710.00980  391.54190 -107.22940  -32.97900  391.54190
 2150.00000  332.78350  332.78350    -999.25  307.88180  105.45690 2608.59700    0.05930    -999.25    0.05930    3.24800  105.45690  112.17540  112.17540    3.24800    3.36020    3.36020    0.32820    -999.25    0.32820 2613.48320    3.71890  -87.30610   -9.26040    3.71890
 2200.00000  564.02950  564.02950    -999.25  279.79070  194.63090 2343.54700    0.21430    -999.25    0.21430    3.57410  194.63090  101.76430  101.76430    3.57410    3.32680    3.32680    0.23260    -999.25    0.23260 2345.57420    3.83770 -105.15440   -2.32120    3.83770
 2250.00000  564.45360  564.45360    -999.25  308.79450  176.96830 2615.26600    0.05540    -999.25    0.05540    3.23840  176.96830  102.00670  102.00670    3.23840    3.11150    3.11150    0.24030    -999.25    0.24030 2615.58670    3.76420  -96.71160   -2.71260    3.76420
 2300.00000  239.96480  239.96480    -999.25  135.11690   79.84350 2664.00100    0.02690    -999.25    0.02690    7.40100   79.84350   78.92510   78.92510    7.40100    7.93540    7.93540    0.17320    -999.25    0.17320 2683.93070    9.33710  -80.14900   -9.31700    9.33710
 2350.00000  248.86820  248.86820    -999.25  163.60190   89.13180 2589.44500    0.07050    -999.25    0.07050    6.11240   89.13180   76.82610   76.82610    6.11240    6.60220    6.60220    0.22630    -999.25    0.22630 2592.22310    7.64530  -77.21950  -16.01020    7.64530
 2400.00000  265.27000  265.27000    -999.25  192.25960  136.47740 2664.68500    0.02650    -999.25    0.02650    5.20130  136.47740   91.62070   91.62070    5.20130    5.31010    5.31010    0.23030    -999.25    0.23030 2664.71290    6.23920  -74.44890  -22.87700    6.23920
 2450.00000  244.61280  244.61280    -999.25   96.15480   37.27350 2565.50500    0.08450    -999.25    0.08450   10.39990   37.27350  106.54350  106.54350   10.39990   10.74690   10.74690    0.24200    -999.25    0.24200 2565.50220   19.53470  -52.21060   -5.65540   19.53470
 2500.00000  232.99350  232.99350    -999.25   50.84450   22.77200 2690.50600    0.01140    -999.25    0.01140   19.66780   22.77200   43.70930   43.70930   19.66780   16.65820   16.65820    0.08760    -999.25    0.08760 2686.76930   20.99430  -50.45260   -3.89740   20.99430
 2550.00000  248.54590  248.54590    -999.25   98.96380    8.27690 2704.01500    0.00350    0.57060    0.00350   10.10470    8.27690   70.07560   70.07560   10.10470   10.44350   10.44350    0.12730    0.12710    0.12730 2698.38650   13.90700  -40.56530   -6.72640   13.90700
 2600.00000  240.05600  240.05600    -999.25  346.16450  167.95670 2627.40700    0.04830    0.61640    0.04830    2.88880  167.95670  162.22900  162.22900    2.88880    4.36540    4.36540    0.10630    0.11680    0.10630 2627.80030   10.16460  -81.61340  -62.86860   10.16460
