~Version ---------------------------------------------------
VERS. 2.0 : CWLS log ASCII Standard -VERSION 2.0
WRAP.  NO : One line per depth step
~Well ------------------------------------------------------
STRT.FT                        600.0 : START DEPTH
STOP.FT                      10150.0 : STOP DEPTH
STEP.FT                     50.00000 : STEP LENGTH
NULL.                        -999.25 : NULL VALUE
COMP.     THE CALIFORNIA STANDARD CO : COMPANY
WELL. CALSTAN B A IOSEGUN 7-33-63-19 : WELL
FLD .                         KAYBOB : FIELD
LOC .                                : LOCATION
CTRY.                         CANADA : COUNTRY
SRVC.         Schlumberger of Canada : SERVICE COMPANY
DATE.                    08-Oct-1957 : LOGDATE
PROV.                        Alberta : PROVINCE
UWI .               100073306319W500 : UNIQUE WELL ID
SLAT.WGS84                  54.49249 : SURFACE LATITUDE
SLON.WGS84                 -116.8075 : SURFACE LONGITUDE
~Curve Information -----------------------------------------
DEPT.FT    : DEPTH FEET
CILD.MMHO  : CONDUCTIVITY FROM RESISTIVITY LOG
GRN .CU    : GAMMA RAY FROM NEUTRON LOG
ILD .OHMM  : INDUCTION LOG DEEP RESISTIVITY
LAT .OHMM  : 18 FOOT 8 INCH LATERAL RESISTIVITY FROM IEL
LN  .OHMM  : 64 INCH LONG NORMAL RESISTIVITY FROM IEL
MCAL.IN    : CALIPER MICROLOG
MLL .OHMM  : MICROLATEROLOG RESISTIVITY
NEUT.CU    : NEUTRON FROM NEUTRON LOG
SN  .OHMM  : 16 INCH SHORT NORMAL RESISTIVITY FROM IEL
SPR .MV    : SPONTANEOUS POTENTIAL FROM RESISTIVITY LOG
SPR1.MV    : SPONTANEOUS POTENTIAL FROM RESISTIVITY LOG
~Params ----------------------------------------------------
LMF .                     KB : LOG MEASURED FROM
DMF .                     KB : DRILLING MEASURED FROM
EKB .FT                 2601 : KELLY BUSHING
EGL .FT                 2588 : GROUND LEVEL
DATE.               10/08/57 : RUN DATE
RUN .                      1 : RUN NUMBER
DD  .FT                10194 : DEPTH DRILLER
DL  .FT                10189 : DEPTH LOGGER
BLI .FT                10188 : BOTTOM LOG INTERVAL
TLI .FT                  825 : TOP LOG INTERVAL
CBD .FT                  825 : CASING BOTTOM DRILLER
CBL .FT                  825 : CASING BOTTOM LOGGER
BS  .IN                    9 : BIT SIZE
BSD .FT                10194 : BIT SIZE AT DEPTH
DFT .                    GEL : DRILLING FLUID TYPE
DFD .                   10.6 : DRILLING FLUID DENSITY
DFV .                    177 : DRILLING FLUID VISCOSITY
DFPH.                    9.5 : DRILLING FLUID PH
DFL .                    5.4 : DRILLING FLUID LOSS
RMS .OHMM                8.0 : RESISTIVITY MUD SAMPLE
RMF .OHMM                1.6 : RESISTIVITY MUD FILTRATE SAMPLE
MFST.DEGF                 62 : MUD FILTRATE SAMPLE TEMPERATURE
RMC .OHMM                2.1 : RESISTIVITY MUD CAKE
MCST.DEGF                 62 : MUD CAKE SAMPLE TEMPERATURE
RMB .OHMM                1.0 : RESISTIVITY MUD AT BHT
TCS .HRS                   2 : TIME CIRCULATED STOPPED
LUN .                   1534 : LOGGING UNIT NUMBER
LUL .                     VV : LOGGING UNIT LOCATION
ENGI.               THOMPSON : RECORDING ENGINEER
WITN.                JOHNSON : WITNESSED BY
CLNT.                A2DTECH : CLIENT CODE
ORIG.            2" 5" PRINT : ORIGIN OF DATA
UWI .       100073306319W500 : UNIQUE WELL ID
DICO. A2D Technologies, Inc. : DIGITIZING COMPANY
~Other -----------------------------------------------------
~ASCII -----------------------------------------------------
# ...
 6700.00000  108.49270    9.69980    9.93510   24.96440   26.48200    9.57820   12.24660 1979.35530   28.10230 -233.44420 -148.69900
 6750.00000   27.13750   17.18950   41.47600   73.32440  128.52750    9.83250    9.35920 2062.40190   71.11770 -128.14070  -94.12600
 6800.00000   27.06090    4.88130   41.81190  179.33170  167.24460   10.77260   48.58020 2061.97460   69.98020 -193.75930 -166.57290
 6850.00000   40.44870    7.45070   28.07910  615.14510  201.95560    8.84450   51.18430 2158.58840   75.91460 -253.05470    -999.25
 6900.00000   17.02180    6.78440   68.08550  444.23430  268.15910   10.88370  298.68300 2055.90210   96.87240 -239.75030    -999.25
 6950.00000  261.03730   22.53400    3.93150   29.67510   12.90060    9.48450   37.55670 2033.76650    8.92460 -143.29000 -130.96480
 7000.00000  379.26610   31.55000    2.90000    2.13430    6.71990    9.81450    4.68650 1451.16090    4.48610 -132.16020 -116.49490
 7050.00000  201.34340   23.59150    5.12720    3.66150   15.28410    9.81900    6.94320 1657.82450    9.93200 -126.92360 -102.60370
 7100.00000   51.64400   18.82410   22.93880   53.85020   57.17570   10.48420   39.62600 1823.50560   31.71660  -98.37920  -73.28790
 7150.00000   27.18450   16.26000   40.13640  287.81360  103.60030   10.00420  189.52270 1768.03210   60.63320  -95.45260  -73.29180
 7200.00000   32.78100    8.40030   35.41860  155.61640  102.17170   10.24030  399.94150 2564.98410   45.87030 -119.65150 -107.37300
 7250.00000   22.46430   13.73930   49.53630   95.17190  116.29170    9.12690  361.16510 1902.08970   59.26470 -111.96820  -97.34240
 7300.00000   16.59160   13.17410   67.45060  182.65370  136.25600    8.97490  251.59640 1860.68030   67.52130 -102.51260  -90.52900
 7350.00000   21.35600   18.52650   53.23170  152.85990  111.92020    8.96850  108.09770 1639.08800   59.97470  -98.72060  -93.66760
 7400.00000   28.86420   23.45350   40.21850   97.05740   87.86400    9.17270   54.36130 1454.30210   45.97520  -95.47580  -94.80190
 7450.00000    7.49240   18.84350  286.33330  893.26210  412.78210    9.28200  244.30940 1651.84440  129.05580  -92.98040  -86.16550
 7500.00000   22.01740   17.92650   49.74780  126.95380   92.55590    9.29390  134.27020 1643.84450   48.35920  -99.16070  -99.28100
 7550.00000   69.47370   59.21800   15.27330   64.94930   42.99390    9.44020   18.29690 1211.49740   20.60260 -105.03770 -104.12120
 7600.00000    9.09200    5.57030  196.38830  607.65060  859.68290    9.91900   86.34390 2564.20170  184.15670 -124.94170 -103.51390
 7650.00000    8.08840    7.29130  244.59270  969.39240  649.26400    9.40870  401.69490 2572.81790  122.77740 -146.58710 -134.58700
 7700.00000   15.76520    7.06230   84.99640 1133.23600  419.20820    9.35930  264.52580 2562.20390   98.18460 -151.42450 -128.82550
 7750.00000   10.36970    4.55800  129.44620  914.01620  650.20350    9.69130  402.01910 2569.69210  126.68880 -176.95810 -145.41130
 7800.00000   11.73230    5.59110  129.32750  467.30270  346.24090   10.74280   25.39180 2271.23930   99.67260 -160.74050 -133.65860
 7850.00000    9.50350    4.59970  181.70340 1317.95950  660.68080   10.41630  233.79500 2299.90280  120.46580 -187.58010 -148.24130
 7900.00000   14.92940    5.79720   91.49620 1461.77810  315.19670   10.94150  214.11300 2130.45560   82.18810 -221.40700 -168.74080
 7950.00000    9.02070    6.53860  166.19540  514.08370  359.85110   10.81320  136.07200 1686.31880   98.66380 -190.34720 -145.12300
 8000.00000   12.76760    5.69760  227.10500 1130.28670  529.17440   11.49030   30.97370 1710.38100  116.48440 -188.82440 -142.98420
 8050.00000    6.75920    6.83470  362.42390  375.26210  415.19220   11.88350   45.58770 1680.59240  121.67810 -199.50830 -141.08540
 8100.00000   13.75220    6.98140  102.54140  971.20250  490.88060   11.58230   18.80650 2201.48290   98.31590 -206.81490 -150.35990
 8150.00000   17.40260    5.66170   72.14170  651.04340  238.31200   11.39080   22.14220 1956.77820   73.86430 -218.54380 -163.76720
 8200.00000   22.82920    5.93180   49.46890  348.42920  167.88970   11.22060   89.03870 2072.44210   69.68790 -233.78400 -172.02390
 8250.00000   24.46990    7.62770   48.85230  475.27030  284.57380    9.18220  335.28600 2539.02490  106.54400    -999.25    -999.25
 8300.00000   10.31140    7.43430  316.06660  114.97830  203.21950   11.08560  401.18080 1988.16810   94.69040 -220.98000 -154.54200
 8350.00000   24.81790   10.80440   42.36040  364.96620  176.19670    8.74120  178.63520 1781.18760   68.02560 -228.52200 -151.29080
 8400.00000   11.88960    5.97090  126.74890  727.03830  324.18200    8.10920   81.91720 1516.11270  104.18150 -266.16720 -188.95890
 8450.00000   28.24400    6.21290   41.21780  133.40040   90.81190   10.48300   20.81640 1551.42870   46.38640 -226.65740 -152.11780
 8500.00000   10.26160    6.91620  156.11180  570.00010  260.50590   10.25590   21.37740 1720.75110   86.42140 -219.73880 -156.76280
 8550.00000   22.61190   13.41450   48.34800  413.92090  145.37300    9.01340  118.82260 2135.34910   56.68770 -152.45290  -97.84360
 8600.00000   37.70600   22.51700   29.08630  310.77310   76.19660    9.61210   57.90090 1698.77670   42.16930 -128.61060  -78.02010
 8650.00000   17.70540   13.38470   61.16140  102.42100  124.89470   10.23200   71.29540 1875.31870   65.25990 -128.84420  -76.42100
 8700.00000   19.41700   13.17540   61.93010   80.57650  110.82520    8.96260   64.61830 2263.42310   62.24440 -120.53460  -78.07490
 8750.00000   24.73940   15.42280   47.14990  137.07090   91.36790    8.98990   62.94330 1908.08610   50.18450 -107.75620  -77.07120
 8800.00000   34.59660   17.54080   32.47800   66.55380   58.38780    9.15270  101.94420 1812.98300   38.94330 -104.05120  -73.00180
 8850.00000   48.08950   21.31600   23.60010   32.76510   43.88370    9.25480   36.38810 1632.33060   34.78310 -100.46970  -68.85460
 8900.00000   42.49760   16.08440   26.01440   66.31300   52.94290    9.07510   42.02340 1830.42300   36.65210  -98.53320  -59.69830
 8950.00000   36.42210   16.93020   32.34580   25.38790   56.06460    9.23740   37.01600 1587.07070   38.52290 -102.67380  -56.45570
 9000.00000  133.48250   20.81650    7.89930    9.37940    9.58210   12.02640    8.53650 1842.51870   10.08350 -109.38430  -59.94040
 9050.00000  220.91030   20.77830    4.61370    3.99660    7.34910   14.96730    0.91480  882.77240    6.08800 -111.04970  -64.85770
 9100.00000  240.27060   21.54200    4.16980    6.45140    6.99330   15.03110    0.98830  863.38950    5.70000 -107.56350  -73.73920
 9150.00000  277.86050   18.90560    3.72850    5.72550    6.88830   15.01380    0.35610  847.09080    5.09490 -103.86200  -73.12210
 9200.00000  186.05540   20.88470    5.62010    4.74500    9.12300   14.79020    1.38530  888.77950    7.14480  -97.02220  -69.70490
 9250.00000   96.18210   21.11970   11.00510   14.61890   16.36940    9.33710   13.91380 1266.46810   15.37930  -85.07920  -61.01680
 9300.00000   85.86410   24.70060   12.16930   11.22100   14.85010    9.06040   17.46160 1334.74100   16.62490  -81.79590  -54.19130
 9350.00000   66.33080   24.96450   16.00610   13.25250   18.37280    9.03800   23.04650 1320.44910   19.19810  -85.14130  -52.87190
 9400.00000  112.12110   31.01840    9.55510    8.93200   11.12270    9.53700   12.74790 1131.65520   12.98700  -88.20150  -56.70540
 9450.00000  119.27850   22.21450    8.82510    9.18030   11.46810    9.30920    9.65820 1269.06180   12.83160  -83.00310  -48.48770
 9500.00000  128.03820   30.69960    8.28400    6.73670   11.02180   11.43510    5.54650 1022.60890   11.66750  -87.82470  -52.33360
 9550.00000   63.10380   31.50070   16.91940    5.44490   29.49070    9.26410   57.25630  980.46830   22.46480  -88.73240  -50.15660
 9600.00000    7.67740   28.90970  271.93320  467.31240  434.83270    8.86730  323.75950 1409.19010  146.32550  -77.99360  -26.02410
 9650.00000   17.10720   40.91690   76.29420  252.98700  150.95610    8.85910  401.47280 1309.13210   71.74230  -88.36890  -39.17770
 9700.00000   24.51990   35.93900   48.73320  180.94250   98.48340    9.04650   66.68200 1196.71450   54.40900  -97.25030  -45.19380
