~Version ---------------------------------------------------
VERS. 2.0 : CWLS log ASCII Standard -VERSION 2.0
WRAP.  NO : ONE LINE PER DEPTH STEP
~Well ------------------------------------------------------
STRT.F                      2050.0 : START DEPTH
STOP.F                     11200.0 : STOP DEPTH
STEP.F                    50.00000 : STEP LENGTH
NULL.                      -999.25 : NULL VALUE
COMP.     CHEVRON STANDARD LIMITED : COMPANY
WELL. CHEVRON KAYBOB S 10-19-60-18 : WELL
FLD .                              : FIELD
LOC .                              : LOCATION
CTRY.                       CANADA : COUNTRY
SRVC.                      Unknown : SERVICE COMPANY
DATE.                  02-Dec-1969 : LOGDATE
PROV.                      Alberta : PROVINCE
UWI .             100101906018W500 : UNIQUE WELL ID
SLAT.WGS84                54.20497 : SURFACE LATITUDE
SLON.WGS84               -116.6847 : SURFACE LONGITUDE
~Curve Information -----------------------------------------
DEPT.F                 : 
AC  .US/F 60 500 41 00 : ACOUSTIC
SPR .MV   07 010 01 00 : SPONTANEOUS POTENTIAL FROM RESISTIVITY LOG
ILD .OHMM 07 120 46 00 : INDUCTION DEEP RESISTIVITY
ILM .OHMM 07 120 44 00 : INDUCTION MEDIUM RESISTIVITY
SFL .OHMM 07 220 01 00 : SPHERICALLY FOCUSED LOG
CALS.IN   60 280 50 00 : CALIPER FROM SONIC LOG
GRS .GAPI 60 310 01 00 : GAMMA RAY FROM SONIC LOG
~Params ----------------------------------------------------
PD  .                     GL : PERMANENT DATUM
EPD .FT               3271.7 : ELEVATION PERMANENT DATUM
LMF .                     KB : LOG MEASURED FROM
DAPD.FT                 15.5 : FEET ABOVE PERMANENT DATUM
DMF .                     KB : DRILLING MEASURED FROM
EKB .FT               3287.2 : KELLY BUSHING
EGL .FT               3271.7 : GROUND LEVEL
DATE.               12/02/69 : RUN DATE
RUN .                      1 : RUN NUMBER
DD  .FT                11226 : DEPTH DRILLER
DL  .FT                11223 : DEPTH LOGGER
BLI .FT                11221 : BOTTOM LOG INTERVAL
TLI .FT                 2044 : TOP LOG INTERVAL
CS  .IN                9.625 : CASING SIZE
CBD .FT                 2041 : CASING BOTTOM DRILLER
CBL .FT                 2044 : CASING BOTTOM LOGGER
BS  .IN                 8.75 : BIT SIZE
BSD .FT                11226 : BIT SIZE AT DEPTH
DFT .                MUD GEL : DRILLING FLUID TYPE
DFD .                    9.2 : DRILLING FLUID DENSITY
DFV .                    124 : DRILLING FLUID VISCOSITY
DFPH.                   11.4 : DRILLING FLUID PH
DFL .                    7.6 : DRILLING FLUID LOSS
MSS .                   CIRC : MUD SAMPLE SOURCE
RMS .OHMM               1.75 : RESISTIVITY MUD SAMPLE
MST .DEGF                 50 : MUD SAMPLE TEMPERATURE
RMF .OHMM               1.25 : RESISTIVITY MUD FILTRATE SAMPLE
MFST.DEGF                 60 : MUD FILTRATE SAMPLE TEMPERATURE
RMC .OHMM                2.1 : RESISTIVITY MUD CAKE
MCST.DEGF                 60 : MUD CAKE SAMPLE TEMPERATURE
MFSS.                   MEAS : MUD FILTRATE SAMPLE SOURCE
MCSS.                   MEAS : MUD CAKE SAMPLE SOURCE
TCS .HRS                   7 : TIME CIRCULATED STOPPED
LUN .                   6002 : LOGGING UNIT NUMBER
LUL .                    V V : LOGGING UNIT LOCATION
ENGI.              KOWALCHUK : RECORDING ENGINEER
WITN.               PETERSON : WITNESSED BY
CLNT.                A2DTECH : CLIENT CODE
ORIG.            2" 5" PRINT : ORIGIN OF DATA
UWI .       100101906018W500 : UNIQUE WELL ID
DICO. A2D Technologies, Inc. : DIGITIZING COMPANY
~Other -----------------------------------------------------
~ASCII -----------------------------------------------------
 2050.00000  140.61000  -40.80070    7.57700    8.60310    2.87760   11.58730  104.55510
 2100.00000   97.50000  -49.38990    4.70880    5.19400    5.73770   11.31350  105.20860
 2150.00000  171.39000  -50.63020    5.34940    4.92710    4.87480   11.53330  107.41130
 2200.00000  140.18000  -49.62920    4.43950    4.70500    4.21090   13.26760  114.49970
 2250.00000  139.96000  -48.18850    1.80590    1.56570    2.80140   13.77330  124.23230
 2300.00000  140.06000  -49.17080    4.20840    4.03330    4.43640   13.03780  109.42000
 2350.00000   91.82000  -51.38780   11.97440   11.36300   10.22480   10.94920   77.35100
 2400.00000  140.44000  -48.77910    3.45650    3.27570    3.58570   12.39430  104.62730
 2450.00000  199.74000  -49.72140    4.38460    4.12340    3.86550   11.28160  106.55200
 2500.00000   95.49000  -48.57700    4.23750    3.67280    3.96310   11.27730   98.90520
 2550.00000  155.54000  -50.11150    7.97670    6.65530    7.16330   11.50830  112.33560
 2600.00000  139.97000  -48.79900    2.87260    2.58370    3.01550   11.95960  111.29920
 2650.00000  122.19000  -48.77760    2.84650    2.70050    3.29670   12.45450   99.15680
 2700.00000   96.83000  -48.81290    4.57990    4.30780    4.81040   12.90380  105.95050
 2750.00000   93.15000  -50.22570    6.85120    6.04700    8.75940   10.95860  118.05120
 2800.00000  122.19000  -48.86210    3.18240    3.07140    3.24100   12.50820  109.34110
 2850.00000  150.78000  -49.71950    1.69880    1.74880    2.65770   15.71540  125.91810
 2900.00000  139.92000  -50.62180    4.85320    4.48020    4.27660   13.49610  140.41060
 2950.00000  140.32000  -51.17030    2.91940    2.74480    3.45450   12.10070  110.23000
 3000.00000   86.86000  -63.23480   12.56190   11.66150    8.23290   10.94040   75.70670
 3050.00000  121.74000  -55.41610    4.15080    3.82590    3.61770   11.32360  107.59480
 3100.00000  139.88000  -55.00170    1.14450    1.38600    2.44830   12.79000  141.31760
 3150.00000   89.79000  -61.33320    6.87270    6.40280    6.18130   11.41160   87.66960
 3200.00000   91.23000  -60.55850    5.01150    5.19110    5.68950   11.53160  112.16420
 3250.00000   91.68000  -65.00100    3.93740    4.84600    6.73850   11.76450   91.91430
 3300.00000  175.86000  -62.99930    3.73570    4.02030    3.50700   13.61100   93.07280
 3350.00000  100.07000  -67.19160    5.60140    5.91830    5.30890   11.00140  101.33850
 3400.00000  139.39000  -66.84180    4.52460    4.84120    5.79340   12.51980   87.62660
 3450.00000  140.04000  -68.56400    4.12610    4.39210    5.29750   11.54720   91.38370
 3500.00000  156.00000  -69.72380    7.77800    8.38200    7.13380   11.02200   91.04010
 3550.00000  147.42000  -68.58050    4.76700    5.22000    4.29260   12.27360   78.22460
 3600.00000  108.81000  -67.42150    4.09740    4.40590    4.51690   12.53630   89.17120
 3650.00000  100.31000  -67.43250    5.09300    5.36820    5.68200   13.41670   83.69190
 3700.00000   96.39000  -69.86630    6.01930    6.55110    8.13390   12.44690   74.55880
 3750.00000   77.52000  -67.65740    7.79140    8.54070    8.88370   11.65100   92.07600
 3800.00000   81.89000  -70.38290    8.57160    8.79840   14.26180   11.99840   84.05200
 3850.00000  101.44000  -66.11160    6.14770    6.59290    8.65130   11.82090   88.96610
 3900.00000   99.13000  -62.58480    4.61270    4.88720    4.46050   12.90730   93.20890
 3950.00000  207.43000  -56.96620    6.26760    7.26150    5.96630   12.09520   81.26480
 4000.00000   70.80000  -82.28840   16.47250   21.78720   20.54080   10.54980   60.70260
 4050.00000   92.84000  -64.99380    9.54230   11.00530   10.45220   10.96230   72.11880
 4100.00000  108.51000  -60.16340    5.22130    5.63410    7.06250   12.25820   98.24720
 4150.00000   84.01000  -61.37940    7.29790    7.89230    9.98460   11.07040   96.50780
 4200.00000   96.35000  -63.72720    5.41330    5.66210    6.32240   11.81260   97.13810
 4250.00000   85.82000  -67.90080    6.62490    6.96530    6.20390   12.34420  119.46830
 4300.00000  101.03000  -69.59520    7.11580    7.64600    6.67040   12.39190  118.28040
 4350.00000   87.82000  -67.77580    7.65910    8.16110    7.01510   12.42840  135.55410
 4400.00000   93.58000  -68.15050    6.70420    6.89180    6.31120   12.32980  139.28560
 4450.00000   83.80000  -70.20130   10.91670   11.83550   12.49400   12.33500  138.04080
 4500.00000   92.21000  -67.22670    7.92260    8.33640    8.96610   13.16440  134.31850
 4550.00000   91.30000  -65.71360    7.21740    7.62590    6.94010   13.44810  136.02890
 4600.00000   89.90000  -65.47220    5.86320    6.10990    5.63410   13.81450  139.30740
 4650.00000   96.01000  -65.04160    5.94120    6.15150    5.63030   12.86720  145.07750
 4700.00000   86.10000  -66.50530    7.12540    7.40290    6.64690   12.70210  138.15490
 4750.00000   90.38000  -70.65610    8.08150    8.46230    8.95600   13.55640  126.16390
 4800.00000   87.16000  -70.18180    6.66640    7.36780    6.27450   13.44490  138.44360
 4850.00000   87.25000  -70.07790    6.20880    6.47170    5.87850   13.17510  141.00520
 4900.00000   88.91000  -70.21720    5.83080    6.10230    5.53670   13.93980  139.09300
 4950.00000   88.36000  -71.68180    7.01320    7.34610    6.64710   12.62230  122.49370
 5000.00000   87.26000  -80.27520   12.77690   14.09460   16.19030   10.99840   96.53290
 5050.00000   83.91000  -71.36490    8.25610    8.66800    8.05970   12.39350  135.95770
 5100.00000  114.06000  -70.71370    7.75560    7.88090    8.43970   13.01850  135.57480
 5150.00000   84.11000  -69.92360    6.97730    7.31830    7.62840   12.52050  141.60670
 5200.00000   87.66000  -69.83200    7.85160    8.15620    6.86870   12.31290  132.26460
 5250.00000   94.88000  -67.51290    6.20630    6.99250    6.54450   11.72680  142.76560
 5300.00000   95.65000  -64.08170    6.42890    6.79790    7.15030   12.66960  152.31610
 5350.00000   93.98000  -63.60310    7.63780    7.79460    8.09120   10.93240  162.12380
 5400.00000   92.64000  -62.91140    7.07500    7.61070    8.27100   11.41190  159.60530
 5450.00000   93.80000  -61.75740    9.74500   10.41160   12.03200   11.13500  174.10490
 5500.00000   94.77000  -61.00500    9.17630    9.84630   11.88610   10.57670  156.62640
 5550.00000   96.96000  -59.55450    8.71790    9.24320   11.21580   10.86080  167.16580
 5600.00000   95.84000  -55.73680    6.60880    7.21010    8.17280   12.45190  158.19410
 5650.00000   85.76000  -55.81570    8.37990    9.14380    9.71580   11.68340  175.48420
 5700.00000   80.06000  -56.07120    7.17320    7.98440    7.94820   11.87870  118.50890
 5750.00000   75.49000  -54.30020    8.11520    8.68470    7.65020   11.05200  133.25490
 5800.00000   87.94000  -49.17580    6.36600    6.84530    6.15260   12.80610  151.83430
 5850.00000   82.95000  -51.42500   11.44320   12.87480   11.23350   12.16390  125.26210
 5900.00000   80.88000  -40.89650    7.64700    8.04800    6.59600   12.19140  157.88090
 5950.00000  105.78000  -35.05050    5.07710    5.48030    6.02320   12.73500  135.20150
 6000.00000   94.01000  -32.05810    4.54550    4.90820    5.10610   12.51960  175.54670
 6050.00000   96.13000  -28.52350    3.77800    4.03530    4.33340   12.64290  176.51610
 6100.00000  105.93000  -27.18750    2.39820    2.48790    2.91800   12.68500  150.69780
 6150.00000   94.19000  -20.18140    3.62610    3.83400    3.29870   13.10500  142.29140
 6200.00000   86.72000  -18.95550    5.40740    6.64520    5.70750   12.06470  153.12420
 6250.00000   71.95000  -50.88630   19.71050   24.51550   34.43470   10.67480   49.21360
 6300.00000   81.67000  -17.10670    6.89050    7.40140    8.04810   11.83310  133.14840
 6350.00000   74.13000  -22.89920   12.51810   12.01900   10.68930   11.82290  111.75470
 6400.00000   86.13000  -28.84120    8.46680    9.45090    7.91820   12.79210   82.27840
 6450.00000   75.62000  -19.40210   11.80430   13.02860   14.42090   12.26490  120.34960
 6500.00000   73.20000  -23.85510   10.82900   12.65480   11.80860   12.04960   93.51330
