~Version ---------------------------------------------------
VERS. 2.0 : CWLS log ASCII Standard -VERSION 2.0
WRAP.  NO : ONE LINE PER DEPTH STEP
~Well ------------------------------------------------------
STRT.F                    900.0 : START DEPTH
STOP.F                   9200.0 : STOP DEPTH
STEP.F                 50.00000 : STEP LENGTH
NULL.                   -999.25 : NULL VALUE
COMP.     TEXACO CANADA LIMITED : COMPANY
WELL. TEXACO SUNSET 16-17-69-19 : WELL
FLD .                           : FIELD
LOC .                           : LOCATION
CTRY.                    CANADA : COUNTRY
SRVC.                   Unknown : SERVICE COMPANY
DATE.               16-Oct-1970 : LOGDATE
PROV.                   Alberta : PROVINCE
UWI .          100161706919W500 : UNIQUE WELL ID
SLAT.WGS84               54.979 : SURFACE LATITUDE
SLON.WGS84            -116.8515 : SURFACE LONGITUDE
~Curve Information -----------------------------------------
DEPT  .F                 : 
GRS   .GAPI 60 310 01 00 : GAMMA RAY FROM SONIC LOG
AC    .US/F 60 500 41 00 : ACOUSTIC
CALS  .IN   60 280 50 00 : CALIPER FROM SONIC LOG
GRS_1 .GAPI 60 310 01 00 : GAMMA RAY FROM SONIC
AC_1  .US/F 60 500 41 00 : ACOUSTIC
CALS_1.IN   60 280 50 00 : CALIPER FROM SONIC LOG
MCAL  .IN   15 280 01 00 : MLT (MICROLOG) CALIPER
SPR   .MV   07 010 01 00 : SPONTANEOUS POTENTIAL FROM RESISTIVITY LOG
ILD   .OHMM 07 120 46 00 : INDUCTION DEEP RESISTIVITY
ILM   .OHMM 07 120 44 00 : INDUCTION MEDIUM RESISTIVITY
SFL   .OHMM 07 220 06 00 : SPHERICALLY FOCUSED LOG
~Params ----------------------------------------------------
PD  .                     GL : PERMANENT DATUM
EPD .FT               2413.8 : ELEVATION PERMANENT DATUM
LMF .                     KB : LOG MEASURED FROM
DAPD.FT                    2 : FEET ABOVE PERMANENT DATUM
DMF .                     KB : DRILLING MEASURED FROM
EKB .FT                 2428 : KELLY BUSHING
EGL .FT               2413.8 : GROUND LEVEL
DATE.               10/16/70 : RUN DATE
RUN .                      1 : RUN NUMBER
DD  .FT                 9205 : DEPTH DRILLER
DL  .FT                 9205 : DEPTH LOGGER
BLI .FT                 9204 : BOTTOM LOG INTERVAL
TLI .FT                  929 : TOP LOG INTERVAL
CS  .IN                8.625 : CASING SIZE
CBD .FT                  929 : CASING BOTTOM DRILLER
CBL .FT                  929 : CASING BOTTOM LOGGER
BS  .IN                7.875 : BIT SIZE
BSD .FT                 9205 : BIT SIZE AT DEPTH
DFT .                MUD GEL : DRILLING FLUID TYPE
DFD .                    9.4 : DRILLING FLUID DENSITY
DFV .                     75 : DRILLING FLUID VISCOSITY
DFPH.                    9.5 : DRILLING FLUID PH
DFL .                    8.4 : DRILLING FLUID LOSS
MSS .                   CIRC : MUD SAMPLE SOURCE
RMS .OHMM                0.9 : RESISTIVITY MUD SAMPLE
MST .DEGF                 65 : MUD SAMPLE TEMPERATURE
RMF .OHMM                0.8 : RESISTIVITY MUD FILTRATE SAMPLE
MFST.DEGF                 65 : MUD FILTRATE SAMPLE TEMPERATURE
RMC .OHMM                1.4 : RESISTIVITY MUD CAKE
MCST.DEGF                 65 : MUD CAKE SAMPLE TEMPERATURE
MFSS.                   MEAS : MUD FILTRATE SAMPLE SOURCE
MCSS.                   MEAS : MUD CAKE SAMPLE SOURCE
RMB .OHMM                0.3 : RESISTIVITY MUD AT BHT
TCS .HRS                   3 : TIME CIRCULATED STOPPED
LUN .                   6090 : LOGGING UNIT NUMBER
LUL .                    V V : LOGGING UNIT LOCATION
ENGI.                 OFFORD : RECORDING ENGINEER
WITN.        PATTERSON IRVIN : WITNESSED BY
CLNT.                A2DTECH : CLIENT CODE
ORIG.            2" 5" PRINT : ORIGIN OF DATA
UWI .       100161706919W500 : UNIQUE WELL ID
DICO. A2D Technologies, Inc. : DIGITIZING COMPANY
~Other -----------------------------------------------------
~ASCII -----------------------------------------------------
# ...
 7000.00000   20.19490   47.61760    -999.25   22.57310   48.40980    8.24050    8.51440 -154.44160   54.45220   72.69470  139.12590
 7050.00000   21.53700   48.95070    -999.25   25.15330   48.61240    8.35370    9.51460 -132.42740  114.26230   99.05790  164.94630
 7100.00000   23.03790   48.78560    -999.25   23.39320   49.19170    8.29140    8.48370 -127.75590   65.60480   73.89520   84.84030
 7150.00000   21.06400   49.49950    -999.25   20.12280   49.34400    8.37150    8.65890 -116.16110  123.25970  108.02270  285.05370
 7200.00000   26.20360   49.28860    -999.25   26.30570   49.48660    8.32500    8.75060 -137.03380   84.59850   79.16900  121.63980
 7250.00000   18.13110   44.40170    -999.25   21.06310   44.76630    8.30370   10.02590 -160.37160  158.33430  115.61030  690.80240
 7300.00000   27.25750   47.94060    -999.25   28.18880   47.53320    8.20630    8.05040 -191.43050   66.44630  106.74250  610.59270
 7350.00000   27.04460   48.01380    -999.25   28.67040   46.91570    8.59450    8.31370 -173.52510   65.23040   80.86470  253.19100
 7400.00000   42.54900   52.87970    -999.25   42.63440   53.88280    8.44050    6.87830 -196.44930    2.56680    4.35090   19.28680
 7450.00000   35.28620   50.05070    -999.25   42.75100   51.96180    7.89540    8.24360 -137.47110   14.88820   24.79530   49.23120
 7500.00000   29.51950   46.40030    -999.25   30.19780   46.59780    8.12860    9.14190 -131.11690   87.60630   85.77380  157.61710
 7550.00000   41.12160   51.71590    -999.25   42.70320   50.92450    8.11180    8.69150 -118.96550   23.79680   27.12660   31.59460
 7600.00000   53.28180   55.80600    -999.25   48.78690   55.49430    8.69020    9.46360  -98.71620   24.51220   26.70300   33.85370
 7650.00000   29.82130   50.39760    -999.25   34.67470   50.96690    8.11240    8.66100 -126.35460  115.65710  108.96210  264.18330
 7700.00000   68.64280    -999.25    -999.25   72.14370   60.85120    8.45480    8.84280  -94.23320   11.08310   12.53870   16.53930
 7750.00000   54.94700    -999.25    -999.25   57.33420   57.19390    8.74700   10.70430  -77.81780    7.30070    8.33060   10.91780
 7800.00000   81.32780    -999.25    -999.25   80.80010   71.39810   11.64870   13.43640  -62.44120   11.33110   12.80810   14.16190
 7850.00000   91.29220    -999.25    -999.25   92.50980   72.95380   12.92820   15.87570  -52.61790    6.68450    7.48840    8.26750
 7900.00000  106.15610    -999.25    -999.25  107.20730   83.01340   14.74540   15.80950  -37.88270    4.12960    4.42230    4.94690
 7950.00000   86.67190    -999.25    -999.25   85.80090   78.85390   14.79020   15.82260  -40.26140    4.93360    5.26460    5.85860
 8000.00000   92.21630    -999.25    -999.25   93.06300   83.15640   14.12860   15.88810  -68.96310    4.60370    4.99780    5.24240
 8050.00000   93.22330   78.84980   14.21980   92.28070   79.44770   14.50530   15.80530  -94.41930    4.67130    5.08230    5.61820
 8100.00000    -999.25    -999.25    -999.25   91.02010   81.16910   14.86040   15.81940 -111.80770    4.50750    4.89990    5.39130
 8150.00000   91.40890    -999.25   13.93940   90.38100   81.25170   13.84180   15.83420  -97.52660    4.47710    4.87190    5.45140
 8200.00000   82.33650    -999.25    9.74160   81.83420   66.09000    9.92090    8.66930  -85.50100   15.37420   17.50410   19.06000
 8250.00000   74.59780    -999.25    9.52300   74.94080   61.02060    9.53850    8.80140  -83.24800   10.28780   11.16510   12.32650
 8300.00000    -999.25    -999.25    -999.25   88.29250   72.00080   10.59110    9.35930  -71.59260   10.11060   11.04900   11.86330
 8350.00000  105.44200    -999.25    -999.25    -999.25   68.29500    9.01800    8.86070  -57.99680   12.09530   13.16390   14.02700
 8400.00000   84.12970    -999.25    -999.25    -999.25   69.72430    9.45570    9.49430  -60.35950    8.84140   10.16930   10.83330
 8450.00000   97.57300    -999.25    9.52790    -999.25   63.03870    9.44480    9.89380  -38.52420   10.77360   12.03790   14.06740
 8500.00000   95.53880   69.72050    9.14360    -999.25   69.21690    9.17630    8.98580  -28.05810    9.94340   11.24050   13.32040
 8550.00000   94.33470   98.28800    -999.25    -999.25  112.49470    9.69470    9.23980  -47.13330    6.17980    7.21630    9.38260
 8600.00000  100.14470   73.03620    -999.25    -999.25   72.23350    9.65030    9.83390  -85.21540    7.69990    8.37090    9.63940
 8650.00000   98.43430   79.88590   10.54870    -999.25   79.66380   10.31000   10.79040 -133.88910    5.67100    6.74330    8.37890
 8700.00000   52.47160   59.42710    8.08620    -999.25   58.66830    8.36240    7.90830  -93.12150   44.18900   58.26160   76.99450
 8750.00000  130.07100   80.21320   10.57290    -999.25   79.54110   10.44210   10.04550  -88.98600    9.98480   10.69220   17.87060
 8800.00000   79.35610   63.62690    -999.25    -999.25   63.63580    8.71330    8.21450  -39.16440   14.24450   21.94780   19.31720
 8850.00000   27.54160   49.78620    -999.25    -999.25   49.53590    8.30620    7.76630  -50.80950  172.08670  245.36840  549.13860
 8900.00000   25.53200   49.66520    8.16440    -999.25   49.38920    8.18610    7.84370  -89.80330  363.74620  475.80680  641.53900
 8950.00000   32.23590   47.39260    7.97530    -999.25   47.75290    8.02930    7.80020  -84.86470  484.94750  399.98010 1055.48670
 9000.00000   34.99220   47.68360    7.84410    -999.25   48.04730    8.11100    7.79660 -107.14110   80.80790   60.47680  247.61400
 9050.00000   29.12210   50.19580    7.79040    -999.25   49.87920    7.95240    7.78120 -156.92700  455.24910  337.63070 1220.69120
 9100.00000   34.78910   52.34640    7.87570    -999.25   51.08140    8.06400    7.97920 -121.56360 1356.45980  670.14830 1021.95510
 9150.00000  119.99620   58.42400    7.65140    -999.25   59.02430    7.93280    7.89190  -80.94320   22.09770   29.53280   34.39340
 9200.00000    -999.25    -999.25    8.59270    -999.25    -999.25    8.24820    7.54520    -999.25    -999.25    -999.25    5.22340
