~Version ---------------------------------------------------
VERS. 2.0 : CWLS log ASCII Standard -VERSION 2.0
WRAP.  NO : ONE LINE PER DEPTH STEP
~Well ------------------------------------------------------
STRT.F                                   347.3 : START DEPTH
STOP.F                                  9458.8 : STOP DEPTH
STEP.F                                 0.50000 : STEP LENGTH
NULL.                                  -999.25 : NULL VALUE
COMP. THE BRITISH AMERICAN OIL COMPANY LIMITED : COMPANY
WELL.              B.A. GOOSE RIVER 4-32-66-18 : WELL
FLD .                                          : FIELD
LOC .                                          : LOCATION
CTRY.                                   CANADA : COUNTRY
SRVC.                             Schlumberger : SERVICE COMPANY
DATE.                              02-Dec-1964 : LOGDATE
PROV.                                  Alberta : PROVINCE
UWI .                         100043206618W500 : UNIQUE WELL ID
SLAT.WGS84                            54.75185 : SURFACE LATITUDE
SLON.WGS84                           -116.6939 : SURFACE LONGITUDE
~Curve Information -----------------------------------------
DEPT.F    0   1   0  0 : 1 MEASURED DEPTH
GRN .GAPI 35 310 01 00 : GAMMA RAY FROM GRN LOG
NEUT.NAPI 35 330 01 00 : NEUTRON
GR  .GAPI 30 310 00 00 : GAMMA RAY
CILD.MMHO 05 110 46 00 : INDUCTION DEEP CONDUCTIVITY
ILD .OHMM 05 120 46 00 : INDUCTION DEEP RESISTIVITY
SN  .OHMM 05 040 16 00 : SHORT NORMAL RESISTIVITY
SPR .MV   05 010 01 00 : SPONTANEOUS POTENTIAL FROM RESISTIVITY LOG
GRS .GAPI 60 310 01 00 : GAMMA RAY FROM SONIC LOG
DT  .US/F 60 500 00 00 : DELTA-T (INTERVAL TRANSIT TIME)
CALS.IN   60 280 50 00 : CALIPER FROM SONIC LOG
DT_1.US/F 60 500 31 00 : DELTA-T (INTERVAL TRANSIT TIME)
~Params ----------------------------------------------------
PD  .                     GL : PERMANENT DATUM
EPD .FT                 2485 : ELEVATION PERMANENT DATUM
LMF .                     KB : LOG MEASURED FROM
DAPD.FT                   15 : FEET ABOVE PERMANENT DATUM
EKB .FT                 2500 : KELLY BUSHING
EGL .FT                 2485 : GROUND LEVEL
DATE.               12/02/64 : RUN DATE
RUN .                      1 : RUN NUMBER
DD  .FT                 9461 : DEPTH DRILLER
DL  .FT                 9460 : DEPTH LOGGER
BLI .FT                 9459 : BOTTOM LOG INTERVAL
TLI .FT                  781 : TOP LOG INTERVAL
CBD .FT                  784 : CASING BOTTOM DRILLER
CBL .FT                  781 : CASING BOTTOM LOGGER
BS  .IN                7.625 : BIT SIZE
BSD .FT                 9461 : BIT SIZE AT DEPTH
DFT .               GEL CHEM : DRILLING FLUID TYPE
DFD .                    9.8 : DRILLING FLUID DENSITY
DFV .                     95 : DRILLING FLUID VISCOSITY
DFPH.                    9.5 : DRILLING FLUID PH
DFL .                    7.4 : DRILLING FLUID LOSS
RMS .OHMM               2.38 : RESISTIVITY MUD SAMPLE
MST .DEGF                 64 : MUD SAMPLE TEMPERATURE
RMF .OHMM                2.1 : RESISTIVITY MUD FILTRATE SAMPLE
MFST.DEGF                 66 : MUD FILTRATE SAMPLE TEMPERATURE
RMC .OHMM               2.32 : RESISTIVITY MUD CAKE
MCST.DEGF                 66 : MUD CAKE SAMPLE TEMPERATURE
RMB .OHMM               0.84 : RESISTIVITY MUD AT BHT
TCS .HRS                   6 : TIME CIRCULATED STOPPED
LUN .                   3534 : LOGGING UNIT NUMBER
LUL .                    V V : LOGGING UNIT LOCATION
ENGI.               CHENOSKY : RECORDING ENGINEER
WITN.                  WEISS : WITNESSED BY
CLNT.                A2DTECH : CLIENT CODE
ORIG.            2" 5" PRINT : ORIGIN OF DATA
UWI .       100043206618W500 : UNIQUE WELL ID
DICO. A2D Technologies, Inc. : DIGITIZING COMPANY
~Other -----------------------------------------------------
~ASCII -----------------------------------------------------
# ...
 3092.30000    -999.25    -999.25    -999.25  156.98460    6.30140    5.89290  -44.45990   92.82360  102.54580   13.35770    -999.25
 3092.80000    -999.25    -999.25    -999.25  157.76770    6.30870    5.89560  -44.48370   92.89980  102.01540   13.49960    -999.25
 3093.30000    -999.25    -999.25    -999.25  157.79500    6.31600    5.89830  -44.50880   90.21700  103.37940   12.98070    -999.25
 3093.80000    -999.25    -999.25    -999.25  157.80270    6.32330    5.90100  -44.48090   91.64330  102.33520   13.15860    -999.25
 3094.30000    -999.25    -999.25    -999.25  158.40820    6.33060    5.90380  -44.54310   91.38780   99.40780   13.41850    -999.25
 3094.80000    -999.25    -999.25    -999.25  158.87470    6.33740    5.90650  -44.46240   92.96630   98.54450   12.75820    -999.25
 3095.30000    -999.25    -999.25    -999.25  158.67060    6.33740    5.90920  -44.54050   98.18860  103.66150   12.47120    -999.25
 3095.80000    -999.25    -999.25    -999.25  157.92250    6.33740    5.91190  -44.50170   96.52180  102.70830   12.56190    -999.25
 3096.30000    -999.25    -999.25    -999.25  156.75220    6.33740    5.91470  -44.42690   95.43150  100.45500   12.18180    -999.25
 3096.80000    -999.25    -999.25    -999.25  155.83650    6.33740    5.91740  -44.48930   96.93010  100.30820   12.65220    -999.25
 3097.30000    -999.25    -999.25    -999.25  155.85490    6.33740    5.92010  -44.55160   94.46790  102.50560   13.18480    -999.25
 3097.80000    -999.25    -999.25    -999.25  155.94000    6.33740    5.92280  -44.69310   93.18780  107.61230   12.97080    -999.25
 3098.30000    -999.25    -999.25    -999.25  155.31940    6.33740    5.92560  -44.67050   92.28470  108.79220   13.06830    -999.25
 3098.80000    -999.25    -999.25    -999.25  155.12050    6.33740    5.92830  -44.78030   91.49600  107.08850   13.10170    -999.25
 3099.30000    -999.25    -999.25    -999.25  154.06550    6.35130    5.99430  -44.80590   90.57790  103.07670   13.32630    -999.25
 3099.80000    -999.25    -999.25    -999.25  151.81030    6.43050    6.07960  -44.63960   86.25720  103.98100   13.01150    -999.25
 3100.30000    -999.25    -999.25    -999.25  149.51150    6.50960    6.16490  -44.39240   81.55050   99.78130   12.53180    -999.25
 3100.80000    -999.25    -999.25    -999.25  147.50350    6.58880    6.25030  -44.37780   81.09780   98.98020   12.65800    -999.25
 3101.30000    -999.25    -999.25    -999.25  145.08380    6.66790    6.33560  -44.36320   80.93180   94.92350   13.01360    -999.25
 3101.80000    -999.25    -999.25    -999.25  143.89240    6.74700    6.42090  -44.44040   82.48620   94.70650   12.90110    -999.25
 3102.30000    -999.25    -999.25    -999.25  143.41000    6.79470    6.50620  -44.64850   84.51210   99.71870   12.62440    -999.25
 3102.80000    -999.25    -999.25    -999.25  142.86960    6.74850    6.59150  -44.60110   83.81690  101.39460   12.45420    -999.25
 3103.30000    -999.25    -999.25    -999.25  142.55430    6.68210    6.64330  -44.33400   81.80690  102.96070   12.22340    -999.25
 3103.80000    -999.25    -999.25    -999.25  142.96610    6.61580    6.68310  -44.34830   76.36150   99.84940   12.59990    -999.25
 3104.30000    -999.25    -999.25    -999.25  144.50340    6.54950    6.68320  -44.57130   73.35850   96.75130   12.80510    -999.25
 3104.80000    -999.25    -999.25    -999.25  147.01720    6.48310    6.66900  -44.63590   84.11960   94.78050   12.46810    -999.25
 3105.30000    -999.25    -999.25    -999.25  149.65080    6.41680    6.65480  -44.63590   92.91470   91.95440   12.93940    -999.25
 3105.80000    -999.25    -999.25    -999.25  153.29090    6.35050    6.64050  -44.61790   95.88430   90.75970   12.60270    -999.25
 3106.30000    -999.25    -999.25    -999.25  155.25380    6.28410    6.62630  -44.57390   81.44830   94.92890   12.53990    -999.25
 3106.80000    -999.25    -999.25    -999.25  155.52810    6.21890    6.61210  -44.29370   80.24870   97.01360   12.88050    -999.25
 3107.30000    -999.25    -999.25    -999.25  155.88900    6.22140    6.59790  -44.18750   83.16720  101.04950   13.12020    -999.25
 3107.80000    -999.25    -999.25    -999.25  154.51010    6.22390    6.58370  -43.99630   79.41420  108.35230   13.21670    -999.25
 3108.30000    -999.25    -999.25    -999.25  152.78330    6.22650    6.56950  -43.89180   79.61310  111.46030   13.12240    -999.25
 3108.80000    -999.25    -999.25    -999.25  152.04110    6.22900    6.56830  -43.85350   82.60030  109.99520   12.65390    -999.25
 3109.30000    -999.25    -999.25    -999.25  152.28510    6.23150    6.57090  -44.07490   79.58520  108.06720   12.16780    -999.25
 3109.80000    -999.25    -999.25    -999.25  152.94870    6.23400    6.57340  -44.18500   83.44670  106.21440   11.87500    -999.25
 3110.30000    -999.25    -999.25    -999.25  152.10360    6.23650    6.57590  -44.16830   89.40420  104.18440   12.15620    -999.25
 3110.80000    -999.25    -999.25    -999.25  153.13060    6.23900    6.57840  -43.81490   89.04800   99.91540   12.65070    -999.25
 3111.30000    -999.25    -999.25    -999.25  153.37570    6.24150    6.58100  -44.02670   83.45390  106.01320   13.00990    -999.25
 3111.80000    -999.25    -999.25    -999.25  154.05010    6.24400    6.58350  -44.18100   82.13880   98.38410   12.98470    -999.25
 3112.30000    -999.25    -999.25    -999.25  154.60000    6.24650    6.58600  -44.03390   81.88810  106.25050   12.84010    -999.25
 3112.80000    -999.25    -999.25    -999.25  154.09890    6.24900    6.58850  -43.82810   82.61210  101.83590   12.74270    -999.25
 3113.30000    -999.25    -999.25    -999.25  153.70850    6.25150    6.59110  -43.81250   84.03210  105.29510   12.92070    -999.25
 3113.80000    -999.25    -999.25    -999.25  154.14410    6.25400    6.59360  -43.79130   82.49480  108.03040   13.00530    -999.25
 3114.30000    -999.25    -999.25    -999.25  153.84340    6.25650    6.59610  -43.62840   79.71730  106.05300   12.44260    -999.25
 3114.80000    -999.25    -999.25    -999.25  153.92960    6.25900    6.59860  -43.74700   84.88590  108.41360   12.36760    -999.25
 3115.30000    -999.25    -999.25    -999.25  154.82750    6.26150    6.60120  -43.52040   88.81310  115.00830   12.75550    -999.25
 3115.80000    -999.25    -999.25    -999.25  155.40900    6.26410    6.60370  -43.38630   87.34070  107.03540   12.86290    -999.25
 3116.30000    -999.25    -999.25    -999.25  154.51800    6.26660    6.60620  -43.42250   90.94330  101.11070   12.73610    -999.25
 3116.80000    -999.25    -999.25    -999.25  153.81130    6.26910    6.60870  -43.51120   91.14370  101.35500   13.27460    -999.25
 3117.30000    -999.25    -999.25    -999.25  154.59190    6.27160    6.61120  -43.40310   87.82820  102.25590   12.71210    -999.25
 3117.80000    -999.25    -999.25    -999.25  154.76610    6.27410    6.61380  -43.39820   88.37450  113.25130   12.05570    -999.25
 3118.30000    -999.25    -999.25    -999.25  155.10690    6.27660    6.59870  -43.39330   92.38090  104.10170   11.90920    -999.25
 3118.80000    -999.25    -999.25    -999.25  156.46510    6.27910    6.56220  -43.38840   92.31420  105.90920   11.85400    -999.25
 3119.30000    -999.25    -999.25    -999.25  157.16460    6.25570    6.52570  -43.38350   88.49550  115.55110   12.75030    -999.25
 3119.80000    -999.25    -999.25    -999.25  158.06080    6.21450    6.48920  -43.37860   83.83160  108.47860   12.99710    -999.25
 3120.30000    -999.25    -999.25    -999.25  159.00840    6.17330    6.45270  -43.37370   81.21220  111.27340   13.82670    -999.25
 3120.80000    -999.25    -999.25    -999.25  159.95610    6.13220    6.41620  -43.36880   85.15440  115.19350   13.73030    -999.25
 3121.30000    -999.25    -999.25    -999.25  161.27460    6.09100    6.37970  -43.36390   93.29620  113.45260   12.76240    -999.25
 3121.80000    -999.25    -999.25    -999.25  163.14380    6.04980    6.34330  -43.39100   93.69450  106.95340   13.62680    -999.25
 3122.30000    -999.25    -999.25    -999.25  164.28830    6.00860    6.30680  -43.36940   91.30620   98.35560   13.41060    -999.25
