~Version ---------------------------------------------------
VERS.      2.0 : CWLS log ASCII Standard -VERSION 2.0
WRAP.       NO : One line per depth step
CREA. 11/17/17 : LAS Creation Date
~Well ------------------------------------------------------
STRT.FT                         1100.0 : START DEPTH
STOP.FT                        10550.0 : STOP DEPTH
STEP.FT                       50.00000 : STEP LENGTH
NULL.                          -999.25 : NULL VALUE
COMP.          MIDWEST OIL CORPORATION : COMPANY
WELL. MIDWEST CANKEE PEERS 10-28-54-14 : WELL
FLD .                                  : FIELD
LOC .                                  : LOCATION
CTRY.                           CANADA : COUNTRY
SRVC.                     Schlumberger : SERVICE COMPANY
DATE.                      15-Jul-1970 : LOGDATE
PROV.                          Alberta : PROVINCE
UWI .                 100102805414W500 : UNIQUE WELL ID
SLAT.WGS84                     53.6964 : SURFACE LATITUDE
SLON.WGS84                   -115.9982 : SURFACE LONGITUDE
~Curve Information -----------------------------------------
DEPT  .FT    : Depth Curve
CALSED.IN    : CALIPER FROM SONIC LOG
CALWS .IN    : CALIPER [CALSED]
CILDED.MMHO  : DEEP INDUCTION CONDUCTIVITY FROM RESISTIVITY LOG
CONDWS.MMHO  : CONDUCTIVITY [1000/DRESWS]
DRESWS.OHMM  : DEEP RESISTIVITY [1000/CILDED, IF ILDED < 1, ILDED]
DTED  .US/F  : DELTA-TRANSIT TIME FROM SONIC LOG
DTWS  .US/F  : COMPRESSIONAL SONIC [DTED]
GRSED .GAPI  : GAMMA RAY FROM SONIC LOG
GRWS  .GAPI  : GAMMA RAY [GRSED]
ILDED .OHMM  : DEEP INDUCTION FROM RESISTIVITY LOG
SNED  .OHMM  : SHORT NORMAL 16" FROM RESISTIVITY LOG
SPRED .MV    : SPONTANEOUS POTENTIAL FROM RESISTIVITY LOG
SPWS  .MV    : SPONTANEOUS POTENTIAL [BASELINE 0 MV, SPRED]
SRESWS.OHMM  : SHALLOW RESISTIVITY [SNED]
~Params ----------------------------------------------------
PD  .                     GL : PERMANENT DATUM
EPD .FT               2798.5 : ELEVATION PERMANENT DATUM
LMF .                     KB : LOG MEASURED FROM
DAPD.FT                 13.5 : FEET ABOVE PERMANENT DATUM
EKB .FT                 2812 : KELLY BUSHING
EGL .FT               2798.5 : GROUND LEVEL
DATE.               07/15/70 : RUN DATE
RUN .                      1 : RUN NUMBER
DD  .FT                10576 : DEPTH DRILLER
DL  .FT                10576 : DEPTH LOGGER
BLI .FT                10575 : BOTTOM LOG INTERVAL
TLI .FT                 1090 : TOP LOG INTERVAL
CBD .FT                 1090 : CASING BOTTOM DRILLER
CBL .FT                 1090 : CASING BOTTOM LOGGER
BS  .IN                 8.75 : BIT SIZE
BSD .FT                10576 : BIT SIZE AT DEPTH
DFT .              GEL BENEX : DRILLING FLUID TYPE
DFD .                    9.2 : DRILLING FLUID DENSITY
DFV .                    102 : DRILLING FLUID VISCOSITY
DFPH.                    8.5 : DRILLING FLUID PH
DFL .                    9.4 : DRILLING FLUID LOSS
RMS .OHMM               2.18 : RESISTIVITY MUD SAMPLE
MST .DEGF                 93 : MUD SAMPLE TEMPERATURE
RMF .OHMM               1.81 : RESISTIVITY MUD FILTRATE SAMPLE
MFST.DEGF                 93 : MUD FILTRATE SAMPLE TEMPERATURE
RMC .OHMM               2.63 : RESISTIVITY MUD CAKE
MCST.DEGF                 93 : MUD CAKE SAMPLE TEMPERATURE
RMB .OHMM               1.14 : RESISTIVITY MUD AT BHT
TCS .HRS                 2.5 : TIME CIRCULATED STOPPED
LUN .                   7501 : LOGGING UNIT NUMBER
LUL .                    EDM : LOGGING UNIT LOCATION
ENGI.                 HADDOW : RECORDING ENGINEER
WITN.              BURROUGHS : WITNESSED BY
CLNT.                A2DTECH : CLIENT CODE
ORIG.            2" 5" PRINT : ORIGIN OF DATA
UWI .       100102805414W500 : UNIQUE WELL ID
DICO. A2D Technologies, Inc. : DIGITIZING COMPANY
~Other -----------------------------------------------------
~ASCII -----------------------------------------------------
# ...
 6000.00000   11.61400   11.61400  249.13930  272.18290    3.67400   93.15150   93.15150  102.36150  102.36150    3.67400    4.14370  -47.59040   -3.80280    4.14370
 6050.00000   11.33580   11.33580  160.97530  179.95320    5.55700   85.98180   85.98180  106.42490  106.42490    5.55700    6.84070  -46.79520   -3.42830    6.84070
 6100.00000    9.59240    9.59240   59.64650   70.69860   14.14530   70.37980   70.37980   49.43920   49.43920   14.14530   21.18490  -66.98210  -24.29060   21.18490
 6150.00000    9.66480    9.66480   51.54800   60.24280   16.59950   68.77310   68.77310   60.45380   60.45380   16.59950   21.59560  -50.07050   -8.38900   21.59560
 6200.00000   10.15990   10.15990  330.28600  364.13030    2.74650  101.92910  101.92910  102.08590  102.08590    2.74650    3.37770  -46.47480   -5.81350    3.37770
 6250.00000   10.82160   10.82160   51.76730   63.60390   15.72230  105.66580  105.66580   65.23480   65.23480   15.72230   15.57260  -47.15640   -7.50510   15.57260
 6300.00000    9.55110    9.55110   55.86670   62.40480   16.02440   66.72650   66.72650   73.17270   73.17270   16.02440   22.29480  -50.35640  -11.72020   22.29480
 6350.00000    9.65900    9.65900   57.99610   68.91380   14.51090   64.08260   64.08260   55.89650   55.89650   14.51090   20.36870  -51.20020  -13.58410   20.36870
 6400.00000   10.23970   10.23970   45.98370   55.60840   17.98290   87.02400   87.02400   79.60950   79.60950   17.98290   30.01700  -41.26630   -4.66030   30.01700
 6450.00000   10.01620   10.01620   53.47170   62.22900   16.07020   75.98830   75.98830   83.75880   83.75880   16.07020   22.03860  -43.20580   -7.62000   22.03860
 6500.00000    9.87500    9.87500   60.46360   62.11990   16.09790   94.57890   94.57890   52.43460   52.43460   16.09790   26.14190  -39.79410   -5.21830   26.14190
 6550.00000    9.71110    9.71110   98.41370  111.35860    8.98000   69.89440   69.89440   49.16810   49.16810    8.98000   16.72740  -61.89800  -28.33730   16.72740
 6600.00000    9.84770    9.84770   69.63040   80.30270   12.45300   67.40300   67.40300   66.21350   66.21350   12.45300   20.14520  -44.14090  -11.60030   20.14520
 6650.00000   12.94940   12.94940  278.97240  312.36330    3.20140  123.16980  123.16980   81.97160   81.97160    3.20140    4.32020  -41.51770   -9.98710    4.32020
 6700.00000   10.75590   10.75590   85.69130  100.44020    9.95940   73.07000   73.07000   73.38250   73.38250    9.95940   14.95560  -38.07270   -6.90440   14.95560
 6750.00000    9.84740    9.84740   59.89900   72.45170   13.80230   68.95070   68.95070   56.33730   56.33730   13.80230   19.56880  -39.14740   -7.37270   19.56880
 6800.00000   10.36870   10.36870   39.01140   46.06890   21.70660   70.50510   70.50510   79.11320   79.11320   21.70660   33.85020  -37.23320   -4.84900   33.85020
 6850.00000   11.08930   11.08930   64.09040   75.43020   13.25730   71.68400   71.68400   92.50770   92.50770   13.25730   22.30230  -41.59990   -8.60320   22.30230
 6900.00000    9.84110    9.84110   19.85840   21.09600   47.40230   63.71130   63.71130   59.13640   59.13640   47.40230   57.20880  -48.38710  -14.78400   57.20880
 6950.00000    9.54090    9.54090   63.67520   71.12610   14.06860   74.41240   74.41240   37.87890   37.87890   14.06860   25.61180  -86.78350  -52.56790   25.61180
 7000.00000    9.51760    9.51760   13.43250   16.21730   61.66260   64.37390   64.37390   36.30200   36.30200   61.66260   61.73970  -53.66640  -18.84440   61.73970
 7050.00000   10.91690   10.91690  101.92990  108.75240    9.19520   83.56010   83.56010  106.40260  106.40260    9.19520   14.15740  -38.07810   -2.64660   14.15740
 7100.00000    9.02930    9.02930   34.28710   40.52840   24.67670   60.10100   60.10100   23.81640   23.81640   24.67670   50.96340 -109.13130  -72.02590   50.96340
 7150.00000    8.81410    8.81410   47.88120   54.83240   18.23740   63.58310   63.58310   15.67300   15.67300   18.23740   44.03240 -128.81760  -89.60760   44.03240
 7200.00000    8.92130    8.92130    3.30760    2.28500  437.64790   57.57990   57.57990   21.34750   21.34750  437.64790  320.54940  -77.93180  -36.59620  320.54940
 7250.00000    9.09650    9.09650    5.09150    4.93120  202.78970   64.94020   64.94020   63.14390   63.14390  202.78970  161.42850  -45.09470   -1.95930  161.42850
 7300.00000    9.27880    9.27880   37.21280   41.93280   23.84770   54.28170   54.28170   51.61370   51.61370   23.84770   36.76840  -57.29080  -14.07160   36.76840
 7350.00000   10.11780   10.11780   10.82170   13.51840   74.00280   51.01440   51.01440   16.94880   16.94880   74.00280  132.42760 -195.75680 -152.45350  132.42760
 7400.00000    9.24710    9.24710  107.04160  128.10000    7.80640   60.07620   60.07620   68.76320   68.76320    7.80640   16.95470  -96.62590  -53.23920   16.95470
 7450.00000    8.61750    8.61750  105.68240  121.16010    8.25480   59.18040   59.18040   64.83300   64.83300    8.25480   12.71490 -116.49260  -73.02180   12.71490
 7500.00000    9.15040    9.15040  109.82460  125.96040    7.93900   59.51660   59.51660   58.07790   58.07790    7.93900   13.76090 -102.23030  -58.67610   13.76090
 7550.00000    9.28610    9.28610   38.70750   48.50340   20.61710   56.29960   56.29960   49.44440   49.44440   20.61710   33.90940 -100.97020  -57.33230   33.90940
 7600.00000    9.28810    9.28810    6.14540    6.27750  159.70130   54.07510   54.07510   29.93490   29.93490  159.70130  139.48250  -93.70220  -49.98010  139.48250
 7650.00000    9.20410    9.20410    8.49280    8.98410  111.30730   52.42940   52.42940   35.37300   35.37300  111.30730  103.96410  -90.80130  -46.99590  103.96410
 7700.00000    9.19670    9.19670   13.27460   16.33490   61.31050   52.43610   52.43610   34.03290   34.03290   61.31050   73.20010  -86.45560  -42.56600   73.20010
 7750.00000    9.98280    9.98280   61.66230   71.93260   13.90190   59.64590   59.64590   42.64440   42.64440   13.90190   20.04620  -71.30250  -27.32960   20.04620
 7800.00000    9.16990    9.16990   19.56020   21.60970   46.27550   55.02390   55.02390   35.22950   35.22950   46.27550   52.40410  -67.97720  -23.92050   52.40410
 7850.00000    9.07490    9.07490   11.05390   12.49970   80.00260   53.31090   53.31090   34.13770   34.13770   80.00260   85.92440  -70.91230  -26.77150   85.92440
 7900.00000    8.89950    8.89950    3.62410    7.34500  136.14690   55.22630   55.22630   43.81960   43.81960  136.14690  145.72670  -67.75760  -23.53340  145.72670
 7950.00000    9.02460    9.02460   30.56140   38.01700   26.30400   60.21570   60.21570   75.76210   75.76210   26.30400   46.03770 -103.67470  -59.36640   46.03770
 8000.00000    9.41430    9.41430    1.54280    2.23460  447.49940   51.06970   51.06970   16.88320   16.88320  447.49940  311.08860 -115.15710  -70.76540  311.08860
 8050.00000    9.66780    9.66780    3.40830    2.43970  409.88100   50.08440   50.08440   17.72870   17.72870  409.88100  241.40040 -143.79120  -99.31580  241.40040
 8100.00000    9.82550    9.82550    3.08630    2.25200  444.05640   50.27430   50.27430   15.86380   15.86380  444.05640  239.57000 -165.05050 -120.49090  239.57000
 8150.00000    9.63230    9.63230    2.23380    3.13690  318.78130   50.01300   50.01300   13.67600   13.67600  318.78130  191.60380 -166.25340 -121.61050  191.60380
 8200.00000    9.72440    9.72440    2.94390    2.69990  370.40130   50.91770   50.91770   18.26910   18.26910  370.40130  242.06570 -171.04430 -126.31720  242.06570
 8250.00000   10.00270   10.00270    0.86370    2.24210  446.01170   51.92050   51.92050   19.11590   19.11590  446.01170  132.60850 -163.65760 -118.84720  132.60850
 8300.00000    9.85100    9.85100    3.35140    7.41270  134.90330   49.47360   49.47360   14.66390   14.66390  134.90330  109.55290 -175.22150 -130.32730  109.55290
 8350.00000    9.63290    9.63290    5.80610    8.50790  117.59450   48.72850   48.72850   14.44520   14.44520  117.59450  100.27360 -174.36700 -129.38860  100.27360
 8400.00000    9.75840    9.75840   21.01570   24.13350   41.43610   50.75490   50.75490   14.72150   14.72150   41.43610   67.61120 -171.98250 -126.92080   67.61120
