~Version ---------------------------------------------------
VERS.      2.0 : CWLS log ASCII Standard -VERSION 2.0
WRAP.       NO : One line per depth step
CREA. 06/29/13 : LAS Creation Date
~Well ------------------------------------------------------
STRT.M                          450.0 : START DEPTH
STOP.M                         3050.0 : STOP DEPTH
STEP.M                       50.00000 : STEP LENGTH
NULL.                         -999.25 : NULL VALUE
COMP.               SABINE CANADA LTD : COMPANY
WELL. SABINE ET AL GIROUX 10-33-65-20 : WELL
FLD .                                 : FIELD
LOC .                                 : LOCATION
CTRY.                          CANADA : COUNTRY
SRVC.                    Schlumberger : SERVICE COMPANY
DATE.                     19-Jan-1979 : LOGDATE
PROV.                         Alberta : PROVINCE
UWI .                100103306520W500 : UNIQUE WELL ID
SLAT.WGS84                   54.67172 : SURFACE LATITUDE
SLON.WGS84                  -116.9569 : SURFACE LONGITUDE
~Curve Information -----------------------------------------
DEPT    .M                                       : DEPTH METER
CALDED  .MM                                      : CALIPER FROM DENSITY LOG
CALSED  .MM                                      : CALIPER FROM SONIC LOG [ADJ. TO RESISTIVITY LOG]
CALWS   .MM                                      : CALIPER [CALDED]
CONDWS  .MMHO                                    : CONDUCTIVITY [1000/DRESWS]
DCORED  .KG/M3                                   : DENSITY CORRECTION FROM DENSITY LOG
DCORWS  .KG/M3                                   : DENSITY CORRECTION [DCORED]
DENWS   .KG/M3                                   : FORMATION BULK DENSITY  [CALC. FROM DPOLSWS, M=2710, F=1000]
DPHILSED.V/V                                     : DENSITY POROSITY LIMESTONE [M=2710, F=1000] FROM DENSITY LOG
DPHISSED.V/V                                     : DENSITY POROSITY SANDSTONE [M=2650, F=1000] FROM DENSITY LOG
DPOLSWS .V/V                                     : DENSITY POROSITY LIMESTONE [DPHISSED CONVERTED TO LIMESTONE MATRIX, M=2710, F=1000, SPL. TO NPHILSED @ 1819.9 M]
DRESWS  .OHMM                                    : DEEP RESISTIVITY [ILDED]
DTED    .US/M                                    : DELTA T FROM SONIC LOG [ADJ. TO RESISTIVITY LOG]
DTWS    .US/M                                    : COMPRESSIONAL SONIC [DTED]
GRDED   .GAPI                                    : GAMMA RAY FROM DENSITY LOG
GRSED   .GAPI                                    : GAMMA RAY FROM SONIC LOG [ADJ. TO RESISTIVITY LOG]
GRWS    .GAPI                                    : GAMMA RAY [GRSED]
ILDED   .OHMM                                    : DEEP INDUCTION FROM RESISTIVITY LOG
ILMED   .OHMM                                    : MEDIUM INDUCTION FROM RESISTIVITY LOG
MRESWS  .OHMM                                    : MEDIUM RESISTIVITY [ILMED]
NPHILSED.V/V                                     : NEUTRON POROSITY LIMESTONE FROM DENSITY LOG
NPHISSED.V/V                                     : NEUTRON POROSITY SANDSTONE FROM DENSITY LOG
NPOLSWS .V/V :   NEUTRON POROSITY LIMESTONE [SLB : NPHISSED MATRIX CONVERSION FOR LIMESTONE, SPL.TO NPHILSED @ 1820M]
RHOBED  .KG/M3                                   : BULK DENSITY FROM DENSITY LOG
SFLED   .OHMM                                    : PHERICALLY FOCUSED FROM RESISTIVITY LOG
SPRED   .MV                                      : SPONTANEOUS POTENTIAL FROM RESISTIVITY LOG
SPWS    .MV                                      : SPONATENOUS POTENTIAL [BASELINE 0 MV, SPRED]
SRESWS  .OHMM                                    : SHALLOW RESISTIVITY [SFLED]
~Params ----------------------------------------------------
PD  .                       GL : PERMANENT DATUM
EPD .M                  737.78 : ELEVATION PERMANENT DATUM
LMF .                       KB : LOG MEASURED FROM
DAPD.M                    3.54 : FEET ABOVE PERMANENT DATUM
DMF .                       KB : DRILLING MEASURED FROM
EKB .M                  741.32 : KELLY BUSHING
EGL .M                  737.78 : GROUND LEVEL
DATE.                 01/19/79 : RUN DATE
RUN .                        2 : RUN NUMBER
DD  .M                    3067 : DEPTH DRILLER
DL  .M                    3065 : DEPTH LOGGER
BLI .M                    3063 : BOTTOM LOG INTERVAL
TLI .M                    1300 : TOP LOG INTERVAL
CS  .MM                    244 : CASING SIZE
CBD .M                     463 : CASING BOTTOM DRILLER
BS  .MM                    222 : BIT SIZE
BSD .M                    3067 : BIT SIZE AT DEPTH
DFT .                      GEL : DRILLING FLUID TYPE
DFD .                     1130 : DRILLING FLUID DENSITY
DFV .                      102 : DRILLING FLUID VISCOSITY
DFL .                     10.7 : DRILLING FLUID LOSS
MSS .                    PRESS : MUD SAMPLE SOURCE
RMS .OHMM                  2.9 : RESISTIVITY MUD SAMPLE
MST .DEGC                   68 : MUD SAMPLE TEMPERATURE
RMF .OHMM                 2.53 : RESISTIVITY MUD FILTRATE SAMPLE
MFST.DEGC                   68 : MUD FILTRATE SAMPLE TEMPERATURE
RMB .OHMM                 1.11 : RESISTIVITY MUD AT BHT
TCS .HRS                  1600 : TIME CIRCULATED STOPPED
TLAB.HRS                   600 : TIME LOGGER AT BOTTOM
LUN .                     7809 : LOGGING UNIT NUMBER
LUL .                      EDM : LOGGING UNIT LOCATION
ENGI.                SEVOUGIAN : RECORDING ENGINEER
WITN.                  TAXBOCK : WITNESSED BY
CLNT.                  A2DTECH : CLIENT CODE
ORIG. 6IN/100M 16IN/100M PRINT : ORIGIN OF DATA
UWI .         100103306520W500 : UNIQUE WELL ID
DICO.   A2D Technologies, Inc. : DIGITIZING COMPANY
~Other -----------------------------------------------------
CNFD-DI-SFL-BCS LOG RAN
RHOBED IS FROM SMALL SCALE
~ASCII -----------------------------------------------------
  450.00000    -999.25    -999.25    -999.25    -999.25    -999.25    -999.25    -999.25    -999.25    -999.25    -999.25    -999.25    -999.25    -999.25    -999.25   62.41760   62.41760    -999.25    -999.25    -999.25    -999.25    -999.25    -999.25    -999.25    -999.25    -999.25    -999.25    -999.25
  500.00000  235.45350  252.70010  235.45350  133.79000   78.84120   78.84120 2382.04000    -999.25    0.16240    0.19180    7.47440  327.17230  327.17230   90.47260   96.84630   96.84630    7.47440    6.92990    6.92990    -999.25    0.28820    0.24420 2400.06420    8.45760  -19.54370   -4.30920    8.45760
  550.00000  244.30560  308.64360  244.30560  199.51320  192.92500  192.92500 2337.98500    -999.25    0.18910    0.21760    5.01220  389.06170  389.06170   93.67600   89.86450   89.86450    5.01220    4.83520    4.83520    -999.25    0.47080    0.42980 2340.10790    4.59090  -19.30890   -3.61320    4.59090
  600.00000  220.35350  236.79860  220.35350  144.71150   -1.09660   -1.09660 2340.13000    -999.25    0.18780    0.21630    6.91030  307.65760  307.65760   83.36490   88.69220   88.69220    6.91030    6.13670    6.13670    -999.25    0.40190    0.35900 2368.16700    8.07500  -21.29180   -5.09600    8.07500
  650.00000  225.39230  255.75600  225.39230  167.04250   43.78140   43.78140 2439.13000    -999.25    0.12780    0.15840    5.98650  314.30010  314.30010   79.33130   82.60260   82.60260    5.98650    5.55940    5.55940    -999.25    0.36620    0.32270 2427.57250    6.45530  -20.54090   -3.84500    6.45530
  700.00000  224.47240  250.95410  224.47240  117.70110   52.63980   52.63980 2418.34000    -999.25    0.14040    0.17060    8.49610  324.68490  324.68490   62.70890   72.45190   72.45190    8.49610    8.18190    8.18190    -999.25    0.36080    0.31730 2415.86890   16.44420  -25.84160   -8.64560   16.44420
  750.00000  238.08460  312.07700  238.08460  191.50850   27.20060   27.20060 2458.10500    -999.25    0.11630    0.14730    5.22170  338.49710  338.49710   97.91890   96.68520   96.68520    5.22170    4.93160    4.93160    -999.25    0.39620    0.35320 2452.38600    5.90210  -20.37340   -2.16390    5.90210
  800.00000  231.26000  261.54650  231.26000  141.70730   38.69920   38.69920 2382.37000    -999.25    0.16220    0.19160    7.05680  355.24390  355.24390  172.45410  183.08290  183.08290    7.05680    6.46710    6.46710    -999.25    0.44290    0.40100 2396.52880    9.29080  -23.66660   -2.88650    9.29080
  850.00000  268.93260  251.56290  268.93260  136.00820  147.86930  147.86930 2400.02500    -999.25    0.15150    0.18130    7.35250  307.29180  307.29180  137.95370  133.85340  133.85340    7.35250    6.75710    6.75710    -999.25    0.37140    0.32800 2380.66750    8.48690  -28.53000   -5.17930    8.48690
  900.00000  247.18500  248.16510  247.18500  123.56660  237.62190  237.62190 2443.91500    -999.25    0.12490    0.15560    8.09280  323.46450  323.46450  143.80220  150.28500  150.28500    8.09280    7.44390    7.44390    -999.25    0.37450    0.33120 2420.02420    9.78950  -25.86010   -2.27320    9.78950
  950.00000  237.30460  251.20600  237.30460  136.55610  195.01070  195.01070 2381.05000    -999.25    0.16300    0.19240    7.32300  307.87930  307.87930  148.63470  154.29460  154.29460    7.32300    6.76680    6.76680    -999.25    0.35850    0.31500 2396.97000    8.94660  -25.38400   -3.61630    8.94660
 1000.00000  224.32100  254.40530  224.32100  110.79600   94.54790   94.54790 2353.66000    -999.25    0.17960    0.20840    9.02560  300.82800  300.82800  136.80530  162.64540  162.64540    9.02560    8.49810    8.49810    -999.25    0.33750    0.29370 2383.41240   11.01130  -25.61910   -6.42480   11.01130
 1050.00000  220.25630  258.63270  220.25630  147.71270  111.77670  111.77670 2459.26000    -999.25    0.11560    0.14660    6.76990  325.24280  325.24280  171.20390  171.90410  171.90410    6.76990    6.34930    6.34930    -999.25    0.38810    0.34500 2503.00120    8.80820  -19.38290   -3.30610    8.80820
 1100.00000  220.14950  253.81140  220.14950  140.03840   50.34690   50.34690 2485.82500    -999.25    0.09950    0.13110    7.14090  321.77550  321.77550  157.91000  161.21390  161.21390    7.14090    6.73320    6.73320    -999.25    0.39410    0.35110 2501.23660   10.44540  -17.90300   -4.94370   10.44540
 1150.00000  224.73940  255.36970  224.73940  132.31710   82.43700   82.43700 2507.77000    -999.25    0.08620    0.11830    7.55760  279.81370  279.81370  120.35000  131.10420  131.10420    7.55760    7.18690    7.18690    -999.25    0.28520    0.24120 2525.68850   10.61550  -19.73390   -8.56480   10.61550
 1200.00000  221.46050  255.10420  221.46050  131.10280   50.34770   50.34770 2547.20500    -999.25    0.06230    0.09520    7.62760  279.92320  279.92320  137.28900  147.07480  147.07480    7.62760    7.22030    7.22030    -999.25    0.31150    0.26750 2556.09910    9.52340  -16.76730   -5.68380    9.52340
 1250.00000  224.84830  235.56590  224.84830  193.08000  158.73840  158.73840 2527.90000    -999.25    0.07400    0.10650    5.17920  304.92570  304.92570  148.79620  149.79740  149.79740    5.17920    4.99610    4.99610    -999.25    0.36570    0.32220 2561.26880    6.90800  -13.67060   -4.52550    6.90800
 1300.00000  220.58180  260.48940  220.58180  223.73870   13.33610   13.33610 2507.11000    -999.25    0.08660    0.11860    4.46950  291.05660  291.05660  138.45150  140.84270  140.84270    4.46950    4.31100    4.31100    -999.25    0.33020    0.28630 2510.08980    6.19590  -12.13980   -4.24230    6.19590
 1350.00000  220.11760  252.85540  220.11760  107.58360   30.06700   30.06700 2519.98000    -999.25    0.07880    0.11110    9.29510  250.40670  250.40670   97.89940  106.96600  106.96600    9.29510    8.86530    8.86530    -999.25    0.22020    0.17660 2534.05200   12.39440  -13.36460   -3.69210   12.39440
 1400.00000  217.20050  233.67900  217.20050   83.59390   32.74530   32.74530 2559.58000    -999.25    0.05480    0.08800   11.96260  246.96690  246.96690   86.14480   97.03580   97.03580   11.96260   10.03070   10.03070    -999.25    0.26680    0.22280 2541.62160   14.14210  -14.38330   -8.26100   14.14210
 1450.00000  233.54700  243.48690  233.54700  152.83510    6.57890    6.57890 2305.24300    -999.25    0.24580    0.23670    6.54300  315.04220  315.04220   85.78500  114.20140  114.20140    6.54300    7.37080    7.37080    -999.25    0.41920    0.33500 2305.30180    9.84360  -18.19740  -14.05580    9.84360
 1500.00000  236.91080  243.96110  236.91080  157.68390   51.91690   51.91690 2531.98900    -999.25    0.11760    0.10410    6.34180  261.40070  261.40070   89.06350  119.37420  119.37420    6.34180    8.15230    8.15230    -999.25    0.34660    0.26080 2532.07150    7.51010   -4.05130   -5.96720    7.51010
 1550.00000  228.34600  235.70590  228.34600   98.39710    1.57750    1.57750 2571.46000    -999.25    0.04760    0.08100   10.16290  219.48210  219.48210   54.80310   69.63370   69.63370   10.16290   15.49980   15.49980    -999.25    0.19680    0.10900 2586.56150   32.42680  -48.87070  -46.36970   32.42680
 1600.00000  238.14090  253.71460  238.14090  238.18030   37.03510   37.03510 2514.37000    -999.25    0.08220    0.11440    4.19850  263.59470  263.59470  103.78710  136.14740  136.14740    4.19850    5.47190    5.47190    -999.25    0.31100    0.22460 2480.72310    8.94610   -3.92590   -5.60570    8.94610
 1650.00000  258.05960  282.18800  258.05960  154.20680   53.31440   53.31440 2459.59000    -999.25    0.11540    0.14640    6.48480  271.78990  271.78990   73.17690  107.24720  107.24720    6.48480    7.35650    7.35650    -999.25    0.36320    0.27780 2431.40410    5.56180   -8.54170  -15.98270    5.56180
 1700.00000  301.90190  293.53770  301.90190  283.31820  127.86430  127.86430 2123.65000    -999.25    0.31900    0.34290    3.52960  299.71200  299.71200  112.35290  136.55900  136.55900    3.52960    3.84340    3.84340    -999.25    0.42680    0.34280 2120.30930    4.42720    6.71680   -3.31840    4.42720
