~Version ---------------------------------------------------
VERS.      2.0 : CWLS log ASCII Standard -VERSION 2.0
WRAP.       NO : One line per depth step
CREA. 01/04/18 : LAS Creation Date
~Well ------------------------------------------------------
STRT.FT                   1250.0 : START DEPTH
STOP.FT                  10000.0 : STOP DEPTH
STEP.FT                 50.00000 : STEP LENGTH
NULL.                    -999.25 : NULL VALUE
COMP. PHILLIPS PETROLEUM COMPANY : COMPANY
WELL. PHILLIPS KAYBOB 12-9-64-19 : WELL
FLD .                     KAYBOB : FIELD
LOC .                            : LOCATION
CTRY.                     CANADA : COUNTRY
SRVC.               Schlumberger : SERVICE COMPANY
DATE.                25-Oct-1959 : LOGDATE
PROV.                    Alberta : PROVINCE
UWI .           100120906419W500 : UNIQUE WELL ID
SLAT.WGS84              54.52519 : SURFACE LATITUDE
SLON.WGS84               -116.82 : SURFACE LONGITUDE
~Curve Information -----------------------------------------
DEPT  .FT    : Depth Curve
CALMED.IN    : CALIPER FROM MICROLOG (ADJ TO RES.)
CALWS .IN    : CALIPER (CALMED)
CONDWS.MMHO  : CONDUCTIVITY (1000/DRESWS)
DRESWS.OHMM  : DEEP RESISTIVITY (LAT9ED)
GRNED .CPS   : GAMMA RAY GRN/NEUTRON (ADJ TO RES.)
GRWS  .CPS   : GAMMA RAY (GRNED)
LAT9ED.OHMM  : LATERAL 9'
LT16ED.OHMM  : LATERAL 16'
NEUTED.CPS   : NEUTRON GR/NEUTRON LOG (ADJ TO RES.)
NEUTWS.CPS   : NEUTRON (NEUTED)
SNED  .OHMM  : SHORT NORMAL 16"
SPRED .MV    : Spontaneous Potential  ELOG
SPWS  .MV    : SPONTANEOUS POTENTIAL BASELINE 0 MV (SPRED)
SRESWS.OHMM  : SHALLOW RESISTIVITY (SNED)
~Params ----------------------------------------------------
PD  .                         SCF : PERMANENT DATUM
LMF .                          KB : LOG MEASURED FROM
DAPD.FT                        16 : FEET ABOVE PERMANENT DATUM
DMF .                          KB : DRILLING MEASURED FROM
EKB .FT                      2554 : KELLY BUSHING
EDF .FT                      2552 : DRILLING FLOOR
EGL .FT                      2538 : GROUND LEVEL
DATE.                    10/25/59 : RUN DATE
RUN .                           1 : RUN NUMBER
DD  .FT                     10025 : DEPTH DRILLER
DL  .FT                     10014 : DEPTH LOGGER
BLI .FT                     10013 : BOTTOM LOG INTERVAL
TLI .FT                      1257 : TOP LOG INTERVAL
CS  .IN                     9.625 : CASING SIZE
CBD .FT                      1256 : CASING BOTTOM DRILLER
CBL .FT                      1257 : CASING BOTTOM LOGGER
BS  .IN                     7.875 : BIT SIZE
BSD .FT                     10025 : BIT SIZE AT DEPTH
DFT . OIL EMULSION GEL CAUSTIC QX : DRILLING FLUID TYPE
DFD .                        10.6 : DRILLING FLUID DENSITY
DFV .                          68 : DRILLING FLUID VISCOSITY
DFPH.                        10.5 : DRILLING FLUID PH
DFL .                         5.9 : DRILLING FLUID LOSS
MSS .                  CIRCULATED : MUD SAMPLE SOURCE
RMS .OHMM                    2.18 : RESISTIVITY MUD SAMPLE
MST .DEGF                      64 : MUD SAMPLE TEMPERATURE
RMF .OHMM                    1.96 : RESISTIVITY MUD FILTRATE SAMPLE
MFST.DEGF                      66 : MUD FILTRATE SAMPLE TEMPERATURE
RMC .OHMM                    3.54 : RESISTIVITY MUD CAKE
MCST.DEGF                      64 : MUD CAKE SAMPLE TEMPERATURE
RMB .OHMM                    0.67 : RESISTIVITY MUD AT BHT
ENGI.                      FOWLER : RECORDING ENGINEER
WITN.             TIBBITTS HUNTER : WITNESSED BY
CLNT.                     A2DTECH : CLIENT CODE
ORIG.                 2" 5" PRINT : ORIGIN OF DATA
UWI .            100120906419W500 : UNIQUE WELL ID
DICO.      A2D Technologies, Inc. : DIGITIZING COMPANY
~Other -----------------------------------------------------
~ASCII -----------------------------------------------------
 1250.00000    -999.25    -999.25    -999.25    -999.25   48.66040   48.66040    -999.25    -999.25    -999.25    -999.25    -999.25    -999.25    -999.25    -999.25
 1300.00000   10.00370   10.00370  336.33800    2.97320   81.40530   81.40530    2.97320    3.12940  306.81400  306.81400    1.64470  -67.03620   -6.06840    1.64470
 1350.00000   10.19490   10.19490  252.14320    3.96600   75.89170   75.89170    3.96600    2.94470  310.41340  310.41340    1.52330  -66.39020   -6.42650    1.52330
 1400.00000   11.15940   11.15940  199.11990    5.02210   91.57500   91.57500    5.02210    4.89210  349.70030  349.70030    3.61240  -66.33330   -6.12560    3.61240
 1450.00000   11.83550   11.83550  195.45290    5.11720   76.87100   76.87100    5.11720    4.45930  400.78500  400.78500    2.63700  -65.27980   -4.82690    2.63700
 1500.00000   10.33790   10.33790  411.42100    2.43060   81.73540   81.73540    2.43060    2.50170  327.24780  327.24780    0.72490  -63.31720   -2.62150    0.72490
 1550.00000   11.62010   11.62010  282.25470    3.54290  130.02670  130.02670    3.54290    4.68330  404.62040  404.62040    4.64590  -65.18930   -4.24960    4.64590
 1600.00000   12.22200   12.22200  393.26730    2.54280   83.49530   83.49530    2.54280    2.40430  331.10210  331.10210    0.74760  -64.20100   -3.01730    0.74760
 1650.00000   11.34170   11.34170  417.71090    2.39400   98.49940   98.49940    2.39400    2.66830  325.80590  325.80590    0.43600  -64.85740   -3.42970    0.43600
 1700.00000    9.21550    9.21550  140.22520    7.14860   72.39290   72.39290    7.14860    5.98710  364.85880  364.85880    4.69680  -77.70290  -16.03000    4.69680
 1750.00000    8.81520    8.81520  132.02710    7.57420   72.96200   72.96200    7.57420    7.84180  337.11540  337.11540    5.70210  -76.28280  -14.36710    5.70210
 1800.00000    9.64640    9.64640  111.40820    8.97600   70.31890   70.31890    8.97600    4.85900  345.80930  345.80930    8.40930  -77.52660  -15.36690    8.40930
 1850.00000    9.58090    9.58090  160.94770    6.21320   83.13350   83.13350    6.21320    6.89790  311.23470  311.23470    2.68780  -65.70320   -3.29950    2.68780
 1900.00000   11.44010   11.44010  442.10620    2.26190  104.17960  104.17960    2.26190    3.86530  301.01220  301.01220    0.64530  -64.13510   -1.48740    0.64530
 1950.00000   11.02780   11.02780  261.84880    3.82010   75.34990   75.34990    3.82010    4.38410  345.98930  345.98930    2.00560  -65.09990   -2.20700    2.00560
 2000.00000   12.02270   12.02270  185.19550    5.39970   70.61260   70.61260    5.39970    3.77130  344.47790  344.47790    2.53410  -65.04410   -1.90840    2.53410
 2050.00000   10.47470   10.47470  223.64360    4.47140   88.44770   88.44770    4.47140    6.15530  348.56380  348.56380    2.65810  -64.65480   -1.27510    2.65810
 2100.00000   10.30310   10.30310  144.51700    6.91960   55.71350   55.71350    6.91960    4.37530  404.11330  404.11330    3.83560  -64.95560   -1.33200    3.83560
 2150.00000   10.28970   10.28970  115.13710    8.68530   68.15320   68.15320    8.68530   12.59980  463.63100  463.63100    9.79300  -65.92040   -2.05280    9.79300
 2200.00000   11.72700   11.72700  319.09050    3.13690   59.96510   59.96510    3.13690    1.12160  312.71200  312.71200    1.50380  -64.96610   -0.85330    1.50380
 2250.00000   10.84450   10.84450  240.79560    4.15290   63.37600   63.37600    4.15290    3.13190  301.85820  301.85820    1.87130  -65.66430   -1.30870    1.87130
 2300.00000    9.92100    9.92100  352.59690    2.83610   62.37560   62.37560    2.83610    3.86940  337.85790  337.85790    3.30860  -66.91220   -2.31260    3.30860
 2350.00000   10.41870   10.41870  328.11630    3.04770   62.69020   62.69020    3.04770    3.49540  306.31790  306.31790    2.12310  -66.36100   -1.51740    2.12310
 2400.00000   11.12340   11.12340   91.83830   10.88870   53.07800   53.07800   10.88870   12.83100  390.13080  390.13080   10.06200  -69.86690   -4.77930   10.06200
 2450.00000   11.85170   11.85170  418.99600    2.39030   65.81570   65.81570    2.39030    2.58360  347.29800  347.29800    2.55660  -67.90370   -2.57080    2.55660
 2500.00000    9.69850    9.69850  387.94270    2.57770   61.34510   61.34510    2.57770    1.45590  368.39110  368.39110    4.96580  -76.23700  -10.66140    4.96580
 2550.00000    8.64050    8.64050   55.57190   17.99470   59.11470   59.11470   17.99470   22.28150  361.20100  361.20100   11.73800  -81.95960  -16.14000   11.73800
 2600.00000    9.48630    9.48630  246.71260    4.05330   69.54100   69.54100    4.05330    3.35900  349.46820  349.46820    3.38850  -67.99880   -1.93520    3.38850
 2650.00000   10.66030   10.66030   99.70790   10.02930   57.17780   57.17780   10.02930    6.08810  309.95830  309.95830    2.91800  -68.34310   -2.03550    2.91800
 2700.00000   10.34430   10.34430   78.30780   12.91410   55.48680   55.48680   12.91410    8.98840  354.78750  354.78750    5.76570  -71.66900   -5.11620    5.76570
 2750.00000   11.28460   11.28460  213.51550    4.68350   66.13590   66.13590    4.68350    3.90970  297.74440  297.74440    1.89610  -67.71480   -0.91920    1.89610
 2800.00000   11.50800   11.50800  238.64070    4.19040   71.66430   71.66430    4.19040    3.87300  307.36270  307.36270    2.44430  -67.96420   -0.92460    2.44430
 2850.00000   11.37140   11.37140  157.37130    6.35440   66.95490   66.95490    6.35440    4.01520  304.36980  304.36980    3.03340  -68.89390   -1.61030    3.03340
 2900.00000   11.20580   11.20580  126.43980    7.90890   91.99060   91.99060    7.90890    7.70950  301.72790  301.72790    4.49110  -71.74340   -4.21580    4.49110
 2950.00000   10.54910   10.54910  128.81290    7.76320   96.30000   96.30000    7.76320    7.07580  292.31130  292.31130    4.20960  -72.23620   -4.46340    4.20960
 3000.00000   11.13410   11.13410  117.23470    8.52990  112.41530  112.41530    8.52990    7.04300  287.27690  287.27690    4.37810  -71.39000   -3.37450    4.37810
 3050.00000   11.78030   11.78030   76.51110   13.07000  114.58540  114.58540   13.07000   11.14720  336.03820  336.03820    9.54180  -72.03880   -4.11570    9.54180
 3100.00000   11.19510   11.19510  103.80120    9.63380  104.98700  104.98700    9.63380    9.72840  290.34580  290.34580    5.16350  -69.86380   -2.29750    5.16350
 3150.00000   12.11840   12.11840  100.78510    9.92210  105.31930  105.31930    9.92210    7.98740  290.52990  290.52990    4.04660  -70.64930   -3.43990    4.04660
 3200.00000   11.30910   11.30910  148.55690    6.73170   90.74470   90.74470    6.73170    5.62260  284.47580  284.47580    3.96400  -71.04220   -4.19130    3.96400
 3250.00000   11.93330   11.93330   97.75460   10.22970   98.82400   98.82400   10.22970    7.98480  314.35750  314.35750    6.65790  -71.72140   -5.22560    6.65790
 3300.00000   12.16110   12.16110   68.94600   14.50410   77.90360   77.90360   14.50410   10.75270  313.69820  313.69820    6.61640  -71.37400   -5.23500    6.61640
 3350.00000   11.05300   11.05300  127.10520    7.86750   99.44600   99.44600    7.86750    6.78990  290.49370  290.49370    4.63300  -70.55080   -4.76870    4.63300
 3400.00000   10.34060   10.34060  129.12560    7.74440   90.54250   90.54250    7.74440    7.16230  271.65020  271.65020    3.89500  -69.83580   -4.41050    3.89500
 3450.00000    9.10840    9.10840  144.74890    6.90870  101.13190  101.13190    6.90870    5.54750  275.32570  275.32570    3.72400  -70.89220   -5.82540    3.72400
 3500.00000   10.78340   10.78340  118.35300    8.44930   97.55250   97.55250    8.44930    8.04820  272.77440  272.77440    4.48500  -70.42190   -5.71020    4.48500
 3550.00000   11.44450   11.44450  142.53140    7.01600  100.67620  100.67620    7.01600    5.47000  290.36140  290.36140    5.02180  -69.87500   -5.52020    5.02180
 3600.00000   11.27620   11.27620   75.21960   13.29440   86.80100   86.80100   13.29440   12.39470  282.54380  282.54380    6.71830  -69.99360   -5.99560    6.71830
 3650.00000   10.44950   10.44950   93.57080   10.68710   96.87220   96.87220   10.68710    9.83250  280.56580  280.56580    6.05050  -70.09240   -6.45120    6.05050
