~Version ---------------------------------------------------
VERS.      2.0 : CWLS log ASCII Standard -VERSION 2.0
WRAP.       NO : One line per depth step
CREA. 08/02/17 : LAS Creation Date
~Well ------------------------------------------------------
STRT.FT                        300.0 : START DEPTH
STOP.FT                      10200.0 : STOP DEPTH
STEP.FT                     50.00000 : STEP LENGTH
NULL.                        -999.25 : NULL VALUE
COMP.           IMPERIAL OIL LIMITED : COMPANY
WELL. IMPERIAL GOOSE RIVER 2-1-67-19 : WELL
FLD .                                : FIELD
LOC .                                : LOCATION
CTRY.                         CANADA : COUNTRY
SRVC.                   Schlumberger : SERVICE COMPANY
DATE.                    10-Mar-1960 : LOGDATE
PROV.                        Alberta : PROVINCE
UWI .               100020106719W500 : UNIQUE WELL ID
SLAT.WGS84                  54.76551 : SURFACE LATITUDE
SLON.WGS84                 -116.7556 : SURFACE LONGITUDE
~Curve Information -----------------------------------------
DEPT  .FT         : Depth Curve
CALWS .IN         : CALIPER [MCALED]
CILDED.MMHO       : DEEP INDUCTION CONDUCTIVITY FROM IEL LOG
CONDWS.MMHO       : CONDUCTIVITY [1000/DRESWS]
DRESWS.OHMM       : DEEP RESISTIVITY [CALCULATED FROM 1000/CONDWS, IF ILDED<1, ILDED]
DTED  .US/F       : DELTA-T (INTERVAL TRANSIT TIME) FROM SONIC LOG
DTWS  .US/F       : COMPRESSIONAL  SONIC [DTED]
GRSED .UgRa-Eq/T  : GAMMA RAY FROM SONIC LOG
GRWS  .GAPI       : GAMMA RAY [GRSED*16.50]
ILDED .OHMM       : DEEP INDUCTION FROM IEL LOG
MCALED.IN         : MICROLOG CALIPER FROM MLL LOG
SNED  .OHMM       : SHORT NORMAL INDUCTION FROM IEL LOG
SPRED .MV         : SPONTANEOUS POTENTIAL FROM IEL LOG
SPWS  .MV         : SPONTANEOUS POTENTIAL [BASELINE 0 MV, SPRED]
SRESWS.OHMM       : SHALLOW RESISTIVITY [SNED]
~Params ----------------------------------------------------
LMF .                     KB : LOG MEASURED FROM
DMF .                     KB : DRILLING MEASURED FROM
EKB .FT                 2467 : KELLY BUSHING
DATE.               03/10/60 : RUN DATE
RUN .                      1 : RUN NUMBER
DD  .FT                10228 : DEPTH DRILLER
DL  .FT                10340 : DEPTH LOGGER
BLI .FT                10335 : BOTTOM LOG INTERVAL
TLI .FT                  983 : TOP LOG INTERVAL
CBD .FT                  983 : CASING BOTTOM DRILLER
CBL .FT                  983 : CASING BOTTOM LOGGER
BS  .IN                    9 : BIT SIZE
BSD .FT                10228 : BIT SIZE AT DEPTH
DFT .                    GEL : DRILLING FLUID TYPE
DFD .                   10.1 : DRILLING FLUID DENSITY
DFV .                    150 : DRILLING FLUID VISCOSITY
DFPH.                    9.5 : DRILLING FLUID PH
DFL .                   10.2 : DRILLING FLUID LOSS
MSS .               FILTRATE : MUD SAMPLE SOURCE
RMS .OHMM                1.6 : RESISTIVITY MUD SAMPLE
MST .DEGF                 60 : MUD SAMPLE TEMPERATURE
RMF .OHMM               0.94 : RESISTIVITY MUD FILTRATE SAMPLE
MFST.DEGF                 72 : MUD FILTRATE SAMPLE TEMPERATURE
RMC .OHMM                1.4 : RESISTIVITY MUD CAKE
MCST.DEGF                 58 : MUD CAKE SAMPLE TEMPERATURE
RMB .OHMM               0.43 : RESISTIVITY MUD AT BHT
TCS .HRS                 500 : TIME CIRCULATED STOPPED
LUN .                   1511 : LOGGING UNIT NUMBER
LUL .                     DC : LOGGING UNIT LOCATION
ENGI.             RICHARDSON : RECORDING ENGINEER
WITN.                FLEWITT : WITNESSED BY
CLNT.                A2DTECH : CLIENT CODE
ORIG.            2" 5" PRINT : ORIGIN OF DATA
UWI .       100020106719W500 : UNIQUE WELL ID
DICO. A2D Technologies, Inc. : DIGITIZING COMPANY
~Other -----------------------------------------------------
~ASCII -----------------------------------------------------
# ...
 7650.00000    8.41340   78.51350   77.65900   12.87680   53.11220   53.11220    2.24610   37.06070   12.87680    8.41340   39.11140 -167.35300 -126.20150   39.11140
 7700.00000    9.22200    7.79340    9.73180  102.75550   52.72990   52.72990    1.52490   25.16090  102.75550    9.22200   78.11960 -141.18660 -100.47800   78.11960
 7750.00000    8.66650  127.60090  136.12480    7.34620   51.88670   51.88670    3.06990   50.65340    7.34620    8.66650   20.79710 -131.07840  -90.81280   20.79710
 7800.00000    8.61310   24.26760   22.64680   44.15640   52.21730   52.21730    2.73400   45.11100   44.15640    8.61310   56.93110  -94.37850  -54.55590   56.93110
 7850.00000    -999.25   26.79370   26.10970   38.29990   59.82140   59.82140    3.42010   56.43170   38.29990    -999.25   47.03600  -72.15530  -32.77560   47.03600
 7900.00000    -999.25    4.63570    4.84770  206.28300   55.49440   55.49440    1.03100   17.01150  206.28300    -999.25  150.55830  -92.10600  -53.16930  150.55830
 7950.00000    -999.25   74.81990   71.32670   14.02000   62.37580   62.37580    3.78060   62.37990   14.02000    -999.25   22.84920  -81.30420  -42.81050   22.84920
 8000.00000    -999.25   75.51830   74.27430   13.46360   63.59230   63.59230    4.47960   73.91340   13.46360    -999.25   19.01000  -79.07610  -41.02530   19.01000
 8050.00000    -999.25   71.64390   75.02380   13.32910   69.05010   69.05010    4.90230   80.88800   13.32910    -999.25   15.21840  -97.57680  -59.96900   15.21840
 8100.00000    -999.25  233.67210  247.10880    4.04680   75.85010   75.85010    5.57550   91.99580    4.04680    -999.25    6.44190 -110.79220  -73.62740    6.44190
 8150.00000    -999.25  331.76810  369.71310    2.70480   81.66570   81.66570    5.90120   97.36980    2.70480    -999.25    5.23390 -133.10300  -96.38110    5.23390
 8200.00000    -999.25  341.22520  393.31370    2.54250   79.54080   79.54080    6.50530  107.33750    2.54250    -999.25    5.20430 -139.79490 -103.51600    5.20430
 8250.00000    -999.25  341.89040  396.85690    2.51980   80.31030   80.31030    5.85650   96.63220    2.51980    -999.25    5.11240 -137.69860 -101.86260    5.11240
 8300.00000    -999.25  258.88340  279.67330    3.57560   79.58870   79.58870    5.50170   90.77800    3.57560    -999.25    6.21580 -138.66780 -103.27480    6.21580
 8350.00000    -999.25  276.08270  290.68920    3.44010   81.41740   81.41740    6.13780  101.27370    3.44010    -999.25    5.89390 -138.65890 -103.70890    5.89390
 8400.00000    -999.25  303.34900  325.78600    3.06950   81.50940   81.50940    5.93430   97.91600    3.06950    -999.25    6.03420 -137.53090 -103.02380    6.03420
 8450.00000    -999.25   74.65920   74.61130   13.40280   68.04400   68.04400    4.57610   75.50570   13.40280    -999.25   18.81210 -136.21500 -102.15090   18.81210
 8500.00000    -999.25   68.77110   70.08990   14.26740   64.99570   64.99570    4.19640   69.24060   14.26740    -999.25   21.23360 -137.82310 -104.20200   21.23360
 8550.00000    -999.25   88.71330   91.36090   10.94560   70.86260   70.86260    5.91350   97.57270   10.94560    -999.25   17.27660 -138.65100 -105.47280   17.27660
 8600.00000    -999.25   96.31200   97.91440   10.21300   72.08290   72.08290    6.56800  108.37200   10.21300    -999.25   16.64560 -136.57930 -103.84410   16.64560
 8650.00000    -999.25  102.89980  105.15580    9.50970   71.54130   71.54130    6.13890  101.29190    9.50970    -999.25   14.97420 -140.85750 -108.56530   14.97420
 8700.00000    -999.25  118.32370  118.02330    8.47290   76.69820   76.69820    6.31570  104.20900    8.47290    -999.25   13.09940 -140.51450 -108.66520   13.09940
 8750.00000    -999.25  150.56750  151.22420    6.61270   82.77540   82.77540    6.33730  104.56550    6.61270    -999.25    9.75180 -149.79090 -118.38460    9.75180
 8800.00000    -999.25  165.33050  166.18200    6.01750   77.98330   77.98330    6.34190  104.64140    6.01750    -999.25    9.55990 -141.50630 -110.54290    9.55990
 8850.00000    -999.25  108.72680  106.34790    9.40310   68.01470   68.01470    6.04680   99.77220    9.40310    -999.25   15.66030 -138.29800 -107.77760   15.66030
 8900.00000    -999.25    9.88860   10.71610   93.31730   78.35610   78.35610    7.95180  131.20470   93.31730    -999.25   77.93970 -122.33210  -92.25470   77.93970
 8950.00000    -999.25   60.90640   63.62740   15.71650   71.28910   71.28910    4.43300   73.14450   15.71650    -999.25   23.15160 -135.26650 -105.63200   23.15160
 9000.00000   11.91970  130.92590  138.63860    7.21300   93.21770   93.21770    7.08830  116.95700    7.21300   11.91970   15.62950 -139.53830 -110.34680   15.62950
 9050.00000    8.98880   32.59760   35.05080   28.53000   53.21460   53.21460    2.69040   44.39160   28.53000    8.98880   49.29440 -131.13650 -102.38800   49.29440
 9100.00000    8.79140   21.48500   25.70670   38.90030   60.10880   60.10880    3.25670   53.73550   38.90030    8.79140   50.90170 -130.92980 -102.62420   50.90170
 9150.00000    8.96100   18.76210   20.37400   49.08210   53.87590   53.87590    1.44100   23.77650   49.08210    8.96100   65.77680 -228.07180 -200.20920   65.77680
 9200.00000    9.35130   23.76760   25.44650   39.29810   51.11980   51.11980    1.26780   20.91870   39.29810    9.35130   54.76900 -237.12280 -209.70320   54.76900
 9250.00000    9.72130   10.04010   10.86850   92.00920   51.96090   51.96090    1.23240   20.33460   92.00920    9.72130  167.54030 -210.89550 -183.91880  167.54030
 9300.00000    9.61530    7.28440    9.01670  110.90530   49.93350   49.93350    1.43270   23.63960  110.90530    9.61530  152.20800 -169.96700 -143.43330  152.20800
 9350.00000   15.41620   13.80320   14.31490   69.85710   46.43320   46.43320    2.00210   33.03460   69.85710   15.41620  120.78000 -145.71140 -119.62060  120.78000
 9400.00000    9.36070    3.58620    5.26870  189.80150   53.43480   53.43480    1.53120   25.26480  189.80150    9.36070  149.31450 -140.17710 -114.52930  149.31450
 9450.00000    7.37840  530.81480  619.61710    1.61390   76.30450   76.30450    6.99790  115.46530    1.61390    7.37840   28.85130 -272.42530 -247.22050   28.85130
 9500.00000    8.28970    9.58330   12.40010   80.64430   52.14480   52.14480    7.17110  118.32320   80.64430    8.28970   67.08670 -153.31260 -128.55070   67.08670
 9550.00000    7.98380  400.06700  478.30870    2.09070   79.61770   79.61770    8.07200  133.18800    2.09070    7.98380   14.60940 -203.61730 -179.29840   14.60940
 9600.00000    8.77920   21.79590   26.99510   37.04380   51.26010   51.26010    3.82980   63.19170   37.04380    8.77920   50.26270  -97.02400  -73.14810   50.26270
 9650.00000   14.45100   85.10730   95.27530   10.49590   65.64500   65.64500    8.72670  143.99050   10.49590   14.45100   16.77930  -36.48480  -13.05180   16.77930
 9700.00000   15.46850  144.19020  154.36150    6.47830   74.95570   74.95570    7.45360  122.98440    6.47830   15.46850   10.11980  -57.35250  -34.36250   10.11980
 9750.00000   15.15040  123.55890  131.32150    7.61490   40.61040   40.61040    6.82350  112.58780    7.61490   15.15040   11.85330  -78.24400  -55.69700   11.85330
 9800.00000    8.75910    4.34020    7.65020  130.71550   51.23490   51.23490    3.83230   63.23300  130.71550    8.75910   82.11230 -121.81940  -99.71530   82.11230
 9850.00000    8.79340  504.41490  622.82010    1.60560   73.86670   73.86670    1.86970   30.85010    1.60560    8.79340   12.07520 -205.33240 -183.67130   12.07520
 9900.00000    8.08660  394.11850  472.21040    2.11770   70.14610   70.14610    2.17230   35.84300    2.11770    8.08660   11.45260 -188.95970 -167.74150   11.45260
 9950.00000   10.35670  488.49560  568.27870    1.75970   70.78710   70.78710    7.54790  124.54040    1.75970   10.35670    6.24030 -106.40490  -85.62970    6.24030
 10000.00000    9.19050  312.72380  303.98830    3.28960   55.37500   55.37500    5.02720   82.94880    3.28960    9.19050   14.88760 -104.57550  -84.24330   14.88760
 10050.00000    8.52700  104.53600  113.20670    8.83340   60.62040   60.62040    2.53950   41.90180    8.83340    8.52700   25.18770 -127.97080 -107.97080   25.18770
