~Version ---------------------------------------------------
VERS. 2.0 : CWLS log ASCII Standard -VERSION 2.0
WRAP.  NO : ONE LINE PER DEPTH STEP
~Well ------------------------------------------------------
STRT.F                         700.0 : START DEPTH
STOP.F                        7050.0 : STOP DEPTH
STEP.F                      50.00000 : STEP LENGTH
NULL.                        -999.25 : NULL VALUE
COMP.                SUN OIL COMPANY : COMPANY
WELL. SUN CDR GOPHER HEAD 6-23-36-19 : WELL
FLD .                                : FIELD
LOC .                                : LOCATION
CTRY.                         CANADA : COUNTRY
SRVC.                        Unknown : SERVICE COMPANY
DATE.                    09-Sep-1971 : LOGDATE
PROV.                        Alberta : PROVINCE
UWI .               100062303619W400 : UNIQUE WELL ID
SLAT.WGS84                  52.10319 : SURFACE LATITUDE
SLON.WGS84                 -112.6149 : SURFACE LONGITUDE
~Curve Information -----------------------------------------
DEPT  .F    0   1   0  0 : 1 MEASURED DEPTH
SPR   .MV   10 010 01 00 : SPONTANEOUS POTENTIAL FROM RESISTIVITY LOG
LL    .OHMM 10 220 04 00 : FOCUSED LATEROLOG RESISTIVITY
NEUT  .NAPI 40 330 01 00 : NEUTRON
GRN   .GAPI 41 310 01 00 : GAMMA RAY FROM GRN LOG
SNP_LS.DEC  41 890 01 00 : SIDEWALL NEUTRON POROSITY [LIMESTONE]
CALN  .IN   41 280 60 00 : CALIPER FROM NEUTRON LOG
DT    .US/F 60 500 41 00 : DELTA-T (INTERVAL TRANSIT TIME)
GRS   .GAPI 60 310 01 00 : GAMMA RAY FROM SONIC LOG
CALS  .IN   60 280 50 00 : CALIPER FROM SONIC LOG
~Params ----------------------------------------------------
PD  .                     GL : PERMANENT DATUM
EPD .FT                 2870 : ELEVATION PERMANENT DATUM
LMF .                     KB : LOG MEASURED FROM
DAPD.FT                   14 : FEET ABOVE PERMANENT DATUM
DMF .                     KB : DRILLING MEASURED FROM
EKB .FT                 2884 : KELLY BUSHING
EGL .FT                 2870 : GROUND LEVEL
DATE.               09/11/71 : RUN DATE
RUN .                      2 : RUN NUMBER
DD  .FT                 7095 : DEPTH DRILLER
DL  .FT                 7092 : DEPTH LOGGER
BLI .FT                 7085 : BOTTOM LOG INTERVAL
TLI .FT                 6500 : TOP LOG INTERVAL
CS  .IN                8.625 : CASING SIZE
CBD .FT                  752 : CASING BOTTOM DRILLER
CBL .FT                  750 : CASING BOTTOM LOGGER
BS  .IN                7.875 : BIT SIZE
BSD .FT                 7095 : BIT SIZE AT DEPTH
DFT .           SALT MUD GEL : DRILLING FLUID TYPE
DFD .                   10.4 : DRILLING FLUID DENSITY
DFV .                     42 : DRILLING FLUID VISCOSITY
DFPH.                    8.5 : DRILLING FLUID PH
DFL .                      8 : DRILLING FLUID LOSS
MSS .                   CIRC : MUD SAMPLE SOURCE
RMS .OHMM               0.06 : RESISTIVITY MUD SAMPLE
MST .DEGF                 75 : MUD SAMPLE TEMPERATURE
RMF .OHMM               0.04 : RESISTIVITY MUD FILTRATE SAMPLE
MFST.DEGF                 74 : MUD FILTRATE SAMPLE TEMPERATURE
RMC .OHMM                0.1 : RESISTIVITY MUD CAKE
MCST.DEGF                 70 : MUD CAKE SAMPLE TEMPERATURE
MFSS.                   MEAS : MUD FILTRATE SAMPLE SOURCE
MCSS.                   MEAS : MUD CAKE SAMPLE SOURCE
RMB .OHMM               0.03 : RESISTIVITY MUD AT BHT
TCS .HRS                   3 : TIME CIRCULATED STOPPED
LUN .                   6077 : LOGGING UNIT NUMBER
LUL .                    R D : LOGGING UNIT LOCATION
ENGI.                MACLEAN : RECORDING ENGINEER
WITN.         STEBNE PATMORE : WITNESSED BY
CLNT.                A2DTECH : CLIENT CODE
ORIG.            2" 5" PRINT : ORIGIN OF DATA
UWI .       100062303619W400 : UNIQUE WELL ID
DICO. A2D Technologies, Inc. : DIGITIZING COMPANY
~Other -----------------------------------------------------
~ASCII -----------------------------------------------------
# ...
 4350.00000  -18.73330   11.55280 1734.59130   85.42770    0.06050    8.88470   69.34960   64.32140    9.22660
 4400.00000  -19.77570    7.30100 1409.55150   99.34930    0.09230    9.18330   75.65470   71.34480    9.25710
 4450.00000  -20.48960    6.34560 1205.24270  107.70630    0.10730   10.06500   80.64190   77.94720    9.71650
 4500.00000  -23.04770    4.78000 1397.99620  110.58830    0.05060   11.42500   84.01710   79.95340   10.20490
 4550.00000  -22.96740    3.85750    -999.25  110.49150    0.28540   14.54640   96.67880   76.46010   15.22890
 4600.00000  -33.39520    3.22670    -999.25  100.23630    0.30830   14.36130   96.67540   72.09980   13.92660
 4650.00000  -29.82760    3.01740  929.78430   93.53040    0.21190    8.30140   60.67300  167.84300    9.10300
 4700.00000  -12.43150   18.92050 1756.24160   56.63500    0.04590    9.58290   65.76250   37.41630    9.06090
 4750.00000   -9.90900   88.82740    -999.25   38.17380   -0.00700    9.24340   53.92820   25.00270    9.50550
 4800.00000  -12.63810   57.70240    -999.25   39.46720   -0.01910    9.94710   54.55140   23.53470    9.46410
 4850.00000  -13.53590  128.79900    -999.25   35.95520    0.00560    8.77860   51.94610   26.56200    8.82470
 4900.00000  -15.20250  232.30370    -999.25   30.27760   -0.00290    8.84850   52.01710   19.35940    9.11390
 4950.00000  -17.29470   91.83250    -999.25   34.72150    0.00930    8.46150   49.64520   23.63920    8.52300
 5000.00000  -22.29170  143.09910 2134.64160   31.21110    0.02210    9.80810   57.44920   17.86390    9.78670
 5050.00000  -19.17660   60.27090  905.08390   38.55640    0.12940   13.17210   53.23180   25.40180   11.82890
 5100.00000  -21.61430  299.72300    -999.25   29.30640    0.00730    8.86030   49.54690   15.35030    8.56700
 5150.00000  -22.73440  154.92360    -999.25   36.13560    0.39250    -999.25    -999.25   22.50210   14.99270
 5200.00000  -23.64940   44.41040  677.87600   36.07050    0.28170   13.19930    -999.25   23.39430   14.80690
 5250.00000  -24.92960  228.15760    -999.25   35.96350    0.00300    9.35300   50.09160   21.68900    9.12260
 5300.00000  -25.23940  225.09820    -999.25   42.03530    0.00620    8.98130   50.77590   31.48830    8.94590
 5350.00000  -21.54950  232.03610    -999.25   35.16780    0.00430    9.11980   47.06570   23.58390    8.67790
 5400.00000  -25.74930   13.12340 2002.93240   65.06550    0.05340    8.66620   52.68820   47.43400    8.28680
 5450.00000  -31.77640   15.03710 2072.00200   61.04850    0.04970    8.49090   51.67860   52.62670    8.15220
 5500.00000  -11.66200   26.07230    -999.25   61.12420    0.02590    8.40360   53.84580   43.98880    8.15650
 5550.00000  -13.13320   11.25670 1701.63840  121.31220    0.07940    8.71860   63.52880   88.74790    8.32680
 5600.00000  -12.90170   14.63050 1887.92400  104.73100    0.06580    8.53230   63.82480   79.45100    8.34380
 5650.00000  -14.33190    8.57680 1748.03820  141.85850    0.07420    8.76010   65.71980  102.57060    8.40020
 5700.00000  -16.06180    8.27390 1790.51350  136.15840    0.07320    8.62290   64.75250   91.82570    8.42850
 5750.00000  -29.56360   10.97700 1899.90700  101.77790    0.06460    8.54960   62.66530   69.74490    8.27970
 5800.00000  -39.69440    7.17240 1495.74170  149.51160    0.10150    8.73670   71.49570  108.75640    8.78210
 5850.00000  -29.34120    7.25390 1543.49890  136.47270    0.09670    8.70970   71.32310  100.23650    8.66770
 5900.00000  -28.16260   36.37860    -999.25   54.85930    0.02480    8.28970   53.07250   35.76320    8.17360
 5950.00000  -35.29830   36.12560    -999.25   37.72900    0.01920    8.40720   51.04030   25.86230    8.15540
 6000.00000  -28.29710  133.41490    -999.25   45.29410    0.02110    8.40430   52.97860   34.00520    8.28100
 6050.00000  -24.37350   28.21500 1772.42910  104.79440    0.07410    8.62500   62.14860   81.71020    8.24010
 6100.00000  -17.07550   67.58960 2437.17680   53.90470    0.02600    8.40520   55.53720   40.12580    8.14180
 6150.00000  -15.88250   60.24910    -999.25   39.46000    0.02180    8.40350   52.05100   22.52700    8.20890
 6200.00000  -15.55050  112.86460    -999.25   32.67840    0.02200    7.87800   48.23380   20.41980    8.33540
 6250.00000  -28.94950   47.59030    -999.25   55.14000    0.02000    8.37030   54.01220   40.59680    8.39010
 6300.00000  -32.47310  188.73400    -999.25   32.55540    0.02460    7.77560   47.27200   19.26450    8.27980
 6350.00000  -25.21280   50.51130    -999.25   38.50320    0.01970    8.01830   49.95360   23.42330    8.43890
 6400.00000  -20.21580   57.45620    -999.25   58.44990    0.00790    9.30550   51.05940   36.22250    8.75430
 6450.00000  -30.08190    6.94950 1958.93130    8.94420    0.05850    8.24110   54.36260   16.54210    8.41190
 6500.00000  -18.25390    6.55500 1788.07790    9.94050    0.05160    9.20550   53.49050   18.36090    8.88960
 6550.00000  -16.61520  194.70730    -999.25   34.68650    0.00360    7.77490   49.81210   34.87700    8.18550
 6600.00000  -12.35240  186.79480    -999.25   19.01590   -0.00170    8.90570   49.27250   20.99240    8.26700
 6650.00000  -17.63130   43.99660 1782.83280   21.66300    0.05470    9.26850   50.46450   32.03540    8.90820
 6700.00000  -30.69460  162.82580    -999.25   18.06410    0.01100    7.96730   49.64720   24.91690    8.12140
 6750.00000  -23.39270  101.70060    -999.25   24.16420    0.01000    8.16590   50.13300   27.44060    8.03830
 6800.00000  -26.23020   44.52570    -999.25   20.76280    0.00560    9.14880   50.28430   26.49850    8.89610
 6850.00000  -28.25620   20.45210    -999.25   10.11200    0.02610    7.67750   49.80020   18.37800    7.84090
 6900.00000  -16.00410   12.75650 1982.94570   76.10800    0.05620    7.93040   59.62190   66.77930    8.13120
 6950.00000  -32.43890   17.23100 2320.68900   46.15940    0.03160    8.15600    -999.25    -999.25    -999.25
 7000.00000  -20.88310   59.65120    -999.25   24.00890    0.02040    8.24470    -999.25    -999.25    -999.25
 7050.00000  -27.44330   18.08280 1713.12500   93.60490    0.08810    7.78670    -999.25    -999.25    -999.25
