~Version ---------------------------------------------------
VERS.      2.0 : CWLS log ASCII Standard -VERSION 2.0
WRAP.       NO : One line per depth step
CREA. 01/04/18 : LAS Creation Date
~Well ------------------------------------------------------
STRT.FT                            1100.0 : START DEPTH
STOP.FT                           10550.0 : STOP DEPTH
STEP.FT                          50.00000 : STEP LENGTH
NULL.                             -999.25 : NULL VALUE
COMP.                CHEVRON STANDARD LTD : COMPANY
WELL. CHEVRON GULF SHININGBANK 3-13-56-15 : WELL
FLD .                                     : FIELD
LOC .                                     : LOCATION
CTRY.                              CANADA : COUNTRY
SRVC.              Schlumberger of Canada : SERVICE COMPANY
DATE.                         25-Oct-1976 : LOGDATE
PROV.                             Alberta : PROVINCE
UWI .                    100031305615W500 : UNIQUE WELL ID
SLAT.WGS84                       53.83559 : SURFACE LATITUDE
SLON.WGS84                      -116.0977 : SURFACE LONGITUDE
~Curve Information -----------------------------------------
DEPT    .FT    : Depth Curve
CALDED  .IN    : CALIPER FROM DENSITY LOG
CALSED  .IN    : CALIPER FROM SONIC LOG [ADJ. TO RESISTIVITY LOG]
CALWS   .IN    : CALIPER [CALSED]
CONDWS  .MMHO  : CONDUCTIVITY [1000/DRESWS]
DCORED  .G/C3  : DENSITY CORRECTION FROM DENSITY LOG
DCORWS  .G/C3  : DENSITY CORRECTION [DCORED]
DENWS   .G/C3  : FORMATION BULK DENSITY [M=2.71 F=1.00] [RHOBED AND SPL. CALC DPHISSED FROM TOP TO 1142']
DPHILSED.V/V   : DENSITY POROSITY LIME [M=2.71 F=1.00] FROM DENSITY LOG [ADJ. TO RHOBED]
DPHISSED.V/V   : DENSITY POROSITY SAND [M=2.65 F=1.00] FROM DENSITY LOG [ADJ. TO RHOBED]
DPOLSWS .V/V   : DENSITY POROSITY [M=2.71 F=1.00] [CALC FROM DENWS]
DRESWS  .OHMM  : DEEP RESISTIVITY [ILDED]
DTED    .US/F  : DELTA-T FROM SONIC LOG [ADJ. TO RESISTIVITY LOG]
DTWS    .US/F  : COMPRESSIONAL SONIC [DTED]
GRDED   .GAPI  : GAMMA RAY FROM DENSITY LOG
GRSED   .GAPI  : GAMMA RAY FROM SONIC LOG [ADJ. TO GRDED]
GRWS    .GAPI  : GAMMA RAY [GRSED]
ILDED   .OHMM  : DEEP INDUCTION FROM RESISTIVITY LOG
ILMED   .OHMM  : MEDIUM INDUCTION FROM RESISTIVITY LOG
LL8ED   .OHMM  : LATEROLOG 8 FROM RESISTIVITY LOG
MRESWS  .OHMM  : MEDIUM RESISTIVITY [ILMED]
NPHILSED.V/V   : NEUTRON POROSITY LIME FROM DENSITY LOG [ADJ. TO RHOBED]
NPHISSED.V/V   : NEUTRON POROSITY SAND FROM DENSITY LOG [ADJ. TO RHOBED]
NPOLSWS .V/V   : NEUTRON POROSITY LIME [SS MATRIX(SLB) CONVERTED TO LIME, SPL. TO NPHILSED @ 2164']
RHOBED  .G/C3  : BULK DENSITY FROM DENSITY LOG
SPRED   .MV    : SPONTANEOUS POTENTIAL FROM RESISTIVITY LOG
SPWS    .MV    : SPONTANEOUS POTENTIAL [BASELINE 0 MV, SPRED]
SRESWS  .OHMM  : SHALLOW RESISTIVITY [LL8ED]
TENDED  .LBF   : TENSION FROM DENSITY LOG
TENSED  .LBF   : TENSION FROM SONIC LOG [ADJ. TO RESISTIVITY LOG]
~Params ----------------------------------------------------
EKB .FT               2889.7 : KELLY BUSHING
EGL .FT               2873.6 : GROUND LEVEL
DATE.               10/25/76 : RUN DATE
RUN .                      1 : RUN NUMBER
DD  .FT                10595 : DEPTH DRILLER
DL  .FT                10593 : DEPTH LOGGER
BLI .FT                10592 : BOTTOM LOG INTERVAL
TLI .FT                 1094 : TOP LOG INTERVAL
CBD .FT               1094.6 : CASING BOTTOM DRILLER
CBL .FT                 1094 : CASING BOTTOM LOGGER
BS  .IN                 8.75 : BIT SIZE
BSD .FT                10595 : BIT SIZE AT DEPTH
DFT .               GEL CHEM : DRILLING FLUID TYPE
DFD .                    9.5 : DRILLING FLUID DENSITY
DFV .                    124 : DRILLING FLUID VISCOSITY
DFPH.                   10.5 : DRILLING FLUID PH
DFL .                     10 : DRILLING FLUID LOSS
RMC .OHMM               2.04 : RESISTIVITY MUD CAKE
MCST.DEGF                 56 : MUD CAKE SAMPLE TEMPERATURE
RMB .OHMM               0.41 : RESISTIVITY MUD AT BHT
TCS .HRS                   5 : TIME CIRCULATED STOPPED
LUN .                   7691 : LOGGING UNIT NUMBER
LUL .                    WCT : LOGGING UNIT LOCATION
ENGI.              CROCKFORD : RECORDING ENGINEER
WITN.        WONG RICHARDSON : WITNESSED BY
CLNT.                A2DTECH : CLIENT CODE
ORIG.            2" 5" PRINT : ORIGIN OF DATA
UWI .       100031305615W500 : UNIQUE WELL ID
DICO. A2D Technologies, Inc. : DIGITIZING COMPANY
~Other -----------------------------------------------------
~ASCII -----------------------------------------------------
# ...
 6100.00000   10.94180   10.19410   10.19410   44.18680    0.05140    0.05140    2.56010    -999.25    0.06450    0.08770   22.88340   59.76050   59.76050   37.78150   36.60300   36.60300   22.88340   21.98020   37.80210   21.98020    -999.25    0.19030    0.14700    2.56010  -39.45390  -22.03780   37.80210 1685.13890 1085.54650
 6150.00000   11.43770   11.00670   11.00670   73.20750    0.00970    0.00970    2.53900    -999.25    0.07300    0.10000   13.65980   68.91470   68.91470   63.51440   57.36620   57.36620   13.65980   12.97910   15.87820   12.97910    -999.25    0.19630    0.15290    2.53900  -53.53930  -36.55130   15.87820 1798.12820 1477.00550
 6200.00000   11.53560   11.04370   11.04370   62.38010    0.02160    0.02160    2.56230    -999.25    0.06090    0.08640   16.03410   67.32370   67.32370   72.50460   69.96490   69.96490   16.03410   14.13340   18.95410   14.13340    -999.25    0.16410    0.12120    2.56230  -46.19380  -29.63670   18.95410 1883.35570 1774.15370
 6250.00000   11.43420   10.93960   10.93960   63.93860    0.01750    0.01750    2.48940    -999.25    0.08540    0.12900   15.64000   74.75580   74.75580   58.24150   52.95210   52.95210   15.64000   17.08600   19.81910   17.08600    -999.25    0.23900    0.19520    2.48940  -24.10460   -7.97560   19.81910 1983.91110 1540.88170
 6300.00000   10.57030   10.37380   10.37380   82.74650    0.01340    0.01340    2.56820    -999.25    0.05710    0.08290   12.08510   70.63020   70.63020   56.56810   60.93100   60.93100   12.08510   11.67030   13.97920   11.67030    -999.25    0.18950    0.14620    2.56820  -28.18210  -12.70360   13.97920 1889.31610 1801.85260
 6350.00000    9.68480    9.10910    9.10910   70.94950    0.12300    0.12300    2.48050    -999.25    0.10880    0.13420   14.11540   69.84620   69.84620   48.10490   46.50960   46.50960   14.11540   14.70260   17.63490   14.70260    -999.25    0.21640    0.17280    2.48050  -54.29030  -39.98260   17.63490  774.94820 1367.10950
 6400.00000   10.75570   10.88970   10.88970   95.82030    0.01320    0.01320    2.58230    -999.25    0.04610    0.07470   10.43620   71.30640   71.30640   66.78000   67.15660   67.15660   10.43620   10.73090   15.37500   10.73090    -999.25    0.20010    0.15670    2.58230  -18.48800   -5.34340   15.37500  773.12820 1564.20080
 6450.00000    9.69460    8.63370    8.63370   72.33150    0.14860    0.14860    2.51410    -999.25    0.08010    0.11460   13.82530   69.94900   69.94900   37.68610   36.50680   36.50680   13.82530   17.99590   24.59190   17.99590    -999.25    0.16690    0.12400    2.51410  -77.32930  -65.35550   24.59190 1087.70290 1463.35300
 6500.00000   11.23140   10.93460   10.93460  118.87780    0.00440    0.00440    2.52970    -999.25    0.07640    0.10550    8.41200   70.28470   70.28470   56.54370   55.34860   55.34860    8.41200    8.92030   13.74290    8.92030    -999.25    0.16840    0.12540    2.52970  -37.26460  -26.45390   13.74290 1479.03170 1821.11370
 6550.00000   11.67200   11.11380   11.11380   94.77770    0.03080    0.03080    2.55890    -999.25    0.06160    0.08840   10.55100   70.09210   70.09210   45.40230   44.68190   44.68190   10.55100   10.69730   13.96970   10.69730    -999.25    0.20160    0.15810    2.55890  -30.85200  -21.20450   13.96970 1330.21120 1869.19980
 6600.00000   10.50920   10.44590   10.44590   35.36120    0.01350    0.01350    2.65100    -999.25   -0.00740    0.03450   28.29830   62.28740   62.28740   60.17590   55.60290   55.60290   28.29830   31.72320  135.64110   31.72320    -999.25    0.09840    0.05720    2.65100  -10.28220   -1.80540  135.64110 1530.77710 1979.83290
 6650.00000   10.98690   11.06420   11.06420   75.65270    0.00770    0.00770    2.63620    -999.25    0.01160    0.04320   13.21830   69.84110   69.84110   75.82830   76.33010   76.33010   13.21830   12.65740   14.74790   12.65740    -999.25    0.22580    0.18210    2.63620  -11.55180   -4.10530   14.74790 1599.29060 2169.47070
 6700.00000   11.23600   11.03890   11.03890   35.19820    0.04520    0.04520    2.63150    -999.25    0.01680    0.04590   28.42090   71.67550   71.67550   72.17020   66.40510   66.40510   28.42090   28.37780   80.81640   28.37780    -999.25    0.14750    0.10500    2.63150  -12.05220   -5.14090   80.81640 1767.87500 2158.05550
 6750.00000   11.53870   10.88710   10.88710   67.68600    0.05810    0.05810    2.62690    -999.25    0.02340    0.04860   14.77410   74.57990   74.57990   91.98930   95.14510   95.14510   14.77410   12.99740   16.11070   12.99740    -999.25    0.18280    0.13960    2.62690  -13.72610   -7.34660   16.11070 1389.92010 2051.72360
 6800.00000   14.17100   10.66970   10.66970   36.59720    0.20530    0.20530    2.24490    -999.25    0.24370    0.27200   27.32450   71.84900   71.84900   32.12330   33.33330   33.33330   27.32450   24.43600   31.59980   24.43600    -999.25    0.10670    0.06520    2.24490  -27.04510  -21.19740   31.59980 1310.13300 2186.61730
 6850.00000   13.25480   11.33550   11.33550   58.75140    0.13540    0.13540    2.34430    -999.25    0.17360    0.21390   17.02110   78.89480   78.89480   95.22010   85.89620   85.89620   17.02110   15.23670   23.49950   15.23670    -999.25    0.23730    0.19350    2.34430  -13.17610   -7.86360   23.49950 1106.90500 2277.01170
 6900.00000   11.63460   10.01440   10.01440   39.91870    0.15690    0.15690    2.43180    -999.25    0.11800    0.16270   25.05090   50.11340   50.11340   66.73930   57.15020   57.15020   25.05090   21.80250   34.62970   21.80250    -999.25    0.16660    0.12370    2.43180  -14.95460  -10.17390   34.62970 1311.29670 2127.84690
 6950.00000   11.76370   10.86490   10.86490   93.31710    0.19000    0.19000    2.40960    -999.25    0.15350    0.17570   10.71620   55.74250   55.74250   60.94590   52.78560   52.78560   10.71620   10.06180   15.16570   10.06180    -999.25    0.21610    0.17250    2.40960  -24.04040  -19.79500   15.16570 1421.84810 1639.55630
 7000.00000    9.47810    9.21240    9.21240   13.09060    0.10430    0.10430    2.67760    -999.25    0.02750    0.01900   76.39090   47.23070   47.23070   12.45230   14.04670   14.04670   76.39090   62.98270  115.33310   62.98270    -999.25    0.06750    0.03000    2.67760  -62.93680  -59.22310  115.33310 1338.44870 1428.57960
 7050.00000    9.54080    9.29080    9.29080    1.79860    0.02690    0.02690    2.62990    -999.25    0.01660    0.04680  555.98860   54.65730   54.65730   15.48420   14.91160   14.91160  555.98860  789.17000 1068.23840  789.17000    -999.25    0.02660   -0.00130    2.62990  -48.88960  -45.70770 1068.23840 1513.69020 1579.32380
 7100.00000    9.69870    9.44020    9.44020    0.72530    0.03430    0.03430    2.64080    -999.25    0.02270    0.04040 1378.68550   54.98100   54.98100   20.29050   20.24290   20.24290 1378.68550 1438.82080 1492.46070 1438.82080    -999.25    0.04750    0.01400    2.64080  -42.46100  -39.81440 1492.46070 1552.12830 1574.09000
 7150.00000   11.20210   10.45190   10.45190   10.68880    0.21220    0.21220    2.73430   -0.02420    -999.25   -0.01420   93.55570   53.79590   53.79590   57.69930   82.29930   82.29930   93.55570   70.17400  148.44380   70.17400    0.03100    -999.25    0.03100    2.73430  -45.75670  -43.64180  148.44380 1315.00400 1575.07850
 7200.00000    9.87200    9.82480    9.82480   63.09570    0.10400    0.10400    2.52230    0.11300    -999.25    0.10980   15.85240   58.19030   58.19030   72.75590   66.43400   66.43400   15.85240   15.80170   24.46930   15.80170    0.14150    -999.25    0.14150    2.52230  -27.36840  -25.78880   24.46930 1560.66540 1748.62240
 7250.00000   15.48190   11.70340   11.70340    4.66260    0.12720    0.12720    1.88860    0.45170    -999.25    0.48040  214.47050   51.53170   51.53170   12.29550   14.13200   14.13200  214.47050  111.12310  220.13970  111.12310    0.01110    -999.25    0.01110    1.88860  -90.49870  -89.45090  220.13970 1605.26340 1790.76610
 7300.00000   10.36880   10.00230   10.00230   27.26330    0.14310    0.14310    2.52480    0.10720    -999.25    0.10830   36.67930   50.81800   50.81800    9.73200   10.47220   10.47220   36.67930   56.83840  238.53360   56.83840    0.01030    -999.25    0.01030    2.52480 -116.41980 -115.90380  238.53360 1791.71590 1929.79130
