~Version ---------------------------------------------------
VERS.      2.0 : CWLS log ASCII Standard -VERSION 2.0
WRAP.       NO : One line per depth step
CREA. 08/01/17 : LAS Creation Date
~Well ------------------------------------------------------
STRT.FT                           1450.0 : START DEPTH
STOP.FT                          10150.0 : STOP DEPTH
STEP.FT                         50.00000 : STEP LENGTH
NULL.                            -999.25 : NULL VALUE
COMP.               CHEVRON STANDARD LTD : COMPANY
WELL. CHEVRON GULF PASS CREEK 6-10-61-17 : WELL
FLD .                                    : FIELD
LOC .                                    : LOCATION
CTRY.                             CANADA : COUNTRY
SRVC.                       Schlumberger : SERVICE COMPANY
DATE.                        29-Nov-1977 : LOGDATE
PROV.                            Alberta : PROVINCE
UWI .                   100061006117W500 : UNIQUE WELL ID
SLAT.WGS84                      54.25885 : SURFACE LATITUDE
SLON.WGS84                     -116.4678 : SURFACE LONGITUDE
~Curve Information -----------------------------------------
DEPT    .FT    : Depth Curve
CALDED  .IN    : CALIPER FROM DENSITY LOG [ADJ TO GRSED]
CALSED  .IN    : CALIPER FROM SONIC LOG
CALWS   .IN    : CALIPER [CALSED]
CONDWS  .MMHO  : CONDUCTIVITY [1000/DRESWS]
DCORWS  .G/C3  : DENSITY CORRECTION [DRHOED]
DENWS   .G/C3  : BULK DENSITY RHOBED]
DPHILSED.V/V   : DENSITY POROSITY [M=2.71, F=1.00] FROM DENSITY LOG [ADJ TO GRSED]
DPHISSED.V/V   : DENSITY POROSITY [M=2.65, F=1.00] FROM DENSITY LOG [ADJ TO GRSED]
DPOLSWS .V/V   : DENSITY POROSITY [M=2.71, F=1.00] [CALCULATED FROM DENWS]
DRESWS  .OHMM  : DEEP RESISTIVITY [ILDED]
DRHOED  .G/C3  : DENSITY CORRECTION FROM DENSITY LOG[ADJ TO GRSED]
DTED    .US/F  : DELTA TIME FROM SONIC LOG
DTWS    .US/F  : DELTA TIME [DTED]
GRDED   .GAPI  : GAMMA RAY FROM DENSITY LOG[ADJ TO GRSED]
GRSED   .GAPI  : GAMMA RAY FROM SONIC LOG
GRWS    .GAPI  : GAMMA RAY [GRSED, CSG <1537']
ILDED   .OHMM  : INDUCTION LOG DEEP RESISTIVITY
ILMED   .OHMM  : INDUCTION LOG MEDIUM RESISTIVITY
LL8ED   .OHMM  : 8 INCH LATEROLOG RESISTIVITY
MRESWS  .OHMM  : MEDIUM RESISTIVITY [ILMED]
NPHILSED.V/V   : NEUTRON POROSITY LIMESTONE FROM DENSITY LOG [ADJ TO GRSED]
NPHISSED.V/V   : NEUTRON POROSITY SANDSTONE FROM DENSITY LOG [ADJ TO GRSED]
NPOLSWS .V/V   : NEUTRON POROSITY LIMESTONE [CONVERTED NPHISSED TO LIMESTONE SPL WITH NPHILSED @9598']
RHOBED  .G/C3  : BULK DENSITY FROM DENSITY LOG [ADJ TO GRSED]
SPRED   .MV    : SPONTANEOUS POTENTIAL FROM RESISTIVITY LOG
SPWS    .MV    : SPONTANEOUS POTENTIAL [BASELINE 0 MV] [SPRED]
SRESWS  .OHMM  : SHALLOW RESISTIVITY [LL8ED]
TENDED  .LBF   : TENSION FROM DENSITY LOG [ADJ TO GRSED]
TENSED  .LBF   : TENSION FROM SONIC LOG
~Params ----------------------------------------------------
PD  .                     GL : PERMANENT DATUM
LMF .                     GL : LOG MEASURED FROM
EKB .FT                 2726 : KELLY BUSHING
DATE.               11/29/77 : RUN DATE
RUN .                      1 : RUN NUMBER
DFD .                    9.7 : DRILLING FLUID DENSITY
DFV .                    145 : DRILLING FLUID VISCOSITY
DFPH.                    9.5 : DRILLING FLUID PH
DFL .                    7.6 : DRILLING FLUID LOSS
MSS .               FLOWLINE : MUD SAMPLE SOURCE
TCS .HRS                 7.5 : TIME CIRCULATED STOPPED
ENGI.              BIGG GUNN : RECORDING ENGINEER
WITN.               WILLIAMS : WITNESSED BY
CLNT.                A2DTECH : CLIENT CODE
ORIG.            2" 5" PRINT : ORIGIN OF DATA
UWI .       100061006117W500 : UNIQUE WELL ID
DICO. A2D Technologies, Inc. : DIGITIZING COMPANY
~Other -----------------------------------------------------
~ASCII -----------------------------------------------------
# ...
 5200.00000   14.21110   10.26360   10.26360  220.41290    0.10150    1.61220    -999.25    -999.25    0.64200    4.53790    0.10150   81.58510   81.58510   80.00880   81.49990   81.49990    4.53790    5.11430    6.80690    5.11430    -999.25    0.47340    0.43620    1.61220  -39.93450   -1.72880    6.80690 2113.90370 1591.67790
 5250.00000   10.96050   11.40340   11.40340  209.52500    0.15370    1.96630    -999.25    0.41710    0.43490    4.77270    0.15370   89.25930   89.25930  103.05830  100.05180  100.05180    4.77270    5.05940    5.29750    5.05940    -999.25    0.34720    0.29820    1.96630  -39.88680   -1.80630    5.29750 1775.53100 1665.20210
 5300.00000   10.09430    9.50440    9.50440   63.83170    0.16150    2.58270    -999.25    0.04450    0.07440   15.66620    0.16150   69.37780   69.37780   49.28490   43.54470   43.54470   15.66620   19.00830   22.79170   19.00830    -999.25    0.16140    0.11400    2.58270  -63.01800  -25.37390   22.79170 1717.65800 1503.08870
 5350.00000   10.46910    9.50150    9.50150  537.80790    0.03260    2.37110    -999.25    0.16650    0.19820    1.85940    0.03260  129.95310  129.95310  112.60500  116.94490  116.94490    1.85940    1.90610    2.81090    1.90610    -999.25    0.46340    0.42510    2.37110  -41.55770   -4.61440    2.81090 1016.38530 1629.05770
 5400.00000   10.13010   10.02600   10.02600   86.50070    0.01500    2.56210    -999.25    0.04810    0.08650   11.56060    0.01500   73.07970   73.07970   74.95270   76.98570   76.98570   11.56060   13.05890   13.38110   13.05890    -999.25    0.24970    0.19710    2.56210  -45.65720   -9.41470   13.38110 1214.48020 1689.05940
 5450.00000   10.66470   10.22380   10.22380   73.26120    0.04780    2.43590    -999.25    0.13710    0.16030   13.65090    0.04780   82.14510   82.14510   66.93520   61.24260   61.24260   13.65090   15.27540   16.86120   15.27540    -999.25    0.30690    0.25570    2.43590  -54.16170  -18.62360   16.86120 1173.08850 1752.76440
 5500.00000   12.07760   10.89710   10.89710  105.68700    0.04060    2.49570    -999.25    0.12240    0.12530    9.46190    0.04060   88.41070   88.41070   97.55030   95.02600   95.02600    9.46190    9.96490    9.27730    9.96490    -999.25    0.35460    0.30600    2.49570  -44.49810   -9.65730    9.27730 1307.73150 1810.77150
 5550.00000   11.96530   11.08900   11.08900   37.88170    0.00250    2.19900    -999.25    0.27220    0.29880   26.39800    0.00250   90.77300   90.77300   64.94740   72.78960   72.78960   26.39800   31.46390   54.93230   31.46390    -999.25    0.39750    0.35220    2.19900  -41.74310   -7.60310   54.93230 1197.50840 1950.70850
 5600.00000   11.33660   10.68030   10.68030   95.29980    0.05880    2.58610    -999.25    0.04110    0.07250   10.49320    0.05880   71.75420   71.75420   87.53420   87.15180   87.15180   10.49320   11.87830   12.59080   11.87830    -999.25    0.20650    0.15530    2.58610  -42.55450   -9.11540   12.59080 1301.66350 1980.86180
 5650.00000   12.56190   11.97670   11.97670   77.62890    0.05230    2.62070    -999.25    0.00630    0.05220   12.88180    0.05230   68.08240   68.08240   60.72870   64.69620   64.69620   12.88180   14.29890   16.00890   14.29890    -999.25    0.19200    0.14180    2.62070  -54.30370  -21.56540   16.00890 1267.59040 2011.88830
 5700.00000   12.58610   12.11130   12.11130   96.64450    0.10750    2.52880    -999.25    0.09100    0.10590   10.35170    0.10750   76.61040   76.61040  104.55260  103.00300  103.00300   10.35170   11.86260   12.96310   11.86260    -999.25    0.34600    0.29690    2.52880  -36.66320   -4.62930   12.96310 1438.90670 2045.78210
 5750.00000   10.82470   10.33010   10.33010   84.06680    0.12950    2.54280    -999.25    0.06720    0.09780   11.89530    0.12950   75.86010   75.86010   70.57060   70.47830   70.47830   11.89530   13.56220   18.09390   13.56220    -999.25    0.26790    0.21540    2.54280  -70.37310  -39.03650   18.09390 1418.52930 2107.72680
 5800.00000   10.71420   10.91770   10.91770  123.57430    0.02780    2.46680    -999.25    0.11850    0.14220    8.09230    0.02780   73.71480   73.71480   74.80040   69.52620   69.52620    8.09230    9.23030   12.01870    9.23030    -999.25    0.27650    0.22420    2.46680  -47.42400  -16.78820   12.01870 1423.42450 2134.62800
 5850.00000   12.71390   12.28750   12.28750   38.79860    0.02040    1.46410    -999.25    -999.25    0.72860   25.77410    0.02040  126.45410  126.45410   26.60050   22.47010   22.47010   25.77410   24.07500  301.78320   24.07500    -999.25    0.60040    0.57680    1.46410  -45.47730  -15.54240  301.78320 1416.76600 2214.86070
 5900.00000   10.39460   10.22250   10.22250   85.46060    0.03510    2.60730    -999.25    0.01440    0.06000   11.70130    0.03510   72.74290   72.74290   96.55960   93.94310   93.94310   11.70130   12.32380   11.78800   12.32380    -999.25    0.26090    0.20830    2.60730  -33.35300   -3.91120   11.78800 1655.89970 2254.89320
 5950.00000   11.40670   10.52950   10.52950  130.20870    0.14560    2.49490    -999.25    0.12220    0.12580    7.68100    0.14560   75.48600   75.48600   81.95030   76.24240   76.24240    7.68100    8.19780    9.74430    8.19780    -999.25    0.27560    0.22330    2.49490  -35.44940   -6.36990    9.74430 1460.06540 2412.22260
 6000.00000   11.00800   10.15700   10.15700  100.09910    0.14370    2.55640    -999.25    0.05110    0.08980    9.99010    0.14370   73.67290   73.67290   89.87920   89.44350   89.44350    9.99010   11.30410   11.67310   11.30410    -999.25    0.26180    0.20920    2.55640  -33.22170   -4.50070   11.67310 1706.59700 2395.95250
 6050.00000   10.17270   10.00700   10.00700   45.72330    0.07610    2.56780    -999.25    0.04920    0.08320   21.87070    0.07610   66.75390   66.75390   66.38060   63.86990   63.86990   21.87070   26.75040   29.79560   26.75040    -999.25    0.18440    0.13470    2.56780  -41.81630  -13.45570   29.79560 1730.04610 2426.40150
 6100.00000   10.07750    9.79040    9.79040  181.84460    0.05670    2.49330    -999.25    0.10100    0.12670    5.49920    0.05670   71.78420   71.78420   40.57610   40.95390   40.95390    5.49920    7.31610   13.39540    7.31610    -999.25    0.15900    0.11180    2.49330  -87.73750  -59.73730   13.39540 1704.10230 2345.76090
 6150.00000   10.00900    9.66410    9.66410  172.03410    0.06360    2.33650    -999.25    0.18420    0.21840    5.81280    0.06360   76.74310   76.74310   54.06150   51.60280   51.60280    5.81280    6.06540    6.89360    6.06540    -999.25    0.19820    0.14750    2.33650  -74.83420  -47.19440    6.89360 1682.18920 2474.67420
 6200.00000   10.97330    9.93350    9.93350  100.84100    0.24760    2.44340    -999.25    0.16190    0.15590    9.91660    0.24760   75.43350   75.43350  110.63940  107.77570  107.77570    9.91660   11.69180   11.69000   11.69180    -999.25    0.28420    0.23230    2.44340  -31.51860   -4.24100   11.69000 1691.37790 2593.86770
 6250.00000    -999.25   11.86990   11.86990  170.65430    -999.25    -999.25    -999.25    -999.25    -999.25    5.85980    -999.25   80.78320   80.78320    -999.25  103.59090  103.59090    5.85980    6.30610    7.26210    6.30610    -999.25    -999.25    -999.25    -999.25  -32.97470   -6.05570    7.26210    -999.25 2526.76620
 6300.00000    -999.25   10.90310   10.90310  203.23140    -999.25    -999.25    -999.25    -999.25    -999.25    4.92050    -999.25   92.93090   92.93090    -999.25  108.08120  108.08120    4.92050    5.59120   10.88460    5.59120    -999.25    -999.25    -999.25    -999.25  -32.73570   -6.17700   10.88460    -999.25 2643.57030
 6350.00000    -999.25    9.76900    9.76900   48.67480    -999.25    -999.25    -999.25    -999.25    -999.25   20.54450    -999.25   78.99030   78.99030    -999.25  104.81390  104.81390   20.54450   28.39360   52.78520   28.39360    -999.25    -999.25    -999.25    -999.25  -30.98750   -4.79960   52.78520    -999.25 2723.29420
 6400.00000    -999.25    9.25700    9.25700   21.51440    -999.25    -999.25    -999.25    -999.25    -999.25   46.48050    -999.25   76.87100   76.87100    -999.25  175.56630  175.56630   46.48050   70.10030  114.01480   70.10030    -999.25    -999.25    -999.25    -999.25  -33.82980   -8.03370  114.01480    -999.25 2633.33960
