~Version ---------------------------------------------------
VERS.      2.0 : CWLS log ASCII Standard -VERSION 2.0
WRAP.       NO : One line per depth step
CREA. 01/28/16 : LAS Creation Date
~Well ------------------------------------------------------
STRT.FT                          1500.0 : START DEPTH
STOP.FT                         13000.0 : STOP DEPTH
STEP.FT                        50.00000 : STEP LENGTH
NULL.                           -999.25 : NULL VALUE
COMP.  AMOCO CANADA PETROLEUM CO., LTD. : COMPANY
WELL. AMOCO ET AL BERLAND D-1 6-7-60-22 : WELL
FLD .                                   : FIELD
LOC .                                   : LOCATION
CTRY.                            CANADA : COUNTRY
SRVC.                      Schlumberger : SERVICE COMPANY
DATE.                       10-Dec-1976 : LOGDATE
PROV.                           Alberta : PROVINCE
UWI .                  100060706022W500 : UNIQUE WELL ID
SLAT.WGS84                     54.17117 : SURFACE LATITUDE
SLON.WGS84                    -117.2921 : SURFACE LONGITUDE
~Curve Information -----------------------------------------
DEPT   .FT    : Depth Curve
CALD   .IN    : CALIPER FROM DENSITY LOG
CALS   .IN    : CALIPER FROM SONIC LOG
DCOR   .G/C3  : DENSITY CORRECTION FROM DENSITY LOG
DPHI_LS.DEC   : DENSITY POROSITY LIMESTONE
DPHI_SS.DEC   : DENSITY POROSITY SANDSTONE
DT     .US/F  : DELTA TIME FROM SONIC LOG
GRD    .GAPI  : GAMMA RAY FROM DENSITY LOG
GRS    .GAPI  : GAMMA RAY FROM SONIC LOG
ILD    .OHMM  : INDUCTION LOG DEEP RESISTIVITY
ILM    .OHMM  : INDUCTION LOG MEDIUM RESISTIVITY
LL8    .OHMM  : LATEROLOG-8 RESISTIVITY
NPHI_LS.DEC   : NEUTRON POROSITY LIMESTONE FROM DENSITY LOG
NPHI_SS.DEC   : NEUTRON POROSITY SANDSTONE FROM DENSITY LOG
RHOB   .G/C3  : BULK DENSITY FROM DENSITY LOG
SPR    .MV    : SPONTANEOUS POTENTIAL FROM DIL LOG
~Params ----------------------------------------------------
PD  .                     GL : PERMANENT DATUM
EPD .M                  3639 : ELEVATION PERMANENT DATUM
LMF .                     KB : LOG MEASURED FROM
DAPD.M                    16 : FEET ABOVE PERMANENT DATUM
EKB .M                  3655 : KELLY BUSHING
EGL .M                  3639 : GROUND LEVEL
DATE.             12/10/1976 : RUN DATE
RUN .                      2 : RUN NUMBER
DD  .M                 12990 : DEPTH DRILLER
DL  .M                 13000 : DEPTH LOGGER
BLI .M                 12994 : BOTTOM LOG INTERVAL
TLI .M                  7504 : TOP LOG INTERVAL
CBD .M                  7499 : CASING BOTTOM DRILLER
CBL .M                  7504 : CASING BOTTOM LOGGER
BS  .MM                  8.5 : BIT SIZE
BSD .M                 13000 : BIT SIZE AT DEPTH
DFT .             GEL BARITE : DRILLING FLUID TYPE
DFD .                    9.1 : DRILLING FLUID DENSITY
DFV .                     73 : DRILLING FLUID VISCOSITY
DFPH.                    9.5 : DRILLING FLUID PH
DFL .                    8.9 : DRILLING FLUID LOSS
MSS .               FLOWLINE : MUD SAMPLE SOURCE
RMS .OHMM               1.44 : RESISTIVITY MUD SAMPLE
MST .DEGC                 60 : MUD SAMPLE TEMPERATURE
RMF .OHMM               1.12 : RESISTIVITY MUD FILTRATE SAMPLE
MFST.DEGC                 55 : MUD FILTRATE SAMPLE TEMPERATURE
RMB .OHMM               0.26 : RESISTIVITY MUD AT BHT
TCS .HRS                 6.5 : TIME CIRCULATED STOPPED
LUN .                   7635 : LOGGING UNIT NUMBER
LUL .                    EDM : LOGGING UNIT LOCATION
ENGI.                 MACKAY : RECORDING ENGINEER
WITN.                SHIRLEY : WITNESSED BY
CLNT.                A2DTECH : CLIENT CODE
ORIG.            2" 5" PRINT : ORIGIN OF DATA
UWI .       100060706022W500 : UNIQUE WELL ID
DICO. A2D Technologies, Inc. : DIGITIZING COMPANY
~Other -----------------------------------------------------
~ASCII -----------------------------------------------------
# ...
 6100.00000   13.81020   13.30600    0.22740    -999.25    0.11630   73.54020  108.56210   93.05700   15.65050   14.91090   15.26600    -999.25    0.24650    2.54440  -30.14500
 6150.00000   13.34870   12.56100    0.21820    -999.25    0.10060   79.70690  114.69940  107.57970   12.45580   12.75100   13.51710    -999.25    0.30150    2.51160  -37.41050
 6200.00000   13.95210   13.32800    0.26200    -999.25    0.19090   77.80870  116.04100   96.01390   11.37920   11.73270   12.83890    -999.25    0.31380    2.36340  -54.65180
 6250.00000   14.33100   13.07800    0.26180    -999.25    0.21970   80.19320  111.34810  101.81690   12.00360   12.37180   14.02060    -999.25    0.30350    2.29670  -68.07850
 6300.00000   13.73050   12.57000    -999.25    -999.25    0.17730   84.35110  121.74470  108.95830   11.59340   11.94990   13.86650    -999.25    0.34900    2.38620  -78.05040
 6350.00000   12.93290   12.88000    0.06310    -999.25    0.03670   84.67490  123.63990   97.49220   15.78140   16.26970   18.59950    -999.25    0.35570    2.61640  -82.87380
 6400.00000   12.97050   12.40700    0.01210    -999.25    0.04140   85.94030  124.46000  111.76470   14.20070   14.64560   17.35700    -999.25    0.36100    2.58320  -85.46950
 6450.00000   12.89260   12.62500    0.00280    -999.25    0.03780   86.00380  116.37560  110.75430   12.96260   13.37370   16.42880    -999.25    0.36250    2.58170  -78.56010
 6500.00000   12.74390   12.57300    0.02640    -999.25    0.05980   88.10010  118.76600  108.91680   17.52860   18.15370   22.64280    -999.25    0.34850    2.56940  -71.62490
 6550.00000   12.76510   12.55600    0.09110    -999.25    0.08320   87.68410  116.60590  106.11420   15.24100   15.71260   18.74700    -999.25    0.37040    2.51260  -54.69650
 6600.00000   12.93620   12.94400    0.03710    -999.25    0.04280   83.97340  117.71050  113.43030   13.51890   14.28350   17.30280    -999.25    0.34920    2.56610  -51.70500
 6650.00000   13.02390   12.68500    0.04170    -999.25    0.05470   87.97570  120.49710  101.02330   13.59440   14.01230   17.31650    -999.25    0.36880    2.58710  -38.14270
 6700.00000   12.98480   12.66900    0.04400    -999.25    0.03820   86.57430  120.89000   97.71630   10.30830   10.62610   12.96410    -999.25    0.35900    2.61280  -43.04970
 6750.00000   12.98410   12.30200    0.03540    -999.25    0.07330   95.60640  124.01170  121.83100   16.01840   16.34240   19.46780    -999.25    0.41300    2.52910  -32.90910
 6800.00000   13.03540   12.18600    0.03340    -999.25    0.08670   73.16930   78.24180   72.33000   14.45160   14.89620   15.27310    -999.25    0.21400    2.50570  -32.24100
 6850.00000   13.26420   12.71700    0.04480    -999.25    0.05350   83.27820  112.15050   94.76650    7.16320    7.38460    8.56630    -999.25    0.31270    2.58620  -32.99270
 6900.00000   12.93970   12.24100    0.05060    -999.25    0.00080   79.53930  108.07980  102.05680   12.21900   12.57790   13.16950    -999.25    0.23710    2.61440  -33.70190
 6950.00000   12.85630   12.23700    0.03540    -999.25    0.04420   75.07760  102.07440   97.85620   11.14150   11.48730   12.57940    -999.25    0.22190    2.58870  -30.40910
 7000.00000   12.95900   12.27600    0.01840    -999.25    0.05850   74.54720  100.82480   82.56930   14.31710   14.92350   12.30230    -999.25    0.27090    2.53540  -28.99730
 7050.00000   12.87100   12.51200    0.01920    -999.25    0.04410   76.26910   99.37170   83.48880    9.87620   10.24040   11.70940    -999.25    0.27060    2.60930  -27.02060
 7100.00000   13.07810   13.09200    0.01730    -999.25    0.04210   82.89340  107.07580   93.57860    7.14310    7.37090    9.06970    -999.25    0.31030    2.60170  -37.57550
 7150.00000   12.97990   12.44000    0.02410    -999.25    0.03490   79.14530  106.51130  100.57930    8.48940    8.75200   10.67590    -999.25    0.30850    2.59650  -43.62220
 7200.00000   13.80010   12.75000    0.22640    -999.25    0.11270   94.26820  136.69430  124.66280    5.84450    6.13660    8.24840    -999.25    0.42950    2.43900   -8.78070
 7250.00000   13.23210   12.28200    0.14840    -999.25    0.09690   90.87920   97.02190   89.64410    3.59110    3.76280    5.15140    -999.25    0.37930    2.49700  -12.14140
 7300.00000   14.15550   12.92900    0.26420    -999.25    0.18790   85.77580  107.39140   92.88210    4.32020    4.47460    5.68200    -999.25    0.38810    2.36070  -12.10130
 7350.00000   13.74500   12.88000    0.22840    -999.25    0.19170   80.14540  108.59410   96.48630    7.65120    7.90570    9.49110    -999.25    0.33360    2.32740  -13.22970
 7400.00000   14.62610   12.77000    0.26320    -999.25    0.20550   73.92370  100.48130   94.05480    7.89870    8.30780    9.71180    -999.25    0.34890    2.32660  -12.80080
 7450.00000   12.85240   12.14600    0.01150    -999.25    0.03090   68.83660   86.84690   83.07880   22.54600   21.65310   20.08460    -999.25    0.24150    2.58520  -19.40450
 7500.00000   12.21210   12.26900    0.11440    -999.25    0.09730   40.77410   45.33130    6.15180    -999.25    -999.25    -999.25    -999.25    0.29400    2.50100    -999.25
 7550.00000   14.99340   12.27300    0.15020    -999.25    0.35810  103.09270  119.00150  113.09080    5.12370    6.15650   11.17880    -999.25    0.53040    2.01560  -94.63510
 7600.00000   10.45340   10.36600    0.18690    -999.25    0.15550   70.77230  111.18620  108.68690    6.94420   10.73780   10.32530    -999.25    0.26930    2.38090 -101.61900
 7650.00000    9.18110    9.66900   -0.00350    -999.25    0.00020   57.13290   61.89600   70.30000   17.02820   18.32870   19.49040    -999.25    0.10220    2.69880 -106.07120
 7700.00000   10.73230   11.10200    0.19330    -999.25    0.18000   73.44690   97.72070   96.33350   15.30790   16.37010   19.52290    -999.25    0.30030    2.35490 -100.41740
 7750.00000   10.78410   11.14300    0.11840    -999.25    0.33320   78.24090  110.38960  115.22850    6.20870    8.95500   10.25540    -999.25    0.44580    2.02070  -97.94240
 7800.00000    9.01310   10.15000    0.01420    -999.25    0.00770   69.01780   95.79850   97.57680   14.04890   14.63870   17.90580    -999.25    0.24370    2.64440  -97.19640
 7850.00000   14.31820   13.22000    0.11220    -999.25    0.51690   82.82740  108.48160  108.54200    8.18410    8.95520   10.41140    -999.25    0.50210    2.00030  -98.59410
 7900.00000    9.17980   10.56200    0.00080    -999.25    0.02730   70.09530   89.58880   93.40920   13.62520   14.17600   17.66370    -999.25    0.23790    2.59900 -104.58450
 7950.00000    9.95340   10.74900    0.06900    -999.25    0.09460   70.12410  104.44770   97.85020   10.05970   10.75280   12.89470    -999.25    0.24560    2.49090  -93.38570
 8000.00000    9.93880   10.51100    0.00090    -999.25    0.16480   75.17800   64.26440   63.50210   13.40400   14.30730   17.09250    -999.25    0.16560    2.35980 -102.27920
 8050.00000   10.57860   10.85300    0.02830    -999.25    0.10530   68.25930   60.56770   74.79920   15.88570   16.88160   20.71190    -999.25    0.22150    2.47200  -99.70370
 8100.00000   10.29100   10.89600    0.02790    -999.25    0.10880   68.64180   54.72400   65.62930   14.07600   15.84000   16.93220    -999.25    0.22670    2.46280  -91.44370
 8150.00000    9.60270   10.32600    0.01810    -999.25    0.09010   64.67950   50.75260   66.54380   28.54060   31.79110   41.47070    -999.25    0.27220    2.51100  -99.76190
 8200.00000    9.98570   10.74200    0.00580    -999.25    0.06420   72.14260   74.20600   77.73680    7.92400    8.24500    8.96220    -999.25    0.25790    2.53970  -92.15250
 8250.00000   10.68210   10.52400    0.20210    -999.25    0.14020   70.11120  119.58510  122.68700   14.30070   15.03300   18.34600    -999.25    0.25620    2.41260  -87.48470
 8300.00000   11.43830   10.38700    0.18730    -999.25    0.16520   72.45290  137.33650  135.47010   10.29520   10.71850   13.98060    -999.25    0.28530    2.35580  -87.29050
 8350.00000    8.57350    9.89800   -0.01470    -999.25    0.01960   64.72630   73.78600   74.67140   23.23540   24.65380   28.16230    -999.25    0.15010    2.59540  -92.55420
