~Version ---------------------------------------------------
VERS. 2.0 : CWLS log ASCII Standard -VERSION 2.0
WRAP.  NO : ONE LINE PER DEPTH STEP
~Well ------------------------------------------------------
STRT.M                          300.0 : START DEPTH
STOP.M                         1400.0 : STOP DEPTH
STEP.M                       50.00000 : STEP LENGTH
NULL.                         -999.25 : NULL VALUE
COMP.         VOYAGER PETROLEUMS LTD. : COMPANY
WELL. VOYAGER ET AL KILLAM 9-23-42-14 : WELL
FLD .                                 : FIELD
LOC .                                 : LOCATION
CTRY.                          CANADA : COUNTRY
SRVC.                    Schlumberger : SERVICE COMPANY
DATE.                     05-Jun-1983 : LOGDATE
PROV.                         Alberta : PROVINCE
UWI .                100092304214W400 : UNIQUE WELL ID
SLAT.WGS84                   52.63391 : SURFACE LATITUDE
SLON.WGS84                  -111.9051 : SURFACE LONGITUDE
~Curve Information -----------------------------------------
DEPT     .M    0   1   0  0 : 1 MEASURED DEPTH
GRS      .GAPI 60 310 01 00 : GAMMA RAY FROM SONIC LOG
CALS     .MM   60 280 50 00 : CALIPER FROM SONIC LOG
DT       .US/M 60 500 00 00 : DELTA-T (INTERVAL TRANSIT TIME)
NPHI_LS  .DEC  42 890 01 00 : NEUTRON POROSITY LIMESTONE
SGRDD    .GAPI 45 310 01 00 : SPECTROSCOPY GAMMA RAY FROM DENSITY LOG
CALD     .MM   45 280 60 00 : CALIPER FROM DENSITY LOG
DPHI_LS  .DEC  45 890 10 00 : DENSITY POROSITY LIMESTONE
NPHI_SS  .DEC  42 890 03 00 : NEUTRON POROSITY SANDSTONE
DRHO     .K/M3 45 356 01 00 : BULK DENSITY CORRECTION
RHOB     .K/M3 45 350 01 00 : BULK DENSITY
ILD      .OHMM 07 120 46 00 : INDUCTION DEEP RESISTIVITY
ILM      .OHMM 07 120 44 00 : INDUCTION MEDIUM RESISTIVITY
SFLU     .OHMM 07 220 01 00 : SHALLOW FOCUSED RESISTIVITY (UNAVERAGED)
SPR      .MV   07 010 01 00 : SPONTANEOUS POTENTIAL FROM RESISTIVITY LOG
NPHI_SS_1.DEC  42 890 03 00 : NEUTRON POROSITY SANDSTONE
NPHI_LS_R.DEC  42 890 01 00 : NEUTRON POROSITY LIMESTONE FROM REPEAT
~Params ----------------------------------------------------
PD  .                         GL : PERMANENT DATUM
EPD .M                     700.8 : ELEVATION PERMANENT DATUM
LMF .                         KB : LOG MEASURED FROM
DAPD.M                       3.8 : FEET ABOVE PERMANENT DATUM
DMF .                         KB : DRILLING MEASURED FROM
EKB .M                     704.6 : KELLY BUSHING
EGL .M                     700.8 : GROUND LEVEL
DATE.                   06/05/83 : RUN DATE
RUN .                          2 : RUN NUMBER
DD  .M                      1421 : DEPTH DRILLER
DL  .M                      1421 : DEPTH LOGGER
BLI .M                    1420.2 : BOTTOM LOG INTERVAL
TLI .M                      1001 : TOP LOG INTERVAL
CS  .MM                    177.8 : CASING SIZE
CBD .M                      1001 : CASING BOTTOM DRILLER
CBL .M                      1001 : CASING BOTTOM LOGGER
BS  .MM                      159 : BIT SIZE
BSD .M                      1421 : BIT SIZE AT DEPTH
DFT .                   GEL CHEM : DRILLING FLUID TYPE
DFD .                       1080 : DRILLING FLUID DENSITY
DFV .                         55 : DRILLING FLUID VISCOSITY
DFPH.                         11 : DRILLING FLUID PH
DFL .                          7 : DRILLING FLUID LOSS
MSS .                   FLOWLINE : MUD SAMPLE SOURCE
RMS .OHMM                   1.58 : RESISTIVITY MUD SAMPLE
MST .DEGC                   18.3 : MUD SAMPLE TEMPERATURE
RMF .OHMM                   1.14 : RESISTIVITY MUD FILTRATE SAMPLE
MFST.DEGC                     20 : MUD FILTRATE SAMPLE TEMPERATURE
MFSS.                      PRESS : MUD FILTRATE SAMPLE SOURCE
RMB .OHMM                  1.015 : RESISTIVITY MUD AT BHT
TCS .HRS                    1700 : TIME CIRCULATED STOPPED
TLAB.HRS                    2100 : TIME LOGGER AT BOTTOM
LUN .                       8098 : LOGGING UNIT NUMBER
LUL .                 WAINWRIGHT : LOGGING UNIT LOCATION
ENGI.                      TIVEY : RECORDING ENGINEER
WITN.                       HECK : WITNESSED BY
CLNT.                    A2DTECH : CLIENT CODE
ORIG. 6.5"/100M 16.5"/100M PRINT : ORIGIN OF DATA
UWI .           100092304214W400 : UNIQUE WELL ID
DICO.     A2D Technologies, Inc. : DIGITIZING COMPANY
~Other -----------------------------------------------------
~ASCII -----------------------------------------------------
  300.00000   46.49050  219.02770  398.28200    -999.25   45.30190    -999.25    -999.25    0.41240    -999.25    -999.25    3.20090    3.52260    4.99190  -58.97960    0.49110    -999.25
  350.00000   59.75730  263.07070  406.93870    -999.25   50.73660    -999.25    -999.25    0.50750    -999.25    -999.25    3.39030    3.26170    3.73080  -20.62330    0.55210    -999.25
  400.00000   96.26830  223.45300  391.34020    -999.25   79.85780    -999.25    -999.25    0.58010    -999.25    -999.25    4.21470    4.07010    4.48310  -25.25200    0.49860    -999.25
  450.00000  101.81870  254.27010  347.48090    -999.25   75.03890    -999.25    -999.25    0.36560    -999.25    -999.25    6.42940    6.33030    6.64150  -34.45410    0.45070    -999.25
  500.00000  108.31740  247.04110  345.53830    -999.25   98.81770    -999.25    -999.25    0.44830    -999.25    -999.25    6.81470    6.62850    7.34510  -26.13020    0.48610    -999.25
  550.00000  101.62620  245.40310  372.59270    -999.25   82.85820    -999.25    -999.25    0.55150    -999.25    -999.25    5.16000    5.28500    6.27490  -24.42610    0.49840    -999.25
  600.00000   72.68330  310.01100  299.96980    -999.25   70.73210    -999.25    -999.25    0.40630    -999.25    -999.25    7.62170    7.80910    7.94240  -33.22760    0.49600    -999.25
  650.00000  105.75750  246.68330  352.90430    -999.25   89.02900    -999.25    -999.25    0.46270    -999.25    -999.25    5.53010    5.72450    6.49930  -20.75320    0.48710    -999.25
  700.00000  129.16370  221.28370  339.50950    -999.25  109.87370    -999.25    -999.25    0.45580    -999.25    -999.25    6.06540    6.25910    8.11450   -9.82210    0.43930    -999.25
  750.00000   94.04610  302.57410  367.41150    -999.25   83.87670    -999.25    -999.25    0.49280    -999.25    -999.25    2.54090    2.60410    3.13240   -9.28410    0.60220    -999.25
  800.00000   88.23160  241.19540  341.10790    -999.25   78.52760    -999.25    -999.25    0.36390    -999.25    -999.25    3.17970    3.31140    3.61070   -3.36300    0.41220    -999.25
  850.00000   71.54050  217.27640  288.93360    -999.25   66.09330    -999.25    -999.25    0.31360    -999.25    -999.25    3.59300    3.75070    5.22970  -29.47630    0.34420    -999.25
  900.00000   50.61120  217.04740  271.78640    -999.25   51.11890    -999.25    -999.25    0.24910    -999.25    -999.25    4.23790    4.63260   17.30580  -64.44520    0.30200    -999.25
  950.00000   89.83750  216.89890  252.15910    -999.25   77.96070    -999.25    -999.25    0.28000    -999.25    -999.25    7.05200    7.45510    7.80060    0.16380    0.28360    -999.25
 1000.00000   37.89060    -999.25    -999.25    0.13580   35.15990    -999.25    -999.25    0.11120    -999.25    -999.25    -999.25    -999.25    -999.25  -33.77770    0.13870    0.09670
 1050.00000  103.51800  171.85490  222.15410    0.16800   93.25200  172.85360    0.01360    -999.25   -4.32820 2689.29660    9.90020   10.20290   11.25200    3.12710    -999.25    -999.25
 1100.00000   11.24690  162.73210  199.11640    0.17920    8.58960  161.31540    0.02710    -999.25   21.79080 2660.34110    8.43570   12.12840   60.27300  -68.18360    -999.25    -999.25
 1150.00000    9.58070  165.15620  212.11650    0.16740    8.36350  161.88060    0.04990    -999.25   11.52230 2629.78540    7.04290    8.75880   20.21430  -64.49590    -999.25    -999.25
 1200.00000   22.09900  164.48790  173.49420    0.13740   19.01420  160.55740    0.01490    -999.25   35.76030 2689.40010   12.82280   15.13420   44.85790  -71.69020    -999.25    -999.25
 1250.00000   85.36410  166.30440  219.49940    0.15180   73.25590  167.79250    0.03640    -999.25  -16.60870 2652.82810   11.55800   11.95990   17.91100  -12.58810    -999.25    -999.25
 1300.00000   16.16650  167.70190  176.35690    0.06590   11.32770  170.36620    0.04380    -999.25    0.21300 2637.32370   20.98250   25.12950  116.35590  -69.13180    -999.25    -999.25
 1350.00000    5.28740  165.02880  194.27950    0.12250    9.32470  165.70910    0.09870    -999.25   19.21480 2542.24730    4.75830    5.22510   19.35290  -64.79780    -999.25    -999.25
 1400.00000   60.70820  162.29430  202.46240    0.13590   51.49700  163.16420    0.02310    -999.25    2.66330 2678.30270   14.54740   15.75000   17.61680   -4.49060    -999.25    -999.25
