~Version ---------------------------------------------------
VERS.      2.0 : CWLS log ASCII Standard -VERSION 2.0
WRAP.       NO : One line per depth step
CREA. 11/22/17 : LAS Creation Date
~Well ------------------------------------------------------
STRT.FT                       1500.0 : START DEPTH
STOP.FT                      10400.0 : STOP DEPTH
STEP.FT                     50.00000 : STEP LENGTH
NULL.                        -999.25 : NULL VALUE
COMP.   MERLAND EXPLORATIONS LIMITED : COMPANY
WELL. MERLAND ET AL GIROUXLUX 10-11- : WELL
FLD .                                : FIELD
LOC .                                : LOCATION
CTRY.                         CANADA : COUNTRY
SRVC.                        Unknown : SERVICE COMPANY
DATE.                    26-Feb-1978 : LOGDATE
PROV.                        Alberta : PROVINCE
UWI .               100101106622W500 : UNIQUE WELL ID
SLAT.WGS84                  54.70081 : SURFACE LATITUDE
SLON.WGS84                 -117.2093 : SURFACE LONGITUDE
~Curve Information -----------------------------------------
DEPT    .FT    : Depth Curve
CALDED  .IN    : CALIPER FROM DENSITY LOG [ADJ. TO RESISTIVITY LOG]
CALSED  .IN    : CALIPER FROM SONIC LOG [ADJ. TO RESISTIVITY LOG]
CALWS   .IN    : CALIPER [CALDED SPL. TO CALSED @ 8272']
CONDWS  .MMHO  : CONDUCTIVITY [1000/DRESWS]
DCORED  .G/C3  : DENSITY CORRECTION FROM DENSITY LOG [ADJ. TO RESISTIVITY LOG]SMALL SCALE
DCORWS  .G/C3  : DENSITY CORRECTION [DCORED]
DENWS   .G/C3  : FORMATION BULK DENSITY [CALC FROM DPOLSWS, M=2.71, F=1.0]
DPHILSED.V/V   : DENSITY POROSITY LIMESTONE [M=2.71,F=1.0] FROM DENSITY LOG [ADJ. TO RESISTIVITY LOG]
DPHISSED.V/V   : DENSITY POROSITY SANDSTONE [M=2.65,F=1.0] FROM DENSITY LOG [ADJ. TO RESISTIVITY LOG]
DPOLSWS .V/V   : DENSITY POROSITY LIMESTONE [DPHISSED CONVERTED TO LIMESTONE MATRIX, M=2.71, F=1.00 SPL.TO DPHILSED @ 5906']
DRESWS  .OHMM  : DEEP RESISTIVITY [ILDED]
DTED    .US/F  : DELTA-T FROM SONIC LOG [ADJ. TO RESISTIVITY LOG]
DTWS    .US/F  : COMPRESSIONAL SONIC [DTED]
GRDED   .GAPI  : GAMMA RAY FROM DENSITY LOG [ADJ. TO RESISTIVITY LOG]
GRSED   .GAPI  : GAMMA RAY FROM SONIC LOG [ADJ. TO RESISTIVITY LOG]
GRWS    .GAPI  : GAMMA RAY [GRDED SPL. TO GRSED @ 8262.5']
ILDED   .OHMM  : DEEP INDUCTION RESISTIVITY FROM RESISTIVITY LOG
ILMED   .OHMM  : MEDIUM INDUCTION RESISTIVITY FROM RESISTIVITY LOG
LL8ED   .OHMM  : LATEROLOG 8 FROM RESISTIVITY LOG
MRESWS  .OHMM  : MEDIUM RESISTIVITY [ILMED]
NPHILSED.V/V   : NEUTRON POROSITY LIMESTONE FROM DENSITY LOG [ADJ. TO RESISTIVITY LOG]
NPHISSED.V/V   : NEUTRON POROSITY SANDSTONE FROM DENSITY LOG [ADJ. TO RESISTIVITY LOG]
NPOLSWS .V/V   : NEUTRON POROSITY LIMESTONE [NPHISSED MATRIX (SLB) CONVERSION FOR LIMESTONE, SPL.TO NPHILSED @ 5914']
RHOBED  .G/C3  : BULK DENSITY FROM DENSITY LOG [ADJ. TO RESISTIVITY LOG] SMALL SCALE
SPRED   .MV    : SPONTANEOUS POTENTIAL FROM RESISTIVITY LOG
SPWS    .MV    : SPONTANEOUS POTENTIAL [BASELINE 0 MV, SPRED]
SRESWS  .OHMM  : SHALLOW RESISTIVITY [LL8ED]
~Params ----------------------------------------------------
PD  .                     GL : PERMANENT DATUM
EPD .FT                 2391 : ELEVATION PERMANENT DATUM
LMF .                     KB : LOG MEASURED FROM
DAPD.FT                   16 : FEET ABOVE PERMANENT DATUM
DMF .                     KB : DRILLING MEASURED FROM
EKB .FT                 2407 : KELLY BUSHING
EGL .FT                 2391 : GROUND LEVEL
DATE.               02/26/78 : RUN DATE
RUN .                      2 : RUN NUMBER
DD  .FT                10409 : DEPTH DRILLER
DL  .FT                10410 : DEPTH LOGGER
BLI .FT                10404 : BOTTOM LOG INTERVAL
TLI .FT                 8200 : TOP LOG INTERVAL
CBD .FT                 1515 : CASING BOTTOM DRILLER
CBL .FT                 1514 : CASING BOTTOM LOGGER
BS  .IN                 8.75 : BIT SIZE
BSD .FT                10409 : BIT SIZE AT DEPTH
DFT .               GEL CHEM : DRILLING FLUID TYPE
DFD .                    9.3 : DRILLING FLUID DENSITY
DFV .                     75 : DRILLING FLUID VISCOSITY
DFPH.                    9.5 : DRILLING FLUID PH
DFL .                    9.2 : DRILLING FLUID LOSS
MSS .               FLOWLINE : MUD SAMPLE SOURCE
RMS .OHMM               2.47 : RESISTIVITY MUD SAMPLE
MST .DEGF                 51 : MUD SAMPLE TEMPERATURE
RMF .OHMM               3.21 : RESISTIVITY MUD FILTRATE SAMPLE
MFST.DEGF                 60 : MUD FILTRATE SAMPLE TEMPERATURE
RMB .OHMM               1.02 : RESISTIVITY MUD AT BHT
TCS .HRS                 3.5 : TIME CIRCULATED STOPPED
LUN .                   7730 : LOGGING UNIT NUMBER
LUL .                    EDM : LOGGING UNIT LOCATION
ENGI.               ACKERMAN : RECORDING ENGINEER
WITN.                  GAWNE : WITNESSED BY
CLNT.                A2DTECH : CLIENT CODE
ORIG.            2" 5" PRINT : ORIGIN OF DATA
UWI .       100101106622W500 : UNIQUE WELL ID
DICO. A2D Technologies, Inc. : DIGITIZING COMPANY
~Other -----------------------------------------------------
~ASCII -----------------------------------------------------
# ...
 2800.00000   15.56120    8.72810   15.56120  153.56270    0.05200    0.05200    2.37560    -999.25    0.16630    0.19560    6.51200  101.58050  101.58050  123.88030  130.24900  123.88030    6.51200    5.88880    6.95120    5.88880    -999.25    0.39620    0.35330    2.37460   32.54910   -3.86150    6.95120
 2850.00000   14.47950    9.43180   14.47950  122.55210    0.03460    0.03460    2.36280    -999.25    0.17410    0.20300    8.16050   94.98920   94.98920  109.10780  114.52720  109.10780    8.16050    7.59850    8.74980    7.59850    -999.25    0.36510    0.32160    2.35590   32.44400   -3.76490    8.74980
 2900.00000   14.98380    9.57880   14.98380   78.58240    0.06740    0.06740    2.41920    -999.25    0.13990    0.17010   12.72550   85.03740   85.03740   69.91940   85.45730   69.91940   12.72550   11.71470   13.45180   11.71470    -999.25    0.26220    0.21820    2.42500   18.51920  -17.49010   13.45180
 2950.00000   15.02640   11.80080   15.02640   97.47650    0.04500    0.04500    2.43970    -999.25    0.12750    0.15810   10.25940   89.64290   89.64290  112.76180  110.61570  112.76180   10.25940    9.76560   11.11480    9.76560    -999.25    0.30270    0.25870    2.44230   33.39520   -2.41250   11.11480
 3000.00000   14.90750    9.60660   14.90750  132.41000    0.06910    0.06910    2.38010    -999.25    0.16360    0.19290    7.55230   96.69390   96.69390  128.36120  118.86730  128.36120    7.55230    7.22200    8.12450    7.22200    -999.25    0.36910    0.32570    2.38430   33.98310   -2.08130    8.12450
 3050.00000    8.63020    9.35640    8.63020  146.19460    0.05860    0.05860    2.39520    -999.25    0.15440    0.18410    6.84020   89.01490   89.01490  121.95540  123.09600  121.95540    6.84020    6.18540    7.26060    6.18540    -999.25    0.38400    0.34080    2.38750   33.02790   -3.46980    7.26060
 3100.00000   15.00000   10.12860   15.00000  122.20610    0.05770    0.05770    2.35520    -999.25    0.17860    0.20750    8.18290   92.36490   92.36490  114.46440  123.50070  114.46440    8.18290    7.82830    8.78130    7.82830    -999.25    0.36870    0.32530    2.33360   32.58280   -4.35040    8.78130
 3150.00000   12.05220   10.74190   12.05220   79.97500    0.10480    0.10480    2.42310    -999.25    0.13750    0.16780   12.50390   84.67730   84.67730  103.14830  104.14140  103.14830   12.50390   11.96010   12.83390   11.96010    -999.25    0.29370    0.24970    2.42180   33.86930   -3.49490   12.83390
 3200.00000   11.71270   10.79260   11.71270   99.09830    0.05750    0.05750    2.39030    -999.25    0.15740    0.18700   10.09110   86.86130   86.86130  113.68340  122.88750  113.68340   10.09110    9.64190   10.57380    9.64190    -999.25    0.33420    0.29050    2.38710   34.87580   -2.92380   10.57380
 3250.00000   11.02480    9.97600   11.02480  108.08010    0.07320    0.07320    2.41450    -999.25    0.14270    0.17280    9.25240   89.69630   89.69630  122.10240  118.87130  122.10240    9.25240    8.62330   10.33500    8.62330    -999.25    0.33960    0.29590    2.41890   36.21370   -2.01700   10.33500
 3300.00000   11.02010   10.37110   11.02010  103.10550    0.08640    0.08640    2.44890    -999.25    0.12190    0.15270    9.69880   88.43060   88.43060  114.83120  128.11680  114.83120    9.69880    8.91840   10.20120    8.91840    -999.25    0.36520    0.32170    2.45400   35.52890   -3.13510   10.20120
 3350.00000   11.43390   10.31140   11.43390  123.10580    0.04510    0.04510    2.39200    -999.25    0.15640    0.18600    8.12610   89.33280   89.33280  124.21240  123.63000  124.21240    8.12610    7.67240    8.91180    7.67240    -999.25    0.36590    0.32250    2.38580   36.39790   -2.70150    8.91180
 3400.00000   11.74400   10.34830   11.74400  134.73280    0.07810    0.07810    2.46440    -999.25    0.11250    0.14360    7.42210   95.57000   95.57000  132.54820  137.76640  132.54820    7.42210    6.71840    8.01580    6.71840    -999.25    0.40110    0.35820    2.46440   37.15090   -2.37960    8.01580
 3450.00000   11.78230   10.41460   11.78230  135.73440    0.06630    0.06630    2.50110    -999.25    0.09030    0.12220    7.36740   95.49060   95.49060  132.41720  136.68200  132.41720    7.36740    7.06090    9.09710    7.06090    -999.25    0.41010    0.36740    2.50450   38.94200   -1.02390    9.09710
 3500.00000   12.58880   10.40280   12.58880  121.39610    0.11720    0.11720    2.36570    -999.25    0.17230    0.20130    8.23750   96.74740   96.74740  133.78580  146.97560  133.78580    8.23750    7.89510    9.58050    7.89510    -999.25    0.43280    0.39070    2.34450   39.24360   -1.15340    9.58050
 3550.00000   12.15620   12.79270   12.15620  121.89180    0.17620    0.17620    2.24510    -999.25    0.24540    0.27190    8.20400   98.57500   98.57500  126.72450  113.57960  126.72450    8.20400    7.86330    9.51330    7.86330    -999.25    0.41880    0.37630    2.27370   40.36980   -0.46050    9.51330
 3600.00000   10.45580   10.46320   10.45580  104.32260    0.19610    0.19610    2.37110    -999.25    0.16910    0.19820    9.58580   96.77850   96.77850  130.64520  129.28720  130.64520    9.58580    9.16430   11.85730    9.16430    -999.25    0.40190    0.35900    2.38360   40.24460   -1.02110   11.85730
 3650.00000   10.20720   12.82250   10.20720  118.78460    0.22140    0.22140    2.36270    -999.25    0.17410    0.20310    8.41860   95.22730   95.22730  127.28270  119.76910  127.28270    8.41860    7.92880   10.00460    7.92880    -999.25    0.37370    0.33040    2.37240   39.81450   -1.88230   10.00460
 3700.00000    9.38460    9.73210    9.38460   95.03560    0.09550    0.09550    2.44540    -999.25    0.12400    0.15470   10.52400   97.28620   97.28620  147.51930  161.22980  147.51930   10.52400    9.99620   14.22730    9.99620    -999.25    0.39670    0.35380    2.44440   41.47540   -0.65680   14.22730
 3750.00000    9.47040    9.68000    9.47040  103.81950    0.15130    0.15130    2.38240    -999.25    0.16220    0.19160    9.63210   99.91170   99.91170  176.86740  177.29730  176.86740    9.63210    9.21220   13.41910    9.21220    -999.25    0.42780    0.38550    2.38220   41.95960   -0.60370   13.41910
 3800.00000    9.72100    9.92700    9.72100   90.95710    0.16800    0.16800    2.39090    -999.25    0.15700    0.18660   10.99420   80.68470   80.68470  107.85130  108.06940  107.85130   10.99420   10.51830   12.27190   10.51830    -999.25    0.27500    0.23100    2.39610   40.10650   -2.89010   12.27190
 3850.00000    9.77620    9.85220    9.77620  123.72380    0.07800    0.07800    2.44780    -999.25    0.12250    0.15330    8.08380   84.84310   84.84310  114.00970  110.72100  114.00970    8.08380    7.45210    8.58040    7.45210    -999.25    0.32380    0.28000    2.44490   40.89270   -2.53930    8.58040
 3900.00000    9.55250    9.97660    9.55250  144.39600    0.05460    0.05460    2.47540    -999.25    0.10580    0.13720    6.92540   85.14890   85.14890  121.46080  124.53930  121.46080    6.92540    7.15260    7.77610    7.15260    -999.25    0.37820    0.33490    2.48010   42.32140   -1.54170    7.77610
 3950.00000    9.27600   10.50020    9.27600  160.82990    0.14500    0.14500    2.51030    -999.25    0.08460    0.11680    6.21790   89.09080   89.09080  124.29480  119.78580  124.29480    6.21790    6.03300    6.98990    6.03300    -999.25    0.38520    0.34210    2.50070   43.42730   -0.87120    6.98990
 4000.00000    9.71520   10.53860    9.71520  110.16130    0.03310    0.03310    2.50460    -999.25    0.08810    0.12010    9.07760   84.61690   84.61690  115.88400  121.40820  115.88400    9.07760    8.36580    9.94640    8.36580    -999.25    0.32330    0.27940    2.50440   42.54030   -2.18930    9.94640
 4050.00000   10.39550   10.85390   10.39550  120.47470    0.03410    0.03410    2.53520    -999.25    0.06960    0.10220    8.30050   82.71020   82.71020  115.18720  122.56720  115.18720    8.30050    7.72410   10.70000    7.72410    -999.25    0.27660    0.23260    2.53380   42.55720   -2.60570   10.70000
