~Version ---------------------------------------------------
VERS. 2.0 : CWLS log ASCII Standard -VERSION 2.0
WRAP.  NO : ONE LINE PER DEPTH STEP
~Well ------------------------------------------------------
STRT.M                    600.0 : START DEPTH
STOP.M                   4000.0 : STOP DEPTH
STEP.M                 50.00000 : STEP LENGTH
NULL.                   -999.25 : NULL VALUE
COMP. GULF CANADA RESOURCES INC : COMPANY
WELL.   GULF AEC KARR 3-22-66-3 : WELL
FLD .                        WC : FIELD
LOC .                           : LOCATION
CTRY.                    CANADA : COUNTRY
SRVC.              Schlumberger : SERVICE COMPANY
DATE.               26-Oct-1983 : LOGDATE
PROV.                   Alberta : PROVINCE
UWI .          100032206603W600 : UNIQUE WELL ID
SLAT.WGS84             54.72326 : SURFACE LATITUDE
SLON.WGS84            -118.3689 : SURFACE LONGITUDE
~Curve Information -----------------------------------------
DEPT    .M      : DEPTH METERS
C1ED    .MM     : CALIPER 1 FROM DENSITY LOG
C2ED    .MM     : CALIPER 2 FROM DENSITY LOG
CALDED  .MM     : CALIPER FROM DENSITY LOG
CALSED  .MM     : CALIPER FROM SONIC LOG
CALWS   .MM     : CALIPER [CALSED]
CONDWS  .MMHO   : CONDUCTIVITY [1000/DRESWS]
DCORWS  .KG/M3  : DENSITY CORRECTION [DRHOED]
DENWS   .KG/M3  : BULK DENSITY [M=2650/2710 AT 2400 F=1000] [CALCULATED FROM DPHISSED/DPHILSED]
DPHILSED.V/V    : DENSITY POROSITY [M=2710 F=1000] FROM DENSITY LOG
DPHISSED.V/V    : DENSITY POROSITY [M=2650 F=1000] FROM DENSITY LOG
DPOLSWS .V/V    : DENSITY POROSITY [M=2710 F=1000] [CALCULATED FROM DENWS]
DRESWS  .OHMM   : DEEP RESISTIVITY [ILDED]
DRHOED  .KG/M3  : DENSITY CORRECTION FROM DENSITY LOG
DTED    .US/M   : DELTA TIME FROM SONIC LOG
DTWS    .US/M   : DELTA TIME [DTED]
GRDED   .GAPI   : GAMMA RAY FROM DENSITY LOG
GRRED   .GAPI   : GAMMA RAY FROM RESISTIVITY LOG
GRSED   .GAPI   : GAMMA RAY FROM SONIC LOG
GRWS    .GAPI   : GAMMA RAY [GRSED] BULK SHIFTED +20API IN CASED HOLE @616m
ILDED   .OHMM   : INDUCTION LOG DEEP RESISTIVITY
ILMED   .OHMM   : INDUCTION LOG MEDIUM RESISTIVITY
MRESWS  .OHMM   : MEDIUM RESISTIVITY [ILMED]
NPHILSED.V/V    : NEUTRON POROSITY LIMESTONE FROM DENSITY LOG
NPHISSED.V/V    : NEUTRON POROSITY SANDSTONE FROM DENSITY LOG
NPOLSWS .V/V    : NEUTON POROSITY LIMESTONE [NPHISSED CONVERTED TO LIMESTONE FROM POWER LOG FROM START TO 2400, THEN NPHILSED TO END]
RHOBED  .KG/M3  : BULK DENSITY FROM DENSITY LOG
SFLUED  .OHMM   : SPHERICALLY FOCUSED LOG RESISTIVITY
SPRED   .MV     : SPONTANEOUS POTENTIAL FROM RESISTIVITY LOG SHIFTED
SPWS    .MV     : SPONTANEOUS POTENTIAL [BASELINE 0 MV] [SPRED] REVERSED IN SOME AREAS
SRESWS  .OHMM   : SHALLOW RESISTIVITY [SFLUED]
TENDED  .N      : TENSION FROM DENSITY LOG
TENRED  .N      : TENSION FROM RESISTIVITY LOG
TENSED  .N      : TENSION FROM SONIC LOG
~Params ----------------------------------------------------
PD  .                         GL : PERMANENT DATUM
EPD .M                       778 : ELEVATION PERMANENT DATUM
LMF .                         KB : LOG MEASURED FROM
DAPD.M                       7.5 : FEET ABOVE PERMANENT DATUM
DMF .                         KB : DRILLING MEASURED FROM
EKB .M                     785.5 : KELLY BUSHING
EDF .M                     785.1 : DRILLING FLOOR
EGL .M                       778 : GROUND LEVEL
DATE.                   10/26/83 : RUN DATE
RUN .                          2 : RUN NUMBER
DD  .M                      4035 : DEPTH DRILLER
DL  .M                      4034 : DEPTH LOGGER
BLI .M                      4033 : BOTTOM LOG INTERVAL
TLI .M                      2722 : TOP LOG INTERVAL
CS  .MM                      244 : CASING SIZE
CBD .M                      2723 : CASING BOTTOM DRILLER
CBL .M                      2722 : CASING BOTTOM LOGGER
BS  .MM                      216 : BIT SIZE
BSD .M                      4035 : BIT SIZE AT DEPTH
DFT .                    POLYMER : DRILLING FLUID TYPE
DFD .                       1120 : DRILLING FLUID DENSITY
DFV .                         45 : DRILLING FLUID VISCOSITY
DFPH.                        9.5 : DRILLING FLUID PH
DFL .                         13 : DRILLING FLUID LOSS
MSS .                CIRCULATION : MUD SAMPLE SOURCE
RMS .OHMM                  0.895 : RESISTIVITY MUD SAMPLE
MST .DEGC                     15 : MUD SAMPLE TEMPERATURE
RMF .OHMM                   0.83 : RESISTIVITY MUD FILTRATE SAMPLE
MFST.DEGC                     15 : MUD FILTRATE SAMPLE TEMPERATURE
MFSS.                     FILTER : MUD FILTRATE SAMPLE SOURCE
RMB .OHMM                  0.223 : RESISTIVITY MUD AT BHT
TCS .HRS                     800 : TIME CIRCULATED STOPPED
TLAB.HRS                    1700 : TIME LOGGER AT BOTTOM
LUN .                       8155 : LOGGING UNIT NUMBER
LUL .                         GP : LOGGING UNIT LOCATION
ENGI.                     MURRAY : RECORDING ENGINEER
WITN.                      KUPER : WITNESSED BY
CLNT.                    A2DTECH : CLIENT CODE
ORIG. 6.5"/100M 16.5"/100M PRINT : ORIGIN OF DATA
UWI .           100032206603W600 : UNIQUE WELL ID
DICO.     A2D Technologies, Inc. : DIGITIZING COMPANY
~Other -----------------------------------------------------
~ASCII -----------------------------------------------------
  600.00000    -999.25    -999.25    -999.25    -999.25    -999.25    -999.25    -999.25    -999.25    -999.25    -999.25    -999.25    -999.25    -999.25    -999.25    -999.25   39.00080   34.97710   34.65950   54.65950    -999.25    -999.25    -999.25    -999.25    -999.25    -999.25    -999.25    -999.25    -999.25    -999.25    -999.25    -999.25    -999.25    -999.25
  650.00000  440.10340  329.30160    -999.25  343.37220  343.37220  213.49730  190.35310 1980.92500    -999.25    0.40550    0.42640    4.68390  190.35310  323.72820  323.72820   57.78880   57.73030   56.93450   56.93450    4.68390    3.86170    3.86170    -999.25    -999.25    -999.25 1960.06130    3.48430  -39.16260   -5.64570    3.48430 7837.03220 7410.79540 7414.55570
  700.00000  345.56930  327.61740    -999.25  323.29150  323.29150   45.36360  120.40320 2490.44510    -999.25    0.09670    0.12840   22.04410  120.40320  224.60960  224.60960   42.18140   39.11370   38.87670   38.87670   22.04410   23.32400   23.32400    -999.25    -999.25    -999.25 2532.57350   25.42690  -47.03190  -15.10540   25.42690 8063.64260 7760.79100 7841.10210
  750.00000  374.57090  332.49620    -999.25  335.90410  335.90410   90.08680    1.48070 2425.76490    -999.25    0.13590    0.16620   11.10040    1.48070  267.39840  267.39840   44.35850   40.07130   40.00640   40.00640   11.10040   10.21030   10.21030    -999.25    -999.25    -999.25 2414.79590   10.12540  -47.39490  -17.05890   10.12540 8252.31050 8000.10210 7919.76120
  800.00000  385.09620  358.18520    -999.25  344.45200  344.45200  186.09500   55.96690 2105.99510    -999.25    0.32970    0.35320    5.37360   55.96690  336.15800  336.15800   50.97970   52.20810   52.02490   52.02490    5.37360    4.97480    4.97480    -999.25    -999.25    -999.25 2035.73940    3.91760  -40.74230  -11.99680    3.91760 8533.01370 8582.91990 8553.07030
  850.00000  472.15750  341.14010    -999.25  344.54800  344.54800  181.17250   93.18220 1802.39500    -999.25    0.51370    0.53080    5.51960   93.18220  331.99110  331.99110   53.44130   47.48710   48.00620   48.00620    5.51960    4.59910    4.59910    -999.25    -999.25    -999.25 1760.88110    4.12960  -38.51470  -11.35970    4.12960 9043.97660 8463.10450 8559.63770
  900.00000  380.03760  323.63300    -999.25  338.01630  338.01630  167.88660  137.38640 1745.14000    -999.25    0.54840    0.56420    5.95640  137.38640  303.40540  303.40540   59.48550   54.77700   54.70620   54.70620    5.95640    5.33740    5.33740    -999.25    0.52810    0.48640 1760.57260    5.22240  -30.25040   -0.73420    5.22240 8792.89650 8820.65040 8588.21680
  950.00000  368.72170  355.07060    -999.25  347.34430  347.34430  127.28310  230.12670 2171.16990    -999.25    0.29020    0.31510    7.85650  230.12670  286.55210  286.55210   52.39020   55.44350   55.70850   55.70850    7.85650    7.15830    7.15830    -999.25    0.45570    0.41400 2171.85790    7.30850  -38.93060   -5.22760    7.30850 9533.73930 9099.76860 9103.61040
 1000.00000  344.73570  357.08170    -999.25  346.90680  346.90680   96.49810  214.41530 2162.91990    -999.25    0.29520    0.31990   10.36290  214.41530  302.55860  302.55860   83.88440   87.76290   85.71920   85.71920   10.36290    9.05760    9.05760    -999.25    0.42050    0.37810 2208.02340   10.03730  -36.46180   -2.60490   10.03730 9597.17190 9409.68950 9312.21880
 1050.00000  320.27750  370.99990    -999.25  359.37360  359.37360   84.91420  174.74080 2343.42990    -999.25    0.18580    0.21440   11.77660  174.74080  299.91930  299.91930   81.06590   74.53140   73.61230   73.61230   11.77660   11.02510   11.02510    -999.25    0.42480    0.38250 2338.18070   12.26050  -36.29270   -3.41940   12.26050 9804.71680 9381.36230 9182.28030
 1100.00000  324.45380  361.01680    -999.25  341.20170  341.20170   92.58740  140.65490 2326.43510    -999.25    0.19610    0.22430   10.80060  140.65490  281.59790  281.59790   79.16820   79.24580   78.45700   78.45700   10.80060    9.50850    9.50850    -999.25    0.38460    0.34140 2326.25660    9.68370  -36.07710   -4.18740    9.68370 9820.63670 9797.48240 9411.63570
 1150.00000  323.81230  389.64070    -999.25  354.03600  354.03600  108.17480  130.81210 2400.18990    -999.25    0.15140    0.18120    9.24430  130.81210  302.64060  302.64060   90.97370   89.60690   89.58610   89.58610    9.24430    8.09470    8.09470    -999.25    0.46020    0.41850 2400.78780    9.01770  -34.98240   -4.07630    9.01770 10356.51660 9807.23440 10096.82420
 1200.00000  310.62510  303.84110    -999.25  312.02960  312.02960   57.32760    4.64700 2510.74000    -999.25    0.08440    0.11650   17.44360    4.64700  251.34720  251.34720   44.28360   44.37140   43.61360   43.61360   17.44360   20.68090   20.68090    -999.25    0.27440    0.23040 2521.72610   26.66280  -51.54450  -21.62210   26.66280 10457.34960 9911.62010 9949.59180
 1250.00000  328.65740  379.10160    -999.25  328.96770  328.96770   91.29420  236.33450 2261.91990    -999.25    0.23520    0.26200   10.95360  236.33450  273.95290  273.95290   87.92920   82.92020   82.70840   82.70840   10.95360    9.26530    9.26530    -999.25    0.40470    0.36190 2269.62790    9.54430  -31.99260   -3.05380    9.54430 10806.08500 10503.11130 10771.15920
 1300.00000  314.77430  385.58590    -999.25  336.38960  336.38960   98.36130  114.84760 2498.53000    -999.25    0.09180    0.12370   10.16660  114.84760  288.28360  288.28360   86.35570   84.57450   85.02700   85.02700   10.16660    9.39170    9.39170    -999.25    0.37300    0.32970 2499.98680   10.40610  -30.64990   -2.69470   10.40610 11116.25100 10800.67380 11102.36040
 1350.00000  318.81030  387.50700    -999.25  331.78820  331.78820   85.86790  134.34200 2575.75000    -999.25    0.04500    0.07850   11.64580  134.34200  283.87420  283.87420   90.21970   79.98650   91.26540   91.26540   11.64580   10.45770   10.45770    -999.25    0.37930    0.33610 2570.76050   12.31640  -32.49560   -5.52400   12.31640 11366.57910 10826.51660 11407.43460
 1400.00000  317.67990  385.35680    -999.25  343.08620  343.08620   80.73700   70.15390 2513.87500    -999.25    0.08250    0.11470   12.38590   70.15390  293.76540  293.76540   96.09840   86.96550   86.78360   86.78360   12.38590   11.70430   11.70430    -999.25    0.38450    0.34130 2508.09250   13.74810  -30.74320   -4.75520   13.74810 11655.62600 11465.46390 11531.12790
 1450.00000  318.99620  379.14360    -999.25  338.41010  338.41010   81.88330  120.68990 2559.74510    -999.25    0.05470    0.08790   12.21250  120.68990  293.89760  293.89760   89.35220   87.83260   88.20900   88.20900   12.21250   11.26160   11.26160    -999.25    0.40040    0.35750 2565.89140   13.55060  -30.20320   -5.19890   13.55060 12037.12500 11616.69820 11606.61620
 1500.00000  347.61140  357.14360    -999.25  342.50510  342.50510   91.50640   99.94290 2612.87500    -999.25    0.02250    0.05680   10.92820   99.94290  257.19240  257.19240   74.66880   71.82650   71.79790   71.79790   10.92820   10.01060   10.01060    -999.25    0.32390    0.28000 2620.91410   10.67200  -29.08970   -5.06900   10.67200 12433.31050 11902.73730 11922.93460
 1550.00000  324.64230  383.24480    -999.25  351.34050  351.34050   68.62950   25.06530 2552.98000    -999.25    0.05880    0.09180   14.57100   25.06530  237.02520  237.02520   74.91370   76.21640   75.59310   75.59310   14.57100   12.63130   12.63130    -999.25    0.27340    0.22940 2550.33890   11.63050  -28.34420   -5.52560   11.63050 12989.43070 12243.84570 12195.62990
 1600.00000  413.74150  295.91870    -999.25  354.43070  354.43070   94.74630   39.72250 2561.39500    -999.25    0.05370    0.08690   10.55450   39.72250  253.82820  253.82820   83.96640   79.12460   78.77280   78.77280   10.55450   11.44320   11.44320    -999.25    0.41730    0.37480 2560.63230   11.16860  -27.72480   -6.40520   11.16860 13067.99020 12463.19240 12505.55080
 1650.00000  356.50120  376.17140    -999.25  350.31890  350.31890   72.22250   79.09770 2629.21000    -999.25    0.01260    0.04720   13.84610   79.09770  249.78550  249.78550   78.73150   85.37820   84.58850   84.58850   13.84610   12.68080   12.68080    -999.25    0.34010    0.29640 2630.30050   13.02500  -26.50370   -6.68310   13.02500 13172.98630 12658.24610 12876.51270
