~Version ---------------------------------------------------
VERS.      2.0 : CWLS log ASCII Standard -VERSION 2.0
WRAP.       NO : One line per depth step
CREA. 11/03/17 : LAS Creation Date
~Well ------------------------------------------------------
STRT.FT                            1500.0 : START DEPTH
STOP.FT                           10400.0 : STOP DEPTH
STEP.FT                          50.00000 : STEP LENGTH
NULL.                             -999.25 : NULL VALUE
COMP.                CHEVRON STANDARD LTD : COMPANY
WELL. CHEVRON ET AL HEAVYSOUND 3-25-61-17 : WELL
FLD .                                     : FIELD
LOC .                                     : LOCATION
CTRY.                              CANADA : COUNTRY
SRVC.                        Schlumberger : SERVICE COMPANY
DATE.                         27-Nov-1977 : LOGDATE
PROV.                             Alberta : PROVINCE
UWI .                    100032506117W500 : UNIQUE WELL ID
SLAT.WGS84                       54.30091 : SURFACE LATITUDE
SLON.WGS84                       -116.419 : SURFACE LONGITUDE
~Curve Information -----------------------------------------
DEPT    .FT    : Depth Curve
CALDED  .IN    : CALIPER FROM DENSITY LOG [ADJ. TO RESISTIVITY LOG]
CALSED  .IN    : CALIPER FROM SONIC LOG [ADJ. TO RESISTIVITY LOG]
CALWS   .IN    : CALIPER [CALSED SPL. TO CALDED @ 9702']
CONDWS  .MMHO  : CONDUCTIVITY [1000/DRESWS]
DCORWS  .G/C3  : DENSITY CORRECTION [DRHOED]
DENWS   .G/C3  : FORMATION BULK DENSITY [RHOBED]
DPHILSED.V/V   : DENSITY POROSITY LIMESTONE [M=2.71, F=1.00] FROM DENSITY LOG [ADJ. TO RESISTIVITY LOG]
DPHISSED.V/V   : DENSITY POROSITY SANDSTONE [M=2.65, F=1.00] FROM DENSITY LOG [ADJ. TO RESISTIVITY LOG]
DPOLSWS .V/V   : DENSITY POROSITY LIMESTONE [CALC FROM DENWS,M=2.71, F=1.00]
DRESWS  .OHMM  : DEEP RESISTIVITY [ILDED]
DRHOED  .G/C3  : BULK DENSITY CORRECTION FROM DENSITY LOG [ADJ. TO RESISTIVITY LOG]
DTED    .US/F  : DELTA-T FROM SONIC LOG [ADJ. TO RESISTIVITY LOG]
DTWS    .US/F  : COMPRESSIONAL SONIC [DTED]
GRDED   .GAPI  : GAMMA RAY FROM DENSITY LOG [ADJ. TO RESISTIVITY LOG]
GRNED   .GAPI  : GAMMA RAY FROM GRN LOG [ADJ. TO RESISTIVITY LOG]
GRSED   .GAPI  : GAMMA RAY FROM SONIC LOG [ADJ. TO RESISTIVITY LOG]
GRWS    .GAPI  : GAMMA RAY [GRSED]
ILDED   .OHMM  : DEEP  INDUCTION RESISTIVITY FROM RESISTIVITY LOG
ILMED   .OHMM  : MEDIUM INDUCTION RESISTIVITY FROM RESISTIVITY LOG
LL8ED   .OHMM  : LATEROLOG 8 RESISTIVITY FROM RESISTIVITY LOG
MRESWS  .OHMM  : MEDIUM RESISTIVITY [ILMED]
NEUTED  .NAPI  : NEUTRON FROM GRN LOG [ADJ. TO RESISTIVITY LOG]
NEUTWS  .NAPI  : NEUTRON [NEUTED]
NPHILSED.V/V   : NEUTRON POROSITY LIMESTONE FROM DENSITY LOG [ADJ. TO RESISTIVITY LOG]
NPHISSED.V/V   : NEUTRON POROSITY SANDSTONE FROM DENSITY LOG [ADJ. TO RESISTIVITY LOG]
NPOLSWS .V/V   : NEUTRON POROSITY LIMESTONE [NPHISSED MATRIX  CONVERSION FOR LIMESTONE & SPL. TO NPHILSED @ 9702']
RHOBED  .G/C3  : BULK DENSITY FROM DENSITY LOG [ADJ. TO RESISTIVITY LOG]
SPRED   .MV    : SPONTANEOUS POTENTIAL FROM RESISTIVITY LOG
SPWS    .MV    : SPONTANEOUS POTENTIAL [BASELINE 0 MV,SPRED]
SRESWS  .OHMM  : SHALLOW RESISTIVITY [LL8ED]
TENDED  .LBF   : TENSION FROM DENSITY LOG [ADJ. TO RESISTIVITY LOG]
TENSED  .LBF   : TENSION FROM SONIC LOG [ADJ. TO RESISTIVITY LOG]
~Params ----------------------------------------------------
PD  .                     GL : PERMANENT DATUM
EPD .FT                 3014 : ELEVATION PERMANENT DATUM
LMF .                     KB : LOG MEASURED FROM
DAPD.FT                   19 : FEET ABOVE PERMANENT DATUM
EKB .FT                 3033 : KELLY BUSHING
EGL .FT                 3014 : GROUND LEVEL
DATE.               11/27/77 : RUN DATE
RUN .                      1 : RUN NUMBER
DD  .FT                10428 : DEPTH DRILLER
DL  .FT                10435 : DEPTH LOGGER
BLI .FT                10429 : BOTTOM LOG INTERVAL
TLI .FT                 1501 : TOP LOG INTERVAL
CS  .IN                9.625 : CASING SIZE
CBD .FT                 1500 : CASING BOTTOM DRILLER
CBL .FT                 1501 : CASING BOTTOM LOGGER
DFT .                GEL OIL : DRILLING FLUID TYPE
DFD .                    9.1 : DRILLING FLUID DENSITY
DFV .                     83 : DRILLING FLUID VISCOSITY
MSS .               FLOWLINE : MUD SAMPLE SOURCE
RMS .OHMM               1.69 : RESISTIVITY MUD SAMPLE
MST .DEGF                 60 : MUD SAMPLE TEMPERATURE
RMF .OHMM               1.11 : RESISTIVITY MUD FILTRATE SAMPLE
MFST.DEGF                 54 : MUD FILTRATE SAMPLE TEMPERATURE
TCS .HRS                   4 : TIME CIRCULATED STOPPED
LUN .                   7670 : LOGGING UNIT NUMBER
LUL .                    EDM : LOGGING UNIT LOCATION
ENGI.                   DALY : RECORDING ENGINEER
WITN.     RICHARDSON SPRAGUE : WITNESSED BY
CLNT.                A2DTECH : CLIENT CODE
ORIG.            2" 5" PRINT : ORIGIN OF DATA
UWI .       100032506117W500 : UNIQUE WELL ID
DICO. A2D Technologies, Inc. : DIGITIZING COMPANY
~Other -----------------------------------------------------
DIL-CNFD-BHC-GRN LOG RUN
~ASCII -----------------------------------------------------
# ...
 8100.00000    -999.25    8.84840    8.84840    9.95050    -999.25    -999.25    -999.25    -999.25    -999.25  100.49750    -999.25   50.95360   50.95360    -999.25    -999.25   13.74980   13.74980  100.49750   60.39750  100.66560   60.39750    -999.25    -999.25    -999.25    -999.25    -999.25    -999.25 -196.92100 -120.30090  100.66560    -999.25 1647.13700
 8150.00000    -999.25    8.92460    8.92460    3.08340    -999.25    -999.25    -999.25    -999.25    -999.25  324.31450    -999.25   48.60390   48.60390    -999.25    -999.25   11.71740   11.71740  324.31450  282.69620  597.27790  282.69620    -999.25    -999.25    -999.25    -999.25    -999.25    -999.25 -195.20110 -119.82680  597.27790    -999.25 1397.24370
 8200.00000    -999.25    8.87150    8.87150   16.87350    -999.25    -999.25    -999.25    -999.25    -999.25   59.26440    -999.25   50.34920   50.34920    -999.25    -999.25    7.75430    7.75430   59.26440   61.96020   83.14450   61.96020    -999.25    -999.25    -999.25    -999.25    -999.25    -999.25 -190.39690 -116.26840   83.14450    -999.25 1440.99370
 8250.00000    -999.25    9.00660    9.00660   13.88500    -999.25    -999.25    -999.25    -999.25    -999.25   72.02010    -999.25   49.81090   49.81090    -999.25    -999.25    7.33290    7.33290   72.02010   85.59950  112.68290   85.59950    -999.25    -999.25    -999.25    -999.25    -999.25    -999.25 -185.56140 -112.67880  112.68290    -999.25 1519.66690
 8300.00000    -999.25    8.89300    8.89300   23.32650    -999.25    -999.25    -999.25    -999.25    -999.25   42.87850    -999.25   50.20930   50.20930    -999.25    -999.25   10.15070   10.15070   42.87850   46.89280   66.38360   46.89280    -999.25    -999.25    -999.25    -999.25    -999.25    -999.25 -179.40590 -107.76290   66.38360    -999.25 1544.93470
 8350.00000    -999.25    8.94770    8.94770    1.80940    -999.25    -999.25    -999.25    -999.25    -999.25  552.65920    -999.25   49.09560   49.09560    -999.25    -999.25   15.34860   15.34860  552.65920  256.99910  822.30220  256.99910    -999.25    -999.25    -999.25    -999.25    -999.25    -999.25 -183.34150 -112.95050  822.30220    -999.25 1564.32780
 8400.00000    -999.25    9.71060    9.71060   92.62860    -999.25    -999.25    -999.25    -999.25    -999.25   10.79580    -999.25   63.88410   63.88410    -999.25    -999.25   91.07070   91.07070   10.79580   12.55220   15.05310   12.55220    -999.25    -999.25    -999.25    -999.25    -999.25    -999.25 -111.62800  -42.48290   15.05310    -999.25 1586.08080
 8450.00000    -999.25    9.03030    9.03030    5.94780    -999.25    -999.25    -999.25    -999.25    -999.25  168.12880    -999.25   48.19130   48.19130    -999.25    -999.25   15.25280   15.25280  168.12880  194.78000  445.54290  194.78000    -999.25    -999.25    -999.25    -999.25    -999.25    -999.25 -202.93210 -135.03280  445.54290    -999.25 1560.81240
 8500.00000    -999.25    9.02710    9.02710    6.43980    -999.25    -999.25    -999.25    -999.25    -999.25  155.28440    -999.25   49.91080   49.91080    -999.25    -999.25   11.61530   11.61530  155.28440  238.01850  223.06350  238.01850    -999.25    -999.25    -999.25    -999.25    -999.25    -999.25 -202.37740 -135.72390  223.06350    -999.25 1564.90980
 8550.00000    -999.25    9.01250    9.01250   24.13930    -999.25    -999.25    -999.25    -999.25    -999.25   42.06610    -999.25   48.92410   48.92410    -999.25    -999.25   21.78590   21.78590   42.06610   43.79680  100.55070   43.79680    -999.25    -999.25    -999.25    -999.25    -999.25    -999.25 -171.96460 -106.55070  100.55070    -999.25 1656.36710
 8600.00000    -999.25    8.87310    8.87310   17.31360    -999.25    -999.25    -999.25    -999.25    -999.25   57.75790    -999.25   50.67390   50.67390    -999.25    -999.25   27.13350   27.13350   57.75790   59.68040   78.39260   59.68040    -999.25    -999.25    -999.25    -999.25    -999.25    -999.25 -113.69510  -49.53330   78.39260    -999.25 1625.58510
 8650.00000    -999.25    8.92790    8.92790   10.42760    -999.25    -999.25    -999.25    -999.25    -999.25   95.89980    -999.25   52.83520   52.83520    -999.25    -999.25   31.41160   31.41160   95.89980  108.38230  136.38980  108.38230    -999.25    -999.25    -999.25    -999.25    -999.25    -999.25  -99.48570  -36.56970  136.38980    -999.25 1603.57770
 8700.00000    -999.25    8.38110    8.38110    2.51980    -999.25    -999.25    -999.25    -999.25    -999.25  396.86180    -999.25   50.82790   50.82790    -999.25    -999.25   24.69460   24.69460  396.86180  535.05310  549.65040  535.05310    -999.25    -999.25    -999.25    -999.25    -999.25    -999.25 -118.53410  -56.86400  549.65040    -999.25 1545.45520
 8750.00000    -999.25    8.27950    8.27950    4.05910    -999.25    -999.25    -999.25    -999.25    -999.25  246.36070    -999.25   51.78130   51.78130    -999.25    -999.25   25.64960   25.64960  246.36070  321.17930  412.81170  321.17930    -999.25    -999.25    -999.25    -999.25    -999.25    -999.25  -94.90730  -34.48300  412.81170    -999.25 1577.25260
 8800.00000    -999.25    8.28970    8.28970    8.31620    -999.25    -999.25    -999.25    -999.25    -999.25  120.25070    -999.25   52.55720   52.55720    -999.25    -999.25   26.60940   26.60940  120.25070  142.03700  177.99720  142.03700    -999.25    -999.25    -999.25    -999.25    -999.25    -999.25  -79.31130  -20.12660  177.99720    -999.25 1450.35830
 8850.00000    -999.25    8.52460    8.52460   55.98200    -999.25    -999.25    -999.25    -999.25    -999.25   17.86290    -999.25   58.38990   58.38990    -999.25    -999.25   42.55380   42.55380   17.86290   19.67040   25.14080   19.67040    -999.25    -999.25    -999.25    -999.25    -999.25    -999.25  -62.83390   -4.90130   25.14080    -999.25 1499.76920
 8900.00000    -999.25    8.65650    8.65650  130.66430    -999.25    -999.25    -999.25    -999.25    -999.25    7.65320    -999.25   63.88810   63.88810    -999.25    -999.25   64.72760   64.72760    7.65320    8.30130   11.65150    8.30130    -999.25    -999.25    -999.25    -999.25    -999.25    -999.25  -63.36430   -6.44450   11.65150    -999.25 1551.14680
 8950.00000    -999.25    8.57110    8.57110   68.31910    -999.25    -999.25    -999.25    -999.25    -999.25   14.63720    -999.25   60.11970   60.11970    -999.25    -999.25   45.96560   45.96560   14.63720   16.64250   21.45400   16.64250    -999.25    -999.25    -999.25    -999.25    -999.25    -999.25  -62.59390   -6.44730   21.45400    -999.25 1563.94640
 9000.00000    -999.25    8.57380    8.57380  109.76110    -999.25    -999.25    -999.25    -999.25    -999.25    9.11070    -999.25   64.66350   64.66350    -999.25    -999.25   61.70410   61.70410    9.11070   10.30210   13.55700   10.30210    -999.25    -999.25    -999.25    -999.25    -999.25    -999.25  -61.69260   -6.31910   13.55700    -999.25 1577.89000
 9050.00000    -999.25    8.64300    8.64300  128.70250    -999.25    -999.25    -999.25    -999.25    -999.25    7.77050    -999.25   67.22810   67.22810    -999.25    -999.25   76.15440   76.15440    7.77050    8.57610   10.80130    8.57610    -999.25    -999.25    -999.25    -999.25    -999.25    -999.25  -63.75010   -9.14590   10.80130    -999.25 1622.99020
 9100.00000    -999.25    8.82350    8.82350   99.96900    -999.25    -999.25    -999.25    -999.25    -999.25   10.00310    -999.25   78.31260   78.31260    -999.25    -999.25  113.88390  113.88390   10.00310   12.56730   19.64920   12.56730    -999.25    -999.25    -999.25    -999.25    -999.25    -999.25  -60.57960   -6.75250   19.64920    -999.25 1520.43620
 9150.00000    -999.25    8.43790    8.43790  131.43200    -999.25    -999.25    -999.25    -999.25    -999.25    7.60850    -999.25   72.18460   72.18460    -999.25    -999.25  101.00640  101.00640    7.60850    8.15900   10.41600    8.15900    -999.25    -999.25    -999.25    -999.25    -999.25    -999.25  -58.56350   -5.50950   10.41600    -999.25 1556.28750
