~Version ---------------------------------------------------
VERS.      2.0 : CWLS log ASCII Standard -VERSION 2.0
WRAP.       NO : One line per depth step
CREA. 11/15/17 : LAS Creation Date
~Well ------------------------------------------------------
STRT.FT                        600.0 : START DEPTH
STOP.FT                      10800.0 : STOP DEPTH
STEP.FT                     50.00000 : STEP LENGTH
NULL.                        -999.25 : NULL VALUE
COMP.           PETROFINA CANADA LTD : COMPANY
WELL. FINA AMOCO HB FOXCK 6-35-60-18 : WELL
FLD .                                : FIELD
LOC .                                : LOCATION
CTRY.                         CANADA : COUNTRY
SRVC.         Schlumberger of Canada : SERVICE COMPANY
DATE.                    29-Aug-1976 : LOGDATE
PROV.                        Alberta : PROVINCE
UWI .               100063506018W500 : UNIQUE WELL ID
SLAT.WGS84                  54.22952 : SURFACE LATITUDE
SLON.WGS84                 -116.5928 : SURFACE LONGITUDE
~Curve Information -----------------------------------------
DEPT    .FT    : Depth Curve
CALDED  .IN    : CALIPER FROM DENSITY LOG, DEPTH ADJUSTED WITH [SPRED]
CALSED  .IN    : CALIPER FROM SONIC LOG, DEPTH ADJUSTED WITH [SPRED]
CALWS   .IN    : CALIPER [CALSED]
CONDWS  .MMHO  : CONDUCTIVITY [1000/DRESWS]
DCORED  .G/C3  : DENSITY CORRECTION FROM DENSITY LOG, DEPTH ADJUSTED WITH [SPRED]
DCORWS  .G/C3  : DENSITY CORRECTION [DCORED]
DENWS   .G/C3  : BULK DENSITY [RHOBED]
DPOLSWS .V/V   : DENSITY POROSITY LIMESTONE [CALCULATED FROM DENWS]
DPORLSED.V/V   : DENSITY POROSITY LIMESTONE FROM DENSITY LOG, DEPTH ADJUSTED WITH [SPRED]
DPORSSED.V/V   : DENSITY POROSITY SANDSTONE FROM DENSITY LOG, DEPTH ADJUSTED WITH [SPRED]
DRESWS  .OHMM  : DEEP RESISTIVITY [ILDED]
DTED    .US/F  : DELTA TIME FROM SONIC LOG, DEPTH ADJUSTED WITH [SPRED]
DTWS    .US/F  : DELTA TIME [DTED]
GRDED   .GAPI  : GAMMA RAY FROM DENSITY LOG, DEPTH ADJUSTED WITH [SPRED]
GRED    .GAPI  : GAMMA RAY FROM CEMENT LOG, DEPTH ADJUSTED WITH [SPRED]
GRSED   .GAPI  : GAMMA RAY FROM SONIC LOG, DEPTH ADJUSTED WITH [SPRED]
GRWS    .GAPI  : GAMMA RAY [GRSED], SPLICED WITH [GRED] FROM TOP TO 1095'
ILDED   .OHMM  : INDUCTION LOG DEEP RESISTIVITY
ILMED   .OHMM  : INDUCTION LOG MEDIUM RESISTIVITY
LL8ED   .OHMM  : 8 INCH LATEROLOG RESISTIVITY
MRESWS  .OHMM  : MEDIUM RESISTIVITY [ILMED]
NPOLSWS .V/V   : NEUTRON POROSITY LIMESTONE [NPORLSED], MATRIX CONVERTED FROM [NPORSSED] TO LIMESTONE FROM TOP TO 6954'
NPORLSED.V/V   : NEUTRON POROSITY LIMESTONE FROM DENSITY LOG, DEPTH ADJUSTED WITH [SPRED]
NPORSSED.V/V   : NEUTRON POROSITY SANDSTONE FROM DENSITY LOG, DEPTH ADJUSTED WITH [SPRED]
RHOBED  .G/C3  : BULK DENSITY FROM DENSITY LOG, DEPTH ADJUSTED WITH [SPRED]
SPRED   .MV    : SPONTANEOUS POTENTIAL FROM RESISTIVITY LOG
SPWS    .MV    : SPONTANEOUS POTENTIAL [BASELINE 0 MV] [SPRED]
SRESWS  .OHMM  : SHALLOW RESISTIVITY [LL8ED]
~Params ----------------------------------------------------
PD  .                     GL : PERMANENT DATUM
EPD .FT                 3085 : ELEVATION PERMANENT DATUM
LMF .                     KB : LOG MEASURED FROM
DAPD.FT                 15.7 : FEET ABOVE PERMANENT DATUM
EKB .FT               3100.9 : KELLY BUSHING
EDF .FT               3085.2 : DRILLING FLOOR
EGL .FT               3085.5 : GROUND LEVEL
DATE.               08/29/76 : RUN DATE
RUN .                      1 : RUN NUMBER
DD  .FT                10843 : DEPTH DRILLER
DL  .FT                10840 : DEPTH LOGGER
BLI .FT                10834 : BOTTOM LOG INTERVAL
TLI .FT                 1119 : TOP LOG INTERVAL
CBD .FT                 1119 : CASING BOTTOM DRILLER
CBL .FT                 1119 : CASING BOTTOM LOGGER
BS  .IN                 8.75 : BIT SIZE
BSD .FT                10843 : BIT SIZE AT DEPTH
DFT .               GEL CHEM : DRILLING FLUID TYPE
DFD .                    9.3 : DRILLING FLUID DENSITY
DFV .                    150 : DRILLING FLUID VISCOSITY
DFPH.                   10.5 : DRILLING FLUID PH
DFL .                    7.0 : DRILLING FLUID LOSS
MSS .            CIRCULATION : MUD SAMPLE SOURCE
RMS .OHMM               2.43 : RESISTIVITY MUD SAMPLE
MST .DEGF                 76 : MUD SAMPLE TEMPERATURE
RMF .OHMM               2.33 : RESISTIVITY MUD FILTRATE SAMPLE
MFST.DEGF                 73 : MUD FILTRATE SAMPLE TEMPERATURE
RMC .OHMM               2.22 : RESISTIVITY MUD CAKE
MCST.DEGF                 67 : MUD CAKE SAMPLE TEMPERATURE
RMB .OHMM               0.86 : RESISTIVITY MUD AT BHT
TCS .HRS                   3 : TIME CIRCULATED STOPPED
LUN .                   7691 : LOGGING UNIT NUMBER
LUL .                    WCT : LOGGING UNIT LOCATION
ENGI.              CROCKFORD : RECORDING ENGINEER
WITN.                 HALKOW : WITNESSED BY
CLNT.                A2DTECH : CLIENT CODE
ORIG.            2" 5" PRINT : ORIGIN OF DATA
UWI .       100063506018W500 : UNIQUE WELL ID
DICO. A2D Technologies, Inc. : DIGITIZING COMPANY
~Other -----------------------------------------------------
~ASCII -----------------------------------------------------
# ...
 5600.00000   12.17550   12.23990   12.23990  165.29470    0.14830    0.14830    2.12170    0.34400    -999.25    0.30110    6.04980   86.42810   86.42810   96.91310    -999.25   96.87960   96.87960    6.04980    5.29560    6.70550    5.29560    0.33900    -999.25    0.38530    2.12170  -10.14730   -8.43820    6.70550
 5650.00000    -999.25   12.19050   12.19050  162.60960    0.20360    0.20360    2.03240    0.39630    -999.25    0.34960    6.14970   87.92750   87.92750  109.31990    -999.25  101.24960  101.24960    6.14970    5.61930    7.62120    5.61930    0.35920    -999.25    0.40390    2.03240   -6.69630   -5.79000    7.62120
 5700.00000   11.97520   10.12550   10.12550  156.53370    0.08760    0.08760    2.39600    0.18360    -999.25    0.13160    6.38840  101.40670  101.40670  189.06430    -999.25  192.92110  192.92110    6.38840    5.96140    9.36970    5.96140    0.37900    -999.25    0.42190    2.39600   -3.88610   -3.78260    9.36970
 5750.00000    -999.25   13.82660   13.82660  374.99530    0.06710    0.06710    1.75800    0.55670    -999.25    0.51940    2.66670   99.13910   99.13910   76.69400    -999.25   75.64350   75.64350    2.66670    2.27130    3.53410    2.27130    0.54930    -999.25    0.57540    1.75800   -5.82600   -6.52520    3.53410
 5800.00000   15.47760   11.59040   11.59040  223.76210    0.17340    0.17340    1.85700    0.49890    -999.25    0.46990    4.46910   88.49580   88.49580   82.61960    -999.25   89.14290   89.14290    4.46910    3.96080    5.13510    3.96080    0.40920    -999.25    0.44920    1.85700   -2.85920   -4.35720    5.13510
 5850.00000   12.27820    9.62590    9.62590  126.05890    0.16740    0.16740    2.13190    0.33810    -999.25    0.33060    7.93280   81.18090   81.18090  109.23990    -999.25  104.20220  104.20220    7.93280    7.17700    9.77810    7.17700    0.25470    -999.25    0.30590    2.13190  -11.19370  -13.05060    9.77810
 5900.00000    8.97210    8.90040    8.90040   58.02180    0.10080    0.10080    2.57200    0.08070    -999.25    0.05580   17.23490   73.68970   73.68970   73.12050    -999.25   74.39160   74.39160   17.23490   16.78300   20.17760   16.78300    0.14400    -999.25    0.19440    2.57200  -17.59200  -19.10310   20.17760
 5950.00000   10.36230    9.72430    9.72430   96.75110    0.01940    0.01940    2.11580    0.34750    -999.25    0.25680   10.33580   67.06630   67.06630   62.18750    -999.25   62.87180   62.87180   10.33580   11.27470   15.65620   11.27470    0.24540    -999.25    0.29690    2.11580  -17.89250  -19.05780   15.65620
 6000.00000   11.32280   12.16650   12.16650  198.66890    0.15070    0.15070    2.43760    0.15930    -999.25    0.13990    5.03350   99.15010   99.15010   77.38370    -999.25   79.66980   79.66980    5.03350    3.74660    4.17550    3.74660    0.27040    -999.25    0.32090    2.43760   -9.28510  -10.10470    4.17550
 6050.00000   11.88910   10.81330   10.81330   99.10420    0.10910    0.10910    2.52440    0.10850    -999.25    0.06420   10.10270   76.00030   76.00030   81.65540    -999.25   84.28890   84.28890   10.10270    9.63860   10.41590    9.63860    0.23330    -999.25    0.28530    2.52440  -11.50990  -11.98540   10.41590
 6100.00000   11.25660   11.34420   11.34420  111.30530    0.18490    0.18490    2.50230    0.12150    -999.25    0.09820    8.98430   81.06380   81.06380   83.94000    -999.25   86.75880   86.75880    8.98430    7.37220    8.23050    7.37220    0.29100    -999.25    0.34040    2.50230  -19.15640  -19.28450    8.23050
 6150.00000   10.87980   11.19780   11.19780  101.77600    0.00710    0.00710    2.17600    0.31230    -999.25    0.27110    9.82550   81.90740   81.90740   86.25320    -999.25   82.48450   82.48450    9.82550    8.90210   11.36730    8.90210    0.35290    -999.25    0.39810    2.17600  -15.56180  -15.34410   11.36730
 6200.00000    9.70390    9.78140    9.78140   88.67130    0.06090    0.06090    2.60950    0.05880    -999.25    0.02230   11.27760   71.99450   71.99450   81.85080    -999.25   85.89640   85.89640   11.27760   10.68990   13.87980   10.68990    0.27990    -999.25    0.32990    2.60950  -13.08710  -12.52360   13.87980
 6250.00000   10.18230    9.84240    9.84240   66.57970    0.11040    0.11040    2.48320    0.13260    -999.25    0.09420   15.01960   75.60580   75.60580   85.98540    -999.25   84.62470   84.62470   15.01960   14.63450   21.24190   14.63450    0.24960    -999.25    0.30100    2.48320  -13.76520  -12.85600   21.24190
 6300.00000    9.78170    9.78970    9.78970   57.48510    0.03280    0.03280    2.49270    0.12710    -999.25    0.08360   17.39790   74.14970   74.14970   89.73030    -999.25   89.03830   89.03830   17.39790   16.51100   20.32480   16.51100    0.27140    -999.25    0.32190    2.49270   -4.47170   -3.21850   20.32480
 6350.00000    9.95920    9.73290    9.73290   68.01930    0.10210    0.10210    2.57340    0.07990    -999.25    0.04710   14.70170   67.55520   67.55520   51.08790    -999.25   49.93750   49.93750   14.70170   16.93060   24.08850   16.93060    0.14800    -999.25    0.19870    2.57340  -38.97860  -37.37790   24.08850
 6400.00000   10.20030    9.74570    9.74570   95.29800    0.04370    0.04370    2.56160    0.08680    -999.25    0.06230   10.49340   73.39490   73.39490   56.25940    -999.25   56.86020   56.86020   10.49340   11.22370   18.82320   11.22370    0.16960    -999.25    0.22160    2.56160  -44.08190  -42.13540   18.82320
 6450.00000   10.30240    9.58420    9.58420   68.66760    0.01640    0.01640    2.63590    0.04330    -999.25    0.00880   14.56290   72.28530   72.28530   91.46780    -999.25   84.87490   84.87490   14.56290   14.10060   17.10140   14.10060    0.18110    -999.25    0.23350    2.63590  -14.62030  -12.32800   17.10140
 6500.00000    9.85800    9.36840    9.36840   73.66540    0.04050    0.04050    2.63540    0.04360    -999.25    0.00350   13.57490   72.41360   72.41360   87.01260    -999.25   80.98150   80.98150   13.57490   12.93820   15.33520   12.93820    0.19420    -999.25    0.24680    2.63540   -7.79250   -5.15450   15.33520
 6550.00000    9.79270    9.47690    9.47690   82.85560    0.15020    0.15020    2.62090    0.05210    -999.25    0.02920   12.06940   72.42040   72.42040   92.36140    -999.25   85.25560   85.25560   12.06940   12.52940   14.78510   12.52940    0.18110    -999.25    0.23350    2.62090   -6.62630   -3.64430   14.78510
 6600.00000   11.11260   10.55800   10.55800  209.19190    0.17160    0.17160    2.02350    0.40150    -999.25    0.37080    4.78030   84.21070   84.21070   84.64550    -999.25   77.86580   77.86580    4.78030    3.69220    5.95120    3.69220    0.32960    -999.25    0.37660    2.02350  -10.11120   -6.78170    5.95120
 6650.00000   10.10870    9.27500    9.27500   72.25490    0.19100    0.19100    2.45630    0.14840    -999.25    0.11890   13.83990   71.27970   71.27970   71.80240    -999.25   68.56450   68.56450   13.83990   15.73860   16.77510   15.73860    0.19260    -999.25    0.24520    2.45630   -7.92490   -4.24960   16.77510
 6700.00000   11.14020   10.11890   10.11890   84.22540    0.13940    0.13940    2.22020    0.28640    -999.25    0.25800   11.87290   78.09310   78.09310   55.58440    -999.25   51.88150   51.88150   11.87290   12.44740   17.18540   12.44740    0.26200    -999.25    0.31290    2.22020  -26.41400  -22.39290   17.18540
 6750.00000    9.42090    9.50710    9.50710   60.09330    0.03410    0.03410    2.60110    0.06370    -999.25    0.04180   16.64080   74.66650   74.66650   98.51720    -999.25   99.96300   99.96300   16.64080   15.18490   18.58910   15.18490    0.20610    -999.25    0.25870    2.60110   -6.31580   -1.94900   18.58910
 6800.00000    9.51970    9.41530    9.41530  152.81290    0.10790    0.10790    2.48570    0.13110    -999.25    0.09920    6.54580   81.30410   81.30410   39.24640    -999.25   44.71760   44.71760    6.54580    8.60770   18.50290    8.60770    0.13090    -999.25    0.18020    2.48570  -88.08150  -83.37070   18.50290
