~Version ---------------------------------------------------
VERS.      2.0 : CWLS log ASCII Standard -VERSION 2.0
WRAP.       NO : One line per depth step
CREA. 12/21/17 : LAS Creation Date
~Well ------------------------------------------------------
STRT.FT                     300.0 : START DEPTH
STOP.FT                    9550.0 : STOP DEPTH
STEP.FT                  50.00000 : STEP LENGTH
NULL.                     -999.25 : NULL VALUE
COMP. BRITISH AMERICAN OIL CO LTD : COMPANY
WELL.  B.A. GOOSE RIVER 4-3-67-18 : WELL
FLD .                             : FIELD
LOC .                             : LOCATION
CTRY.                      CANADA : COUNTRY
SRVC.      Schlumberger of Canada : SERVICE COMPANY
DATE.                 18-Oct-1963 : LOGDATE
PROV.                     Alberta : PROVINCE
UWI .            100040306718W500 : UNIQUE WELL ID
SLAT.WGS84               54.76505 : SURFACE LATITUDE
SLON.WGS84               -116.666 : SURFACE LONGITUDE
~Curve Information -----------------------------------------
DEPT  .FT    : Depth Curve
CALSED.IN    : CALIPER FROM SONIC LOG [ADJ. TO MLL LOG]
CALWS .IN    : CALIPER [CALSED]
DTED  .US/F  : DELTA-T 3' SPAN FROM SONIC LOG [ADJ. TO MLL LOG]
DTWS  .US/F  : COMPRESSIONAL SONIC [DTED]
GRED  .GAPI  : GAMMA RAY FROM GR LOG [ADJ. TO MLL LOG]
GRSED .GAPI  : GAMMA RAY FROM SONIC LOG [ADJ. TO MLL LOG]
GRWS  .GAPI  : GAMMA RAY [GRED SPL. TO GRSED @ 984'][RESCALED PART FROM GR_CH TOP-300 0/250 TO 0/150 API]
MCALED.mm    : MLT CALIPER FROM MLL LOG
MINVED.OHMM  : MICROLOG INVERSE FROM MLL LOG
MNORED.OHMM  : MICROLOG NORMAL FROM MLL LOG
~Params ----------------------------------------------------
PD  .                     GL : PERMANENT DATUM
EPD .FT                   26 : ELEVATION PERMANENT DATUM
LMF .                     KB : LOG MEASURED FROM
EKB .FT               2665.5 : KELLY BUSHING
EGL .FT                 2652 : GROUND LEVEL
DATE.               10/18/63 : RUN DATE
RUN .                      1 : RUN NUMBER
DD  .FT                 9550 : DEPTH DRILLER
DL  .FT                 8557 : DEPTH LOGGER
BLI .FT                 9554 : BOTTOM LOG INTERVAL
TLI .FT                  979 : TOP LOG INTERVAL
CBD .FT                  978 : CASING BOTTOM DRILLER
CBL .FT                  979 : CASING BOTTOM LOGGER
BS  .IN                7.875 : BIT SIZE
BSD .FT                 9550 : BIT SIZE AT DEPTH
DFT .               GEL CHEM : DRILLING FLUID TYPE
DFD .                    9.8 : DRILLING FLUID DENSITY
DFV .                    112 : DRILLING FLUID VISCOSITY
DFPH.                      9 : DRILLING FLUID PH
DFL .                    6.8 : DRILLING FLUID LOSS
RMS .OHMM               3.01 : RESISTIVITY MUD SAMPLE
MST .DEGF                 61 : MUD SAMPLE TEMPERATURE
RMF .OHMM               1.85 : RESISTIVITY MUD FILTRATE SAMPLE
MFST.DEGF                 70 : MUD FILTRATE SAMPLE TEMPERATURE
RMC .OHMM               3.02 : RESISTIVITY MUD CAKE
MCST.DEGF                 70 : MUD CAKE SAMPLE TEMPERATURE
RMB .OHMM               0.93 : RESISTIVITY MUD AT BHT
TCS .HRS                   6 : TIME CIRCULATED STOPPED
LUN .                   3704 : LOGGING UNIT NUMBER
LUL .                     VV : LOGGING UNIT LOCATION
ENGI.                  MILLS : RECORDING ENGINEER
WITN.              MCDERMOTT : WITNESSED BY
CLNT.                A2DTECH : CLIENT CODE
ORIG.        2" 5" 25" PRINT : ORIGIN OF DATA
UWI .       100040306718W500 : UNIQUE WELL ID
DICO. A2D Technologies, Inc. : DIGITIZING COMPANY
~Other -----------------------------------------------------
GRS IS INVALID FROM 2090'-2126' UNKNOWN REASON CURVE DROPS TO ZERO API LINE - HENCE NULLED.
~ASCII -----------------------------------------------------
# ...
 3600.00000   10.32250   10.32250   98.33770   98.33770    -999.25   80.04860   80.04860  256.71270    2.25030    2.01240
 3650.00000    9.72160    9.72160   94.23880   94.23880    -999.25   88.01250   88.01250  300.62680    1.90810    2.54260
 3700.00000   11.03990   11.03990  100.57670  100.57670    -999.25   81.77680   81.77680  312.66380    1.72700    2.21570
 3750.00000   10.44700   10.44700   96.26030   96.26030    -999.25   84.20390   84.20390  284.75430    1.79830    2.28070
 3800.00000   10.80280   10.80280   91.04310   91.04310    -999.25   74.73550   74.73550  315.94040    1.69440    1.92820
 3850.00000   10.08420   10.08420   90.22040   90.22040    -999.25   88.16130   88.16130  352.13040    1.76450    2.18280
 3900.00000   12.61160   12.61160  103.21510  103.21510    -999.25   86.08880   86.08880  389.14830    1.68180    1.94000
 3950.00000   11.85880   11.85880  117.63180  117.63180    -999.25  102.43420  102.43420  388.50820    1.66420    1.88130
 4000.00000    9.82580    9.82580  104.75880  104.75880    -999.25   87.85070   87.85070  394.48990    1.71060    1.86680
 4050.00000   10.10170   10.10170   97.93070   97.93070    -999.25   81.59210   81.59210  372.16080    1.69880    2.12870
 4100.00000   10.55670   10.55670   94.51640   94.51640    -999.25   81.16000   81.16000  339.22720    1.73500    2.12150
 4150.00000    9.69400    9.69400   82.64640   82.64640    -999.25   80.08030   80.08030  261.60480    3.67100    5.78000
 4200.00000   10.54650   10.54650   91.71230   91.71230    -999.25   66.34150   66.34150  305.42740    1.71280    2.33210
 4250.00000    9.90540    9.90540   83.37100   83.37100    -999.25   66.10650   66.10650  255.43510    1.90520    2.83940
 4300.00000    8.25130    8.25130   77.64660   77.64660    -999.25   41.10950   41.10950  205.08470    2.07830    3.39270
 4350.00000    9.38750    9.38750   84.74150   84.74150    -999.25   63.31360   63.31360  237.60430    8.02020    6.88940
 4400.00000   10.00710   10.00710   79.96360   79.96360    -999.25   55.51250   55.51250  252.05440    5.37250    6.74780
 4450.00000    8.85630    8.85630   76.10090   76.10090    -999.25   38.44260   38.44260  226.22000    1.92020    2.87690
 4500.00000   10.27290   10.27290  114.40550  114.40550    -999.25   49.67700   49.67700  265.17350    2.14230    3.67780
 4550.00000   10.92870   10.92870   92.09890   92.09890    -999.25   73.82460   73.82460  286.50440    5.25620    4.62500
 4600.00000   11.11090   11.11090  114.66170  114.66170    -999.25   64.62200   64.62200  274.91440    1.77490    2.80650
 4650.00000   13.37940   13.37940   93.60210   93.60210    -999.25   60.95290   60.95290  348.03080    1.65380    1.96300
 4700.00000   10.36530   10.36530   84.13800   84.13800    -999.25   58.84880   58.84880  248.39930    3.62750    5.60920
 4750.00000   11.29780   11.29780   82.10540   82.10540    -999.25   59.34080   59.34080  262.51150    6.69840    6.73580
 4800.00000   10.63860   10.63860   83.52890   83.52890    -999.25   58.76870   58.76870  256.11580    3.61120    5.60040
 4850.00000    9.26850    9.26850   77.52200   77.52200    -999.25   53.15770   53.15770  238.08690    3.04490    4.94440
 4900.00000   11.18050   11.18050   83.15700   83.15700    -999.25   76.59590   76.59590  279.86740    6.25430    8.75890
 4950.00000   10.95400   10.95400   76.66990   76.66990    -999.25   74.64950   74.64950  278.90980    8.04230    8.03440
 5000.00000   12.34130   12.34130   95.97550   95.97550    -999.25   67.21600   67.21600  305.22160   11.54740    6.33610
 5050.00000   10.42810   10.42810   73.59180   73.59180    -999.25   49.57450   49.57450  259.78100   10.13280   17.87830
 5100.00000   11.11540   11.11540   77.53220   77.53220    -999.25   61.39160   61.39160  269.72260   11.99210   16.36440
 5150.00000   10.54160   10.54160   78.57370   78.57370    -999.25   69.53410   69.53410  261.02310   13.40580   17.33080
 5200.00000   15.44450   15.44450  140.11910  140.11910    -999.25   45.26930   45.26930  412.14290    1.56860    1.74660
 5250.00000   15.67190   15.67190   96.15800   96.15800    -999.25   67.52780   67.52780  323.30140    1.56540    1.73960
 5300.00000   10.27380   10.27380   95.55840   95.55840    -999.25  106.69760  106.69760  262.54710   12.28980   18.66060
 5350.00000   11.02790   11.02790   99.10790   99.10790    -999.25   79.66100   79.66100  277.73630    2.35040    4.17170
 5400.00000    8.97570    8.97570   62.07090   62.07090    -999.25   39.58580   39.58580  232.06710   24.65820   24.80600
 5450.00000    8.77480    8.77480   71.92360   71.92360    -999.25   57.33570   57.33570  215.55710    2.15540    3.65160
 5500.00000   11.25630   11.25630   70.78880   70.78880    -999.25   67.25070   67.25070  255.99390    3.02180    5.19520
 5550.00000   10.17040   10.17040   68.24130   68.24130    -999.25   73.86020   73.86020  282.56740    9.94270   16.15160
 5600.00000    8.97820    8.97820   57.98930   57.98930    -999.25   32.66250   32.66250  226.19210    8.97820   10.60680
 5650.00000    8.93000    8.93000   52.58670   52.58670    -999.25   33.37360   33.37360  245.89740   39.98570   40.02440
 5700.00000    9.28740    9.28740   52.31080   52.31080    -999.25   21.37070   21.37070  242.65640    9.93810   11.13220
 5750.00000    9.50900    9.50900   57.81080   57.81080    -999.25   48.62850   48.62850  244.52830   21.03100   29.61580
 5800.00000    9.32680    9.32680   55.59230   55.59230    -999.25   42.24680   42.24680  230.82760   14.79950   40.02240
 5850.00000    9.16540    9.16540   52.34360   52.34360    -999.25   30.12180   30.12180  247.89890    9.51010   40.03560
 5900.00000    9.22010    9.22010   59.98060   59.98060    -999.25   28.14850   28.14850  236.10060    5.09390    5.49020
 5950.00000    8.79620    8.79620   57.26220   57.26220    -999.25   30.62390   30.62390  217.46720    1.98800    4.26740
 6000.00000    9.16780    9.16780   61.35120   61.35120    -999.25   35.45480   35.45480  236.86260   13.03320   34.28550
 6050.00000    9.41300    9.41300   51.56490   51.56490    -999.25   14.08720   14.08720  261.21110    3.14490    6.30190
 6100.00000    8.76790    8.76790   59.64840   59.64840    -999.25   23.14100   23.14100  216.48170    2.05180    3.77080
 6150.00000    8.78160    8.78160   52.07650   52.07650    -999.25   17.20560   17.20560  231.20600    1.83480    3.59340
 6200.00000    9.61930    9.61930   63.69520   63.69520    -999.25   56.30340   56.30340  246.31650    9.63600   12.83280
 6250.00000   10.32380   10.32380   66.29010   66.29010    -999.25   46.70560   46.70560  248.56690    4.59390    5.06900
 6300.00000   10.90420   10.90420   72.67310   72.67310    -999.25   61.93740   61.93740  273.31920    4.92130    4.41200
 6350.00000    9.41570    9.41570   56.11960   56.11960    -999.25   34.47660   34.47660  238.85910   20.69030   40.04560
 6400.00000    9.52380    9.52380   60.12580   60.12580    -999.25   28.83770   28.83770  246.56290   15.57290   24.55170
 6450.00000    8.83440    8.83440   56.14900   56.14900    -999.25   37.89470   37.89470  223.03230   13.84990   39.62660
 6500.00000    8.80110    8.80110   54.14090   54.14090    -999.25   38.29350   38.29350  221.81310   15.49270   40.06370
 6550.00000    8.85120    8.85120   56.77580   56.77580    -999.25   41.21760   41.21760  221.50320   17.95470   40.00000
 6600.00000    8.90380    8.90380   57.33400   57.33400    -999.25   38.14930   38.14930  226.30890   18.16330   40.00000
 6650.00000    8.80380    8.80380   55.14590   55.14590    -999.25   27.34240   27.34240  218.99120   16.37440   40.00000
 6700.00000    8.89130    8.89130   55.65080   55.65080    -999.25   36.98200   36.98200  226.64420   22.70960   40.00000
 6750.00000    8.89680    8.89680   55.44190   55.44190    -999.25   36.57180   36.57180  224.99570   14.26240   40.00000
 6800.00000    9.45180    9.45180   67.60810   67.60810    -999.25   76.41520   76.41520  249.97660   18.78260   34.69070
 6850.00000    9.77980    9.77980   61.13410   61.13410    -999.25   65.29930   65.29930  252.56490   12.41110   22.74730
