~Version ---------------------------------------------------
VERS. 2.0 : CWLS log ASCII Standard -VERSION 2.0
WRAP.  NO : ONE LINE PER DEPTH STEP
~Well ------------------------------------------------------
STRT.F                             650.0 : START DEPTH
STOP.F                            9200.0 : STOP DEPTH
STEP.F                          50.00000 : STEP LENGTH
NULL.                            -999.25 : NULL VALUE
COMP.                 DENISON MINES LTD. : COMPANY
WELL. DENISON ET AL VIRG HILLS 4-7-65-12 : WELL
FLD .                                    : FIELD
LOC .                                    : LOCATION
CTRY.                             CANADA : COUNTRY
SRVC.                       Schlumberger : SERVICE COMPANY
DATE.                        14-Sep-1974 : LOGDATE
PROV.                            Alberta : PROVINCE
UWI .                   100040706512W500 : UNIQUE WELL ID
SLAT.WGS84                      54.60475 : SURFACE LATITUDE
SLON.WGS84                     -115.8121 : SURFACE LONGITUDE
~Curve Information -----------------------------------------
DEPT.F    0   1   0  0 : 1 MEASURED DEPTH
DT  .US/F 60 500 00 00 : DELTA-T (INTERVAL TRANSIT TIME)
GRS .GAPI 60 310 01 00 : GAMMA RAY FROM SONIC LOG
CALS.IN   60 280 50 00 : CALIPER FROM SONIC LOG
ILD .OHMM 07 120 46 00 : INDUCTION DEEP RESISTIVITY
ILM .OHMM 07 120 44 00 : INDUCTION MEDIUM RESISTIVITY
LL8 .OHMM 07 220 08 00 : LATEROLOG 8
SPR .MV   07 010 01 00 : SPONTANEOUS POTENTIAL FROM RESISTIVITY LOG
CILD.MMHO 07 110 46 00 : INDUCTION DEEP CONDUCTIVITY
~Params ----------------------------------------------------
PD  .                     GL : PERMANENT DATUM
EPD .FT                 3432 : ELEVATION PERMANENT DATUM
LMF .                     KB : LOG MEASURED FROM
DAPD.FT                   14 : FEET ABOVE PERMANENT DATUM
EKB .FT                 3446 : KELLY BUSHING
EGL .FT                 3432 : GROUND LEVEL
DATE.               09/14/74 : RUN DATE
RUN .                      1 : RUN NUMBER
DD  .FT                 9235 : DEPTH DRILLER
DL  .FT                 9236 : DEPTH LOGGER
BLI .FT                 9230 : BOTTOM LOG INTERVAL
TLI .FT                  657 : TOP LOG INTERVAL
CBD .FT                  657 : CASING BOTTOM DRILLER
CBL .FT                  657 : CASING BOTTOM LOGGER
BS  .IN                7.875 : BIT SIZE
BSD .FT                 9235 : BIT SIZE AT DEPTH
DFT .               GEL CHEM : DRILLING FLUID TYPE
DFD .                    9.5 : DRILLING FLUID DENSITY
DFV .                     85 : DRILLING FLUID VISCOSITY
DFPH.                   10.4 : DRILLING FLUID PH
DFL .                    7.8 : DRILLING FLUID LOSS
MSS .               FLOWLINE : MUD SAMPLE SOURCE
RMS .OHMM                3.1 : RESISTIVITY MUD SAMPLE
MST .DEGF                 61 : MUD SAMPLE TEMPERATURE
RMF .OHMM               1.95 : RESISTIVITY MUD FILTRATE SAMPLE
MFST.DEGF                 69 : MUD FILTRATE SAMPLE TEMPERATURE
RMB .OHMM               0.75 : RESISTIVITY MUD AT BHT
TCS .HRS                 2.5 : TIME CIRCULATED STOPPED
LUN .                   7690 : LOGGING UNIT NUMBER
LUL .                    EDM : LOGGING UNIT LOCATION
ENGI.                SIMPSON : RECORDING ENGINEER
WITN.                BISSETT : WITNESSED BY
CLNT.                A2DTECH : CLIENT CODE
ORIG.            2" 5" PRINT : ORIGIN OF DATA
UWI .       100040706512W500 : UNIQUE WELL ID
DICO. A2D Technologies, Inc. : DIGITIZING COMPANY
~Other -----------------------------------------------------
~ASCII -----------------------------------------------------
  650.00000    -999.25   65.95620    -999.25    -999.25    -999.25    -999.25    -999.25    -999.25
  700.00000  154.58720   53.70910   10.16340    7.30130    -999.25    8.01510 -100.30500  140.54500
  750.00000  172.47990   59.47220   14.69350    3.32270    -999.25    2.71280  -99.19580  317.81230
  800.00000  129.51500   68.22230    9.14460    4.89940    -999.25    3.57190  -97.22670  215.18560
  850.00000  119.88540   67.84420   10.39420    6.26940    -999.25    4.60900 -101.73530  163.48500
  900.00000  115.29130   75.25240   10.92310    6.85610    -999.25    5.11040  -99.32880  149.55920
  950.00000  130.74510   75.92420   11.67930    4.03940    -999.25    3.29780  -96.57010  247.48380
 1000.00000  108.77090   61.58230    8.22660    9.96900    -999.25    6.97710 -106.13700  112.33860
 1050.00000  116.35560   65.96940   11.06650    3.42880    -999.25    2.90460  -94.50560  309.76130
 1100.00000  114.79760   81.00870    9.36440    5.61220    -999.25    4.53420 -101.73820  199.07420
 1150.00000  108.70370   86.06150    9.32100    5.22270    -999.25    4.10490  -98.64680  201.84300
 1200.00000  127.82780   66.43670    9.71370    5.16570    -999.25    3.64570  -94.67790  208.45850
 1250.00000  104.71830   62.41100    8.02500    5.43270    -999.25    4.44520  -99.99730  177.62850
 1300.00000  134.46800   73.03910   10.59560    3.13240    -999.25    2.65020  -95.16250  332.02040
 1350.00000  139.60530   70.16520   11.58200    3.43530    -999.25    2.52050  -95.43070  332.59960
 1400.00000  111.91480   52.53910    8.45760    9.12300    -999.25    7.87230 -108.83800  113.42130
 1450.00000  102.13210   58.77290    8.59880    9.96150    -999.25    8.15840 -111.29670  104.50780
 1500.00000  139.62990   78.40430    9.57970    3.11770    -999.25    2.59630  -95.26650  345.69560
 1550.00000  109.71540   85.52340    8.99310    4.80870    -999.25    4.09680  -94.09120  222.77460
 1600.00000  116.89320   77.38310    8.89910    2.61160    -999.25    2.57060  -94.34620  397.33740
 1650.00000  104.39860   68.67990   10.70900    4.44890    -999.25    3.64230  -94.04470  213.62000
 1700.00000  129.68480   75.29510   10.06200    3.49700    -999.25    3.30720  -92.75930  297.08570
 1750.00000  107.55980   75.03190   10.51510    5.98350    -999.25    4.95840  -93.35430  173.10530
 1800.00000  102.07610   63.75010   10.22220    4.83090    -999.25    3.77780  -91.99590  203.48300
 1850.00000  108.13540   70.66210    7.95720    5.29620    -999.25    4.53560  -99.86620  200.96840
 1900.00000  109.97350   69.66930    9.00990    3.44910    -999.25    2.63990  -92.60910  310.10360
 1950.00000  105.29960   56.86490    8.03170    7.06280    -999.25    6.04300 -111.82640  146.53030
 2000.00000  115.96090   67.87700   10.04310    5.16520    -999.25    3.56670  -99.06280  211.71270
 2050.00000  112.77620   61.64880   10.09450    2.95390    -999.25    2.43320  -93.57170  356.92730
 2100.00000  115.95770   66.72180    8.83080    3.90820    -999.25    3.19280  -92.27600  257.54360
 2150.00000  109.39190   68.03690    9.92980    3.88930    -999.25    3.12890  -91.82590  264.47270
 2200.00000  107.25100   68.33820    8.94130    3.41820    -999.25    2.59250  -92.56760  300.76540
 2250.00000  107.75960   54.79490    7.65160    5.98460    -999.25    3.92750 -104.97580  183.03660
 2300.00000  139.43550   55.34120   10.52920    3.27620    -999.25    2.94640  -89.66540  343.15140
 2350.00000  130.88500   59.68090   10.13290    4.10530    -999.25    3.45860  -93.96370  272.01090
 2400.00000  119.14420   60.51150   11.91700    2.58520    -999.25    5.92840  -93.58330  383.76320
 2450.00000  120.18080   71.50350    9.47950    3.92140    -999.25    4.06130  -91.00680  259.46740
 2500.00000  106.87040   66.04470    8.66420    3.75030    -999.25    3.19390  -91.51120  275.31040
 2550.00000  104.77060   55.35350    9.40620    3.14170    -999.25    3.52550  -89.99440  330.82540
 2600.00000  118.64540   67.60110    9.67500    3.86900    -999.25    2.96550  -90.97360  263.03990
 2650.00000  112.62690   53.67230    8.58510    3.99120    -999.25    3.33910  -92.12630  257.03890
 2700.00000  104.01890   67.62740    9.59410    3.50900    -999.25    2.96680  -89.50220  293.58490
 2750.00000  100.67790   49.61920    8.30880    5.30590    -999.25    6.17840 -111.80860  180.82150
 2800.00000  101.14690   46.10900    8.05230    9.92820    -999.25    8.57150 -117.55960   98.81640
 2850.00000  102.38350   63.50750    8.70180    4.72720    -999.25    4.18590  -91.72180  213.38110
 2900.00000  105.82360   64.01980   10.63660    4.03360    -999.25    3.40830  -94.37780  261.83540
 2950.00000  105.72070   63.25060   10.61280    4.08150    -999.25    3.61290  -90.14590  260.20420
 3000.00000  100.64040   73.55480   10.01610    4.53920    -999.25    3.88500  -90.08110  239.67480
 3050.00000  113.21700   77.66300   11.31400    5.74090    -999.25    4.43180  -96.36280  174.07840
 3100.00000  123.96430   76.48520   11.52210    5.73710    -999.25    4.58190  -97.85440  177.75110
 3150.00000  116.50440   97.21550   13.82160    4.64030    -999.25    4.06970  -96.62730  217.64620
 3200.00000  104.39390  139.24800   12.02030    6.37800    -999.25    6.81580  -91.80800  154.91700
 3250.00000   96.46070   97.57710   12.64400    5.86500    -999.25    5.55060  -94.03710  164.53950
 3300.00000   96.45840   90.19680   13.12500    6.19280    -999.25    5.03390  -95.11360  161.47330
 3350.00000   94.31670   91.99580   12.88590    5.67280    -999.25    4.56590  -96.06030  175.87050
 3400.00000  112.01110   89.89210   13.78190    4.77970    -999.25    4.07140  -95.06950  217.52650
 3450.00000   91.04250   82.65020   10.94180    7.72690    -999.25    6.49300  -93.81500  129.18320
 3500.00000  101.42270   89.61100   12.63920    6.21220    -999.25    4.66390  -97.42000  165.95630
 3550.00000   89.97710   86.42100   11.86140    6.90400    -999.25    5.26570  -95.96090  147.38140
 3600.00000  109.38610   93.48350   11.33070    5.11970    -999.25    4.18890  -95.53890  199.02880
 3650.00000  115.15250   74.90660   14.86220    6.32110    -999.25    4.73400  -94.33230  163.78380
 3700.00000  102.26570   81.50260   11.43600    5.90580    -999.25    4.79940  -94.36930  173.05880
 3750.00000  100.33550   79.95930   11.35840    6.42800    -999.25    4.92390  -93.82330  151.98500
 3800.00000   98.05620   86.31050   12.11950    6.23050    -999.25    5.27330  -90.79030  161.80500
 3850.00000  102.45000   99.59060    9.38930    5.26830    -999.25    4.87550  -87.42450  202.53750
 3900.00000  101.80450  109.96730    8.65120    5.48630    -999.25    5.92130  -86.91960  177.44910
 3950.00000   99.42370  100.67660    8.38090    5.30550    -999.25    5.68140  -86.34260  179.14960
 4000.00000  105.85900  149.10080    7.95630    6.64330    -999.25    7.81140  -87.66340  147.62040
 4050.00000   89.78390   92.81360    9.01820    4.83770    -999.25    4.17860  -90.10390  212.66160
 4100.00000   85.40070   90.38080    9.04590    5.10150    -999.25    5.87230  -86.30320  178.16940
 4150.00000   89.25850  107.28850    8.72960    5.75010    -999.25    6.22000  -88.96170  173.91790
 4200.00000   88.51070  105.86830    9.17400    5.23950    -999.25    5.51510  -85.27360  187.27280
 4250.00000   93.10770   95.20020    9.48590    4.57120    -999.25    5.03380  -84.60270  200.94200
 4300.00000   95.50170  107.15860    9.02420    3.76950    -999.25    4.05970  -82.50290  253.60000
 4350.00000  102.73910  101.38810   11.18180    3.28130    -999.25    3.75580  -82.15530  301.07200
 4400.00000   95.27420  127.65280    9.44930    4.05690    -999.25    4.39610  -81.49390  220.41450
 4450.00000  105.08800   92.29740    8.60400    1.67190    -999.25    2.04630  -79.41850  500.59870
 4500.00000   94.25570  102.83460   10.59900    2.30680    -999.25    2.87760  -78.11770  406.14970
 4550.00000   96.20200  111.38270   10.34580    2.87990    -999.25    2.97830  -79.62000  342.19720
 4600.00000   98.24710  100.20790   10.39130    2.96070    -999.25    3.39500  -79.76540  326.68050
