~Version ---------------------------------------------------
VERS.      2.0 : CWLS log ASCII Standard -VERSION 2.0
WRAP.       NO : One line per depth step
CREA. 08/01/17 : LAS Creation Date
~Well ------------------------------------------------------
STRT.FT                  900.0 : START DEPTH
STOP.FT                 9500.0 : STOP DEPTH
STEP.FT               50.00000 : STEP LENGTH
NULL.                  -999.25 : NULL VALUE
COMP. BP CANADA ENERGY COMPANY : COMPANY
WELL. AMOCO HB WIND 3-32-60-15 : WELL
FLD .                          : FIELD
LOC .                          : LOCATION
CTRY.                   CANADA : COUNTRY
SRVC.   Schlumberger of Canada : SERVICE COMPANY
DATE.              25-Jan-1971 : LOGDATE
PROV.                  Alberta : PROVINCE
UWI .         100033206015W500 : UNIQUE WELL ID
SLAT.WGS84             54.2274 : SURFACE LATITUDE
SLON.WGS84           -116.2148 : SURFACE LONGITUDE
~Curve Information -----------------------------------------
DEPT    .FT    : Depth Curve
CALDED  .IN    : CALIPER FROM DENSITY LOG
CALNED  .IN    : CALIPER FROM NEUTRON LOG
CALSED  .IN    : CALIPER FROM SONIC LOG
CALWS   .IN    : CALIPER [CALSED]
CONDWS  .MMHO  : CONDUCTIVITY [1000/DRESWS]
CORRED  .G/C3  : DENSITY CORRECTION FROM DENSITY LOG
DCORWS  .G/C3  : DENSITY CORR4ECTION [CORRED]
DENWS   .G/C3  : BULK DENSITY RHOBED]
DPHILSED.V/V   : DENSITY POROSITY [M=2.71, F=1.00] FROM DENSITY LOG
DPOLSWS .V/V   : DENSITY POROSITY LIMESTONE [CALCULATED FROM DENWS]
DRESWS  .OHMM  : DEEP RESISTIVITY [ILDED]
DTED    .US/F  : DELTA TIME FROM SONIC LOG
DTWS    .US/F  : DELTA TIME [DTED]
GRDED   .GAPI  : GAMMA RAY FROM DENSITY LOG
GRNED   .GAPI  : GAMMA RAY FROM NEUTRON LOG
GRSED   .GAPI  : GAMMA RAY FROM SONIC LOG
GRWS    .GAPI  : GAMMA RAY [GRDED]
ILDED   .OHMM  : INDUCTION LOG DEEP RESISTIVITY
ILMED   .OHMM  : INDUCTION LOG MEDIUM RESISTIVITY
LL8ED   .OHMM  : 8 INCH LATEROLOG RESISTIVITY
MRESWS  .OHMM  : MEDIUM RESISTIVITY [ILMED]
NPOLSWS .V/V   : NEUTRON POROSITY LIMESTONE [SNPLSED]
RHOBED  .G/C3  : BULK DENSITY FROM DENSITY LOG
SNPLSED .V/V   : SIDEWALL NEUTRON POROSITY LIMESONTE
SPRED   .MV    : SPONTANEOUS POTENTIAL FROM RESISTIVITY LOG
SPWS    .MV    : SPONTANEOUS POTENTIAL [BASELINE 0 MV] [SPRED]
SRESWS  .OHMM  : SHALLOW RESISTIVITY [LL8ED]
~Params ----------------------------------------------------
PD  .                     GL : PERMANENT DATUM
EPD .FT               2499.5 : ELEVATION PERMANENT DATUM
LMF .                     KB : LOG MEASURED FROM
DAPD.FT                   14 : FEET ABOVE PERMANENT DATUM
EKB .FT               2513.5 : KELLY BUSHING
EGL .FT               2499.5 : GROUND LEVEL
DATE.               01/25/71 : RUN DATE
RUN .                      1 : RUN NUMBER
DD  .FT                 8540 : DEPTH DRILLER
DL  .FT                 8541 : DEPTH LOGGER
BLI .FT                 8535 : BOTTOM LOG INTERVAL
TLI .FT                  921 : TOP LOG INTERVAL
CBD .FT                  921 : CASING BOTTOM DRILLER
CBL .FT                  920 : CASING BOTTOM LOGGER
BS  .IN                 8.75 : BIT SIZE
BSD .FT                 9540 : BIT SIZE AT DEPTH
DFT .                GELCHEM : DRILLING FLUID TYPE
DFD .                    9.7 : DRILLING FLUID DENSITY
DFV .                    122 : DRILLING FLUID VISCOSITY
DFPH.                     10 : DRILLING FLUID PH
DFL .                      8 : DRILLING FLUID LOSS
MSS .               FLOWLINE : MUD SAMPLE SOURCE
RMF .OHMM               0.97 : RESISTIVITY MUD FILTRATE SAMPLE
MFST.DEGF                 73 : MUD FILTRATE SAMPLE TEMPERATURE
RMC .OHMM               1.49 : RESISTIVITY MUD CAKE
MCST.DEGF                 72 : MUD CAKE SAMPLE TEMPERATURE
TCS .HRS                   4 : TIME CIRCULATED STOPPED
LUN .                   7501 : LOGGING UNIT NUMBER
LUL .                    EDM : LOGGING UNIT LOCATION
ENGI.                 SLADEN : RECORDING ENGINEER
WITN.       HEIKKINEN MORRIS : WITNESSED BY
CLNT.                A2DTECH : CLIENT CODE
ORIG.            2" 5" PRINT : ORIGIN OF DATA
UWI .       100033206015W500 : UNIQUE WELL ID
DICO. A2D Technologies, Inc. : DIGITIZING COMPANY
~Other -----------------------------------------------------
~ASCII -----------------------------------------------------
# ...
 4800.00000    -999.25    -999.25    9.43910    9.43910   60.58770    -999.25    -999.25    -999.25    -999.25    -999.25   16.50500   70.51110   70.51110    -999.25    -999.25   54.59150   54.59150   16.50500   20.18610   22.10460   20.18610    -999.25    -999.25    -999.25  -83.47620  -15.76220   22.10460
 4850.00000    -999.25    -999.25   10.72600   10.72600  154.73890    -999.25    -999.25    -999.25    -999.25    -999.25    6.46250   80.26330   80.26330    -999.25    -999.25   70.03290   70.03290    6.46250    6.21210    6.90260    6.21210    -999.25    -999.25    -999.25  -73.61390   -7.07180    6.90260
 4900.00000    -999.25    -999.25   10.01030   10.01030  126.87300    -999.25    -999.25    -999.25    -999.25    -999.25    7.88190   77.39460   77.39460    -999.25    -999.25   71.07870   71.07870    7.88190    7.43570   10.07170    7.43570    -999.25    -999.25    -999.25  -78.37830  -12.61690   10.07170
 4950.00000    -999.25    -999.25    9.85800    9.85800   91.06750    -999.25    -999.25    -999.25    -999.25    -999.25   10.99630   80.77870   80.77870    -999.25    -999.25   76.29100   76.29100   10.99630   11.41930   13.14620   11.41930    -999.25    -999.25    -999.25  -73.78480   -8.41460   13.14620
 5000.00000    -999.25    -999.25   10.46260   10.46260   96.82890    -999.25    -999.25    -999.25    -999.25    -999.25   10.32750   77.91970   77.91970    -999.25    -999.25   69.94970   69.94970   10.32750   10.80040   12.19010   10.80040    -999.25    -999.25    -999.25  -75.48170  -10.49900   12.19010
 5050.00000    -999.25    -999.25   11.33050   11.33050  205.14920    -999.25    -999.25    -999.25    -999.25    -999.25    4.87450  101.88570  101.88570    -999.25    -999.25   70.77740   70.77740    4.87450    4.98150    8.29050    4.98150    -999.25    -999.25    -999.25  -70.35680   -5.76350    8.29050
 5100.00000    -999.25    -999.25   10.68130   10.68130   89.62660    -999.25    -999.25    -999.25    -999.25    -999.25   11.15740   73.25770   73.25770    -999.25    -999.25   61.81290   61.81290   11.15740   11.67610   13.48770   11.67610    -999.25    -999.25    -999.25  -82.19250  -17.98850   13.48770
 5150.00000    -999.25    -999.25   13.32410   13.32410   16.32150    -999.25    -999.25    -999.25    -999.25    -999.25   61.26880  134.73940  134.73940    -999.25    -999.25   51.10190   51.10190   61.26880   34.63120   45.94390   34.63120    -999.25    -999.25    -999.25  -71.76710   -7.95250   45.94390
 5200.00000    -999.25    -999.25   10.99240   10.99240   47.16460    -999.25    -999.25    -999.25    -999.25    -999.25   21.28770  102.27050  102.27050    -999.25    -999.25   67.56600   67.56600   21.28770   39.95300  120.30420   39.95300    -999.25    -999.25    -999.25  -73.98820  -10.56490  120.30420
 5250.00000    -999.25    -999.25   11.36990   11.36990  173.69860    -999.25    -999.25    -999.25    -999.25    -999.25    5.75710   75.81120   75.81120    -999.25    -999.25   43.58080   43.58080    5.75710    6.82430    9.79330    6.82430    -999.25    -999.25    -999.25 -100.31460  -37.27870    9.79330
 5300.00000    -999.25    -999.25   10.29500   10.29500  176.02530    -999.25    -999.25    -999.25    -999.25    -999.25    5.68100   72.62260   72.62260    -999.25    -999.25   51.89460   51.89460    5.68100    6.11420    9.21320    6.11420    -999.25    -999.25    -999.25  -95.03950  -32.39300    9.21320
 5350.00000    -999.25    -999.25   10.85210   10.85210  119.54290    -999.25    -999.25    -999.25    -999.25    -999.25    8.36520   83.31510   83.31510    -999.25    -999.25   81.00760   81.00760    8.36520    8.76900   10.32920    8.76900    -999.25    -999.25    -999.25  -72.82080  -10.56370   10.32920
 5400.00000    -999.25    -999.25   10.25750   10.25750   95.25900    -999.25    -999.25    -999.25    -999.25    -999.25   10.49770   76.69400   76.69400    -999.25    -999.25   78.11540   78.11540   10.49770   11.14680   13.06610   11.14680    -999.25    -999.25    -999.25  -72.04160  -10.17380   13.06610
 5450.00000    -999.25    -999.25    9.72940    9.72940   96.76660    -999.25    -999.25    -999.25    -999.25    -999.25   10.33650   73.96200   73.96200    -999.25    -999.25   80.01870   80.01870   10.33650   11.15710   13.02420   11.15710    -999.25    -999.25    -999.25  -74.98010  -13.50370   13.02420
 5500.00000    -999.25    -999.25    9.65880    9.65880   76.36150    -999.25    -999.25    -999.25    -999.25    -999.25   13.09560   71.78030   71.78030    -999.25    -999.25   71.71220   71.71220   13.09560   13.95710   20.61890   13.95710    -999.25    -999.25    -999.25  -70.19050   -9.10150   20.61890
 5550.00000    -999.25    -999.25   10.42790   10.42790  112.42520    -999.25    -999.25    -999.25    -999.25    -999.25    8.89480   74.75160   74.75160    -999.25    -999.25   88.50950   88.50950    8.89480    9.56710   12.24990    9.56710    -999.25    -999.25    -999.25  -69.78490   -9.08520   12.24990
 5600.00000    -999.25    -999.25    9.38530    9.38530   29.13160    -999.25    -999.25    -999.25    -999.25    -999.25   34.32700   69.55030   69.55030    -999.25    -999.25   62.41870   62.41870   34.32700   35.49210   55.37620   35.49210    -999.25    -999.25    -999.25  -68.76010   -8.44980   55.37620
 5650.00000    -999.25    -999.25    9.19570    9.19570   75.76330    -999.25    -999.25    -999.25    -999.25    -999.25   13.19900   72.56670   72.56670    -999.25    -999.25   52.61870   52.61870   13.19900   16.15470   30.56890   16.15470    -999.25    -999.25    -999.25 -117.87810  -57.95720   30.56890
 5700.00000    -999.25    -999.25    9.63730    9.63730  354.78080    -999.25    -999.25    -999.25    -999.25    -999.25    2.81860   85.68740   85.68740    -999.25    -999.25   66.23360   66.23360    2.81860    2.90910    3.63160    2.90910    -999.25    -999.25    -999.25  -75.60670  -16.07700    3.63160
 5750.00000    -999.25    -999.25   10.92710   10.92710  197.16480    -999.25    -999.25    -999.25    -999.25    -999.25    5.07190   84.39920   84.39920    -999.25    -999.25   77.93050   77.93050    5.07190    4.78890    6.27100    4.78890    -999.25    -999.25    -999.25  -68.44950   -9.30730    6.27100
 5800.00000    -999.25    -999.25   12.12910   12.12910  194.95080    -999.25    -999.25    -999.25    -999.25    -999.25    5.12950   82.87410   82.87410    -999.25    -999.25   70.99550   70.99550    5.12950    5.30210    6.92170    5.30210    -999.25    -999.25    -999.25  -66.35180   -7.59900    6.92170
 5850.00000    -999.25    -999.25    9.89860    9.89860  217.46220    -999.25    -999.25    -999.25    -999.25    -999.25    4.59850   80.02560   80.02560    -999.25    -999.25   88.34190   88.34190    4.59850    4.65420    5.33460    4.65420    -999.25    -999.25    -999.25  -66.47100   -8.10750    5.33460
 5900.00000    -999.25    -999.25    8.84080    8.84080   10.61420    -999.25    -999.25    -999.25    -999.25    -999.25   94.21310   72.73380   72.73380    -999.25    -999.25  153.31610  153.31610   94.21310   56.81870  188.98790   56.81870    -999.25    -999.25    -999.25  -72.76800  -14.79390  188.98790
 5950.00000    -999.25    -999.25    9.14750    9.14750   10.73440    -999.25    -999.25    -999.25    -999.25    -999.25   93.86280   78.02180   78.02180    -999.25    -999.25  299.89360  299.89360   93.86280  170.46600  485.11670  170.46600    -999.25    -999.25    -999.25  -74.64310  -17.06030  485.11670
 6000.00000    -999.25    -999.25    9.09280    9.09280  139.34170    -999.25    -999.25    -999.25    -999.25    -999.25    7.17660   59.22550   59.22550    -999.25    -999.25   36.56520   36.56520    7.17660    7.78790   11.24230    7.78790    -999.25    -999.25    -999.25  -99.39940  -42.20400   11.24230
 6050.00000    -999.25    -999.25    8.97610    8.97610   74.51070    -999.25    -999.25    -999.25    -999.25    -999.25   13.42090   55.64030   55.64030    -999.25    -999.25   24.95310   24.95310   13.42090   14.30000   25.97780   14.30000    -999.25    -999.25    -999.25 -103.99330  -47.18730   25.97780
