~Version ---------------------------------------------------
VERS.      2.0 : CWLS log ASCII Standard -VERSION 2.0
WRAP.       NO : One line per depth step
CREA. 11/17/17 : LAS Creation Date
~Well ------------------------------------------------------
STRT.FT                            1200.0 : START DEPTH
STOP.FT                           11100.0 : STOP DEPTH
STEP.FT                          50.00000 : STEP LENGTH
NULL.                             -999.25 : NULL VALUE
COMP.        CANADIAN HOMESTEAD OILS LTD. : COMPANY
WELL. HOMESTEAD RB ANTE CREEK 10-20-65-23 : WELL
FLD .                                     : FIELD
LOC .                                     : LOCATION
CTRY.                              CANADA : COUNTRY
SRVC.              Schlumberger of Canada : SERVICE COMPANY
DATE.                         17-Apr-1963 : LOGDATE
PROV.                             Alberta : PROVINCE
UWI .                    100102006523W500 : UNIQUE WELL ID
SLAT.WGS84                       54.64192 : SURFACE LATITUDE
SLON.WGS84                      -117.4369 : SURFACE LONGITUDE
~Curve Information -----------------------------------------
DEPT  .FT    : Depth Curve
CALSED.IN    : CALIPER FROM SONIC LOG
CALWS .IN    : CALIPER [CALSED]
CILDED.MMHO  : DEEP INDUCTION CONDUCTIVITY FROM RESISTIVITY LOG
CONDWS.MMHO  : CONDUCTIVITY [1000/DRESWS]
DRESWS.OHMM  : DEEP RESISTIVITY [1000/CILDED,IF ILDED<3,ILDED]
DT1ED .US/F  : DELTA TIME (3' SPACING-1' PICK UP SPAN) FROM SONIC LOG
DTED  .US/F  : DELTA TIME (3' SPACING-3' PICK UP SPAN) FROM SONIC LOG
DTWS  .US/F  : COMPRESSIONAL SONIC [DTED]
GRSED .GAPI  : GAMMA RAY FROM SONIC LOG
GRWS  .GAPI  : GAMMA RAY [GRSED]
ILDED .OHMM  : DEEP INDUCTION RESISTIVITY FROM RESISTIVITY LOG
SNED  .OHMM  : 16 INCH  SHORT NORMAL FROM RESISTIVITY LOG
SPRED .MV    : SPONTANEOUS POTENTIAL FROM RESISTIVITY LOG
SPWS  .MV    : SPONTANEOUS POTENTIAL [BASELINE 0 MV,SPRED]
SRESWS.OHMM  : SHALLOW RESISTIVITY [SNED]
~Params ----------------------------------------------------
PD  .                     GL : PERMANENT DATUM
EPD .FT                 2567 : ELEVATION PERMANENT DATUM
LMF .                     KB : LOG MEASURED FROM
DAPD.FT                   14 : FEET ABOVE PERMANENT DATUM
EKB .FT                 2581 : KELLY BUSHING
EGL .FT                 2567 : GROUND LEVEL
DATE.               04/17/69 : RUN DATE
RUN .                      1 : RUN NUMBER
DD  .FT                11135 : DEPTH DRILLER
DL  .FT                11136 : DEPTH LOGGER
BLI .FT                11135 : BOTTOM LOG INTERVAL
TLI .FT                 1229 : TOP LOG INTERVAL
CBD .FT                 1228 : CASING BOTTOM DRILLER
CBL .FT                 1229 : CASING BOTTOM LOGGER
BS  .IN                    9 : BIT SIZE
BSD .FT                11135 : BIT SIZE AT DEPTH
DFT .           GEL CHEMICAL : DRILLING FLUID TYPE
DFD .                     10 : DRILLING FLUID DENSITY
DFV .                     95 : DRILLING FLUID VISCOSITY
DFPH.                      8 : DRILLING FLUID PH
DFL .                   13.2 : DRILLING FLUID LOSS
RMS .OHMM                3.5 : RESISTIVITY MUD SAMPLE
MST .DEGF                 50 : MUD SAMPLE TEMPERATURE
RMF .OHMM                3.3 : RESISTIVITY MUD FILTRATE SAMPLE
MFST.DEGF                 54 : MUD FILTRATE SAMPLE TEMPERATURE
RMC .OHMM                3.6 : RESISTIVITY MUD CAKE
MCST.DEGF                 54 : MUD CAKE SAMPLE TEMPERATURE
RMB .OHMM               0.88 : RESISTIVITY MUD AT BHT
TCS .HRS                   6 : TIME CIRCULATED STOPPED
LUN .                DSU A 9 : LOGGING UNIT NUMBER
ENGI.                MCKEOWN : RECORDING ENGINEER
WITN.                   EARL : WITNESSED BY
CLNT.                A2DTECH : CLIENT CODE
ORIG.            2" 5" PRINT : ORIGIN OF DATA
UWI .       100102006523W500 : UNIQUE WELL ID
DICO. A2D Technologies, Inc. : DIGITIZING COMPANY
~Other -----------------------------------------------------
IEL-BCS LOG RUN
ALL IEL DATA FROM TOP TO 4286' FROM SMALL SCALE SECTION
~ASCII -----------------------------------------------------
# ...
 5800.00000   10.91300   10.91300   77.17710   68.45990   14.60710    -999.25   67.58710   67.58710   88.88730   88.88730   14.60710   20.84580 -140.22570  -31.87730   20.84580
 5850.00000   11.08510   11.08510   71.41830   63.62500   15.71710    -999.25   73.51750   73.51750  122.77560  122.77560   15.71710   16.34790 -113.27840   -6.49320   16.34790
 5900.00000   11.32900   11.32900   74.12120   66.96530   14.93310    -999.25   75.89450   75.89450  129.59770  129.59770   14.93310   15.86640 -107.86920   -2.64720   15.86640
 5950.00000   11.39550   11.39550   85.74340   76.16440   13.12950    -999.25   77.28140   77.28140  134.39020  134.39020   13.12950   13.29850 -105.98950   -2.33070   13.29850
 6000.00000   11.19870   11.19870  109.05650   99.57980   10.04220    -999.25   84.20810   84.20810  134.56410  134.56410   10.04220   11.20820 -105.46630   -2.89450   11.20820
 6050.00000   11.33170   11.33170   56.17710   48.90100   20.44950    -999.25   69.67610   69.67610   95.65250   95.65250   20.44950   22.29740 -123.51150  -23.90790   22.29740
 6100.00000   11.10980   11.10980   55.34050   48.12760   20.77810    -999.25   70.05430   70.05430  131.14960  131.14960   20.77810   23.94300 -101.94420   -5.47770   23.94300
 6150.00000   11.71720   11.71720   97.43000   96.41250   10.37210    -999.25   58.08210   58.08210  130.92960  130.92960   10.37210   19.60890 -101.34080   -6.21710   19.60890
 6200.00000   11.27130   11.27130   62.82050   63.40030   15.77280    -999.25   79.83020   79.83020  149.31970  149.31970   15.77280   20.24760  -96.19950   -2.28340   20.24760
 6250.00000   11.03540   11.03540   85.12300   86.56210   11.55240    -999.25   86.05150   86.05150  139.23510  139.23510   11.55240   14.32810  -97.03050   -3.49070   14.32810
 6300.00000   11.32170   11.32170   44.26420   43.61690   22.92690    -999.25   68.85540   68.85540  100.35520  100.35520   22.92690   25.40380 -106.03390  -12.87050   25.40380
 6350.00000   12.59620   12.59620  171.65730  178.00880    5.61770    -999.25   39.84070   39.84070  101.73260  101.73260    5.61770    5.94860 -101.11280   -8.32570    5.94860
 6400.00000    8.14430    8.14430   84.80730   84.49730   11.83470    -999.25   74.68600   74.68600   58.70430   58.70430   11.83470   29.58490 -192.26350  -99.85280   29.58490
 6450.00000    7.79800    7.79800  128.45030  127.30740    7.85500    -999.25   74.36860   74.36860   55.08940   55.08940    7.85500   20.74780 -184.51290  -92.47860   20.74780
 6500.00000   10.62920   10.62920  158.56020  116.07530    8.61510    -999.25   79.28720   79.28720  169.89480  169.89480    8.61510   10.20400  -97.97510   -6.31710   10.20400
 6550.00000    9.71850    9.71850   13.56540   13.53420   73.88710    -999.25   85.18250   85.18250  309.32790  309.32790   73.88710  136.93590 -110.77540  -18.21130  136.93590
 6600.00000   10.09050   10.09050   26.65380   26.78240   37.33790    -999.25   65.49700   65.49700  120.78590  120.78590   37.33790   42.06200 -131.56400  -37.88510   42.06200
 6650.00000   11.05990   11.05990   83.69780   80.21180   12.46700    -999.25   64.21910   64.21910  122.92340  122.92340   12.46700   16.13120 -124.54440  -29.75070   16.13120
 6700.00000   10.48520   10.48520   49.71700   49.60860   20.15780    -999.25   65.22300   65.22300  139.34050  139.34050   20.15780   25.41030 -108.95780  -13.04920   25.41030
 6750.00000   11.11120   11.11120   36.80640   33.35610   29.97950    -999.25   62.40070   62.40070  119.25650  119.25650   29.97950   23.71970 -103.15310   -8.24350   23.71970
 6800.00000   10.57870   10.57870   28.42480   28.19410   35.46840    -999.25   65.17420   65.17420  131.12580  131.12580   35.46840   35.83400 -101.13730   -8.25900   35.83400
 6850.00000   10.63430   10.63430   24.69710   24.93260   40.10820    -999.25   62.61130   62.61130  109.85130  109.85130   40.10820   41.94830 -112.52740  -21.66060   41.94830
 6900.00000   11.69990   11.69990   41.40920   41.24410   24.24590    -999.25   66.72670   66.72670  146.52850  146.52850   24.24590   27.80160  -95.46180   -6.60650   27.80160
 6950.00000   11.68620   11.68620   37.95310   37.64250   26.56570    -999.25   67.54960   67.54960  152.61620  152.61620   26.56570   29.28540  -90.63580   -3.44860   29.28540
 7000.00000    7.62740    7.62740   93.07070   92.73080   10.78390    -999.25   61.53300   61.53300   41.52910   41.52910   10.78390   47.17380 -234.47980 -148.63290   47.17380
 7050.00000   10.33190   10.33190   43.41230   44.40040   22.52230    -999.25   54.42740   54.42740   69.75380   69.75380   22.52230   32.69970 -162.66640  -78.65990   32.69970
 7100.00000   10.27510   10.27510   29.49300   32.38010   30.88320    -999.25   55.91210   55.91210  128.96980  128.96980   30.88320   41.39560 -121.84890  -39.68290   41.39560
 7150.00000    9.58080    9.58080    3.87430    4.02310  248.56500    -999.25   47.34980   47.34980   35.48710   35.48710  248.56500  208.29600 -159.45920  -79.13370  208.29600
 7200.00000    9.18520    9.18520    4.95940    6.45610  154.89230    -999.25   50.81080   50.81080   50.28390   50.28390  154.89230  105.97240 -154.62550  -76.14050  105.97240
 7250.00000    8.14940    8.14940   53.81320   55.73730   17.94130    -999.25   59.40330   59.40330   39.77940   39.77940   17.94130   72.49610 -214.03980 -137.39530   72.49610
 7300.00000    9.75310    9.75310   64.41530   66.66130   15.00120    -999.25   55.90830   55.90830   62.62770   62.62770   15.00120   42.19930 -160.95230  -86.14830   42.19930
 7350.00000    9.01230    9.01230  238.07540  214.16950    4.66920    -999.25   75.83200   75.83200   53.14140   53.14140    4.66920   26.99390 -217.66260 -144.69910   26.99390
 7400.00000    8.67690    8.67690  230.01390  219.67880    4.55210    -999.25   63.63570   63.63570   52.07830   52.07830    4.55210   28.48070 -201.15360 -130.03060   28.48070
 7450.00000   10.23150   10.23150   35.85780   36.18390   27.63660    -999.25   61.70350   61.70350   76.66650   76.66650   27.63660   52.02150 -132.58290  -63.30040   52.02150
 7500.00000   10.54600   10.54600    8.86370   10.85540   92.12040    -999.25   57.69120   57.69120   37.58640   37.58640   92.12040   85.84230 -104.93780  -36.26720   85.84230
 7550.00000    8.10740    8.10740  161.59080  152.72540    6.54770    -999.25   63.99410   63.99410   58.00080   58.00080    6.54770   24.20760 -191.66800 -122.74330   24.20760
 7600.00000    8.01190    8.01190  197.67560  170.65140    5.85990    -999.25   65.45820   65.45820   41.81160   41.81160    5.85990   25.43640 -160.11110  -90.93230   25.43640
 7650.00000    9.06360    9.06360  132.99650  127.33500    7.85330    -999.25   58.95240   58.95240   63.20680   63.20680    7.85330   24.49020 -179.73640 -110.30350   24.49020
 7700.00000   10.37280   10.37280   72.71870   76.97990   12.99040    -999.25   53.06560   53.06560   54.57460   54.57460   12.99040   28.31480 -117.09490  -47.40790   28.31480
 7750.00000    9.92810    9.92810    1.91870    2.71770  367.96080    -999.25   51.86560   51.86560   28.22620   28.22620  367.96080  227.93210 -154.04370  -84.10260  227.93210
 7800.00000   10.07360   10.07360   25.45800   28.55690   35.01780    -999.25   50.67170   50.67170   32.06490   32.06490   35.01780   82.94660 -204.32060 -134.12540   82.94660
 7850.00000   10.43680   10.43680   11.15970   13.80750   72.42460    -999.25   51.96750   51.96750   26.78480   26.78480   72.42460   97.91650 -197.82820 -127.37890   97.91650
 7900.00000   11.31610   11.31610  106.34900  121.79670    8.21040    -999.25   56.18790   56.18790  140.80170  140.80170    8.21040   17.31620  -86.83750  -16.13410   17.31620
 7950.00000   10.15710   10.15710   69.13980   73.11220   13.67760    -999.25   59.62710   59.62710   97.27460   97.27460   13.67760   19.41640  -98.70000  -27.74240   19.41640
 8000.00000   10.42790   10.42790   63.54170   71.53890   13.97840    -999.25   66.98050   66.98050   86.41090   86.41090   13.97840   31.04810 -122.01320  -50.80150   31.04810
 8050.00000   10.45820   10.45820   36.41270   40.01780   24.98890    -999.25   65.49010   65.49010   89.45200   89.45200   24.98890   37.78740  -84.68260  -13.21680   37.78740
