~Version ---------------------------------------------------
VERS.      2.0 : CWLS log ASCII Standard -VERSION 2.0
WRAP.       NO : One line per depth step
CREA. 08/31/17 : LAS Creation Date
~Well ------------------------------------------------------
STRT.FT                        1000.0 : START DEPTH
STOP.FT                       11500.0 : STOP DEPTH
STEP.FT                      50.00000 : STEP LENGTH
NULL.                         -999.25 : NULL VALUE
COMP.       ATLANTIC REFINING COMPANY : COMPANY
WELL. ATLANTIC ANTE CREEK 10-29-64-23 : WELL
FLD .                                 : FIELD
LOC .                                 : LOCATION
CTRY.                          CANADA : COUNTRY
SRVC.                    Schlumberger : SERVICE COMPANY
DATE.                     16-Jul-1964 : LOGDATE
PROV.                         Alberta : PROVINCE
UWI .                100102906423W500 : UNIQUE WELL ID
SLAT.WGS84                    54.5688 : SURFACE LATITUDE
SLON.WGS84                   -117.438 : SURFACE LONGITUDE
~Curve Information -----------------------------------------
DEPT  .FT    : Depth Curve
CALSED.IN    : CALIPER FROM BCS LOG
CALWS .IN    : CALIPER [CALSED]
CILDED.MMHO  : DEEP INDUCTION CONDUCTIVITY LOG FROM IEL LOG
CONDWS.MMHO  : CONDUCTIVITY [CILDED]
DRESWS.OHMM  : DEEP RESISTIVITY [1000/CONDWS IF ILDED <= 4, ILDED]
DT1ED .US/F  : ACOUSTIC TRANSIT TIME SLOWNESS, DELTA T FROM BCS LOG
DTED  .US/F  : ACOUSTIC TRANSIT TIME SLOWNESS, DELTA T FROM BCS LOG
DTWS  .US/F  : COMPRESSIONAL SONIC [DTED]
GRSED .GAPI  : GAMMA RAY FROM BCS LOG
GRWS  .GAPI  : GAMMA RAY [GRSED]
ILDED .OHMM  : DEEP INDUCTION FROM IEL LOG
SNED  .OHMM  : SHORT NORMAL FROM IEL LOG
SPRED .MV    : SPONTANEOUS POTENTIAL FROM IEL LOG
SPWS  .MV    : SPONTANEOUS POTENTIAL [BASELINE 0 MV, SPRED]
SRESWS.OHMM  : SHALLOW RESISTIVITY [SNED]
~Params ----------------------------------------------------
PD  .                     GL : PERMANENT DATUM
LMF .                     KB : LOG MEASURED FROM
EKB .FT               2850.5 : KELLY BUSHING
DATE.               07/16/64 : RUN DATE
RUN .                      1 : RUN NUMBER
DD  .FT                11510 : DEPTH DRILLER
DL  .FT                11517 : DEPTH LOGGER
BLI .FT                11516 : BOTTOM LOG INTERVAL
TLI .FT                 1173 : TOP LOG INTERVAL
CBD .FT                 1175 : CASING BOTTOM DRILLER
CBL .FT                 1173 : CASING BOTTOM LOGGER
BS  .IN                7.875 : BIT SIZE
BSD .FT                11510 : BIT SIZE AT DEPTH
DFT .                    GEL : DRILLING FLUID TYPE
DFD .                    9.4 : DRILLING FLUID DENSITY
DFV .                    110 : DRILLING FLUID VISCOSITY
DFPH.                      9 : DRILLING FLUID PH
DFL .                    8.7 : DRILLING FLUID LOSS
RMS .OHMM               3.06 : RESISTIVITY MUD SAMPLE
MST .DEGF                 62 : MUD SAMPLE TEMPERATURE
RMF .OHMM               2.13 : RESISTIVITY MUD FILTRATE SAMPLE
MFST.DEGF                 62 : MUD FILTRATE SAMPLE TEMPERATURE
RMC .OHMM               2.09 : RESISTIVITY MUD CAKE
MCST.DEGF                 62 : MUD CAKE SAMPLE TEMPERATURE
RMB .OHMM               0.99 : RESISTIVITY MUD AT BHT
TCS .HRS                   3 : TIME CIRCULATED STOPPED
LUN .                   3532 : LOGGING UNIT NUMBER
ENGI.               CROCKETT : RECORDING ENGINEER
WITN.                 RUSSIN : WITNESSED BY
CLNT.                A2DTECH : CLIENT CODE
ORIG.            2" 5" PRINT : ORIGIN OF DATA
UWI .       100102906423W500 : UNIQUE WELL ID
DICO. A2D Technologies, Inc. : DIGITIZING COMPANY
~Other -----------------------------------------------------
~ASCII -----------------------------------------------------
# ...
 7900.00000    8.62860    8.62860   20.04970   19.92610   50.18550    -999.25   49.30140   49.30140   40.62360   40.62360   50.18550   49.91820 -109.33350  -68.20030   49.91820
 7950.00000    8.47620    8.47620   12.99280   11.61780   86.07480    -999.25   53.50550   53.50550   43.58900   43.58900   86.07480   68.57410  -80.73990  -39.98350   68.57410
 8000.00000    8.65670    8.65670   19.59380   21.89230   45.67820    -999.25   49.66300   49.66300   26.55050   26.55050   45.67820   72.43930 -104.32170  -63.93960   72.43930
 8050.00000    8.82790    8.82790   47.89450   51.32500   19.48370    -999.25   51.29580   51.29580   18.55790   18.55790   19.48370   46.80950 -147.62410 -107.61630   46.80950
 8100.00000    8.71720    8.71720   10.67560   11.08430   90.21800    -999.25   54.20880   54.20880   35.26710   35.26710   90.21800   90.49040 -105.54240  -65.91140   90.49040
 8150.00000    8.76190    8.76190   12.68080   12.05170   82.97600    -999.25   50.82340   50.82340   31.00080   31.00080   82.97600   90.96330  -80.57640  -41.31970   90.96330
 8200.00000    8.90740    8.90740   29.74080   29.98260   33.35270    -999.25   56.79600   56.79600   56.64580   56.64580   33.35270   53.18940  -78.53220  -39.65220   53.18940
 8250.00000    8.42080    8.42080    1.82850    2.76940  361.08570    -999.25   46.77110   46.77110   17.42740   17.42740  361.08570  192.87170 -133.04300  -94.53740  192.87170
 8300.00000    8.68860    8.68860    9.14870    8.61180  116.12000    -999.25   47.48100   47.48100   18.96400   18.96400  116.12000  159.40670 -150.42050 -112.28920  159.40670
 8350.00000    8.59670    8.59670   16.17030   16.03030   62.38200    -999.25   49.25050   49.25050   18.99860   18.99860   62.38200  102.43740 -142.94060 -105.18600  102.43740
 8400.00000    8.52590    8.52590   42.24860   45.16730   22.13990    -999.25   56.93610   56.93610   63.77820   63.77820   22.13990   37.29340  -68.08240  -30.70210   37.29340
 8450.00000    8.59590    8.59590   78.63900   74.87500   13.35560    -999.25   58.55460   58.55460   77.99930   77.99930   13.35560   17.77720  -60.85170  -23.84820   17.77720
 8500.00000    9.12990    9.12990   43.59660   44.40060   22.52220    -999.25   54.99000   54.99000   59.03850   59.03850   22.52220   33.87470  -59.13900  -22.50980   33.87470
 8550.00000    8.71560    8.71560   20.98650   20.95070   47.73100    -999.25   54.94410   54.94410   39.65730   39.65730   47.73100   72.09640  -58.26010  -22.00520   72.09640
 8600.00000    9.05020    9.05020    2.00970    2.16330  462.25740    -999.25   48.58010   48.58010   17.50510   17.50510  462.25740  299.32110 -100.05300  -64.17490  299.32110
 8650.00000    8.52980    8.52980    5.24090    5.07720  196.96020    -999.25   49.00870   49.00870   13.29830   13.29830  196.96020  188.12570 -132.96040  -97.45660  188.12570
 8700.00000    8.43010    8.43010   15.15390   14.20070   70.41920    -999.25   51.40810   51.40810   30.20110   30.20110   70.41920   88.38950  -48.17000  -13.04290   88.38950
 8750.00000    8.31620    8.31620    8.14840    6.70720  149.09270    -999.25   51.00500   51.00500   25.29010   25.29010  149.09270  134.75330  -64.94980  -30.19700  134.75330
 8800.00000    8.35090    8.35090    2.69820    3.42050  292.35160    -999.25   53.40940   53.40940   37.70720   37.70720  292.35160  229.92230  -42.62420   -8.13740  229.92230
 8850.00000    8.39580    8.39580    6.95930    6.44180  155.23600    -999.25   52.61080   52.61080   40.54260   40.54260  155.23600  154.78200  -48.96020  -14.47340  154.78200
 8900.00000    8.52280    8.52280    0.00040    1.98530  503.70860    -999.25   52.25140   52.25140   46.96700   46.96700  503.70860  321.71650  -51.33080  -16.84400  321.71650
 8950.00000    8.47820    8.47820    7.46460    7.39600  135.20810    -999.25   54.82670   54.82670   58.72060   58.72060  135.20810  139.67310  -46.51180  -11.28260  139.67310
 9000.00000    8.47460    8.47460   35.93090   37.33340   26.78570    -999.25   61.52070   61.52070   92.70630   92.70630   26.78570   43.88620  -44.15200   -7.31060   43.88620
 9050.00000    8.42360    8.42360    1.17340    2.00000  500.00000    -999.25   47.95400   47.95400   20.28130   20.28130  500.00000  408.43160  -93.02040  -54.56680  408.43160
 9100.00000    8.34850    8.34850    0.56510    2.00000  500.00000    -999.25   46.60110   46.60110   17.17100   17.17100  500.00000  237.25800  -96.41960  -56.34320  237.25800
 9150.00000    8.29280    8.29280    0.83580    2.00000  500.00000    -999.25   48.66190   48.66190   23.68730   23.68730  500.00000  254.76010  -96.23650  -54.54790  254.76010
 9200.00000    8.31660    8.31660    0.20690    2.12100  471.47050    -999.25   49.45680   49.45680   18.12720   18.12720  471.47050  211.07980 -119.56140  -76.25010  211.07980
 9250.00000    8.47020    8.47020    0.00040    2.00000  500.00000    -999.25   47.27380   47.27380   16.54720   16.54720  500.00000  281.72270 -117.51580  -72.59230  281.72270
 9300.00000    8.45980    8.45980    1.32660    1.99690  500.77340    -999.25   48.67860   48.67860   15.19820   15.19820  500.77340  189.68270 -137.33760  -90.80190  189.68270
 9350.00000    8.49890    8.49890    0.96850    2.76950  361.07720    -999.25   47.86750   47.86750   16.68650   16.68650  361.07720  225.70540 -154.64520 -106.48670  225.70540
 9400.00000    8.54010    8.54010    0.00040    2.62010  381.66830    -999.25   49.83820   49.83820   17.43990   17.43990  381.66830  170.49090 -157.72280 -107.95220  170.49090
 9450.00000    8.56840    8.56840    1.20040    2.50070  399.88440    -999.25   51.15600   51.15600   18.56900   18.56900  399.88440  201.44560 -149.84530  -98.45190  201.44560
 9500.00000    8.61030    8.61030    0.24770    1.98680  503.32190    -999.25   49.04470   49.04470   17.73620   17.73620  503.32190  247.51420 -154.72640 -101.72080  247.51420
 9550.00000    8.58630    8.58630    0.89710    2.00000  500.00000    -999.25   49.61400   49.61400   18.24550   18.24550  500.00000  248.71970 -148.06750  -93.44970  248.71970
 9600.00000    8.44890    8.44890    1.85970    2.00200  499.49450    -999.25   48.25860   48.25860   13.70260   13.70260  499.49450  188.20480 -147.38070  -91.14020  188.20480
 9650.00000    8.52010    8.52010    3.69050    3.15060  317.39620    -999.25   50.92470   50.92470   19.64650   19.64650  317.39620  134.58580 -153.39030  -95.53760  134.58580
 9700.00000    8.01820    8.01820    2.00190    3.50420  285.37460   50.28980   52.29270   52.29270   13.42780   13.42780  285.37460  126.61960 -140.70720  -81.23170  126.61960
 9750.00000    7.66250    7.66250   13.09860   12.80500   78.09430   46.82490   46.68410   46.68410   18.09390   18.09390   78.09430  120.92720 -164.89360 -103.80590  120.92720
 9800.00000    6.79580    6.79580   36.03420   37.22380   26.86450   50.21220   54.49230   54.49230   20.81290   20.81290   26.86450   83.22040 -187.39510 -124.69520   83.22040
 9850.00000    7.38010    7.38010   17.51170   18.08260   55.30180   47.77710   49.57170   49.57170   22.41630   22.41630   55.30180  119.84370 -214.82080 -150.49820  119.84370
 9900.00000    8.27090    8.27090    2.35110    1.99440  501.41080   44.68860   47.92140   47.92140   10.13060   10.13060  501.41080  175.65030 -219.10110 -153.16630  175.65030
 9950.00000    7.94650    7.94650    0.00040    2.00000  500.00000   50.37470   49.61050   49.61050   21.80390   21.80390  500.00000  346.32920 -212.65160 -145.09400  346.32920
 10000.00000    7.91870    7.91870    0.00040    2.00000  500.00000   51.29630   55.23750   55.23750   28.04760   28.04760  500.00000  355.89030 -210.50080 -141.33100  355.89030
 10050.00000    8.34230    8.34230    2.24300    2.00000  500.00000    -999.25   47.46890   47.46890   30.45400   30.45400  500.00000  311.38490 -188.23920 -117.45730  311.38490
 10100.00000    8.29290    8.29290    1.02880    2.00000  500.00000    -999.25   48.30480   48.30480   28.12860   28.12860  500.00000  418.61880 -174.84290 -102.43820  418.61880
 10150.00000    8.36390    8.36390    0.00040    2.00000  500.00000    -999.25   48.23690   48.23690   24.66780   24.66780  500.00000  373.09770 -164.50270  -90.48580  373.09770
