~Version ---------------------------------------------------
VERS.      2.0 : CWLS log ASCII Standard -VERSION 2.0
WRAP.       NO : One line per depth step
CREA. 06/24/13 : LAS Creation Date
~Well ------------------------------------------------------
STRT.FT                      1300.0 : START DEPTH
STOP.FT                     10750.0 : STOP DEPTH
STEP.FT                    50.00000 : STEP LENGTH
NULL.                       -999.25 : NULL VALUE
COMP.        PHILLIPS PETROLEUM CO. : COMPANY
WELL. PHILLIPS ATIKAMEG 10-17-65-19 : WELL
FLD .                            WC : FIELD
LOC .                               : LOCATION
CTRY.                        CANADA : COUNTRY
SRVC.                         Welex : SERVICE COMPANY
DATE.                   13-Apr-1959 : LOGDATE
PROV.                       Alberta : PROVINCE
UWI .              100101706519W500 : UNIQUE WELL ID
SLAT.WGS84                 54.62711 : SURFACE LATITUDE
SLON.WGS84                -116.8324 : SURFACE LONGITUDE
~Curve Information -----------------------------------------
DEPT.FT    : DEPTH FEET
GRN .CPS   : GAMMA RAY FROM NEUTRON LOG
LAT9.OHMM  : LATERAL 9" FROM RESISTIVITY LOG
LT16.OHMM  : LATERAL 16"FROM RESISTIVITY LOG
MCAL.IN    : MICROLOG CALIPER FROM ML LOG
NEUT.CPS   : NEUTRON FROM NEUTRON LOG
SN  .OHMM  : SHORT NORMAL 18" FROM RESISTIVITY LOG
SPR .MV    : SPONTANEOUS POTENTIAL FROM RESISTIVITY LOG
~Params ----------------------------------------------------
PD  .                                      CSF : PERMANENT DATUM
LMF .                                       KB : LOG MEASURED FROM
DAPD.FT                                     14 : FEET ABOVE PERMANENT DATUM
DMF .                                       KB : DRILLING MEASURED FROM
EKB .FT                                   2439 : KELLY BUSHING
EDF .FT                                 2436.5 : DRILLING FLOOR
EGL .FT                                   2426 : GROUND LEVEL
DATE.                                        1 : RUN DATE
RUN .                                 04/13/59 : RUN NUMBER
DD  .FT                                  10752 : DEPTH DRILLER
DL  .FT                                  10755 : DEPTH LOGGER
BLI .FT                                  10754 : BOTTOM LOG INTERVAL
TLI .FT                                   1303 : TOP LOG INTERVAL
CS  .IN                                 13.375 : CASING SIZE
CBD .FT                                   1304 : CASING BOTTOM DRILLER
CBL .FT                                   1303 : CASING BOTTOM LOGGER
BS  .IN                                      9 : BIT SIZE
BSD .FT                                  10752 : BIT SIZE AT DEPTH
DFT . OIL EMULSION GEL CAUSTIC RAYFLO DRISCOSE : DRILLING FLUID TYPE
DFD .                                     10.3 : DRILLING FLUID DENSITY
DFV .                                      144 : DRILLING FLUID VISCOSITY
DFPH.                                      9.5 : DRILLING FLUID PH
DFL .                                      4.8 : DRILLING FLUID LOSS
MSS .                               CIRCULATED : MUD SAMPLE SOURCE
RMS .OHMM                                  2.8 : RESISTIVITY MUD SAMPLE
MST .DEGF                                   60 : MUD SAMPLE TEMPERATURE
RMF .OHMM                                 1.46 : RESISTIVITY MUD FILTRATE SAMPLE
MFST.DEGF                                   70 : MUD FILTRATE SAMPLE TEMPERATURE
RMC .OHMM                                  2.6 : RESISTIVITY MUD CAKE
MCST.DEGF                                   68 : MUD CAKE SAMPLE TEMPERATURE
RMB .OHMM                                  2.8 : RESISTIVITY MUD AT BHT
ENGI.                                   FOWLER : RECORDING ENGINEER
WITN.                           HUNTER HANKINS : WITNESSED BY
CLNT.                                  A2DTECH : CLIENT CODE
ORIG.                              2" 5" PRINT : ORIGIN OF DATA
UWI .                         100101706519W500 : UNIQUE WELL ID
DICO.                   A2D Technologies, Inc. : DIGITIZING COMPANY
~Other -----------------------------------------------------
~ASCII -----------------------------------------------------
# ...
 5800.00000   95.69380   12.19540    8.35950   12.19760  418.13070   10.25660  -72.30080
 5850.00000   86.78850   23.41280   12.37460   11.24930  436.56150   15.53730  -84.22400
 5900.00000  108.40910   20.70300   18.93030   12.07470  405.16350   10.70750  -63.49410
 5950.00000   41.62840   25.48910    7.47680    9.82880  515.04800   36.92990 -178.82950
 6000.00000   50.45060  109.44630   64.96750   10.02050  501.55490   29.72260 -109.62560
 6050.00000   48.79850  350.24940  348.88920    9.71380  394.35610   51.61350 -158.29170
 6100.00000   48.87720   52.58460   29.55170   11.01610  585.12790   36.55150  -98.91330
 6150.00000   68.16410  117.27830  116.37600   10.95620  567.25470   50.00240  -66.70980
 6200.00000   35.97630  110.64960  146.27930   10.30680  615.87270   72.41650  -77.61300
 6250.00000   58.09090   27.55800   15.72280   10.95100  462.68300   18.82600 -147.62930
 6300.00000   67.01070   70.97700   51.18110   11.25050  439.58500   16.81100 -101.94580
 6350.00000   58.29400   19.06010   23.44200   11.20840  523.08510   27.12990  -91.10880
 6400.00000   31.63600  495.86350  820.43430   10.19510  662.53220  148.20010 -133.40010
 6450.00000   36.72850  237.28150  276.50230   11.13250  574.79700   68.95610 -152.54930
 6500.00000   30.15220  254.38320  370.19930   10.71640  673.04530  102.61370 -132.45270
 6550.00000  107.35010   16.36010   26.06820   10.20870  410.88630   10.38350  -10.70910
 6600.00000   79.96240    5.25320    5.52020    9.94190  428.10130    7.75380  -58.30480
 6650.00000   85.33250    6.74360    6.97520   11.84650  358.68020    5.54710  -45.53010
 6700.00000   71.01440   38.66870   22.02250   10.32410  538.74430   43.62460  -13.50750
 6750.00000   65.50980   37.45540   60.86450   11.72960  451.40910   15.26150  -12.16530
 6800.00000   49.70130  364.11330  504.83740    9.77720  624.63770  113.69180   -6.24760
 6850.00000   53.25140  416.44010  751.47010    9.76510  625.97340  118.28080   -5.77410
 6900.00000   55.33270  220.80250  247.98140   10.04330  566.86250   92.87920   -6.54160
 6950.00000   41.16190  302.31240  443.49680    9.50560  598.14240  231.38950  -39.71690
 7000.00000   75.44930  401.15020  849.95700    9.74570  510.04820   82.13490  -25.58940
 7050.00000   65.20470  154.34840  141.39680    9.80520  527.21840   65.81830  -29.43520
 7100.00000   74.31670  151.56810  130.25680    9.84090  503.48260   60.83590  -31.14750
 7150.00000   48.69340  136.25480  128.93670   11.47500  467.44430   80.85460  -34.43310
 7200.00000  199.88310   43.90950   73.06870    9.60970  382.91570   34.75720  -11.84040
 7250.00000   30.43950  527.50240  797.05240    9.66570  684.26570  228.25250  -61.52300
 7300.00000   34.06030  341.23720  677.07450    9.72280  673.12780  214.62430  -61.67150
 7350.00000   36.47270  418.16370  976.35250   10.01700  691.00680  177.05240  -57.71460
 7400.00000   31.88720  364.68190  837.86290   10.92550  564.98430  189.27380  -74.56760
 7450.00000   31.31430  449.84690  820.03630   10.11930  669.51340  196.19780  -71.50930
 7500.00000   19.94740  409.47100  861.70580   10.49260  704.43120  139.16320 -100.29110
 7550.00000   22.02980  323.98650  473.75820   10.35340  656.52270  168.62110 -100.03410
 7600.00000   21.67210  287.28080  562.24800   10.73100  636.95230  153.36760 -113.80200
 7650.00000   25.47420  594.12020 1478.71010   10.77500  643.86560  198.42990 -131.75980
 7700.00000   21.24360  298.72600  552.14500   10.70130  631.48550  204.96730 -141.70190
 7750.00000   27.30340  335.59800  787.50600   10.57700  615.91860  200.31980 -148.10430
 7800.00000   22.98880  407.09530  793.88280   10.32860  629.80820  141.95230 -159.26700
 7850.00000    -999.25  283.78780  345.81880    9.69100  633.76370   92.01160 -130.86840
 7900.00000    -999.25  234.89010  295.17480    9.18480  682.90560   77.75510 -206.64150
 7950.00000   29.70860  306.01310  371.79340   10.49610  653.45540  144.97800 -138.53730
 8000.00000   39.27220  263.31340  143.29340    9.72740  558.44930   66.90760 -112.97720
 8050.00000   26.09810  282.58760  438.85400    9.41390  438.39140  138.77820 -143.76140
 8100.00000   37.73140   21.95720   48.88000    9.72820  554.07290   28.74410 -109.17210
 8150.00000   40.83330  316.98770  436.03940    9.80800  639.21070  131.03440  -52.58310
 8200.00000   55.44460  191.59190  241.99360    9.84910  565.61310   60.98750  -44.04270
 8250.00000   52.60520   67.64600   61.04870    9.80450  498.11940   39.68440  -55.45890
 8300.00000   29.97050  379.46120  522.79610    9.84780  688.79640  203.75730  -99.35190
 8350.00000   30.94660  308.78970  405.11070    9.69810  543.53190   75.07740 -117.72400
 8400.00000   29.52030  291.42220  201.01430    9.76660  554.76870   90.51900 -132.54440
 8450.00000   63.64870   13.99870   10.59860   11.68700  349.74460    9.86520 -144.56900
 8500.00000   89.27280    6.57750    7.88120   12.70950  296.45970    3.84210 -176.84490
 8550.00000  103.49930    4.27220    5.16410   12.74160  289.33830    3.30960 -193.73640
 8600.00000   92.78400    4.97450    6.54780   13.64230  288.33470    3.38180 -183.90510
 8650.00000   70.82410    5.39210    6.51660   14.79170  272.91090    3.21500 -176.55770
 8700.00000   86.73750    4.28070    5.37530   14.76940  281.26350    2.61760 -146.02990
 8750.00000   79.37650    4.64700    6.40650   14.82830  267.91920    2.95750 -125.88460
 8800.00000   83.64900    4.24820    5.77390   14.24450  272.67380    3.77660 -123.87500
 8850.00000   70.63160   22.86690   21.10310   11.16080  407.09530   13.24470 -123.36400
 8900.00000   78.06100   20.50370   14.27830   10.67120  398.11320   12.92590 -114.85650
 8950.00000   83.74480   12.02200   10.66150   10.47440  392.64990   10.51010 -108.23610
 9000.00000   72.96630   16.77580   13.20930   10.39340  409.59850   17.42450 -101.21760
 9050.00000   86.99430   10.29780   11.08420   11.25690  360.25830    9.29290  -92.39460
 9100.00000   90.17750    9.93310   11.25790   12.13420  305.28770    6.47170  -76.56540
 9150.00000   61.50850    9.16760    8.93270   10.18730  432.77860   12.89040  -50.38460
 9200.00000   89.73300    9.63150    9.15290   11.38310  320.10640    8.91370  -35.20080
 9250.00000   83.59080  298.89460  244.49660    9.66020  400.76080  112.56950  -13.70850
 9300.00000  157.56000  250.03800  337.73810    9.58570  346.97050   45.34070   -2.23870
 9350.00000   55.96730   65.09120   56.97550    9.76230  463.39180   27.79120   -3.90620
 9400.00000  109.79210   23.67460   29.54170   11.18360  295.46410   18.04940  -13.21350
 9450.00000   64.14470  155.69870  173.11090    9.90330  342.10690   28.58140  -46.20900
 9500.00000   31.74810   80.74760   32.57730   10.01320  466.75500   42.53400  -42.55410
 9550.00000   22.90240   28.85890   25.61550    9.59980  582.31020   57.08000  -33.70570
 9600.00000   36.33660  362.68190  304.87040    9.57420  512.74570   68.27100  -30.33690
 9650.00000   43.52990  153.95870   80.48780    9.63850  476.34550   84.03300  -26.58180
 9700.00000   20.62000  327.57290  303.39770    9.51980  648.94310  178.55670  -38.21460
 9750.00000    -999.25  167.36280  378.34860   10.38810  608.10990  139.58770  -77.33680
 9800.00000  132.01930  210.95950  434.23770    9.64540  307.48280   34.73230   -6.56950
 9850.00000  121.02940    1.75660    3.56180    9.16120  369.77190   40.35610  -20.62220
 9900.00000  116.92120   93.47650   30.39110    8.62700  466.76440   46.74250  -83.66190
 9950.00000  137.38760   22.98950    7.08430    8.55680  462.84720   18.66350 -104.68090
 10000.00000   39.15110   26.68570    5.60610    9.33630  518.61940   28.28790  -79.82000
 10050.00000  132.50520   37.73580   26.91550    9.48470  464.41220   29.71940  -16.73190
 10100.00000  143.01680   21.40990   21.85740   13.59910  287.07370    8.01580  -17.78890
 10150.00000  143.61110   17.41210   15.75100   14.70470  270.19950    6.58370  -27.10670
 10200.00000   94.41000   25.07060   25.06150   12.57980  270.17350   14.50230  -25.68810
 10250.00000   85.79470  123.32790  125.92120    9.29920  363.94560   24.51290  -52.51070
