~Version ---------------------------------------------------
VERS.      2.0 : CWLS log ASCII Standard -VERSION 2.0
WRAP.       NO : One line per depth step
CREA. 11/21/17 : LAS Creation Date
~Well ------------------------------------------------------
STRT.FT                             1050.0 : START DEPTH
STOP.FT                            10400.0 : STOP DEPTH
STEP.FT                           50.00000 : STEP LENGTH
NULL.                              -999.25 : NULL VALUE
COMP.               CHEVRON CANADA LIMITED : COMPANY
WELL. CHEVRON GULF ET AL FOXCK 10-21-62-18 : WELL
FLD .                                      : FIELD
LOC .                                      : LOCATION
CTRY.                               CANADA : COUNTRY
SRVC.                         Schlumberger : SERVICE COMPANY
DATE.                          28-Apr-1976 : LOGDATE
PROV.                              Alberta : PROVINCE
UWI .                     102102106218W500 : UNIQUE WELL ID
SLAT.WGS84                        54.37974 : SURFACE LATITUDE
SLON.WGS84                       -116.6321 : SURFACE LONGITUDE
~Curve Information -----------------------------------------
DEPT    .FT    : Depth Curve
CALDED  .IN    : CALIPER FROM DENSITY LOG
CALSED  .IN    : CALIPER FROM SONIC LOG
CALWS   .IN    : CALIPER [CALSED SPL. TO CALDED @ 10384']
CONDWS  .MMHO  : CONDUCTIVITY [1000/DRESWS]
DCORED  .G/C3  : DENSITY CORRECTION FROM DENSITY LOG
DCORWS  .G/C3  : DENSITY CORRECTION [DCORED]
DENWS   .G/C3  : FORMATION BULK DENSITY [RHOBED]
DPHILSED.V/V   : DENSITY POROSITY LIMESTONE [M=2.71, F=1.00] FROM DENSITY LOG
DPHISSED.V/V   : DENSITY POROSITY SANDSTONE [M=2.65, F=1.00] FROM DENSITY LOG
DPOLSWS .V/V   : DENSITY POROSITY LIMESTONE [CALC. FROM DENWS M=2.71, F=1.00]
DRESWS  .OHMM  : DEEP RESISTIVITY [ILDED]
DTED    .US/F  : DELTA-T FROM SONIC LOG
DTWS    .US/F  : COMPRESSIONAL SONIC [DTED]
GRDED   .GAPI  : GAMMA RAY FROM DENSITY LOG
GRSED   .GAPI  : GAMMA RAY FROM SONIC LOG
GRWS    .GAPI  : GAMMA RAY [GRSED SPL. TO GRDED@3031M]
ILDED   .OHMM  : DEEP INDUCTION FROM RESISTIVITY LOG
ILMED   .OHMM  : MEDIUM INDUCTION FROM RESISTIVITY LOG
LL8ED   .OHMM  : LATEROLOG-8 FROM RESISTIVITY LOG
MRESWS  .OHMM  : MEDIUM RESISTIVITY [ILMED]
NPHILSED.V/V   : NEUTRON POROSITY  SANDSTONE FROM DENSITY LOG
NPHISSED.V/V   : NEUTRON POROSITY SANDSTONE FROM DENSITY LOG
NPOLSWS .V/V   : NEUTRON POROSITY LIMESTONE [NPHISSED MATRIX CONVERSION FOR LIMESTONE, SPL. TO NPHILSED @ 6545']
RHOBED  .G/C3  : BULK DENSITY FROM DENSITY LOG
SPRED   .MV    : SPONTANEOUS POTENTIAL FROM RESISTIVITY LOG
SPWS    .MV    : SPONTANEOUS POTENTIAL [BASELINE 0 MV,SPRED]
SRESWS  .OHMM  : SHALLOW EWSISTIVITY [LL8ED]
TENDED  .LBF   : TENSION FROM DENSITY LOG
TENSED  .LBF   : TENSION FROM SONIC LOG
~Params ----------------------------------------------------
PD  .                     GL : PERMANENT DATUM
EPD .FT               2869.5 : ELEVATION PERMANENT DATUM
LMF .                     KB : LOG MEASURED FROM
DAPD.FT                 14.5 : FEET ABOVE PERMANENT DATUM
EKB .FT                 2884 : KELLY BUSHING
EGL .FT               2869.5 : GROUND LEVEL
DATE.               04/28/76 : RUN DATE
RUN .                      1 : RUN NUMBER
DD  .FT                10415 : DEPTH DRILLER
DL  .FT                10422 : DEPTH LOGGER
BLI .FT                10416 : BOTTOM LOG INTERVAL
TLI .FT                 1107 : TOP LOG INTERVAL
CBD .FT                 1108 : CASING BOTTOM DRILLER
CBL .FT                 1107 : CASING BOTTOM LOGGER
BS  .IN                 8.75 : BIT SIZE
BSD .FT                10415 : BIT SIZE AT DEPTH
DFT .               GEL CHEM : DRILLING FLUID TYPE
DFD .                    9.4 : DRILLING FLUID DENSITY
DFV .                     72 : DRILLING FLUID VISCOSITY
DFPH.                   10.5 : DRILLING FLUID PH
DFL .                   10.8 : DRILLING FLUID LOSS
MSS .             CIRCULATED : MUD SAMPLE SOURCE
RMS .OHMM               1.66 : RESISTIVITY MUD SAMPLE
MST .DEGF                 60 : MUD SAMPLE TEMPERATURE
RMF .OHMM                1.2 : RESISTIVITY MUD FILTRATE SAMPLE
MFST.DEGF                 60 : MUD FILTRATE SAMPLE TEMPERATURE
RMB .OHMM               0.52 : RESISTIVITY MUD AT BHT
TCS .HRS                 3.5 : TIME CIRCULATED STOPPED
LUN .                   7691 : LOGGING UNIT NUMBER
LUL .                    EDM : LOGGING UNIT LOCATION
ENGI.   CROCKFORD KREZANOSKI : RECORDING ENGINEER
WITN.                   WONG : WITNESSED BY
CLNT.                A2DTECH : CLIENT CODE
ORIG.            2" 5" PRINT : ORIGIN OF DATA
UWI .       102102106218W500 : UNIQUE WELL ID
DICO. A2D Technologies, Inc. : DIGITIZING COMPANY
~Other -----------------------------------------------------
DIL-LL-BHC-CNL-FDC LOG RUN
SCH.- CNL(NPHI) USED FOR NEUTRON MATRIX CONVERSION
~ASCII -----------------------------------------------------
# ...
 8550.00000    9.17760    9.17300    9.17300    3.82560    0.01410    0.01410    2.82780   -0.07050    -999.25   -0.06890  261.39390   48.88470   48.88470   23.42650   22.00610   22.00610  261.39390 1354.96690  909.69120 1354.96690    0.00640    -999.25    0.00640    2.82780  -69.50140  -45.69680  909.69120 1747.43840 1608.82020
 8600.00000   13.12720    9.87720    9.87720   10.03370    0.16260    0.16260    2.34420    0.20170    -999.25    0.21390   99.66450   50.32840   50.32840   17.68890   16.52570   16.52570   99.66450  153.18570  146.75740  153.18570    0.09010    -999.25    0.09010    2.34420  -91.81840  -68.23590  146.75740    -999.25 1457.87550
 8650.00000   12.15780    9.66630    9.66630   10.68400    0.23850    0.23850    2.66730    0.01820    -999.25    0.02500   93.59810   50.28060   50.28060   14.10570   15.45850   15.45850   93.59810  129.00370  117.02870  129.00370    0.04280    -999.25    0.04280    2.66730  -73.29420  -49.93230  117.02870    -999.25  533.13760
 8700.00000    9.34910    9.17920    9.17920    8.34820    0.00730    0.00730    2.72690   -0.01990    -999.25   -0.00990  120.38360   50.88930   50.88930   30.78990   28.24160   28.24160  120.38360  154.63400  285.41980  154.63400    0.00520    -999.25    0.00520    2.72690  -57.91780  -34.77790  285.41980    -999.25  784.42460
 8750.00000    9.32810    9.27040    9.27040    5.81170   -0.00350   -0.00350    2.69000    0.01500    -999.25    0.01170  172.06640   50.92210   50.92210   25.96020   24.99630   24.99630  172.06640  205.11030  303.91710  205.11030    0.00940    -999.25    0.00940    2.69000  -97.65850  -74.73930  303.91710  188.44230  929.86730
 8800.00000   10.11980    9.50210    9.50210    2.01180    0.08590    0.08590    2.66570    0.03630    -999.25    0.02590  497.06320   50.10170   50.10170   22.62100   19.62690   19.62690  497.06320 1281.40110  755.97330 1281.40110    0.00110    -999.25    0.00110    2.66570 -121.65860  -98.96000  755.97330  237.82840 1114.25310
 8850.00000    9.19420    9.09790    9.09790    3.71560    0.02700    0.02700    2.73400   -0.01890    -999.25   -0.01400  269.13730   51.32580   51.32580   22.96090   25.43380   25.43380  269.13730  317.48800  432.29990  317.48800    0.00450    -999.25    0.00450    2.73400 -129.96970 -107.49320  432.29990  685.97550 1286.26730
 8900.00000    9.26070    9.23140    9.23140   17.55050    0.01290    0.01290    2.70240    0.00810    -999.25    0.00440   56.97850   54.38060   54.38060   29.27150   29.39380   29.39380   56.97850   64.73800   79.11320   64.73800    0.01920    -999.25    0.01920    2.70240 -137.82200 -115.56610   79.11320 1060.33250 1490.26250
 8950.00000    9.40160    9.32170    9.32170   28.04660    0.00420    0.00420    2.67410    0.02270    -999.25    0.02100   35.67510   55.10700   55.10700   30.98270   31.96310   31.96310   35.67510   38.45830   46.26580   38.45830    0.02760    -999.25    0.02760    2.67410 -125.09740 -103.06350   46.26580 1537.72440 1050.73310
 9000.00000    9.35470    9.29680    9.29680   31.75620    0.00750    0.00750    2.69930    0.00450    -999.25    0.00630   31.48990   56.25980   56.25980   33.45970   32.63260   32.63260   31.48990   33.56000   43.91840   33.56000    0.02600    -999.25    0.02600    2.69930 -114.44650  -92.63330   43.91840 1819.07130 1155.93130
 9050.00000    9.32020    9.25050    9.25050   63.79540    0.00330    0.00330    2.68270    0.01500    -999.25    0.01600   15.67510   59.56800   59.56800   43.68640   46.01690   46.01690   15.67510   16.57060   22.39030   16.57060    0.04390    -999.25    0.04390    2.68270 -102.55900  -80.96640   22.39030 1776.51580 1272.70550
 9100.00000    9.41160    9.20760    9.20760   41.56660    0.00690    0.00690    2.70190    0.00890    -999.25    0.00470   24.05780   57.19920   57.19920   33.56310   35.66700   35.66700   24.05780   24.99380   35.60060   24.99380    0.02780    -999.25    0.02780    2.70190  -95.60890  -74.23830   35.60060  450.90160 1401.73210
 9150.00000    9.32480    9.25790    9.25790   67.84810    0.00400    0.00400    2.69580   -0.00120    -999.25    0.00830   14.73880   60.77430   60.77430   50.36990   50.81550   50.81550   14.73880   15.30870   21.01130   15.30870    0.07400    -999.25    0.07400    2.69580  -89.86180  -68.71180   21.01130 1148.43010 1685.52180
 9200.00000    9.44530    9.30190    9.30190   88.41000    0.02560    0.02560    2.68550    0.01710    -999.25    0.01430   11.31930   68.79250   68.79250   74.96320   75.81960   75.81960   11.31930   12.02260   14.62090   12.02260    0.14730    -999.25    0.14730    2.68550  -66.29090  -45.36310   14.62090 1420.44360 1256.28810
 9250.00000    9.91020    9.52250    9.52250  117.70520    0.02240    0.02240    2.50480    0.13750    -999.25    0.12000    8.49580   65.82420   65.82420   69.78350   71.55940   71.55940    8.49580    8.82510   11.89800    8.82510    0.13430    -999.25    0.13430    2.50480  -71.53990  -50.83260   11.89800 1595.19460 1475.29310
 9300.00000   14.57530   12.59180   12.59180  231.68530    0.18530    0.18530    2.31430    0.23040    -999.25    0.23140    4.31620   77.63020   77.63020   81.65580   82.64460   82.64460    4.31620    4.58640    5.75350    4.58640    0.25090    -999.25    0.25090    2.31430  -60.27710  -39.79040    5.75350 1062.32480 1229.11760
 9350.00000   13.27110   11.13850   11.13850  197.85920    0.22400    0.22400    2.21530    0.29660    -999.25    0.28930    5.05410   76.67520   76.67520   77.90030   79.06590   79.06590    5.05410    5.39300    6.94950    5.39300    0.24120    -999.25    0.24120    2.21530  -72.93600  -52.67140    6.94950 2218.76820 1789.42730
 9400.00000    9.63930    9.28310    9.28310   67.44090    0.05410    0.05410    2.68080    0.02200    -999.25    0.01710   14.82780   63.49400   63.49400   63.53980   63.69090   63.69090   14.82780   15.93620   22.50790   15.93620    0.07860    -999.25    0.07860    2.68080  -44.81170  -24.76770   22.50790 1259.97050  823.18310
 9450.00000    9.41110    9.28370    9.28370   96.49480    0.01730    0.01730    2.70790    0.00240    -999.25    0.00120   10.36340   66.96750   66.96750   80.97770   82.18820   82.18820   10.36340   10.76420   14.46830   10.76420    0.14260    -999.25    0.14260    2.70790  -25.11200   -6.99810   14.46830 1557.24370 1191.57750
 9500.00000    9.32960    9.18000    9.18000   96.80640    0.03610    0.03610    2.69950    0.01590    -999.25    0.00610   10.32990   66.82170   66.82170   71.44120   75.81670   75.81670   10.32990   10.74680   14.18010   10.74680    0.13570    -999.25    0.13570    2.69950  -49.33080  -45.10210   14.18010 1821.22410 1549.03850
 9550.00000   10.30340    9.28580    9.28580  130.57730    0.17040    0.17040    2.67690    0.01310    -999.25    0.01940    7.65830   71.50990   71.50990   91.04310   92.56750   92.56750    7.65830    8.05800   10.73560    8.05800    0.17300    -999.25    0.17300    2.67690  -17.75850  -27.41500   10.73560 4046.79570 1691.31750
 9600.00000   10.26820    9.13070    9.13070  125.13770    0.12510    0.12510    2.65940    0.02880    -999.25    0.02960    7.99120   73.60000   73.60000   93.69280   91.95300   91.95300    7.99120    8.78110   10.38860    8.78110    0.17830    -999.25    0.17830    2.65940    3.67520  -18.03080   10.38860   43.28710  730.59870
 9650.00000    9.48670    9.18820    9.18820  111.73560    0.12490    0.12490    2.68820   -0.00490    -999.25    0.01270    8.94970   68.64510   68.64510   74.95110   78.01460   78.01460    8.94970    9.31240   12.04900    9.31240    0.14380    -999.25    0.14380    2.68820  -10.40780  -31.35400   12.04900  345.12200 1089.53660
 9700.00000    9.18080    8.91810    8.91810  100.37940    0.01990    0.01990    2.72070   -0.00840    -999.25   -0.00630    9.96310   68.61050   68.61050   75.89640   74.21600   74.21600    9.96310   10.37470   13.61510   10.37470    0.13160    -999.25    0.13160    2.72070   -8.90050  -29.08190   13.61510 1641.19580 1316.91880
 9750.00000    9.06110    8.82250    8.82250    2.14970    0.03710    0.03710    2.57390    0.08130    -999.25    0.07960  465.17780   71.97150   71.97150  104.70310   99.68550   99.68550  465.17780 1137.44800 1701.63700 1137.44800    0.13550    -999.25    0.13550    2.57390  -34.58900  -54.01050 1701.63700  482.66780 1162.31350
