~Version ---------------------------------------------------
VERS.      2.0 : CWLS log ASCII Standard -VERSION 2.0
WRAP.       NO : One line per depth step
CREA. 09/28/17 : LAS Creation Date
~Well ------------------------------------------------------
STRT.FT                          850.0 : START DEPTH
STOP.FT                        10000.0 : STOP DEPTH
STEP.FT                       50.00000 : STEP LENGTH
NULL.                          -999.25 : NULL VALUE
COMP. SOCONY MOBIL OIL OF CANADA, LTD. : COMPANY
WELL.         MOBIL MCLEOD 12-33-55-13 : WELL
FLD .                               WC : FIELD
LOC .                                  : LOCATION
CTRY.                           CANADA : COUNTRY
SRVC.                     Schlumberger : SERVICE COMPANY
DATE.                      15-Feb-1963 : LOGDATE
PROV.                          Alberta : PROVINCE
UWI .                 100123305513W500 : UNIQUE WELL ID
SLAT.WGS84                    53.79757 : SURFACE LATITUDE
SLON.WGS84                   -115.8798 : SURFACE LONGITUDE
~Curve Information -----------------------------------------
DEPT  .FT    : Depth Curve
CALWS .IN    : CALIPER [MCALED]
CILDED.MMHO  : CONDUCTIVITY FROM RESISTIVITY LOG
CONDWS.MMHO  : CONDUCTIVITY [1000/DRESWS]
DRESWS.OHMM  : DEEP RESISTIVITY [1000/CILDED IF ILDED <=5, ILDED]
DT2ED .us/m  : DELTA TIME FROM SONIC LOG
DTED  .US/F  : DELTA TIME FROM SONIC LOG
DTWS  .US/F  : COMPRESSIONAL SONIC [DTED]
GRSED .GAPI  : GAMMA RAY FROM SONIC LOG
GRWS  .GAPI  : GAMMA RAY [GRSED]
ILDED .OHMM  : DEEP INDUCTION RESISTIVITY FROM RESISTIVITY LOG
MCALED.IN    : CALIPER FROM MICROLOG
SNED  .OHMM  : 16 INCH SHORT NORMAL RESISTIVITY FROM RESISTIVITY LOG
SPRED .MV    : SPONTANEOUS POTENTIAL FROM RESISTIVITY LOG
SPWS  .MV    : SPONTANEOUS POTENTIAL [BASELINE 0 MV, SPRED]
SRESWS.OHMM  : SHALLOW RESISTIVITY [SNED]
~Params ----------------------------------------------------
LMF .                     KB : LOG MEASURED FROM
EKB .FT                 2772 : KELLY BUSHING
DATE.               02/15/63 : RUN DATE
RUN .                      3 : RUN NUMBER
DD  .FT                10056 : DEPTH DRILLER
DL  .FT                10051 : DEPTH LOGGER
BLI .FT                10050 : BOTTOM LOG INTERVAL
TLI .FT                 9500 : TOP LOG INTERVAL
CBD .FT                 1020 : CASING BOTTOM DRILLER
BS  .IN                    9 : BIT SIZE
BSD .FT                10056 : BIT SIZE AT DEPTH
DFT .       CAUSTIC Q BROXIN : DRILLING FLUID TYPE
DFD .                    9.5 : DRILLING FLUID DENSITY
DFV .                    123 : DRILLING FLUID VISCOSITY
DFPH.                   10.5 : DRILLING FLUID PH
DFL .                    5.6 : DRILLING FLUID LOSS
RMF .OHMM               1.23 : RESISTIVITY MUD FILTRATE SAMPLE
MFST.DEGF                 64 : MUD FILTRATE SAMPLE TEMPERATURE
RMC .OHMM                1.9 : RESISTIVITY MUD CAKE
MCST.DEGF                 59 : MUD CAKE SAMPLE TEMPERATURE
TCS .HRS                 300 : TIME CIRCULATED STOPPED
LUN .                   3534 : LOGGING UNIT NUMBER
LUL .                     WC : LOGGING UNIT LOCATION
ENGI.               HATLELID : RECORDING ENGINEER
WITN.                MCMANUS : WITNESSED BY
CLNT.                A2DTECH : CLIENT CODE
ORIG.            2" 5" PRINT : ORIGIN OF DATA
UWI .       100123305513W500 : UNIQUE WELL ID
DICO. A2D Technologies, Inc. : DIGITIZING COMPANY
~Other -----------------------------------------------------
IEL-SONIC LOG RUN
SP SLIGHTLY AFFECTED BY TELLURIC CURRENTS
~ASCII -----------------------------------------------------
# ...
 5450.00000   12.49620  158.84430  159.08620    6.28590    -999.25   92.94730   92.94730   87.26360   87.26360    6.28590   12.49620    8.40950  -32.24260   -1.71400    8.40950
 5500.00000   12.87840  165.96730  165.86220    6.02910    -999.25  105.74700  105.74700   94.04910   94.04910    6.02910   12.87840    8.28830  -32.14670   -1.99130    8.28830
 5550.00000    9.41740  228.83170  228.83170    4.37000    -999.25  105.44030  105.44030   77.50580   77.50580    4.15820    9.41740    6.39600  -29.53720    0.24500    6.39600
 5600.00000   11.78290  195.19840  193.18820    5.17630    -999.25   93.37550   93.37550   74.05110   74.05110    5.17630   11.78290    5.99290  -30.69890   -1.28990    5.99290
 5650.00000   12.42250  242.16610  242.16610    4.12940    -999.25   96.86630   96.86630   88.34000   88.34000    4.03570   12.42250    5.14740  -30.00840   -0.97250    5.14740
 5700.00000    8.68990   86.31330   80.28000   12.45640    -999.25   78.63220   78.63220   49.61380   49.61380   12.45640    8.68990   21.77670  -75.75290  -47.09020   21.77670
 5750.00000    9.66410   61.17590   55.80200   17.92050    -999.25   75.03340   75.03340   64.47650   64.47650   17.92050    9.66410   21.26160  -31.38680   -3.09730   21.26160
 5800.00000   11.01720   96.95510   93.81220   10.65960    -999.25   78.13190   78.13190   41.02240   41.02240   10.65960   11.01720   10.96890  -35.22360   -7.30730   10.96890
 5850.00000   10.04050   84.16760   81.50820   12.26870    -999.25   73.62840   73.62840   56.43390   56.43390   12.26870   10.04050   15.54410  -31.43860   -3.92820   15.54410
 5900.00000   11.05310   62.32780   56.60050   17.66770    -999.25   81.53700   81.53700   60.61460   60.61460   17.66770   11.05310   18.78750  -31.41690   -4.39680   18.78750
 5950.00000    9.75370   71.62020   68.68320   14.55960    -999.25   74.12880   74.12880   83.28350   83.28350   14.55960    9.75370   22.55730  -32.74150   -6.21180   22.55730
 6000.00000   12.26300   54.99700   52.32560   19.11110    -999.25  107.55280  107.55280   75.69030   75.69030   19.11110   12.26300   31.70160  -28.70240   -5.46600   31.70160
 6050.00000   10.51100   61.09480   56.45030   17.71470    -999.25   82.70800   82.70800   75.50210   75.50210   17.71470   10.51100   21.92530  -23.12490   -3.60070   21.92530
 6100.00000    9.58520   53.96890   50.02280   19.99090    -999.25   67.87930   67.87930   74.56130   74.56130   19.99090    9.58520   32.27060  -38.17340  -19.64430   32.27060
 6150.00000   10.26900  107.72940  107.53610    9.29920    -999.25   84.92600   84.92600   74.25770   74.25770    9.29920   10.26900   22.82880  -24.29120   -5.66240   22.82880
 6200.00000    9.92230  134.55330  137.17800    7.28980    -999.25   74.72450   74.72450   52.99250   52.99250    7.28980    9.92230   12.04850  -48.53680  -29.20670   12.04850
 6250.00000   10.16000   92.68580   88.13830   11.34580    -999.25   75.69850   75.69850   46.27860   46.27860   11.34580   10.16000   12.28320  -35.00030  -14.96890   12.28320
 6300.00000   11.97000  101.58810   95.65620   10.45410    -999.25   73.93670   73.93670   65.63120   65.63120   10.45410   11.97000   11.83810  -26.63630   -6.19230   11.83810
 6350.00000   10.09240   81.49040   78.96770   12.66340    -999.25   73.12400   73.12400   71.18140   71.18140   12.66340   10.09240   16.45990  -23.27520   -3.28480   16.45990
 6400.00000    9.60240   52.11880   46.39400   21.55450    -999.25   77.65530   77.65530   68.24760   68.24760   21.55450    9.60240   40.92450  -27.77150   -8.23470   40.92450
 6450.00000    9.61950   35.52660   32.39120   30.87260    -999.25   65.89550   65.89550   62.16880   62.16880   30.87260    9.61950   42.93370  -25.70780   -6.62470   42.93370
 6500.00000    9.68440   67.58590   65.49130   15.26920    -999.25   76.48250   76.48250   98.65410   98.65410   15.26920    9.68440   29.52680  -26.96690   -8.33740   29.52680
 6550.00000   10.81600   97.99960   95.83410   10.43470    -999.25   75.01400   75.01400   75.75090   75.75090   10.43470   10.81600   16.23280  -21.76670   -3.56870   16.23280
 6600.00000    8.52280  155.32830  149.50360    6.68880    -999.25   67.63730   67.63730   62.91150   62.91150    6.68880    8.52280   39.56540 -128.02430 -109.72590   39.56540
 6650.00000    9.02610    7.54710    6.12080  163.37640    -999.25   72.31450   72.31450    9.37940    9.37940  163.37640    9.02610  232.28240  -65.21290  -46.81420  232.28240
 6700.00000    8.99820    4.37620    2.78150  359.52380    -999.25   58.73580   58.73580   33.44070   33.44070  359.52380    8.99820  235.58820  -34.85280  -16.35380  235.58820
 6750.00000    9.03920    4.20230    3.60720  277.22140    -999.25   72.14750   72.14750  198.12890  198.12890  277.22140    9.03920  235.73790  -42.28350  -23.68420  235.73790
 6800.00000    8.47400  132.69560  152.47620    6.55840    -999.25   59.90770   59.90770   20.00350   20.00350    6.55840    8.47400   33.05580 -149.13210 -130.43250   33.05580
 6850.00000    9.22890   99.43050  105.05190    9.51910    -999.25   78.13080   78.13080   11.82440   11.82440    9.51910    9.22890   42.96460 -151.25170 -132.45180   42.96460
 6900.00000    8.37420  455.02910  455.02910    2.19770    -999.25   60.72550   60.72550   12.64480   12.64480    2.02610    8.37420   20.27630 -162.57610 -143.67580   20.27630
 6950.00000    8.62410  156.19890  152.85850    6.54200    -999.25   67.52830   67.52830   65.55200   65.55200    6.54200    8.62410    7.19270  -41.57490  -22.57430    7.19270
 7000.00000   10.03770   74.62770   75.51500   13.24240    -999.25   59.69180   59.69180   61.20190   61.20190   13.24240   10.03770   20.37430  -60.53970  -41.43880   20.37430
 7050.00000   10.81260  114.48360  122.66630    8.15220    -999.25   58.08400   58.08400   45.87870   45.87870    8.15220   10.81260   16.29900  -62.86080  -43.65960   16.29900
 7100.00000   10.66550   21.51150   23.20190   43.10000    -999.25   55.51700   55.51700   18.90540   18.90540   43.10000   10.66550   66.59810  -47.21610  -27.91460   66.59810
 7150.00000    9.76830   28.89760   30.18320   33.13100    -999.25   54.50200   54.50200   29.51200   29.51200   33.13100    9.76830   45.24570  -35.46580  -16.34260   45.24570
 7200.00000    9.56960   23.43580   24.12030   41.45890    -999.25   53.83550   53.83550   24.22620   24.22620   41.45890    9.56960   53.91670  -68.35140  -50.19950   53.91670
 7250.00000    9.49740   19.56750   20.03940   49.90160    -999.25   53.54380   53.54380   24.53220   24.53220   49.90160    9.49740   63.18160  -70.01150  -52.83080   63.18160
 7300.00000    9.38690   13.03370   12.90950   77.46260    -999.25   53.17820   53.17820   31.27070   31.27070   77.46260    9.38690   92.67520  -39.27310  -23.06370   92.67520
 7350.00000    9.20900   16.15560   16.04080   62.34110    -999.25   54.59000   54.59000   30.10530   30.10530   62.34110    9.20900   82.56000  -41.24010  -26.00200   82.56000
 7400.00000    9.63100   19.44990   19.10060   52.35450    -999.25   55.52180   55.52180   32.34730   32.34730   52.35450    9.63100   61.98670  -48.65320  -34.38640   61.98670
 7450.00000   11.56470   19.94490   21.33350   46.87460    -999.25   51.10520   51.10520   21.78760   21.78760   46.87460   11.56470   63.70140  -43.02970  -29.73420   63.70140
 7500.00000   10.00470    8.21430    8.89120  112.47060    -999.25   50.01480   50.01480   27.03190   27.03190  112.47060   10.00470  126.57890  -15.74120   -3.41690  126.57890
 7550.00000   11.17280    5.89560    5.76260  173.53130    -999.25   47.46550   47.46550   19.15540   19.15540  173.53130   11.17280  158.68830  -85.50560  -73.27880  158.68830
 7600.00000   10.02840   12.00130   11.29940   88.50050    -999.25   59.12430   59.12430   18.39540   18.39540   88.50050   10.02840  116.80520 -107.96720  -95.80140  116.80520
 7650.00000    9.85220    8.66360    9.61460  104.00870    -999.25   49.91580   49.91580   16.86890   16.86890  104.00870    9.85220  120.84640 -121.83690 -109.73210  120.84640
 7700.00000   10.34160    9.07980   10.21910   97.85620    -999.25   47.69670   47.69670   18.22790   18.22790   97.85620   10.34160  109.81330 -116.11380 -104.07000  109.81330
