~Version ---------------------------------------------------
VERS.      2.0 : CWLS log ASCII Standard -VERSION 2.0
WRAP.       NO : One line per depth step
CREA. 11/10/17 : LAS Creation Date
~Well ------------------------------------------------------
STRT.FT                         1200.0 : START DEPTH
STOP.FT                        11200.0 : STOP DEPTH
STEP.FT                       50.00000 : STEP LENGTH
NULL.                          -999.25 : NULL VALUE
COMP. AMOCO CANADA PETROLEUM CO., LTD. : COMPANY
WELL.    AMOCO A-1 NW ANTE 10-29-66-25 : WELL
FLD .                                  : FIELD
LOC .                                  : LOCATION
CTRY.                           CANADA : COUNTRY
SRVC.           Schlumberger of Canada : SERVICE COMPANY
DATE.                      20-Oct-1973 : LOGDATE
PROV.                          Alberta : PROVINCE
UWI .                 100102906625W500 : UNIQUE WELL ID
SLAT.WGS84                    54.74394 : SURFACE LATITUDE
SLON.WGS84                   -117.7384 : SURFACE LONGITUDE
~Curve Information -----------------------------------------
DEPT    .FT    : Depth Curve
CALDED  .IN    : CALIPER FROM DENSITY LOG
CALNED  .IN    : CALIPER FROM NEUTRON LOG
CALSED  .IN    : CALIPER FROM SONIC LOG
CALWS   .IN    : CALIPER [CALSED]
CONDWS  .MMHO  : CONDUCTIVITY [1000/DRESWS]
DCORWS  .G/C3  : DENSITY CORRECTION [DRHOED]
DENWS   .G/C3  : FORMATION BULK DENSITY [RHOBED]
DPHILSED.V/V   : DENSITY POROSITY LIME [M=2.71, F=1.00] FROM DENSITY LOG
DPOLSWS .V/V   : DENSITY POROSITY LIME [M=2.71, F=1.00] [CALCULATED FROM DENWS]
DRESWS  .OHMM  : DEEP RESISTIVITY [ILDED]
DRHOED  .G/C3  : BULK DENSITY CORRECTION FROM DENSITY LOG
DTED    .US/F  : DELTA-T (INTERVAL TRANSIT TIME) FROM SONIC LOG
DTWS    .US/F  : COMPRESSIONAL SONIC [DTED]
GRDED   .GAPI  : GAMMA RAY FROM DENSITY LOG
GRNED   .GAPI  : GAMMA RAY FROM NEUTRON LOG
GRSED   .GAPI  : GAMMA RAY FROM SONIC LOG
GRWS    .GAPI  : GAMMA RAY [GRSED]
ILDED   .OHMM  : DEEP INDUCTION FROM RESISTIVITY LOG
ILMED   .OHMM  : MEDIUM INDUCTION FROM RESISTIVITY LOG
LL8ED   .OHMM  : LATEROLOG8 FROM RESISTIVITY LOG
MRESWS  .OHMM  : MEDIUM RESISTIVITY [ILMED]
NPOLSWS .V/V   : NEUTRON POROSITY LIME [SNPLSED]
RHOBED  .G/C3  : BULK DENSITY FROM DENSITY LOG
SNPLSED .V/V   : SIDEWALL NEUTRON POROSITY LIME FROM NEUTRON LOG
SPRED   .MV    : SPONTANEOUS POTENTIAL FROM RESISTIVITY LOG
SPWS    .MV    : SPONTANEOUS POTENTIAL [BASE LINE 0 MV, SPRED]
SRESWS  .OHMM  : SHALLOW RESISTIVITY [LL8ED]
~Params ----------------------------------------------------
PD  .                     GL : PERMANENT DATUM
EPD .FT               2302.4 : ELEVATION PERMANENT DATUM
LMF .                     KB : LOG MEASURED FROM
DAPD.FT                 17.6 : FEET ABOVE PERMANENT DATUM
EKB .FT               2320.0 : KELLY BUSHING
EGL .FT               2302.4 : GROUND LEVEL
DATE.               10/20/73 : RUN DATE
RUN .                      1 : RUN NUMBER
DD  .FT                11236 : DEPTH DRILLER
DL  .FT                11235 : DEPTH LOGGER
BLI .FT                11234 : BOTTOM LOG INTERVAL
TLI .FT                 6400 : TOP LOG INTERVAL
CS  .IN                9.625 : CASING SIZE
CBD .FT                 1247 : CASING BOTTOM DRILLER
CBL .FT                 1247 : CASING BOTTOM LOGGER
BS  .IN                 8.75 : BIT SIZE
BSD .FT                11236 : BIT SIZE AT DEPTH
DFT .               GEL CHEM : DRILLING FLUID TYPE
DFD .                    9.2 : DRILLING FLUID DENSITY
DFV .                     62 : DRILLING FLUID VISCOSITY
DFPH.                    9.0 : DRILLING FLUID PH
DFL .                   10.2 : DRILLING FLUID LOSS
RMF .OHMM               1.15 : RESISTIVITY MUD FILTRATE SAMPLE
MFST.DEGF                 70 : MUD FILTRATE SAMPLE TEMPERATURE
RMB .OHMM                0.4 : RESISTIVITY MUD AT BHT
TCS .HRS                 4.5 : TIME CIRCULATED STOPPED
LUN .                   7667 : LOGGING UNIT NUMBER
LUL .                    EDM : LOGGING UNIT LOCATION
ENGI.               BENOWSKI : RECORDING ENGINEER
WITN.       SNYDMELLER FRAME : WITNESSED BY
CLNT.                A2DTECH : CLIENT CODE
ORIG.            2" 5" PRINT : ORIGIN OF DATA
UWI .       100102906625W500 : UNIQUE WELL ID
DICO. A2D Technologies, Inc. : DIGITIZING COMPANY
~Other -----------------------------------------------------
~ASCII -----------------------------------------------------
# ...
 5100.00000    -999.25    -999.25   10.31460   10.31460   85.24350    -999.25    -999.25    -999.25    -999.25   11.73110    -999.25   74.92390   74.92390    -999.25    -999.25   78.05070   78.05070   11.73110   10.95690   13.11270   10.95690    -999.25    -999.25    -999.25  -96.61300  -26.41370   13.11270
 5150.00000    -999.25    -999.25    9.55450    9.55450   56.83630    -999.25    -999.25    -999.25    -999.25   17.59440    -999.25   57.76550   57.76550    -999.25    -999.25   43.85180   43.85180   17.59440   19.61000   32.17540   19.61000    -999.25    -999.25    -999.25  -91.48210  -22.98960   32.17540
 5200.00000    -999.25    -999.25   10.53680   10.53680   76.36890    -999.25    -999.25    -999.25    -999.25   13.09730    -999.25   73.49270   73.49270    -999.25    -999.25   56.53490   56.53490   13.09730   14.44130   17.88590   14.44130    -999.25    -999.25    -999.25 -103.30460  -36.52730   17.88590
 5250.00000    -999.25    -999.25    9.76780    9.76780   59.13450    -999.25    -999.25    -999.25    -999.25   16.91060    -999.25   73.60780   73.60780    -999.25    -999.25   42.74630   42.74630   16.91060   12.95690   22.06100   12.95690    -999.25    -999.25    -999.25 -124.07490  -58.99590   22.06100
 5300.00000    -999.25    -999.25   12.38900   12.38900   35.06540    -999.25    -999.25    -999.25    -999.25   28.51810    -999.25  158.17920  158.17920    -999.25    -999.25   31.16360   31.16360   28.51810   23.81910   33.53150   23.81910    -999.25    -999.25    -999.25  -96.30730  -32.93510   33.53150
 5350.00000    -999.25    -999.25   10.60660   10.60660   50.76400    -999.25    -999.25    -999.25    -999.25   19.69900    -999.25   79.23840   79.23840    -999.25    -999.25   99.17360   99.17360   19.69900   20.32650   31.21140   20.32650    -999.25    -999.25    -999.25  -96.31290  -34.64750   31.21140
 5400.00000    -999.25    -999.25   11.29770   11.29770   84.90260    -999.25    -999.25    -999.25    -999.25   11.77820    -999.25   72.16890   72.16890    -999.25    -999.25   72.04530   72.04530   11.77820   12.53010   13.61480   12.53010    -999.25    -999.25    -999.25  -93.18670  -33.22810   13.61480
 5450.00000    -999.25    -999.25   11.69180   11.69180   92.98310    -999.25    -999.25    -999.25    -999.25   10.75550    -999.25   73.30120   73.30120    -999.25    -999.25   76.48070   76.48070   10.75550   10.11110   12.06020   10.11110    -999.25    -999.25    -999.25  -85.49490  -27.25150   12.06020
 5500.00000    -999.25    -999.25   10.94440   10.94440  113.01480    -999.25    -999.25    -999.25    -999.25    8.84840    -999.25   73.87440   73.87440    -999.25    -999.25   70.83700   70.83700    8.84840    7.95580   10.32070    7.95580    -999.25    -999.25    -999.25  -79.98320  -23.43810   10.32070
 5550.00000    -999.25    -999.25   11.02410   11.02410   50.75270    -999.25    -999.25    -999.25    -999.25   19.70340    -999.25   73.36840   73.36840    -999.25    -999.25   59.22590   59.22590   19.70340   13.66160   26.93480   13.66160    -999.25    -999.25    -999.25 -104.08220  -49.24390   26.93480
 5600.00000    -999.25    -999.25    9.89440    9.89440  117.48120    -999.25    -999.25    -999.25    -999.25    8.51200    -999.25   70.42000   70.42000    -999.25    -999.25   61.57140   61.57140    8.51200    7.65690   11.97570    7.65690    -999.25    -999.25    -999.25  -94.32020  -41.18870   11.97570
 5650.00000    -999.25    -999.25   10.51620   10.51620   73.61060    -999.25    -999.25    -999.25    -999.25   13.58500    -999.25   75.91050   75.91050    -999.25    -999.25   88.07240   88.07240   13.58500   12.33190   16.14550   12.33190    -999.25    -999.25    -999.25  -76.39310  -24.96840   16.14550
 5700.00000    -999.25    -999.25   11.50470   11.50470   99.98520    -999.25    -999.25    -999.25    -999.25   10.00150    -999.25   79.49930   79.49930    -999.25    -999.25   85.68370   85.68370   10.00150    8.95960   11.04540    8.95960    -999.25    -999.25    -999.25  -67.04920  -17.33980   11.04540
 5750.00000    -999.25    -999.25   10.84800   10.84800   45.65150    -999.25    -999.25    -999.25    -999.25   21.90510    -999.25   78.13940   78.13940    -999.25    -999.25   80.71620   80.71620   21.90510   15.74710   39.74900   15.74710    -999.25    -999.25    -999.25  -88.28610  -40.27490   39.74900
 5800.00000    -999.25    -999.25   10.53860   10.53860   75.49850    -999.25    -999.25    -999.25    -999.25   13.24530    -999.25   72.33360   72.33360    -999.25    -999.25   57.69060   57.69060   13.24530    9.49250   18.53110    9.49250    -999.25    -999.25    -999.25 -101.86320  -55.55880   18.53110
 5850.00000    -999.25    -999.25   11.04540   11.04540   69.56670    -999.25    -999.25    -999.25    -999.25   14.37470    -999.25   68.54350   68.54350    -999.25    -999.25   89.99080   89.99080   14.37470   13.61560   16.39290   13.61560    -999.25    -999.25    -999.25  -53.14100   -8.67600   16.39290
 5900.00000    -999.25    -999.25   12.23030   12.23030   66.91740    -999.25    -999.25    -999.25    -999.25   14.94380    -999.25  150.56370  150.56370    -999.25    -999.25   49.81450   49.81450   14.94380   11.30130   23.86710   11.30130    -999.25    -999.25    -999.25  -68.28640  -26.08070   23.86710
 5950.00000    -999.25    -999.25   10.85630   10.85630   44.96870    -999.25    -999.25    -999.25    -999.25   22.38220    -999.25   73.84340   73.84340    -999.25    -999.25   99.18280   99.18280   22.38220   25.15390   45.27710   25.15390    -999.25    -999.25    -999.25  -55.02890  -15.09390   45.27710
 6000.00000    -999.25    -999.25    9.92400    9.92400   44.67300    -999.25    -999.25    -999.25    -999.25   22.38490    -999.25   75.33590   75.33590    -999.25    -999.25   47.91320   47.91320   22.38490   21.47920   44.78600   21.47920    -999.25    -999.25    -999.25  -55.13800  -17.45100   44.78600
 6050.00000    -999.25    -999.25    8.90610    8.90610   61.98010    -999.25    -999.25    -999.25    -999.25   16.13420    -999.25   74.60590   74.60590    -999.25    -999.25   32.95770   32.95770   16.13420   12.37610   30.60850   12.37610    -999.25    -999.25    -999.25  -80.97670  -45.54910   30.60850
 6100.00000    -999.25    -999.25   10.96920   10.96920  118.41050    -999.25    -999.25    -999.25    -999.25    8.44520    -999.25   71.35800   71.35800    -999.25    -999.25  104.24910  104.24910    8.44520    8.59590    9.50640    8.59590    -999.25    -999.25    -999.25  -42.72170   -5.52560    9.50640
 6150.00000    -999.25    -999.25    8.90350    8.90350   99.00790    -999.25    -999.25    -999.25    -999.25   10.10020    -999.25   74.92010   74.92010    -999.25    -999.25   40.91720   40.91720   10.10020    5.72060   15.67480    5.72060    -999.25    -999.25    -999.25  -99.07800  -60.00700   15.67480
 6200.00000    -999.25    -999.25    8.59910    8.59910   65.54940    -999.25    -999.25    -999.25    -999.25   15.25940    -999.25   71.34010   71.34010    -999.25    -999.25   40.62750   40.62750   15.25940    8.26070   26.20100    8.26070    -999.25    -999.25    -999.25  -90.51600  -49.64350   26.20100
 6250.00000    -999.25    -999.25   14.56130   14.56130  248.76860    -999.25    -999.25    -999.25    -999.25    4.01980    -999.25   86.99250   86.99250    -999.25    -999.25   92.81650   92.81650    4.01980    3.71210    4.98430    3.71210    -999.25    -999.25    -999.25  -68.19460  -25.53860    4.98430
 6300.00000    -999.25    -999.25   15.00310   15.00310  479.08780    -999.25    -999.25    -999.25    -999.25    2.08730    -999.25  112.31070  112.31070    -999.25    -999.25   76.07500   76.07500    2.08730    1.84270    3.52190    1.84270    -999.25    -999.25    -999.25  -68.11330  -23.66480    3.52190
 6350.00000    -999.25    -999.25    9.23600    9.23600    0.92090    -999.25    -999.25    -999.25    -999.25 1085.95100    -999.25   96.91820   96.91820    -999.25    -999.25  247.20360  247.20360 1085.95100 1607.15690 1787.96660 1607.15690    -999.25    -999.25    -999.25  -77.87320  -31.63220 1787.96660
