~Version ---------------------------------------------------
VERS.      2.0 : CWLS log ASCII Standard -VERSION 2.0
WRAP.       NO : One line per depth step
CREA. 11/20/17 : LAS Creation Date
~Well ------------------------------------------------------
STRT.FT                         1450.0 : START DEPTH
STOP.FT                        13550.0 : STOP DEPTH
STEP.FT                       50.00000 : STEP LENGTH
NULL.                          -999.25 : NULL VALUE
COMP. AMOCO CANADA PETROLEUM CO., LTD. : COMPANY
WELL.            AMOCO TONY 7-16-62-24 : WELL
FLD .                                  : FIELD
LOC .                                  : LOCATION
CTRY.                           CANADA : COUNTRY
SRVC.                     Schlumberger : SERVICE COMPANY
DATE.                      27-Nov-1977 : LOGDATE
PROV.                          Alberta : PROVINCE
UWI .                 100071606224W500 : UNIQUE WELL ID
SLAT.WGS84                    54.36239 : SURFACE LATITUDE
SLON.WGS84                   -117.5361 : SURFACE LONGITUDE
~Curve Information -----------------------------------------
DEPT    .FT    : Depth Curve
CALDED  .IN    : CALIPER FROM DENSITY LOG [ADJ. TO RESISTIVITY LOG]
CALSED  .IN    : CALIPER FROM  SONIC LOG [ADJ. TO RESISTIVITY LOG]
CALWS   .IN    : CALIPER [CALDED]
CONDWS  .MMHO  : CONDUCTIVITY [1000/DRESWS]
DCORWS  .IN    : DENSITY CORRECTION [DRHOED]
DENWS   .IN    : FORMATION BULK DENSITY [CALC. FROM DPOLSWS M=2.71, F=1.00]
DPHILSED.V/V   : DENSITY POROSITY LIMESTONE [M=2.71, F=1.00] FROM DENSITY LOG [ADJ. TO RESISTIVITY LOG]
DPHISSED.V/V   : DENSITY POROSITY SANDSTONE [M=2.65, F=1.00] FROM DENSITY LOG [ADJ. TO RESISTIVITY LOG]
DPOLSWS .V/V   : DENSITY POROSITY LIMESTONE [DPHISSED MATRIX CONVERSION FOR LS, SPL. TO DPHILSED @8451' & SPL. TO CALC. FROM RHOBED M=2.71, F=1.00]
DRESWS  .OHMM  : DEEP RESISTIVITITY [ILDED]
DRHOED  .IN    : DENSITY CORRECTION FROM DENSITY LOG [ADJ. TO RESISTIVITY LOG]
DTED    .US/F  : DELTA TIME FROM SONIC LOG [ADJ. TO RESISTIVITY LOG]
DTWS    .US/F  : COMPRESSIONAL SONIC [DTED]
GRDED   .GAPI  : GAMMA RAY FROM DENSITY LOG [ADJ. TO RESISTIVITY LOG]
GRSED   .GAPI  : GAMMA RAY FROM SONIC LOG [ADJ. TO RESISTIVITY LOG]
GRWS    .GAPI  : GAMMA RAY [GRSED]
ILDED   .OHMM  : DEEP INDUCTION FROM RESISTIVITY LOG
ILMED   .OHMM  : MEDIUM INDUCTION FROM RESISTIVITY LOG
LL8ED   .OHMM  : 8 INCH LATEROLOG RESISTIVITY FROM RESISTIVITY LOG
MRESWS  .OHMM  : MEDIUM RESISTIVITY [ILMED]
NPHILSED.V/V   : NEUTRON POROSITY LIMESTONE FROM DENSITY LOG [ADJ. TO RESISTIVITY LOG]
NPHISSED.V/V   : NEUTRON POROSITY SANDSTONE FROM DENSITY LOG [ADJ. TO RESISTIVITY LOG]
NPOLSWS .V/V   : NEUTRON POROSITY LIMESTONE [NPHISSED MATRIX CONVERSION FOR LIMESTONE, SPL. TO NPHILSED @ 8424']
RHOBED  .IN    : BULK DENSITY FROM DENSITY LOG [ADJ. TO RESISTIVITY LOG]
SPRED   .MV    : SPONTANEOUS POTENTIAL FROM RESISTIVITY LOG
SPWS    .MV    : SPONTANEOUS POTENTIAL [BASELINE 0 MV,SPRED]
SRESWS  .OHMM  : SHALLOW RESISTIVITY [LL8ED]
~Params ----------------------------------------------------
PD  .                     GL : PERMANENT DATUM
EPD .FT                 5402 : ELEVATION PERMANENT DATUM
LMF .                     KB : LOG MEASURED FROM
DAPD.FT                   17 : FEET ABOVE PERMANENT DATUM
DATE.               11/27/77 : RUN DATE
RUN .                      2 : RUN NUMBER
DD  .FT                13685 : DEPTH DRILLER
DL  .FT                13579 : DEPTH LOGGER
BLI .FT                13573 : BOTTOM LOG INTERVAL
TLI .FT                 8448 : TOP LOG INTERVAL
CBD .FT                 8448 : CASING BOTTOM DRILLER
CBL .FT                 8448 : CASING BOTTOM LOGGER
BSD .FT                13685 : BIT SIZE AT DEPTH
DFT .                    8.6 : DRILLING FLUID TYPE
DFD .                     86 : DRILLING FLUID DENSITY
CLNT.                A2DTECH : CLIENT CODE
ORIG.          1" 2.5" PRINT : ORIGIN OF DATA
UWI .       100071606224W500 : UNIQUE WELL ID
DICO. A2D Technologies, Inc. : DIGITIZING COMPANY
~Other -----------------------------------------------------
DIL-BHC-CNL-FDC LOG RUN
RHOB & DRHO FROM 2" SCALE
~ASCII -----------------------------------------------------
# ...
 2750.00000   15.22940   12.95990   15.22940  384.91150    0.22160    1.99590    -999.25    0.39640    0.41760    2.59800    0.22160  108.04030  108.04030  113.27140  122.03270  122.03270    2.59800    2.26530    3.00020    2.26530    -999.25    0.45760    0.41610    1.96380  -48.75330   -4.17560    3.00020
 2800.00000   13.14750   12.61550   13.14750  154.84430    0.09500    2.08690    -999.25    0.34130    0.36440    6.45810    0.09500  116.76530  116.76530   88.24550   97.11410   97.11410    6.45810    5.12910    7.57240    5.12910    -999.25    0.57700    0.54150    2.04260  -49.72850   -5.03410    7.57240
 2850.00000   12.38670   12.55680   12.38670  106.73640    0.17340    2.14180    -999.25    0.30800    0.33230    9.36890    0.17340   86.26020   86.26020  101.21250  109.34080  109.34080    9.36890    7.54870    8.64990    7.54870    -999.25    0.41080    0.36810    2.15340  -50.66560   -5.85380    8.64990
 2900.00000   13.08780   12.40550   13.08780  228.20110    0.14060    2.09250    -999.25    0.33790    0.36110    4.38210    0.14060   96.31300   96.31300   98.47580  102.31540  101.66460    4.38210    3.85600    4.68090    3.85600    -999.25    0.44250    0.40060    2.09190  -48.23930   -3.31110    4.68090
 2950.00000   14.85650   12.65420   14.85650  225.42710    0.10310    1.92260    -999.25    0.44080    0.46050    4.43600    0.10310   95.87860   95.87860   94.01760  100.91560  100.80200    4.43600    3.54420    4.70350    3.54420    -999.25    0.47590    0.43500    1.89060  -49.16820   -4.12260    4.70350
 3000.00000   14.41500   12.51690   14.41500  206.22810    0.16270    2.05270    -999.25    0.36200    0.38440    4.84900    0.16270   96.62530   96.62530   94.54350  101.47340  102.38520    4.84900    4.12560    5.03390    4.12560    -999.25    0.43160    0.38940    2.06480  -50.12460   -4.96240    5.03390
 3050.00000   11.83490   12.40680   11.83490   90.68900    0.01510    2.35270    -999.25    0.18020    0.20900   11.02670    0.01510   82.97980   82.97980   78.37450   90.62790   85.72730   11.02670    9.50360   10.90570    9.50360    -999.25    0.30460    0.26060    2.37040  -50.60720   -5.32830   10.90570
 3100.00000   11.95870   12.28150   11.95870  113.27680    0.17920    2.29250    -999.25    0.21670    0.24410    8.82800    0.17920   84.08660   84.08660   72.47410   74.43500   74.16500    8.82800    7.28190    9.77210    7.28190    -999.25    0.34630    0.30260    2.30060  -49.51710   -4.12080    9.77210
 3150.00000   13.02080   12.56190   13.02080  220.47310    0.15750    2.12020    -999.25    0.32110    0.34490    4.53570    0.15750   97.33930   97.33930   85.47190   90.07100   90.07100    4.53570    3.87220    6.45350    3.87220    -999.25    0.43020    0.38800    2.12290  -49.44270   -3.93000    6.45350
 3200.00000   12.36050   12.71180   12.36050  116.46130    0.16760    2.10340    -999.25    0.33120    0.35470    8.58720    0.16760   90.43910   90.43910   84.30230   94.10470   93.63710    8.58720    6.71000    7.42140    6.71000    -999.25    0.38810    0.34500    2.08960  -50.63540   -5.00530    7.42140
 3250.00000   12.99050   12.51780   12.99050  195.38120    0.14050    2.11630    -999.25    0.32340    0.34720    5.11820    0.14050  104.78150  104.78150   74.22390   85.91570   85.22970    5.11820    4.17500    4.89750    4.17500    -999.25    0.46360    0.42230    2.11260  -49.89370   -4.14700    4.89750
 3300.00000   13.77620   12.93000   13.77620  176.43530    0.14900    2.14050    -999.25    0.30880    0.33310    5.66780    0.14900   96.52350   96.52350   85.27780   94.15260   94.56240    5.66780    4.80860    5.25260    4.80860    -999.25    0.50410    0.46450    2.13740  -49.05040   -3.18700    5.25260
 3350.00000   11.17070   12.21640   11.17070   54.17690    0.10650    2.26760    -999.25    0.23170    0.25870   18.45850    0.10650   87.54400   87.54400   56.30130   60.63360   60.11390   18.45850   15.19060   15.59190   15.19060    -999.25    0.36260    0.31910    2.26720  -70.24510  -24.26430   15.59190
 3400.00000   11.72510   12.97340   11.72510  193.41240    0.09650    2.41140    -999.25    0.14460    0.17460    5.17030    0.09650   88.92560   88.92560   76.04020   87.66740   86.34760    5.17030    4.22300    4.94410    4.22300    -999.25    0.42600    0.38370    2.41740  -49.11570   -3.01850    4.94410
 3450.00000   11.53870   12.39700   11.53870  403.61860    0.14340    2.00730    -999.25    0.38950    0.41090    2.48810    0.14340  125.70090  125.70090  120.72650  143.61920  140.63170    2.48810    2.35290    3.63090    2.35290    -999.25    0.52340    0.48480    1.99680  -49.04850   -2.83390    3.63090
 3500.00000   12.75490   12.24140   12.75490  187.21680    0.12360    2.21230    -999.25    0.26530    0.29110    5.34140    0.12360   89.80910   89.80910   91.60540  100.09060  100.09060    5.34140    4.50130    5.32640    4.50130    -999.25    0.39730    0.35440    2.22320  -48.84510   -2.51390    5.32640
 3550.00000   13.30070   12.37170   13.30070  108.37050    0.21270    2.27920    -999.25    0.22470    0.25190    9.22760    0.21270   85.60200   85.60200   69.58560   73.93530   73.93530    9.22760    7.65840    7.91880    7.65840    -999.25    0.38210    0.33880    2.27660  -51.41020   -4.96230    7.91880
 3600.00000   11.68260   12.25940   11.68260   91.93680    0.05820    2.35790    -999.25    0.17710    0.20590   10.92160    0.05820   82.37020   82.37020   58.26590   58.07830   58.21300   10.92160   10.15410   11.65520   10.15410    -999.25    0.32040    0.27650    2.34760  -51.07400   -4.50870   11.65520
 3650.00000   12.16300   12.44030   12.16300  174.32230    0.17660    2.24860    -999.25    0.24330    0.26990    5.73650    0.17660   93.64150   93.64150   74.96460   77.49950   77.46060    5.73650    4.52830    5.12280    4.52830    -999.25    0.50360    0.46400    2.27590  -51.53640   -4.85470    5.12280
 3700.00000   11.98310   12.23130   11.98310  198.18470    0.12460    2.24610    -999.25    0.24480    0.27130    5.05220    0.12460   94.14560   94.14560   71.11450   73.08440   74.48890    5.05220    4.43870    5.45620    4.43870    -999.25    0.47900    0.43840    2.25570  -52.46210   -5.66300    5.45620
 3750.00000   12.35100   12.56630   12.35100  119.54570    0.21410    2.21160    -999.25    0.26570    0.29150    8.36500    0.21410   87.04590   87.04590   69.18710   70.36320   70.23450    8.36500    6.95580    7.16500    6.95580    -999.25    0.38690    0.34380    2.14490  -50.44790   -3.53220    7.16500
 3800.00000   14.03390   12.48120   14.03390  183.05630    0.14750    2.20320    -999.25    0.27080    0.29640    5.46280    0.14750   95.63180   95.63180   64.12930   67.11590   67.95610    5.46280    4.38470    5.26740    4.38470    -999.25    0.42910    0.38690    2.20010  -50.75920   -3.72680    5.26740
 3850.00000   12.70050   12.47760   12.70050   93.19360    0.02480    2.39170    -999.25    0.15660    0.18620   10.75340    0.02480   81.97210   81.97210   54.29380   55.52830   55.18480   10.75340    9.68130   11.00560    9.68130    -999.25    0.34030    0.29650    2.41060  -53.33820   -6.18840   11.00560
 3900.00000   14.62680   12.60030   14.62680  164.54680    0.19140    2.20270    -999.25    0.27110    0.29670    6.07730    0.19140   87.06000   87.06000   71.80630   70.50900   70.63160    6.07730    5.45960    6.19550    5.45960    -999.25    0.37670    0.33340    2.19370  -49.59600   -2.32980    6.19550
 3950.00000   14.04210   12.62150   14.04210  199.02280    0.12800    2.22290    -999.25    0.25890    0.28490    5.02450    0.12800   95.14590   95.14590   82.86080   93.51150   94.44660    5.02450    4.18750    4.77400    4.18750    -999.25    0.42540    0.38300    2.25610  -49.68600   -2.30240    4.77400
 4000.00000   12.88200   12.48530   12.88200  171.33260    0.16070    2.19440    -999.25    0.27610    0.30150    5.83660    0.16070   93.33060   93.33060   66.97470   72.99980   74.59280    5.83660    5.14140    6.09680    5.14140    -999.25    0.44090    0.39900    2.20530  -50.10130   -2.60110    6.09680
