~Version ---------------------------------------------------
VERS. 2.0 : CWLS log ASCII Standard -VERSION 2.0
WRAP.  NO : ONE LINE PER DEPTH STEP
~Well ------------------------------------------------------
STRT.F                      557.7428 : START DEPTH
STOP.F                    10838.7428 : STOP DEPTH
STEP.F                       0.50000 : STEP LENGTH
NULL.                        -999.25 : NULL VALUE
COMP.           PETROFINA CANADA LTD : COMPANY
WELL. FINA AMOCO HB FOXCK 6-35-60-18 : WELL
FLD .                                : FIELD
LOC .                                : LOCATION
CTRY.                         CANADA : COUNTRY
SRVC.         Schlumberger of Canada : SERVICE COMPANY
DATE.                    29-Aug-1976 : LOGDATE
PROV.                        Alberta : PROVINCE
UWI .               100063506018W500 : UNIQUE WELL ID
SLAT.WGS84                  54.22952 : SURFACE LATITUDE
SLON.WGS84                 -116.5928 : SURFACE LONGITUDE
~Curve Information -----------------------------------------
DEPT   .F                 : 
SPR    .MV                : SPONTANEOUS POTENTIAL FROM RESISTIVITY
ILD    .OHMM              : DEEP INDUCTION RESISTIVITY
ILM    .OHMM              : INDUCTION MEDIUM RESISTIVITY
LL8    .OHMM              : LATEROLOG-8 RESISTIVITY
CALD   .IN   70 280 01 00 : CALIPER
DCOR   .G/C3 45 356 01 00 : DENSITY CORRECTION
GRD    .GAPI 45 310 01 00 : GAMMA RAY FROM DENSITY LOG
RHOB   .G/C3 45 350 01 00 : BULK DENSITY
DPOR_SS.DEC               : DENSITY POROSITY SANDSTONE
NPOR_S .DEC               : ENCHANCED THERMAL NEUTRON POROSITY IN SELECTED LITHOLOGY SANDSTONE
DPOR_LS.DEC               : DENSITY POROSITY LIMESTONE
NPOR_LS.DEC               : ENCHANCED THERMAL NEUTRON POROSITY IN SELECTED LITHOLOGY SANDSTONE
DT     .US/F 60 520 00 00 : ACOUSTIC TRANSIT TIME SLOWNESS, DELTA T
CALS   .IN                : 
GRS    .GAPI              : GAMMA RAY FROM SONIC LOG
GR     .GAPI              : GAMMA RAY
~Params ----------------------------------------------------
PD  .                     GL : PERMANENT DATUM
EPD .FT                 3085 : ELEVATION PERMANENT DATUM
LMF .                     KB : LOG MEASURED FROM
DAPD.FT                 15.7 : FEET ABOVE PERMANENT DATUM
EKB .FT               3100.9 : KELLY BUSHING
EDF .FT               3085.2 : DRILLING FLOOR
EGL .FT               3085.5 : GROUND LEVEL
DATE.               08/29/76 : RUN DATE
RUN .                      1 : RUN NUMBER
DD  .FT                10843 : DEPTH DRILLER
DL  .FT                10840 : DEPTH LOGGER
BLI .FT                10834 : BOTTOM LOG INTERVAL
TLI .FT                 1119 : TOP LOG INTERVAL
CBD .FT                 1119 : CASING BOTTOM DRILLER
CBL .FT                 1119 : CASING BOTTOM LOGGER
BS  .IN                 8.75 : BIT SIZE
BSD .FT                10843 : BIT SIZE AT DEPTH
DFT .               GEL CHEM : DRILLING FLUID TYPE
DFD .                    9.3 : DRILLING FLUID DENSITY
DFV .                    150 : DRILLING FLUID VISCOSITY
DFPH.                   10.5 : DRILLING FLUID PH
DFL .                    7.0 : DRILLING FLUID LOSS
MSS .            CIRCULATION : MUD SAMPLE SOURCE
RMS .OHMM               2.43 : RESISTIVITY MUD SAMPLE
MST .DEGF                 76 : MUD SAMPLE TEMPERATURE
RMF .OHMM               2.33 : RESISTIVITY MUD FILTRATE SAMPLE
MFST.DEGF                 73 : MUD FILTRATE SAMPLE TEMPERATURE
RMC .OHMM               2.22 : RESISTIVITY MUD CAKE
MCST.DEGF                 67 : MUD CAKE SAMPLE TEMPERATURE
RMB .OHMM               0.86 : RESISTIVITY MUD AT BHT
TCS .HRS                   3 : TIME CIRCULATED STOPPED
LUN .                   7691 : LOGGING UNIT NUMBER
LUL .                    WCT : LOGGING UNIT LOCATION
ENGI.              CROCKFORD : RECORDING ENGINEER
WITN.                 HALKOW : WITNESSED BY
CLNT.                A2DTECH : CLIENT CODE
ORIG.            2" 5" PRINT : ORIGIN OF DATA
UWI .       100063506018W500 : UNIQUE WELL ID
DICO. A2D Technologies, Inc. : DIGITIZING COMPANY
~Other -----------------------------------------------------
~ASCII -----------------------------------------------------
# ...
 9544.74280  -38.90620   12.07640   12.30510   17.61360    9.17980    0.02730   58.05910    2.70220    -999.25    -999.25    0.00960    0.10340   67.24890    9.03940   64.85290    -999.25
 9545.24280  -38.81560   12.11240   12.33920   17.35910    9.17780    0.02070   59.33410    2.70000    -999.25    -999.25    0.00600    0.10300   66.45190    9.03660   64.27380    -999.25
 9545.74280  -38.58890   12.11280   12.37520   16.39890    9.17580    0.01370   60.60900    2.68480    -999.25    -999.25    0.00240    0.10350   65.69900    9.03530   63.01540    -999.25
 9546.24280  -38.14910   12.11320   12.42820   14.84270    9.17360    0.01050   61.27500    2.67270    -999.25    -999.25    0.00880    0.10390   64.96980    9.03410   61.33140    -999.25
 9546.74280  -37.86730   12.11590   12.49500   13.90990    9.17090    0.00950   61.07210    2.67910    -999.25    -999.25    0.02170    0.10440   64.46470    9.03290   59.78040    -999.25
 9547.24280  -37.85130   12.15390   12.56210   14.71980    9.16790    0.01530   60.34900    2.69390    -999.25    -999.25    0.02350    0.10510   64.24670    9.03160   58.93670    -999.25
 9547.74280  -37.90900   12.22710   12.66030   16.38310    9.16480    0.02610   58.84280    2.70960    -999.25    -999.25    0.01420    0.10550   64.21630    9.03040   58.88470    -999.25
 9548.24280  -38.20430   12.30080   12.85900   17.35260    9.16180    0.02890   56.70140    2.72160    -999.25    -999.25    0.00360    0.10560   64.20550    9.02910   58.87780    -999.25
 9548.74280  -38.41300   12.42510   13.14620   17.54770    9.15870    0.02420   55.03260    2.71960    -999.25    -999.25   -0.00660    0.10520   64.24800    9.02790   58.86430    -999.25
 9549.24280  -38.57310   12.72300   13.46220   17.74860    9.15570    0.01900   54.37390    2.71450    -999.25    -999.25   -0.01030    0.10350   64.37160    9.02670   58.73200    -999.25
 9549.74280  -38.91600   13.15530   13.79370   18.20400    9.15260    0.01390   54.10830    2.70130    -999.25    -999.25   -0.00570    0.10100   64.50000    9.02540   58.48110    -999.25
 9550.24280  -39.27810   13.56530   14.13340   18.83060    9.14960    0.01020   53.84260    2.69090    -999.25    -999.25    0.00120    0.09850   64.39020    9.02420   57.99860    -999.25
 9550.74280  -39.51000   13.89150   14.48160   19.32870    9.14650    0.01410   53.62290    2.70630    -999.25    -999.25    0.00860    0.09610   64.38360    9.02290   57.08650    -999.25
 9551.24280  -39.49960   14.16490   14.82030   19.66220    9.14350    0.02570   53.53370    2.72850    -999.25    -999.25    0.00960    0.09520   64.53980    9.02170   55.97910    -999.25
 9551.74280  -39.44960   14.44360   15.08970   19.93870    9.14040    0.02460   53.82930    2.72410    -999.25    -999.25   -0.00340    0.09650   64.16110    9.02050   54.87160    -999.25
 9552.24280  -39.42500   14.72790   15.30250   19.98030    9.13740    0.00920   54.88380    2.69340    -999.25    -999.25   -0.01470    0.09850   63.48670    9.01940   54.30840    -999.25
 9552.74280  -39.39770   15.01780   15.51830   19.87050    9.13430   -0.00110   56.34840    2.67180    -999.25    -999.25   -0.00640    0.10020   63.03630    9.01850   54.86230    -999.25
 9553.24280  -39.41160   15.31340   15.73720   19.98240    9.13130   -0.00320   56.42750    2.67190    -999.25    -999.25    0.01220    0.10060   62.71780    9.01770   55.99830    -999.25
 9553.74280  -39.39250   15.61470   15.99210   20.40930    9.12860   -0.00210   55.09860    2.68170    -999.25    -999.25    0.02290    0.09900   62.52130    9.01680   57.14400    -999.25
 9554.24280  -39.35730   15.92200   16.37780   20.93300    9.12730   -0.00060   53.76250    2.68310    -999.25    -999.25    0.02080    0.09610   62.54560    9.01590   58.28970    -999.25
 9554.74280  -39.25240   16.24380   16.87030   21.53310    9.12690    0.00230   52.43040    2.68250    -999.25    -999.25    0.01630    0.09290   62.75930    9.01500   58.81740    -999.25
 9555.24280  -39.06980   16.62340   17.37770   22.27920    9.12650    0.00830   51.49670    2.70020    -999.25    -999.25    0.01660    0.08970   63.03040    9.01410   58.34910    -999.25
 9555.74280  -39.00160   17.05710   17.90040   23.02710    9.12610    0.01680   51.16020    2.71810    -999.25    -999.25    0.01470    0.08650   63.15890    9.01330   57.45000    -999.25
 9556.24280  -39.01520   17.50210   18.43870   23.78290    9.12570    0.02440   51.08920    2.72410    -999.25    -999.25    0.00490    0.08320   62.93400    9.01240   56.06700    -999.25
 9556.74280  -39.09640   17.95870   18.99330   24.67340    9.12540    0.02480   51.29620    2.71840    -999.25    -999.25   -0.00480    0.08040   62.45360    9.01150   54.36580    -999.25
 9557.24280  -39.25950   18.42720   19.56460   25.33510    9.12500    0.01820   51.71280    2.70060    -999.25    -999.25   -0.00840    0.07880   61.97490    9.01060   52.88740    -999.25
 9557.74280  -39.44910   18.90790   20.08040   25.65870    9.12460    0.01010   52.12940    2.69050    -999.25    -999.25   -0.00180    0.07810   61.52230    9.00970   51.54970    -999.25
 9558.24280  -39.67790   19.37390   20.41430   26.29980    9.12420    0.00280   52.54600    2.69100    -999.25    -999.25    0.00990    0.07760   61.04520    9.00890   50.88080    -999.25
 9558.74280  -39.91070   19.70130   20.62880   27.41450    9.12380    0.00040   52.92940    2.69210    -999.25    -999.25    0.01200    0.07700   60.64340    9.00800   50.88080    -999.25
 9559.24280  -40.10620   19.90650   20.84550   28.28040    9.12340    0.00330   53.61810    2.69250    -999.25    -999.25    0.00930    0.07520   60.41310    9.00710   50.88080    -999.25
 9559.74280  -40.16470   20.08410   21.05260   28.31800    9.12300    0.00740   54.70780    2.69790    -999.25    -999.25    0.01180    0.07450   60.21930    9.00620   50.59880    -999.25
 9560.24280  -40.22990   20.16010   21.15340   27.80380    9.12270    0.01060   55.84020    2.69910    -999.25    -999.25    0.01180    0.07670   60.04310    9.00530   49.91290    -999.25
 9560.74280  -40.30990   20.16060   21.15370   27.15680    9.12230    0.01480   56.68350    2.69280    -999.25    -999.25    0.00710    0.07960   59.83150    9.00450   49.42260    -999.25
 9561.24280  -40.30670   20.13630   21.15400   26.35200    9.12190    0.01920   56.73380    2.69720    -999.25    -999.25    0.00840    0.08220   59.56300    9.00360   49.80320    -999.25
 9561.74280  -40.35900   20.08310   21.14460   25.80880    9.12150    0.01720   55.86620    2.70090    -999.25    -999.25    0.01210    0.08300   59.37590    9.00380   50.81090    -999.25
 9562.24280  -40.41640   20.02690   21.10560   26.00630    9.12110    0.00940   54.57230    2.68940    -999.25    -999.25    0.00770    0.08250   59.33510    9.00520   51.87030    -999.25
 9562.74280  -40.47230   19.97090   21.04620   26.41350    9.12070    0.00160   53.27850    2.67830    -999.25    -999.25    0.00560    0.08240   59.44740    9.00660   52.43350    -999.25
 9563.24280  -40.52500   19.91500   20.98700   26.53910    9.12030   -0.00300   52.14840    2.67660    -999.25    -999.25    0.01220    0.08240   59.73110    9.00800   51.82790    -999.25
 9563.74280  -40.53190   19.85930   20.92800   26.57900    9.12000   -0.00310   52.06340    2.67870    -999.25    -999.25    0.01910    0.08270   60.02350    9.00940   50.85230    -999.25
 9564.24280  -40.52810   19.80370   20.86910   26.68690    9.11960    0.00030   53.51920    2.68450    -999.25    -999.25    0.02210    0.08340   60.14200    9.01070   50.23590    -999.25
 9564.74280  -40.52440   19.74830   20.81040   26.61200    9.11920    0.01060   55.62870    2.68880    -999.25    -999.25    0.01950    0.08400   60.06660    9.01210   49.73360    -999.25
 9565.24280  -40.44330   19.69300   20.74780   26.16930    9.11880    0.02690   56.52020    2.70060    -999.25    -999.25    0.01450    0.08480   59.82440    9.01350   49.36900    -999.25
 9565.74280  -40.34450   19.63790   20.63760   25.71150    9.11840    0.03540   56.22500    2.72400    -999.25    -999.25    0.01150    0.08560   59.55610    9.01490   49.16840    -999.25
