~Version ---------------------------------------------------
VERS.      2.0 : CWLS log ASCII Standard -VERSION 2.0
WRAP.       NO : One line per depth step
CREA. 08/27/14 : LAS Creation Date
~Well ------------------------------------------------------
STRT.FT                         950.0 : START DEPTH
STOP.FT                        9900.0 : STOP DEPTH
STEP.FT                      50.00000 : STEP LENGTH
NULL.                         -999.25 : NULL VALUE
COMP. GENERAL CRUDE OIL, NORTHERN LTD : COMPANY
WELL.   GCON HB PUSKWASKAU 11-6-73-24 : WELL
FLD .                                 : FIELD
LOC .                                 : LOCATION
CTRY.                          CANADA : COUNTRY
SRVC.          Schlumberger of Canada : SERVICE COMPANY
DATE.                     29-Jan-1973 : LOGDATE
PROV.                         Alberta : PROVINCE
UWI .                100110607324W500 : UNIQUE WELL ID
SLAT.WGS84                   55.29715 : SURFACE LATITUDE
SLON.WGS84                  -117.6848 : SURFACE LONGITUDE
~Curve Information -----------------------------------------
DEPT.FT    : DEPTH FEET
CALS.IN    : CALIPER FROM SONIC LOG
CILD.MMHO  : CONDUCTIVITY FROM RESISTIVITY LOG
DT  .US/F  : DELTA TIME FROM SONIC LOG
GRS .GAPI  : GAMMA RAY FROM SONIC LOG
ILD .OHMM  : INDUCTION LOG DEEP RESISTIVITY
ILM .OHMM  : INDUCTION LOG MEDIUM RESISTIVITY
LL8 .OHMM  : 8 INCH LATEROLOG RESISTIVITY
SPR .MV    : SPONTANEOUS POTENTIAL FROM RESISTIVITY LOG
~Params ----------------------------------------------------
PD  .                     GL : PERMANENT DATUM
EPD .FT                 2352 : ELEVATION PERMANENT DATUM
LMF .                     KB : LOG MEASURED FROM
DAPD.FT                   14 : FEET ABOVE PERMANENT DATUM
EKB .FT                 2366 : KELLY BUSHING
EGL .FT                 2352 : GROUND LEVEL
DATE.               01/73/29 : RUN DATE
RUN .                      1 : RUN NUMBER
DD  .FT                 9931 : DEPTH DRILLER
DL  .FT                 9919 : DEPTH LOGGER
BLI .FT                 9913 : BOTTOM LOG INTERVAL
TLI .FT                 1011 : TOP LOG INTERVAL
CBD .FT                 1011 : CASING BOTTOM DRILLER
CBL .FT                 1011 : CASING BOTTOM LOGGER
BS  .IN                 8.75 : BIT SIZE
BSD .FT                 9931 : BIT SIZE AT DEPTH
DFT .                    GEL : DRILLING FLUID TYPE
DFD .                    9.5 : DRILLING FLUID DENSITY
DFV .                     95 : DRILLING FLUID VISCOSITY
DFPH.                    7.5 : DRILLING FLUID PH
DFL .                    8.2 : DRILLING FLUID LOSS
RMF .OHMM               1.35 : RESISTIVITY MUD FILTRATE SAMPLE
MFST.DEGF                 68 : MUD FILTRATE SAMPLE TEMPERATURE
RMB .OHMM               0.56 : RESISTIVITY MUD AT BHT
TCS .HRS                   4 : TIME CIRCULATED STOPPED
LUN .                   7635 : LOGGING UNIT NUMBER
LUL .                     DC : LOGGING UNIT LOCATION
ENGI.                  BAKER : RECORDING ENGINEER
WITN.                JOHNSON : WITNESSED BY
CLNT.                A2DTECH : CLIENT CODE
ORIG.            2" 5" PRINT : ORIGIN OF DATA
UWI .       100110607324W500 : UNIQUE WELL ID
DICO. A2D Technologies, Inc. : DIGITIZING COMPANY
~Other -----------------------------------------------------
~ASCII -----------------------------------------------------
# ...
 4950.00000   10.41360    -999.25   61.27590   52.15820    6.57100    8.66310    9.36330  -53.70910
 5000.00000   12.43260    -999.25   85.94790   92.61800    4.21520    4.30880    4.50860  -50.78170
 5050.00000    9.88570    -999.25   69.19820   86.07900    7.80020    8.29620    8.87150  -50.79090
 5100.00000    9.69770    -999.25   67.87410   82.94230   12.66300   13.07160   13.34100  -35.30760
 5150.00000    9.64840    -999.25   68.05490   79.09900    7.70830    8.84060   10.07580  -58.66280
 5200.00000    9.02040    -999.25   69.80040   61.56910    6.87450   10.34920   21.08560  -96.57430
 5250.00000    8.87480    -999.25   61.07580   37.23440   14.65400   16.72930   65.92490  -96.70550
 5300.00000    8.74530    -999.25   60.19910   29.15250    5.82980    8.12640   35.13870 -125.10190
 5350.00000   13.66320    -999.25  119.09000   76.87650    1.74720    1.48120    2.15400  -61.28800
 5400.00000   12.63850    -999.25   92.72940  155.50680    4.58470    3.88560    5.02000  -51.13660
 5450.00000    9.31550    -999.25   67.13450   54.18530    2.27260    3.29160   14.30950 -123.11520
 5500.00000    9.39970    -999.25   52.72070   35.13730   16.93900   20.20420   26.43240  -97.44140
 5550.00000   10.11070    -999.25   54.18020   17.07170    7.67140   45.95090   82.05210  -83.22540
 5600.00000   10.22190    -999.25   51.23650   20.11580   26.47150   51.94400  430.60330 -112.25280
 5650.00000   10.32460    -999.25   71.91160   47.23400    1.38890    1.46120    2.83420  -85.93840
 5700.00000    9.73470    -999.25   54.10350   50.93240   28.86690  359.33170   59.01410  -77.10210
 5750.00000   10.01560    -999.25   69.34990   79.22180    1.48800    1.96750    5.89870  -83.67650
 5800.00000    8.77150    -999.25   81.05620   22.87120    1.10630    1.97700    5.83500 -122.18310
 5850.00000    9.67310    -999.25   54.51450   25.27170    5.44230    9.59680   43.45900 -109.76760
 5900.00000    9.38920    -999.25   72.54530   36.46170    1.60690    2.92610    9.82400 -102.62160
 5950.00000    8.78780    -999.25   63.34010   24.99710    2.92300    5.49460   21.61320 -126.90450
 6000.00000    9.88750    -999.25   52.15240   30.61960    7.25930   10.21620   29.17020  -50.40150
 6050.00000    9.65210    -999.25   48.28320   17.98580    4.98460    5.58050  266.23720 -112.98200
 6100.00000    9.64430    -999.25   58.15730   44.83800    9.63220   13.00900   16.97060  -52.87160
 6150.00000    8.86670    -999.25   58.84530   22.62890    7.48900   13.39010   64.33410 -122.87440
 6200.00000   11.16840    -999.25   78.63450   49.58070    6.87930    7.33450    7.22350  -22.30150
 6250.00000    9.26220    -999.25   51.85330   24.81240  962.81090  132.41840  272.29520  -47.25830
 6300.00000    9.50060    -999.25   51.70290   19.88150    3.55720    3.98040   46.20920  -83.98570
 6350.00000    9.18760    -999.25   57.58840   16.97400   10.48210   14.96290   42.88870 -125.58370
 6400.00000    9.57870    -999.25   60.61540   57.10110   14.15980   16.33910   16.19860  -54.31600
 6450.00000    9.51950    -999.25   59.23150   54.94600   24.62270   28.55070   30.98190  -41.16520
 6500.00000    9.32050    -999.25   53.08900   22.31870   49.93060   66.29210  170.11320  -85.30480
 6550.00000    9.63760    -999.25   56.17100   18.99970   17.44590   23.55850   94.75080 -123.58020
 6600.00000    9.92770    -999.25   52.94170   21.04720   70.94300   74.23710   57.99690 -110.73990
 6650.00000    9.80970    -999.25   50.54270   18.38700  117.55060  127.39490  164.58540 -135.56010
 6700.00000   11.50590    -999.25   65.22180   59.37050    7.80120    8.12830    8.56030  -77.53050
 6750.00000    9.97790    -999.25   71.10870   67.27930    3.06330    3.79880    4.35950  -81.67670
 6800.00000    9.97640    -999.25   66.80380   65.41050    5.33400    6.79920   17.11930  -75.83290
 6850.00000   11.60870    -999.25   73.75090   59.97230    5.63610    5.54520    9.21400  -74.18130
 6900.00000    9.31670    -999.25   53.49420   31.06210   37.66790   41.25150   85.70970  -86.23500
 6950.00000    9.19690    -999.25   57.97970   35.42270   18.00070   19.74270   23.16740  -69.99240
 7000.00000    9.27500    -999.25   56.37350   35.20860   36.20350   39.54670   49.56600  -50.80730
 7050.00000    9.25960    -999.25   56.61920   39.35620   39.06190   43.48130   50.92980  -49.68270
 7100.00000    9.21310    -999.25   56.53840   41.63220   32.93090   35.72960   37.05810  -56.01340
 7150.00000    9.47670    -999.25   57.91350   44.59010   25.26810   27.12810   28.18780  -47.77620
 7200.00000    9.50000    -999.25   61.05820   45.84390   19.46010   20.93830   21.61520  -41.27590
 7250.00000    9.61800    -999.25   61.51360   48.13700   17.89440   19.05010   21.52360  -50.80450
 7300.00000    8.95560    -999.25   54.86050   26.74080   85.42620   98.02010  158.37380  -67.51040
 7350.00000    9.42740    -999.25   65.34880   57.22490   28.31640   31.54750   35.47130  -49.65890
 7400.00000   13.56680    -999.25   85.25570   84.68540    4.67660    5.26770    5.94890  -66.45630
 7450.00000   10.12360    -999.25   53.42160  170.87670    5.36500    4.07560    5.57440  -74.91980
 7500.00000    9.49570    -999.25   49.64830   17.65370 1404.53770 1703.20800 1321.78920 -125.68440
 7550.00000    9.37220    -999.25   48.75980   15.60750 1231.02190 1397.90000  488.99840 -125.95450
 7600.00000    9.52280    -999.25   48.37610   17.37650 1677.38120 1391.81150 1150.33330 -140.45180
 7650.00000    9.51420    -999.25   49.47340   15.97830  995.15220 1281.73030  359.64530 -130.44250
 7700.00000    9.35860    -999.25   48.56440   18.24680 1628.04650 1290.28480  634.18100 -137.22220
 7750.00000    9.42140    -999.25   48.19920   15.56190  243.29530  291.02580  312.36610 -138.62470
 7800.00000    9.32810    -999.25   48.80790   12.36180  441.29440  402.70290  293.56860 -151.12540
 7850.00000    9.19530    -999.25   49.23380   13.97640  383.89990  574.80180  329.19050 -155.58310
 7900.00000    9.71910    -999.25   48.65840   14.39200 1422.39250 1709.65410 1378.42480 -150.68180
 7950.00000    9.68550    -999.25   48.24980   14.35410 1397.53090 1654.31030  760.61020 -148.14750
 8000.00000    9.59700    -999.25   48.30630   16.77620 1452.18150 1729.50840 1399.00170 -136.09490
 8050.00000    9.14130    -999.25   48.40440   16.39230 1406.72620 1700.60690 1372.88920 -115.01710
 8100.00000    9.03420    -999.25   48.29260   15.28540 1439.69460 1709.05820 1371.29530 -129.77130
 8150.00000    8.94320    -999.25   50.00710   15.07050   44.65810   66.95800  210.71950 -175.02440
 8200.00000    9.07330    -999.25   50.07660   11.44280   25.94380   34.15020  108.93550 -184.46490
 8250.00000    8.49530    -999.25   55.79990   14.41890    8.80780   15.63170   72.80140 -196.16300
 8300.00000    9.19830    -999.25   47.35790   24.98620  823.40620  727.37680  774.95120 -168.47930
 8350.00000    9.60270    -999.25   48.28310   25.19820 1427.99670 1683.55210 1347.70940 -184.25360
 8400.00000    9.41280    -999.25   48.65910   22.42700 1440.85360 1673.86830 1348.75820 -167.97130
 8450.00000    8.69490    -999.25   48.92180   29.27910   92.71740  101.65630  127.87220 -140.41900
 8500.00000    9.84000    -999.25   49.02660   16.13560 1402.21880 1683.12890 1333.57340 -188.67350
 8550.00000    9.53560    -999.25   54.05900   40.63590   40.80840   45.82280   47.99880 -162.63040
 8600.00000    9.14060    -999.25   52.93120   36.90250   60.83250   67.08200   65.99650 -156.40050
 8650.00000    9.04220    -999.25   57.13890   50.27380   32.77410   37.52470   40.35000 -156.71540
 8700.00000    9.15520    -999.25   59.82950   50.31990   18.55320   20.16420   23.11320 -149.46940
 8750.00000   14.96700    -999.25   72.03680   64.84640    6.81780    7.88660    8.34070 -163.49980
 8800.00000   11.72390    -999.25   66.96470   62.05230   10.08350   10.67810   11.81410 -150.02420
 8850.00000    8.95780    -999.25   56.99340   37.02110  157.43540  245.49310  598.54160 -157.75410
 8900.00000    9.39140    -999.25   60.62280   46.00930   20.00310   21.01790   24.96610 -159.63690
