~Version ---------------------------------------------------
VERS.      2.0 : CWLS log ASCII Standard -VERSION 2.0
WRAP.       NO : ONE LINE PER DEPTH STEP
CREA. 09/17/14 : LAS CREATION DATE
~Well ------------------------------------------------------
STRT.M                   450.0 : START DEPTH
STOP.M                  4200.0 : STOP DEPTH
STEP.M                50.00000 : STEP LENGTH
NULL.                  -999.25 : NULL VALUE
COMP.     CHEVRON STANDARD LTD : COMPANY
WELL. CHEVRON WEALD 3-22-52-19 : WELL
FLD .                          : FIELD
LOC .                          : LOCATION
CTRY.                   CANADA : COUNTRY
SRVC.   Schlumberger of Canada : SERVICE COMPANY
DATE.              29-Nov-1978 : LOGDATE
PROV.                  Alberta : PROVINCE
UWI .         100032205219W500 : UNIQUE WELL ID
SLAT.WGS84            53.50026 : SURFACE LATITUDE
SLON.WGS84           -116.7206 : SURFACE LONGITUDE
~Curve Information -----------------------------------------
DEPT    .M      : DEPTH METERS
CALDED  .MM     : CALIPER FROM DENSITY LOG [ADJ. TO RESISTIVITY LOG]
CALSED  .MM     : CALIPER FROM SONIC LOG [ADJ. TO RESISTIVITY LOG]
CALWS   .MM     : CALIPER [CALDED]
CONDWS  .MMHO   : CONDUCTIVITY [1000/DRESWS]
DCORWS  .KG/M3  : DENSITY CORRECTION [DRHOED]
DENWS   .KG/M3  : BULK DENSITY [M=2710 F=1000] [RHOBED]
DPHILSED.V/V    : DENSITY POROSITY [M=2710 F=1000] FROM DENSITY LOG [ADJ. TO RESISTIVITY LOG]
DPHISSED.V/V    : DENSITY POROSITY [M=2650 F=1000] FROM DENSITY LOG [ADJ. TO RESISTIVITY LOG]
DPOLSWS .V/V    : DENSITY POROSITY [M=2710 F=1000] [CAL. FROM DENWS]
DRESWS  .OHMM   : DEEP RESISTIVITY [ILDED]
DRHOED  .KG/M3  : DENSITY CORRECTION FROM DENSITY LOG [ADJ. TO RESISTIVITY LOG]
DTED    .US/M   : DELTA TIME FROM SONIC LOG
DTWS    .US/M   : DELTA TIME [DTED]
GRDED   .GAPI   : GAMMA RAY FROM DENSITY LOG [ADJ. TO RESISTIVITY LOG]
GRNED   .GAPI   : GAMMA RAY FROM NEUTRON LOG [CASEDHOLE] [ADJ. TO RESISTIVITY LOG]
GRRED   .GAPI   : GAMMA RAY FROM RESISTIVITY LOG
GRSED   .GAPI   : GAMMA RAY FROM SONIC LOG
GRWS    .GAPI   : GAMMA RAY [448 GRSED 463 GRDED3343 GRSED 4210 GRDED]
ILDED   .OHMM   : INDUCTION LOG DEEP RESISTIVITY
ILMED   .OHMM   : INDUCTION LOG MEDIUM RESISTIVITY
MRESWS  .OHMM   : MEDIUM RESISTIVITY [ILMED]
NEUTED  .NAPI   : NEUTRON FROM NEUTRON LOG [CASEDHOLE][ADJ. TO RESISTIVITY LOG]
NEUTWS  .NAPI   : NEUTRON [NEUTED]
NPHILSED.V/V    : NEUTRON POROSITY LIMESTONE FROM DENSITY LOG [ADJ. TO RESISTIVITY LOG]
NPHISSED.V/V    : NEUTRON POROSITY SANDSTONE FROM DENSITY LOG [ADJ. TO RESISTIVITY LOG]
NPOLSWS .V/V    : NEUTRON POROSITY LIMESTONE [NPHISSED CONVERTED FOR LIMESTONE SPL. TO NPHILSED@ 2997.8 M ]
RHOBED  .KG/M3  : BULK DENSITY FROM DENSITY LOG [ADJ. TO RESISTIVITY LOG]
SFLED   .OHMM   : SPHERICALLY FOCUSED LOG RESISTIVITY
SPRED   .MV     : SPONTANEOUS POTENTIAL FROM RESISTIVITY LOG [SPR IS DIVIDED BY 3 TO REDUCE READINGS]
SPWS    .MV     : SPONTANEOUS POTENTIAL [BASELINE 0 MV] [SPRED]
SRESWS  .OHMM   : SHALLOW RESISTIVITY [SFLED]
TENDED  .N      : TENSION FROM DENSITY LOG [ADJ. TO RESISTIVITY LOG]
TENSED  .N      : TENSION FROM SONIC LOG [ADJ. TO RESISTIVITY LOG]
~Params ----------------------------------------------------
PD  .                           GL : PERMANENT DATUM
EPD .FT                      981.3 : ELEVATION PERMANENT DATUM
LMF .                           KB : LOG MEASURED FROM
DAPD.FT                        7.5 : FEET ABOVE PERMANENT DATUM
DMF .                           KB : DRILLING MEASURED FROM
EKB .FT                      988.8 : KELLY BUSHING
EGL .FT                      981.3 : GROUND LEVEL
DATE.                     11/29/78 : RUN DATE
RUN .                            2 : RUN NUMBER
DD  .FT                       4238 : DEPTH DRILLER
DL  .FT                     4235.5 : DEPTH LOGGER
BLI .FT                     4231.7 : BOTTOM LOG INTERVAL
TLI .FT                       3354 : TOP LOG INTERVAL
DFT .                          GEL : DRILLING FLUID TYPE
DFD .                         1065 : DRILLING FLUID DENSITY
DFV .                           82 : DRILLING FLUID VISCOSITY
DFPH.                         10.5 : DRILLING FLUID PH
DFL .                          8.6 : DRILLING FLUID LOSS
MSS .                         CIRC : MUD SAMPLE SOURCE
TLAB.HRS                       500 : TIME LOGGER AT BOTTOM
LUN .                         7802 : LOGGING UNIT NUMBER
LUL .                          EDM : LOGGING UNIT LOCATION
ENGI.                      ROVELLI : RECORDING ENGINEER
WITN.              SPRAGUE BARROWS : WITNESSED BY
CLNT.                      A2DTECH : CLIENT CODE
ORIG. 6.5IN/100M 16.5IN/100M PRINT : ORIGIN OF DATA
UWI .             100032205219W500 : UNIQUE WELL ID
DICO.       A2D Technologies, Inc. : DIGITIZING COMPANY
~Other -----------------------------------------------------
~ASCII -----------------------------------------------------
  450.00000    -999.25    -999.25    -999.25    -999.25    -999.25    -999.25    -999.25    -999.25    -999.25    -999.25    -999.25    -999.25    -999.25    -999.25    -999.25    -999.25   31.18270   31.18270    -999.25    -999.25    -999.25    -999.25    -999.25    -999.25    -999.25    -999.25    -999.25    -999.25    -999.25    -999.25    -999.25    -999.25    -999.25
  500.00000  315.54510  301.50070  315.54510  106.04680  137.95110 2543.33200    -999.25    0.07160    0.09750    9.42980  137.95110  268.11350  268.11350   86.07530    -999.25   76.80570   78.33370   86.07530    9.42980    9.82520    9.82520    -999.25    -999.25    -999.25    0.32080    0.27690 2543.33200    -999.25    -999.25    -999.25    -999.25 3357.74220 2576.12230
  550.00000  284.23580  286.03430  284.23580   93.52870  -12.69670 2503.28300    -999.25    0.09170    0.12090   10.69190  -12.69670  276.09080  276.09080   85.73010    -999.25   75.48420   87.19790   85.73010   10.69190   11.21900   11.21900    -999.25    -999.25    -999.25    0.32710    0.28330 2503.28300    -999.25    -999.25    -999.25    -999.25 1837.27760 3261.72510
  600.00000  344.57970  312.40520  344.57970  154.12600    0.36930 2455.76220    -999.25    0.11290    0.14870    6.48820    0.36930  323.29320  323.29320   91.86580    -999.25   86.40150   88.76670   91.86580    6.48820    7.00800    7.00800    -999.25    -999.25    -999.25    0.41050    0.36780 2455.76220    -999.25    -999.25    -999.25    -999.25 2555.24150  817.45050
  650.00000  312.45410  283.52480  312.45410  107.48760   -2.37730 2489.87150    -999.25    0.09620    0.12870    9.30340   -2.37730  270.24460  270.24460  105.28530    -999.25   89.77330   97.33920  105.28530    9.30340    9.81280    9.81280    -999.25    -999.25    -999.25    0.32080    0.27690 2489.87150    -999.25    -999.25    -999.25    -999.25 3293.15510 1461.23270
  700.00000  304.40930  278.00890  304.40930   69.29430   18.04040 2512.47510    -999.25    0.08800    0.11550   14.43120   18.04040  259.35900  259.35900   56.99690    -999.25   55.16450   60.25580   56.99690   14.43120   16.50770   16.50770    -999.25    -999.25    -999.25    0.23070    0.18690 2512.47510    -999.25    -999.25    -999.25    -999.25 1513.01720 2146.72340
  750.00000  288.66330  277.04870  288.66330   96.41900    3.03390 2501.39450    -999.25    0.08870    0.12200   10.37140    3.03390  277.83300  277.83300  109.29250    -999.25   99.12650   99.66960  109.29250   10.37140   11.30740   11.30740    -999.25    -999.25    -999.25    0.36350    0.32000 2501.39450    -999.25    -999.25    -999.25    -999.25 2128.60060 2760.50810
  800.00000  293.26740  279.48190  293.26740  110.93480  -10.81240 2524.32840    -999.25    0.07890    0.10860    9.01430  -10.81240  267.27400  267.27400   90.91560    -999.25   85.19490   84.44510   90.91560    9.01430    9.88210    9.88210    -999.25    -999.25    -999.25    0.30930    0.26540 2524.32840    -999.25    -999.25    -999.25    -999.25 2882.73680 3337.21580
  850.00000  303.45150  290.97390  303.45150   96.90770   -2.48530 2525.55250    -999.25    0.08100    0.10790   10.31910   -2.48530  163.76610  163.76610   85.51090    -999.25   87.03150   79.73730   85.51090   10.31910   10.81330   10.81330    -999.25    -999.25    -999.25    0.32580    0.28190 2525.55250    -999.25    -999.25    -999.25    -999.25 1422.24800 1068.56130
  900.00000  318.72860  309.09770  318.72860   73.81490   -2.68970 2501.55200    -999.25    0.09460    0.12190   13.54740   -2.68970  268.64280  268.64280   83.99650    -999.25   76.71420   79.39590   83.99650   13.54740   14.35290   14.35290    -999.25    -999.25    -999.25    0.25440    0.21050 2501.55200    -999.25    -999.25    -999.25    -999.25 2280.57620 2251.98070
  950.00000  313.35500  293.04270  313.35500  153.38130    5.36710 2508.91650    -999.25    0.08710    0.11760    6.51970    5.36710  277.97100  277.97100  105.64670    -999.25   96.87700   98.48190  105.64670    6.51970    6.86650    6.86650    -999.25    -999.25    -999.25    0.33660    0.29280 2508.91650    -999.25    -999.25    -999.25    -999.25 1383.84090 2280.75610
 1000.00000  305.17680  274.56310  305.17680  175.56800    2.35570 2469.63570    -999.25    0.11690    0.14060    5.69580    2.35570  309.66180  309.66180  122.15030    -999.25  118.44700  113.22540  122.15030    5.69580    6.01170    6.01170    -999.25    -999.25    -999.25    0.40320    0.36040 2469.63570    -999.25    -999.25    -999.25    -999.25 2187.06910 1959.14370
 1050.00000  291.38640  284.43880  291.38640  154.10700   -9.86750 2512.76950    -999.25    0.08690    0.11530    6.48900   -9.86750  266.03170  266.03170  115.63610    -999.25  108.83520  102.85530  115.63610    6.48900    7.28190    7.28190    -999.25    -999.25    -999.25    0.33740    0.29360 2512.76950    -999.25    -999.25    -999.25    -999.25 1603.71800  966.77330
 1100.00000  297.27460  282.65990  297.27460  139.42140  -10.31450 2487.74320    -999.25    0.10000    0.13000    7.17250  -10.31450  279.80530  279.80530   89.95390    -999.25   87.79520   83.92300   89.95390    7.17250    7.48860    7.48860    -999.25    -999.25    -999.25    0.34880    0.30520 2487.74320    -999.25    -999.25    -999.25    -999.25 2238.94680 1321.85910
 1150.00000  305.12780  289.17030  305.12780  200.46910   16.14020 2454.55740    -999.25    0.12340    0.14940    4.98830   16.14020  300.46910  300.46910  108.71840    -999.25   93.64370  110.74400  108.71840    4.98830    5.16970    5.16970    -999.25    -999.25    -999.25    0.39030    0.34720 2454.55740    -999.25    -999.25    -999.25    -999.25 3246.64720 2291.91360
 1200.00000  269.17980  267.56630  269.17980  170.02470  -11.67360 2445.82500    -999.25    0.12720    0.15450    5.88150  -11.67360  277.06580  277.06580  125.23870    -999.25  123.76290  115.88050  125.23870    5.88150    6.14420    6.14420    -999.25    -999.25    -999.25    0.39260    0.34960 2445.82500    -999.25    -999.25    -999.25    -999.25 1971.95730 3152.48780
 1250.00000  269.10090  261.88890  269.10090   78.11280  157.39060 2560.15890    -999.25    0.06570    0.08760   12.80200  157.39060  243.95030  243.95030   98.39490    -999.25   94.47090   96.56840   98.39490   12.80200   14.28910   14.28910    -999.25    -999.25    -999.25    0.26220    0.21820 2560.15890    -999.25    -999.25    -999.25    -999.25 1938.01230 4076.77290
 1300.00000  273.82160  259.29390  273.82160   70.12670   20.57820 2425.50460    -999.25    0.10890    0.16640   14.25990   20.57820  216.33290  216.33290   71.07930    -999.25   74.15840   74.44320   71.07930   14.25990   15.98320   15.98320    -999.25    -999.25    -999.25    0.23630    0.19250 2425.50460    -999.25    -999.25    -999.25    -999.25 2306.71410 1072.17150
 1350.00000  251.83850  249.27880  251.83850   53.54520  -10.87990 2530.36570    -999.25    0.07140    0.10500   18.67580  -10.87990  232.70120  232.70120  104.10070    -999.25   97.63080   96.71370  104.10070   18.67580   19.79080   19.79080    -999.25    -999.25    -999.25    0.25810    0.21420 2530.36570    -999.25    -999.25    -999.25    -999.25    -999.25 1913.16240
 1400.00000  249.11470  241.84570  249.11470   72.41230   58.50940 2400.11670    -999.25    0.15030    0.18120   13.80980   58.50940  232.40080  232.40080   98.18420    -999.25   90.61820   93.72450   98.18420   13.80980   14.99290   14.99290    -999.25    -999.25    -999.25    0.28550    0.24150 2400.11670    -999.25    -999.25    -999.25    -999.25 1436.15580 2268.21800
 1450.00000  287.44060  244.45620  287.44060   87.88270  197.87970 2478.41360    -999.25    0.10400    0.13540   11.37880  197.87970  245.36740  245.36740   99.16860    -999.25   87.48230   98.56040   99.16860   11.37880   12.47480   12.47480    -999.25    -999.25    -999.25    0.28180    0.23780 2478.41360    -999.25    -999.25    -999.25    -999.25 2490.65040 1301.35400
 1500.00000  290.39600  247.88370  290.39600  116.91670  117.10780 2487.73930    -999.25    0.09820    0.13000    8.55310  117.10780  275.61840  275.61840   90.85420    -999.25   86.72060   79.81720   90.85420    8.55310    9.27050    9.27050    -999.25    -999.25    -999.25    0.35340    0.30980 2487.73930    -999.25    -999.25    -999.25    -999.25 2658.36450 1716.66440
