~Version ---------------------------------------------------
VERS.      2.0 : CWLS log ASCII Standard -VERSION 2.0
WRAP.       NO : One line per depth step
CREA. 12/18/17 : LAS Creation Date
~Well ------------------------------------------------------
STRT.FT                        1150.0 : START DEPTH
STOP.FT                       11350.0 : STOP DEPTH
STEP.FT                      50.00000 : STEP LENGTH
NULL.                         -999.25 : NULL VALUE
COMP.   THE ATLANTIC REFINING COMPANY : COMPANY
WELL. ATLANTIC ANTE CREEK 10-18-65-23 : WELL
FLD .                                 : FIELD
LOC .                                 : LOCATION
CTRY.                          CANADA : COUNTRY
SRVC.                    Schlumberger : SERVICE COMPANY
DATE.                     05-Jan-1963 : LOGDATE
PROV.                         Alberta : PROVINCE
UWI .                100101806523W500 : UNIQUE WELL ID
SLAT.WGS84                     54.627 : SURFACE LATITUDE
SLON.WGS84                  -117.4631 : SURFACE LONGITUDE
~Curve Information -----------------------------------------
DEPT  .FT    : Depth Curve
CALWS .IN    : CALIPER [MCALED]
CILDED.MMHO  : CONDUCTIVITY FROM RESISTIVITY LOG
CONDWS.MMHO  : CONDUCTIVITY [1000/DRESWS]
DRESWS.OHMM  : DEEP RESISTIVITY [1000/CILDED IF ILDED <=5, ILDED]
DT1ED .US/F  : DELTA-T 1' SPAN FROM SONIC LOG [ADJ.TO DTED]
DTED  .US/F  : DELTA-T 3' SPAN FROM SONIC LOG
DTWS  .US/F  : COMPRESSIONAL SONIC [DTED]
GRNED .GAPI  : GAMMA RAY FROM GRN LOG [ADJ.TO RESISTIVITY LOG]
GRSED .GAPI  : GAMMA RAY FROM SONIC LOG
GRWS  .GAPI  : GAMMA RAY [GRSED]
ILDED .OHMM  : DEEP INDUCTION FROM RESISTIVITY LOG
MCALED.IN    : MICRO CALIPER FROM MICRO LOG
NEUTED.NAPI  : NEUTRON FROM GRN LOG [ADJ.TO RESISTIVITY LOG]
NEUTWS.NAPI  : NEUTRON [NEUTED]
SNED  .OHMM  : SHORT NORMAL 16" FROM RESISTIVITY LOG
SPRED .MV    : SPONTANEOUS POTENTIAL FROM RESISTIVITY LOG
SPWS  .MV    : SPONTANEOUS POTENTIAL [BASELINE 0 MV, SPRED]
SRESWS.OHMM  : SHALLOW RESISTIVITY [SNED]
~Params ----------------------------------------------------
PD  .                     GL : PERMANENT DATUM
EPD .FT                 2763 : ELEVATION PERMANENT DATUM
LMF .                     KB : LOG MEASURED FROM
DAPD.FT                 14.5 : FEET ABOVE PERMANENT DATUM
EKB .FT               2777.5 : KELLY BUSHING
EGL .FT                 2763 : GROUND LEVEL
DATE.               01/05/63 : RUN DATE
RUN .                      1 : RUN NUMBER
DD  .FT                11380 : DEPTH DRILLER
DL  .FT                11362 : DEPTH LOGGER
BLI .FT                11361 : BOTTOM LOG INTERVAL
TLI .FT                 1166 : TOP LOG INTERVAL
CBD .FT                 1175 : CASING BOTTOM DRILLER
CBL .FT                 1166 : CASING BOTTOM LOGGER
BS  .IN                8.625 : BIT SIZE
BSD .FT                11380 : BIT SIZE AT DEPTH
DFT .               GEL CHEM : DRILLING FLUID TYPE
DFD .                    9.8 : DRILLING FLUID DENSITY
DFV .                     80 : DRILLING FLUID VISCOSITY
DFPH.                    9.5 : DRILLING FLUID PH
DFL .                      7 : DRILLING FLUID LOSS
RMS .OHMM                2.7 : RESISTIVITY MUD SAMPLE
MST .DEGF                 67 : MUD SAMPLE TEMPERATURE
RMF .OHMM                1.9 : RESISTIVITY MUD FILTRATE SAMPLE
MFST.DEGF                 82 : MUD FILTRATE SAMPLE TEMPERATURE
RMC .OHMM               2.41 : RESISTIVITY MUD CAKE
MCST.DEGF                 82 : MUD CAKE SAMPLE TEMPERATURE
RMB .OHMM               0.95 : RESISTIVITY MUD AT BHT
TCS .HRS                   3 : TIME CIRCULATED STOPPED
LUN .                   3534 : LOGGING UNIT NUMBER
LUL .                    WCT : LOGGING UNIT LOCATION
ENGI.                  MILLS : RECORDING ENGINEER
WITN.        HARTWELL RAMSEY : WITNESSED BY
CLNT.                A2DTECH : CLIENT CODE
ORIG.            2" 5" PRINT : ORIGIN OF DATA
UWI .       100101806523W500 : UNIQUE WELL ID
DICO. A2D Technologies, Inc. : DIGITIZING COMPANY
~Other -----------------------------------------------------
IEL-ML-SONIC-GRN LOG RUN.
ALL CURVE FROM IEL LOG DIG IN 2" SCALE @ TOP TO 3438'
ALL CURVE FROM SONIC LOG DIG IN 2" SCALE @ TOP TO 3438'
MCALED DIG IN 2" SCALE @ TOP TO 3488'
~ASCII -----------------------------------------------------
# ...
 3100.00000   10.95530  181.91840  191.52320    5.22130    -999.25   95.32980   95.32980    -999.25   67.36530   67.36530    5.22130   10.95530    -999.25    -999.25    7.37180  -60.64930   -1.78640    7.37180
 3150.00000   12.48150  199.51660  196.66460    5.08480    -999.25   96.63130   96.63130    -999.25   59.52070   59.52070    5.08480   12.48150    -999.25    -999.25    6.41900  -60.34090   -1.47800    6.41900
 3200.00000   12.52410  174.46360  175.94790    5.68350    -999.25  104.17690  104.17690    -999.25   68.68000   68.68000    5.68350   12.52410    -999.25    -999.25    7.61500  -60.64750   -1.78460    7.61500
 3250.00000   12.11080  111.91850  110.04010    9.08760    -999.25  102.95950  102.95950    -999.25   71.28270   71.28270    9.08760   12.11080    -999.25    -999.25    9.89900  -62.30720   -3.44430    9.89900
 3300.00000   12.33830  151.13890  147.47300    6.78090    -999.25  100.77850  100.77850    -999.25   77.34880   77.34880    6.78090   12.33830    -999.25    -999.25    9.13130  -62.02080   -3.15790    9.13130
 3350.00000   12.74980  102.83890   99.14050   10.08670    -999.25   95.17640   95.17640    -999.25   83.45950   83.45950   10.08670   12.74980    -999.25    -999.25   12.58500  -61.89070   -3.02780   12.58500
 3400.00000   13.21430  100.47090   98.19810   10.18350    -999.25   97.66310   97.66310    -999.25   77.20500   77.20500   10.18350   13.21430    -999.25    -999.25   13.44800  -61.49800   -2.63510   13.44800
 3450.00000   13.30270  115.62930  112.70780    8.87250    -999.25   89.79080   89.79080    -999.25   80.46640   80.46640    8.87250   13.30270    -999.25    -999.25   11.08330  -60.64460   -1.78170   11.08330
 3500.00000   13.58480  154.83510  153.27780    6.52410    -999.25   96.69360   96.69360    -999.25   74.01870   74.01870    6.52410   13.58480    -999.25    -999.25    8.23790  -62.06320   -3.20030    8.23790
 3550.00000   13.58140  139.38340  145.66010    6.86530    -999.25  109.00080  109.00080    -999.25   78.79410   78.79410    6.86530   13.58140    -999.25    -999.25    8.56630  -61.96610   -3.10320    8.56630
 3600.00000   13.17730   69.38910   66.68930   14.99490    -999.25   59.66930   59.66930   54.89150   65.88450   65.88450   14.99490   13.17730    -999.25    -999.25   14.38050  -67.37710   -8.51420   14.38050
 3650.00000   14.59360  115.01150  119.38870    8.37600    -999.25   85.40180   85.40180   58.77340   75.92240   75.92240    8.37600   14.59360    -999.25    -999.25    9.74530  -62.34390   -3.48100    9.74530
 3700.00000   14.14050  137.47300  141.50280    7.06700    -999.25   91.69250   91.69250   64.30030   83.69720   83.69720    7.06700   14.14050    -999.25    -999.25    9.37940  -61.57310   -2.71020    9.37940
 3750.00000   12.93120  152.85300  156.43580    6.39240    -999.25  103.43150  103.43150   62.42040   76.99740   76.99740    6.39240   12.93120    -999.25    -999.25    8.29790  -61.75350   -2.93420    8.29790
 3800.00000   12.55930  118.33470  116.14000    8.61030    -999.25   92.99840   92.99840   59.87120   67.79310   67.79310    8.61030   12.55930    -999.25    -999.25    9.77720  -61.01450   -2.26790    9.77720
 3850.00000   11.11850   76.35780   68.66250   14.56400    -999.25   82.87610   82.87610   56.72180   70.78360   70.78360   14.56400   11.11850    -999.25    -999.25   17.30460  -74.34200  -15.66800   17.30460
 3900.00000   12.48870  106.60000   97.85410   10.21930    -999.25   94.32680   94.32680   58.16020   77.82740   77.82740   10.21930   12.48870    -999.25    -999.25   11.51960  -61.81610   -3.21480   11.51960
 3950.00000   11.63810   90.26670   86.26120   11.59270    -999.25   82.87930   82.87930    -999.25   76.23580   76.23580   11.59270   11.63810    -999.25    -999.25   12.88280  -61.14230   -2.61370   12.88280
 4000.00000   12.67010  101.21790  100.13920    9.98610    -999.25   85.22120   85.22120    -999.25   69.97630   69.97630    9.98610   12.67010    -999.25    -999.25   10.83580  -60.67070   -2.21480   10.83580
 4050.00000   13.35720  109.12420  109.84060    9.10410    -999.25   86.66270   86.66270    -999.25   71.05780   71.05780    9.10410   13.35720    -999.25    -999.25   10.51340  -61.83210   -3.44880   10.51340
 4100.00000   13.62680  130.64080  133.72920    7.47780    -999.25   83.37200   83.37200    -999.25   80.58740   80.58740    7.47780   13.62680    -999.25    -999.25    9.18920  -61.95120   -3.64060    9.18920
 4150.00000   13.37280  138.11680  140.24850    7.13020    -999.25   93.09420   93.09420    -999.25   83.70170   83.70170    7.13020   13.37280    -999.25    -999.25    9.53350  -61.37370   -3.13580    9.53350
 4200.00000   14.01320  144.65410  146.66410    6.81830    -999.25   95.96850   95.96850    -999.25   87.67170   87.67170    6.81830   14.01320    -999.25    -999.25    9.38780  -60.81980   -2.65460    9.38780
 4250.00000   14.32970  121.08110  123.59870    8.09070    -999.25   92.67550   92.67550    -999.25   85.03330   85.03330    8.09070   14.32970    -999.25    -999.25   10.46440  -61.42430   -3.33170   10.46440
 4300.00000   14.95940  127.98800  127.55920    7.83950    -999.25   97.38360   97.38360    -999.25   75.62800   75.62800    7.83950   14.95940    -999.25    -999.25   10.22510  -60.64730   -2.62740   10.22510
 4350.00000   11.98990   98.81490   97.26590   10.28110    -999.25   91.88470   91.88470    -999.25   81.96580   81.96580   10.28110   11.98990    -999.25    -999.25   13.88610  -60.91500   -2.96780   13.88610
 4400.00000   11.94840  119.59950  117.02610    8.54510    -999.25   93.48360   93.48360    -999.25   76.82820   76.82820    8.54510   11.94840    -999.25    -999.25   11.86510  -60.72160   -2.84700   11.86510
 4450.00000   11.09000   79.48060   76.66650   13.04350    -999.25  101.96770  101.96770    -999.25  118.08580  118.08580   13.04350   11.09000    -999.25    -999.25   20.46050  -60.44160   -2.63970   20.46050
 4500.00000   12.86830  130.56740  132.50470    7.54690    -999.25   95.71500   95.71500   63.38350   80.74470   80.74470    7.54690   12.86830    -999.25    -999.25   10.92490  -59.56710   -1.83790   10.92490
 4550.00000   10.57550   77.94120   78.39140   12.75650    -999.25  102.90830  102.90830   99.06410  127.59730  127.59730   12.75650   10.57550    -999.25    -999.25   18.52360  -59.66770   -2.01120   18.52360
 4600.00000   11.61370  101.94500  107.62060    9.29190    -999.25   86.89620   86.89620   60.36570   69.44050   69.44050    9.29190   11.61370    -999.25    -999.25   10.89120  -60.97800   -3.39410   10.89120
 4650.00000   11.37590  167.07760  169.56620    5.89740    -999.25   88.30050   88.30050   60.35130   78.68460   78.68460    5.89740   11.37590    -999.25    -999.25    8.34720  -61.38160   -3.87040    8.34720
 4700.00000   11.00430  121.64120  121.71220    8.21610    -999.25   79.30410   79.30410   69.19730   78.14000   78.14000    8.21610   11.00430    -999.25    -999.25   11.31620  -64.06820   -6.48270   11.31620
 4750.00000   11.64350  115.14590  115.34820    8.66940    -999.25   80.92830   80.92830   69.48650   79.39170   79.39170    8.66940   11.64350    -999.25    -999.25   11.61540  -63.47090   -5.41370   11.61540
 4800.00000   13.19640  158.96880  155.87010    6.41560    -999.25   82.68140   82.68140   73.14660   80.32760   80.32760    6.41560   13.19640    -999.25    -999.25    8.62970  -62.74830   -4.21940    8.62970
 4850.00000   13.33930  166.96020  156.32570    6.39690    -999.25   87.59160   87.59160    -999.25   88.52260   88.52260    6.39690   13.33930    -999.25    -999.25    8.45530  -63.73280   -4.73220    8.45530
 4900.00000   14.06530  108.14380   99.05010   10.09590    -999.25   82.84640   82.84640    -999.25   82.70050   82.70050   10.09590   14.06530    -999.25    -999.25   12.57560  -65.11990   -5.64760   12.57560
 4950.00000   14.58030  156.68200  153.60280    6.51030    -999.25   84.22250   84.22250    -999.25   78.83350   78.83350    6.51030   14.58030    -999.25    -999.25    8.56520  -65.93060   -5.98660    8.56520
 5000.00000   14.28380  214.34950  214.34950    4.66530    -999.25   90.01080   90.01080   72.24210   84.73550   84.73550    4.65210   14.28380    -999.25    -999.25    7.35460  -65.74160   -5.32600    7.35460
