~Version ---------------------------------------------------
VERS.      2.0 : CWLS log ASCII Standard -VERSION 2.0
WRAP.       NO : One line per depth step
CREA. 06/06/13 : LAS Creation Date
~Well ------------------------------------------------------
STRT.M                 350.0 : START DEPTH
STOP.M                4150.0 : STOP DEPTH
STEP.M              50.00000 : STEP LENGTH
NULL.                -999.25 : NULL VALUE
COMP.  CDC OIL & GAS LIMITED : COMPANY
WELL. CDCOG OBED 13-24-55-22 : WELL
FLD .                        : FIELD
LOC .                        : LOCATION
CTRY.                 CANADA : COUNTRY
SRVC. Schlumberger of Canada : SERVICE COMPANY
DATE.            06-Mar-1981 : LOGDATE
PROV.                Alberta : PROVINCE
UWI .       100132405522W500 : UNIQUE WELL ID
SLAT.WGS84          53.77035 : SURFACE LATITUDE
SLON.WGS84         -117.1407 : SURFACE LONGITUDE
~Curve Information -----------------------------------------
DEPT   .M      : DEPTH METER
CALD   .MM     : CALIPER FROM DENSITY LOG
CALS   .MM     : CALIPER FROM SONIC LOG
DCOR   .KG/M3  : DENSITY CORRECTION FROM DENSITY LOG
DPHI_LS.DEC    : DENSITY POROSITY LIMESTONE [M=2710, F=1000] FROM DENSITY LOG
DPHI_SS.DEC    : DENSITY POROSITY SANDSTONE [M=2650, F=1000] FROM DENSITY LOG
DT     .US/M   : DELTA TIME FROM SONIC LOG
GRD    .GAPI   : GAMMA RAY FROM DENSITY LOG
GRR    .GAPI   : GAMMA RAY FROM RESISTIVITY LOG
GRS    .GAPI   : GAMMA RAY FROM SONIC LOG
LLD    .OHMM   : DEEP LATEROLOG FROM RESISTIVITY LOG
LLS    .OHMM   : SHALLOW LATEROLOG FROM RESISTIVITY LOG
NPHI_LS.DEC    : NEUTRON POROSITY LIMESTONE FROM DENSITY LOG
NPHI_SS.DEC    : NEUTRON POROSITY SANDSTONE FROM DENSITY LOG
RHOB   .KG/M3  : BULK DENSITY FROM DENSITY LOG
SPR    .MV     : SPONTANEOUS POTENTIAL FROM RESISTIVITY LOG
~Params ----------------------------------------------------
PD  .                         GL : PERMANENT DATUM
EPD .M                   1011.77 : ELEVATION PERMANENT DATUM
LMF .                         KB : LOG MEASURED FROM
DAPD.M                       7.5 : FEET ABOVE PERMANENT DATUM
DMF .                         KB : DRILLING MEASURED FROM
EKB .M                   1019.27 : KELLY BUSHING
EGL .M                   1011.77 : GROUND LEVEL
DATE.                   03/06/81 : RUN DATE
RUN .                          2 : RUN NUMBER
DD  .M                      4183 : DEPTH DRILLER
DL  .M                    4185.5 : DEPTH LOGGER
BLI .M                    4184.6 : BOTTOM LOG INTERVAL
TLI .M                    2582.5 : TOP LOG INTERVAL
CS  .MM                      244 : CASING SIZE
CBD .M                    2582.6 : CASING BOTTOM DRILLER
CBL .M                    2582.5 : CASING BOTTOM LOGGER
BS  .MM                      216 : BIT SIZE
BSD .M                      4183 : BIT SIZE AT DEPTH
DFT .                        KCL : DRILLING FLUID TYPE
DFD .                       1060 : DRILLING FLUID DENSITY
DFV .                         64 : DRILLING FLUID VISCOSITY
DFPH.                         11 : DRILLING FLUID PH
DFL .                         12 : DRILLING FLUID LOSS
MSS .                CIRCULATION : MUD SAMPLE SOURCE
RMS .OHMM                  0.339 : RESISTIVITY MUD SAMPLE
MST .DEGC                   27.8 : MUD SAMPLE TEMPERATURE
RMF .OHMM                  0.267 : RESISTIVITY MUD FILTRATE SAMPLE
MFST.DEGC                   18.3 : MUD FILTRATE SAMPLE TEMPERATURE
MFSS.                      PRESS : MUD FILTRATE SAMPLE SOURCE
MCSS.                       MEAS : MUD CAKE SAMPLE SOURCE
RMB .OHMM                  0.118 : RESISTIVITY MUD AT BHT
TCS .HRS                     800 : TIME CIRCULATED STOPPED
TLAB.HRS                    2030 : TIME LOGGER AT BOTTOM
LUN .                       8112 : LOGGING UNIT NUMBER
LUL .                      EDSON : LOGGING UNIT LOCATION
ENGI.                    LEBLANC : RECORDING ENGINEER
WITN.                  MACDONALD : WITNESSED BY
CLNT.                    A2DTECH : CLIENT CODE
ORIG. 6.5"/100M 16.5"/100M PRINT : ORIGIN OF DATA
UWI .           100132405522W500 : UNIQUE WELL ID
DICO.     A2D Technologies, Inc. : DIGITIZING COMPANY
~Other -----------------------------------------------------
~ASCII -----------------------------------------------------
  350.00000    -999.25  344.63730    -999.25    -999.25    -999.25  264.78450    -999.25   47.03490   54.37700   18.76830   13.24500    -999.25    -999.25    -999.25   57.87230
  400.00000  383.73730  346.15360  -52.39810    -999.25    0.57180  331.02980   65.71900   68.37130   73.39040   25.54010   29.93170    -999.25    0.56420 1751.67650  -39.14230
  450.00000  410.61710  349.69370   27.93060    -999.25    0.17600  290.10120   84.64040   62.95520   73.56520   11.59050    7.85820    -999.25    0.29970 2358.55130  -46.73320
  500.00000    -999.25  346.23490    -999.25    -999.25    -999.25  316.35640    -999.25   76.50210   89.07590   10.57050    5.99500    -999.25    -999.25    -999.25  -46.87200
  550.00000    -999.25  328.13000    -999.25    -999.25    -999.25  230.14720    -999.25   42.18250   46.22710   30.67130   22.52160    -999.25    -999.25    -999.25  -36.73850
  600.00000    -999.25  341.63470    -999.25    -999.25    -999.25  271.70100    -999.25   74.96110   83.20620   11.81970    8.40040    -999.25    -999.25    -999.25  -47.61930
  650.00000    -999.25  351.02910    -999.25    -999.25    -999.25  338.37480    -999.25   84.08200   96.29770    7.03790    6.24380    -999.25    -999.25    -999.25  -53.03980
  700.00000  363.62710  337.05200   60.95980    -999.25    0.27160  266.60730   82.62530   71.55690   89.02780   14.75140    9.27210    -999.25    0.32270 2184.80790  -55.62090
  750.00000  327.14180  345.54320   -6.12100    -999.25    0.06140  273.52530   80.53740   81.57200   88.66590   15.29980    9.74510    -999.25    0.41780 2543.84160  -40.84310
  800.00000    -999.25  340.42340    -999.25    -999.25    -999.25  256.54800    -999.25   64.03750   72.54500   12.20980   10.00260    -999.25    -999.25    -999.25  -41.71130
  850.00000    -999.25  326.72720    -999.25    -999.25    -999.25  253.53610    -999.25   76.31400   76.14930   12.66460   10.33370    -999.25    -999.25    -999.25  -42.61940
  900.00000  317.25400  342.22220   -2.50490    -999.25    0.07450  261.93210   74.85350   63.76280   68.70990   13.52260   10.95510    -999.25    0.28910 2529.57690  -51.28600
  950.00000  313.12870  327.06030   29.90110    -999.25    0.05000  207.16680   50.81610   47.38320   55.09340   52.73290   33.84070    -999.25    0.18540 2561.32080  -49.47510
 1000.00000    -999.25  352.38930    -999.25    -999.25    -999.25  283.54430    -999.25   69.99430   80.94500    7.31800    5.41370    -999.25    -999.25    -999.25  -52.76770
 1050.00000    -999.25  340.08610    -999.25    -999.25    -999.25  222.94210    -999.25   57.00620   66.53030   20.57360   13.44310    -999.25    -999.25    -999.25  -46.99520
 1100.00000    -999.25  335.43710    -999.25    -999.25    -999.25  270.66960    -999.25   67.77250   73.21710    8.73140    7.15690    -999.25    -999.25    -999.25  -42.47360
 1150.00000    -999.25  342.77150    -999.25    -999.25    -999.25  282.50570    -999.25   76.15620   81.56500   10.68850    8.26410    -999.25    -999.25    -999.25  -41.22950
 1200.00000    -999.25  339.22000    1.88560    -999.25    -999.25  243.12750    -999.25   71.28070   74.09890   14.05900   10.81660    -999.25    -999.25 2507.91870  -45.51350
 1250.00000  311.65660  333.45130    0.53380    -999.25    0.06760  226.22580   52.71420   47.18390   47.15460   39.73860   33.28460    -999.25    0.20340 2536.46750  -37.40820
 1300.00000  319.07680  354.95950   -2.30670    -999.25    0.06360  271.29630   91.52670   69.20010   78.13260   12.11180    7.94980    -999.25    0.30550 2543.92210  -44.47360
 1350.00000    -999.25  336.85270    -999.25    -999.25    -999.25  229.16660    -999.25   45.14500   53.68960   27.12010   20.93530    -999.25    -999.25    -999.25  -41.74610
 1400.00000  314.57680  358.23100    1.42690    -999.25    0.09280  274.66430   90.63240   77.36900   83.53480   11.97760    9.98330    -999.25    0.34050 2489.63010  -47.40060
 1450.00000  414.17120  356.05010   43.81910    -999.25    0.35390  272.70680   67.54310   61.26130   60.86770   17.91560   12.36100    -999.25    0.47310 2054.19410  -26.15680
 1500.00000  323.15990  359.74500   21.84770    -999.25    0.07040  253.06790   55.23260   52.07250   54.63680   26.92340    9.32720    -999.25    0.34280 2533.52370  -47.61940
 1550.00000  318.32610  366.49440   16.51810    -999.25    0.20100  275.90500   68.56690   57.26170   63.89500   13.88850    8.79490    -999.25    0.50960 2312.56540  -47.84390
 1600.00000    -999.25  341.52590    -999.25    -999.25    -999.25  228.20560    -999.25   45.49840   50.47560   36.13710   27.07780    -999.25    -999.25    -999.25  -37.39830
 1650.00000  324.74440  349.09200    1.06470    -999.25    0.05870  251.35730   60.29290   59.96710   62.42290   24.97890   13.34810    -999.25    0.36400 2548.50220  -40.06970
 1700.00000  316.73280  326.19440   18.23970    -999.25    0.02260  205.71290   39.47340   33.23920   37.59160   86.04360   62.35340    -999.25    0.21560 2612.86570  -39.61100
 1750.00000    -999.25  338.54580    -999.25    -999.25    -999.25  227.31010    -999.25   73.55050   79.29650   36.06730   31.80180    -999.25    -999.25    -999.25  -42.63010
 1800.00000    -999.25  339.86500    -999.25    -999.25    -999.25  252.07730    -999.25   82.42450   90.34700   15.33640   13.54930    -999.25    -999.25    -999.25  -41.21640
 1850.00000    -999.25  338.36350    -999.25    -999.25    -999.25  243.37720    -999.25   79.67710   77.21030   27.48400   26.61550    -999.25    -999.25    -999.25  -49.05140
 1900.00000    -999.25  343.78660    -999.25    -999.25    -999.25  266.55230    -999.25   83.14810   90.66940   10.80030   10.39040    -999.25    -999.25    -999.25  -38.75280
 1950.00000    -999.25  339.20790    -999.25    -999.25    -999.25  254.84010    -999.25   83.63720   89.59460   11.86130   11.31380    -999.25    -999.25    -999.25  -34.90130
 2000.00000    -999.25  344.54900    -999.25    -999.25    -999.25  259.63020    -999.25   80.59290   87.93070   10.10520    9.58080    -999.25    -999.25    -999.25  -37.50910
 2050.00000  318.44880  349.91830   -8.28000    -999.25    0.03810  260.54010   89.27430   79.14380   88.02940   11.20900   10.14750    -999.25    0.27860 2584.82540  -35.10470
 2100.00000  311.61990  327.26370   -0.39070    -999.25    0.03370  227.18910   86.19550   71.24300   80.69850   25.70350   24.25820    -999.25    0.23520 2592.21660  -39.00280
 2150.00000  314.56550  334.74600    5.46780    -999.25    0.03880  227.88720   84.32770   72.92010   80.59730   20.88950   19.59930    -999.25    0.23460 2584.17360  -33.43780
 2200.00000    -999.25  331.52890    -999.25    -999.25    -999.25  286.10970    -999.25   86.25700   95.64920   11.15850   11.55540    -999.25    -999.25    -999.25  -31.89340
 2250.00000    -999.25  330.52380    -999.25    -999.25    -999.25  283.36340    -999.25   82.06850   91.85470   11.30110   11.50280    -999.25    -999.25    -999.25  -33.26050
 2300.00000    -999.25  340.43330    -999.25    -999.25    -999.25  295.03110    -999.25   88.06590   93.36500   12.50950   12.86160    -999.25    -999.25    -999.25  -26.87990
 2350.00000    -999.25  338.70680    -999.25    -999.25    -999.25  291.88620    -999.25   79.53550   85.82840    9.16920    9.41830    -999.25    -999.25    -999.25  -27.92740
 2400.00000  327.37410  335.81800   -2.32430    -999.25    0.04550  264.57460   94.33690   70.82880   73.10150    7.58780    7.95340    -999.25    0.26370 2573.75780  -27.76320
 2450.00000  325.51670  321.76570   -3.12690    -999.25    0.03010  263.96800  101.77300   83.68020  100.57620    8.22080    8.76610    -999.25    0.25630 2598.71680  -29.15740
 2500.00000  325.63630  328.35010   -6.40110    -999.25    0.03450  280.37820  102.38960   84.92200   89.75810    6.98670    7.64990    -999.25    0.28890 2591.76390  -22.56740
 2550.00000  344.25130  326.08170   30.18380    -999.25    0.13450  272.96510   99.12490   76.33510   77.42640    6.70870    7.42950    -999.25    0.28330 2430.28960  -25.59180
 2600.00000  341.77920  280.41680 -128.41240    -999.25    0.37530  359.74170   75.39230   68.02480   67.36440    9.50430    8.68780    -999.25    0.48000 2074.59890  -96.79980
