~Version ---------------------------------------------------
VERS.      2.0 : CWLS log ASCII Standard -VERSION 2.0
WRAP.       NO : One line per depth step
CREA. 07/28/17 : LAS Creation Date
~Well ------------------------------------------------------
STRT.FT                            1150.0 : START DEPTH
STOP.FT                           11800.0 : STOP DEPTH
STEP.FT                          50.00000 : STEP LENGTH
NULL.                             -999.25 : NULL VALUE
COMP.     WESTCOAST PETROLEUM (1985) LTD. : COMPANY
WELL. PURE TPC&O BAYSEL BINGLEY 4-23-40-7 : WELL
FLD .                                     : FIELD
LOC .                                     : LOCATION
CTRY.                              CANADA : COUNTRY
SRVC.                             Unknown : SERVICE COMPANY
DATE.                         09-Mar-1960 : LOGDATE
PROV.                             Alberta : PROVINCE
UWI .                    100042304007W500 : UNIQUE WELL ID
SLAT.WGS84                       52.45248 : SURFACE LATITUDE
SLON.WGS84                      -114.9091 : SURFACE LONGITUDE
~Curve Information -----------------------------------------
DEPT  .FT         : Depth Curve
CALMED.IN         : CALIPER ML ADJ TO SONIC
CALWS .IN         : CALIPER (MCALED/CALMED @ 9357')
DTED  .US/F       : DELTA TIME
DTWS  .US/F       : DELTA TIME  (DTED)
GRSED .UgRa-Eq/T  : GAMMA RAY
GRWS  .GAPI       : GAMMA RAY (GRSED*16.5)
MCALED.IN         : Micro Caliper  ML ADJ TO SONIC
MINVED.OHMM       : MICRO INVERSE RESISTIVITY ADJ TO SONIC
MLLED .OHMM       : MICROLATEROLOG ADD TO SONIC
MNORED.OHMM       : MICRO NORMAL RESISTIVITY ADJ TO SONIC
~Params ----------------------------------------------------
PD  .                    MSL : PERMANENT DATUM
LMF .                     KB : LOG MEASURED FROM
DAPD.FT                 3223 : FEET ABOVE PERMANENT DATUM
DMF .                     KB : DRILLING MEASURED FROM
EKB .FT                 3223 : KELLY BUSHING
EGL .FT                 3206 : GROUND LEVEL
DATE.               03/09/60 : RUN DATE
RUN .                      1 : RUN NUMBER
DD  .FT                11823 : DEPTH DRILLER
BLI .FT                11810 : BOTTOM LOG INTERVAL
TLI .FT                 1216 : TOP LOG INTERVAL
CBD .FT                 1216 : CASING BOTTOM DRILLER
CBL .FT                 1221 : CASING BOTTOM LOGGER
BSD .FT                11823 : BIT SIZE AT DEPTH
DFT .                   LIME : DRILLING FLUID TYPE
DFD .                   10.3 : DRILLING FLUID DENSITY
DFV .                    127 : DRILLING FLUID VISCOSITY
DFPH.                     13 : DRILLING FLUID PH
DFL .                    3.2 : DRILLING FLUID LOSS
RMF .OHMM               0.51 : RESISTIVITY MUD FILTRATE SAMPLE
MFST.DEGF                 77 : MUD FILTRATE SAMPLE TEMPERATURE
RMB .OHMM               0.29 : RESISTIVITY MUD AT BHT
TCS .HRS                   9 : TIME CIRCULATED STOPPED
LUN .                   2548 : LOGGING UNIT NUMBER
LUL .                     RD : LOGGING UNIT LOCATION
ENGI.                LAVERTY : RECORDING ENGINEER
WITN.              ZASEYBIDA : WITNESSED BY
CLNT.                A2DTECH : CLIENT CODE
ORIG.            2" 5" PRINT : ORIGIN OF DATA
UWI .       100042304007W500 : UNIQUE WELL ID
DICO. A2D Technologies, Inc. : DIGITIZING COMPANY
~Other -----------------------------------------------------
~ASCII -----------------------------------------------------
# ...
 7750.00000    -999.25   10.60050   64.11040   64.11040    3.77920   62.35680   10.60050   15.05760    -999.25   10.42280
 7800.00000    -999.25   11.19430   78.49670   78.49670    5.33100   87.96150   11.19430    5.87250    -999.25    5.75030
 7850.00000    -999.25   11.92690   68.28320   68.28320    4.73140   78.06810   11.92690   12.23020    -999.25    8.45240
 7900.00000    -999.25   12.94720   69.23600   69.23600    3.82900   63.17850   12.94720    8.57940    -999.25    7.51650
 7950.00000    -999.25   10.56140   68.11840   68.11840    6.07100  100.17150   10.56140   12.89900    -999.25    9.32360
 8000.00000    -999.25   12.16780   64.62970   64.62970    4.99670   82.44550   12.16780   20.52080    -999.25   12.13580
 8050.00000    -999.25   10.67700   66.12740   66.12740    4.11230   67.85300   10.67700   14.50290    -999.25    8.53650
 8100.00000    -999.25   11.70140   71.34670   71.34670    3.45320   56.97780   11.70140    6.32010    -999.25    9.15690
 8150.00000    -999.25   11.37830   80.79790   80.79790    5.88000   97.02000   11.37830   23.80020    -999.25    8.40260
 8200.00000    -999.25   11.76830   71.11800   71.11800    5.81520   95.95160   11.76830   17.77430    -999.25   12.65210
 8250.00000    -999.25   13.24360   69.20660   69.20660    4.08520   67.40580   13.24360    4.69930    -999.25    8.05870
 8300.00000    -999.25    9.86030   38.91050   38.91050    4.55470   75.15260    9.86030   40.00000    -999.25   40.00000
 8350.00000    -999.25   12.18700   79.41450   79.41450    6.45790  106.55540   12.18700    3.02740    -999.25    4.77140
 8400.00000    -999.25   11.18760   50.02880   50.02880    2.57410   42.47270   11.18760    8.72400    -999.25   19.67270
 8450.00000    -999.25    9.91210   51.21020   51.21020    2.22820   36.76450    9.91210    9.29800    -999.25   11.72600
 8500.00000    -999.25    8.24340   51.39170   51.39170    1.26870   20.93360    8.24340    3.61510    -999.25    5.92290
 8550.00000    -999.25    9.96670   45.11260   45.11260    2.87760   47.48040    9.96670    6.89700    -999.25   11.92740
 8600.00000    -999.25    8.01350   48.17880   48.17880    2.22440   36.70260    8.01350    3.22610    -999.25    5.91120
 8650.00000    -999.25    9.00100   45.63080   45.63080    2.36520   39.02580    9.00100   39.99490    -999.25   39.98890
 8700.00000    -999.25    7.90190   50.01740   50.01740    2.61980   43.22670    7.90190    2.95400    -999.25    5.51160
 8750.00000    -999.25   10.28800   53.84930   53.84930    3.15700   52.09050   10.28800    2.10760    -999.25    6.57570
 8800.00000    -999.25    9.28430   46.29100   46.29100    3.28040   54.12660    9.28430    6.67330    -999.25   13.57040
 8850.00000    -999.25    8.80610   47.76250   47.76250    3.25760   53.75040    8.80610   40.00000    -999.25   39.97270
 8900.00000    -999.25    9.11240   47.53200   47.53200    2.62400   43.29600    9.11240    3.76660    -999.25    7.72270
 8950.00000    -999.25    8.58280   49.90160   49.90160    3.03900   50.14350    8.58280   32.10730    -999.25   32.60600
 9000.00000    -999.25    8.69320   47.31130   47.31130    2.92760   48.30540    8.69320   20.62550    -999.25   21.90360
 9050.00000    -999.25    8.71530   47.32350   47.32350    2.71460   44.79090    8.71530    8.15040    -999.25    6.42020
 9100.00000    -999.25    8.95680   48.87100   48.87100    3.02300   49.87950    8.95680   10.03790    -999.25   11.83400
 9150.00000    -999.25    8.66810   49.81760   49.81760    3.35060   55.28490    8.66810   33.45020    -999.25   39.95420
 9200.00000    -999.25    9.80780   49.85530   49.85530    3.46420   57.15850    9.80780    1.96930    -999.25    5.30680
 9250.00000    9.42090    8.88640   50.43040   50.43040    3.64690   60.17390    8.88640   13.22630   91.39470   20.31470
 9300.00000    9.24160    8.72880   48.34290   48.34290    2.12600   35.07900    8.72880   31.70950   34.38530   34.98200
 9350.00000   10.43870    9.90360   41.06020   41.06020    1.64060   27.06990    9.90360    0.61370    2.26690    1.25100
 9400.00000    9.51910    9.51910   44.16920   44.16920    0.98450   16.24430    8.44240    4.59720   35.19240    7.97910
 9450.00000    9.33130    9.33130   41.45500   41.45500    1.35340   22.33110    -999.25    -999.25  123.32160    -999.25
 9500.00000    9.02130    9.02130   46.11220   46.11220    1.18800   19.60200    -999.25    -999.25   29.50750    -999.25
 9550.00000   10.07850   10.07850   44.81520   44.81520    1.31890   21.76180    -999.25    -999.25    6.32960    -999.25
 9600.00000   10.23010   10.23010   47.95310   47.95310    1.23320   20.34780    -999.25    -999.25    3.05780    -999.25
 9650.00000   10.30910   10.30910   45.07840   45.07840    0.93030   15.35000    -999.25    -999.25    5.84110    -999.25
 9700.00000   11.50830   11.50830   42.82520   42.82520    1.38490   22.85170    -999.25    -999.25    2.01620    -999.25
 9750.00000    9.91480    9.91480   45.69550   45.69550    1.37220   22.64130    -999.25    -999.25    3.96620    -999.25
 9800.00000    9.31820    9.31820   43.34040   43.34040    1.49070   24.59650    -999.25    -999.25    2.59590    -999.25
 9850.00000   10.05510   10.05510   41.90930   41.90930    0.99560   16.42740    -999.25    -999.25    6.31270    -999.25
 9900.00000    9.81380    9.81380   45.81400   45.81400    1.41280   23.31120    -999.25    -999.25    4.70140    -999.25
 9950.00000    9.12110    9.12110   39.68720   39.68720    0.76420   12.60930    -999.25    -999.25  149.31240    -999.25
 10000.00000    9.02550    9.02550   39.83770   39.83770    1.03230   17.03300    -999.25    -999.25  102.43530    -999.25
 10050.00000    8.65080    8.65080   39.97240   39.97240    1.07840   17.79360    -999.25    -999.25  134.85240    -999.25
 10100.00000    9.70750    9.70750   48.90620   48.90620    4.53850   74.88520    -999.25    -999.25    4.84970    -999.25
 10150.00000    9.61520    9.61520   43.29450   43.29450    1.89570   31.27900    -999.25    -999.25    9.41180    -999.25
 10200.00000    8.89520    8.89520   44.28950   44.28950    1.19330   19.68950    -999.25    -999.25   86.98070    -999.25
 10250.00000    8.82670    8.82670   46.23920   46.23920    0.77590   12.80240    -999.25    -999.25   39.87820    -999.25
 10300.00000    8.92090    8.92090   41.90040   41.90040    2.08430   34.39090    -999.25    -999.25   82.98710    -999.25
 10350.00000    -999.25    -999.25   55.73420   55.73420    3.59650   59.34230    -999.25    -999.25    -999.25    -999.25
 10400.00000    -999.25    -999.25   56.73260   56.73260    5.80480   95.77920    -999.25    -999.25    -999.25    -999.25
 10450.00000    -999.25    -999.25   66.66280   66.66280    6.67730  110.17550    -999.25    -999.25    -999.25    -999.25
 10500.00000    -999.25    -999.25   63.11950   63.11950    6.88010  113.52160    -999.25    -999.25    -999.25    -999.25
 10550.00000    -999.25    -999.25   67.90020   67.90020    7.12310  117.53120    -999.25    -999.25    -999.25    -999.25
 10600.00000    -999.25    -999.25   65.81250   65.81250    7.25160  119.65140    -999.25    -999.25    -999.25    -999.25
 10650.00000    -999.25    -999.25   67.17270   67.17270    7.00170  115.52800    -999.25    -999.25    -999.25    -999.25
 10700.00000    -999.25    -999.25   65.63050   65.63050    6.41670  105.87470    -999.25    -999.25    -999.25    -999.25
 10750.00000    -999.25    -999.25   64.56920   64.56920    5.80420   95.76930    -999.25    -999.25    -999.25    -999.25
 10800.00000    -999.25    -999.25   65.74960   65.74960    6.06590  100.08740    -999.25    -999.25    -999.25    -999.25
 10850.00000    -999.25    -999.25   61.44230   61.44230    5.31040   87.62160    -999.25    -999.25    -999.25    -999.25
 10900.00000    -999.25    -999.25   66.40980   66.40980    6.29420  103.85430    -999.25    -999.25    -999.25    -999.25
 10950.00000    -999.25    -999.25   66.72540   66.72540    6.09720  100.60380    -999.25    -999.25    -999.25    -999.25
 11000.00000    -999.25    -999.25   67.57700   67.57700    6.05380   99.88770    -999.25    -999.25    -999.25    -999.25
