~Version ---------------------------------------------------
VERS.      2.0 : CWLS log ASCII Standard -VERSION 2.0
WRAP.       NO : ONE LINE PER DEPTH STEP
CREA. 07/10/13 : LAS CREATION DATE
~Well ------------------------------------------------------
STRT.M                           450.0 : START DEPTH
STOP.M                          3700.0 : STOP DEPTH
STEP.M                        50.00000 : STEP LENGTH
NULL.                          -999.25 : NULL VALUE
COMP. AMOCO CANADA PETROLEUM CO., LTD. : COMPANY
WELL.        AMOCO BIGSTONE 16-1-61-22 : WELL
FLD .                        BIGSTONSE : FIELD
LOC .                                  : LOCATION
CTRY.                           CANADA : COUNTRY
SRVC.                    Dresser Atlas : SERVICE COMPANY
DATE.                      30-Apr-1982 : LOGDATE
PROV.                          Alberta : PROVINCE
UWI .                 100160106122W500 : UNIQUE WELL ID
SLAT.WGS84                    54.25341 : SURFACE LATITUDE
SLON.WGS84                   -117.1518 : SURFACE LONGITUDE
~Curve Information -----------------------------------------
DEPT    .M                                                                               : DEPTH METERS
ACED    .US/M                                                                            : ACOUSTIC FROM SONIC LOG
CALDED  .MM                                                                              : CALIPER FROM DENSITY LOG [DEPTH SHIFTED TO RES.]
CALSED  .MM                                                                              : CALIPER FROM SONIC LOG
CALWS   .MM                                                                              : CALIPER [CALSED]
CONDWS  .MMHO                                                                            : CONDUCTIVITY [1000/DRESWS]
CORRED  .KG/M3                                                                           : DENSITY CORRECTION FROM DENSITY LOG [DEPTH SHIFTED TO RES.]
DCORWS  .KG/M3                                                                           : DENSITY CORRECTION [CORRED]
DENED   .KG/M3                                                                           : BULK DESNITY FROM DENSITY LOG [DEPTH SHIFTED TO RES.]
DENWS   .KG/M3 :   BULK DENSITY [SPLICE:DEN2/DENED@2425.9. DEN2 CALCULATED FROM DPHISSED : M=2650, F=1000]
DPHILSED.V/V                                                                             : DENSITY POROSITY LIMESTONE FROM DENSITY LOG [DEPTH SHIFTED TO RES.]
DPHISSED.V/V                                                                             : DENSITY POROSITY SANDSTONE FROM DENSITY LOG [DEPTH SHIFTED TO RES.]
DPOLSWS .V/V                       :   DENSITY POROSITY LIMESTONE [CALCULATED FROM DENWS : M=2710, F=1000]
DRESWS  .OHMM                                               :   DEEP RESISTIVITY [SPLICE : ILD_1ED/LLDED@2427.7]
DTWS    .US/M                                                                            : DELTA TIME [ACED]
GRDED   .GAPI                                                                            : GAMMA RAY FROM DENSITY LOG [DEPTH SHIFTED TO RES.]
GRR_1ED .GAPI                                                                            : GAMMA RAY FROM DILSFL LOG
GRRED   .GAPI                                                                            : GAMMA RAY FROM DUAL LATEROLOG
GRSED   .GAPI                                                                            : GAMMA RAY FROM SONIC LOG
GRWS    .GAPI                                                      :   GAMMA RAY [SPLICE : GRDED/GRRED@3091.8. CASED FROM 2420.5 TO 2429.5, AND ABOVE 434]
ILD_1ED .OHMM                                                                            : DEEP INDUCTION RESISTIVITY
ILM_1ED .OHMM                                                                            : MEDIUM INDUCTION RESISTIVITY
LLDED   .OHMM                                                                            : LATEROLOG DEEP RESISTIVITY [DEPTH SHIFTED TO RES.]
LLSED   .OHMM                                                                            : LATEROLOG SHALLOW RESISTIVITY [DEPTH SHIFTED TO RES.]
MRESWS  .OHMM                                                                            : MEDIUM RESISTIVITY [ILM_1ED]
NPHILSED.V/V                                                                             : NEUTRON POROSITY LIMESTONE FROM DENSITY LOG [DEPTH SHIFTED TO RES.]
NPHISSED.V/V                                                                             : NEUTRON POROSITY SANDSTONE FROM DENSITY LOG [DEPTH SHIFTED TO RES.]
NPOLSWS .V/V                                      :   NEUTRON POROSITY LIMESTONE [SPLICE : NPHI2/NPHILSED@2421.8. SEE BELOW REMARKS IN OTEHR INFORMATION REGARDING TEMPORARY CURVE NPHI2]
SFL_1ED .OHMM                                                                            : SPHERICALLY FOCUSED LOG RESISTIVITY
SPR_1ED .MV                                                                              : SPONTANEOUS POTENTIAL FROM DILSFL LOG
SPRED   .MV                                                                              : SPONTANEOUS POTENTIAL FROM DUAL LATEROLOG [DEPTH SHIFTED TO RES.]
SPWS    .MV                                                                              : SPONTANEOUS POTENTIAL [BASELINE 0 MV] [SPR_1ED]
SRESWS  .OHMM                                            :   SHALLOW RESISTIVITY [SPLICE : SFL_1ED/LLSED@2427.9, SFL_1ED@3697.8]
TENDED  .LBF                                                                             : TENSION FROM DENSITY LOG [DEPTH SHIFTED TO RES.]
TENRED  .LBF                                                                             : TENSION FROM DUAL LATEROLOG [DEPTH SHIFTED TO RES.]
TENSED  .LBF                                                                             : TENSION FROM SONIC LOG
~Params ----------------------------------------------------
PD  .                         GL : PERMANENT DATUM
EPD .M                     956.1 : ELEVATION PERMANENT DATUM
LMF .                         KB : LOG MEASURED FROM
DAPD.M                       7.7 : FEET ABOVE PERMANENT DATUM
DMF .                         KB : DRILLING MEASURED FROM
EKB .M                     963.8 : KELLY BUSHING
EGL .M                     956.1 : GROUND LEVEL
DATE.                   04/30/82 : RUN DATE
RUN .                          3 : RUN NUMBER
DD  .M                      3700 : DEPTH DRILLER
DL  .M                      3704 : DEPTH LOGGER
BLI .M                      3703 : BOTTOM LOG INTERVAL
TLI .M                      2429 : TOP LOG INTERVAL
CBD .M                      2430 : CASING BOTTOM DRILLER
CBL .M                      2429 : CASING BOTTOM LOGGER
BS  .MM                      216 : BIT SIZE
BSD .M                      3700 : BIT SIZE AT DEPTH
DFT .                  GEL BENEX : DRILLING FLUID TYPE
DFD .                       1100 : DRILLING FLUID DENSITY
DFV .                         55 : DRILLING FLUID VISCOSITY
DFPH.                        9.5 : DRILLING FLUID PH
DFL .                        8.5 : DRILLING FLUID LOSS
MSS .                   FLOWLINE : MUD SAMPLE SOURCE
RMS .OHMM                    1.1 : RESISTIVITY MUD SAMPLE
MST .DEGC                     20 : MUD SAMPLE TEMPERATURE
RMF .OHMM                    1.0 : RESISTIVITY MUD FILTRATE SAMPLE
MFST.DEGC                     20 : MUD FILTRATE SAMPLE TEMPERATURE
RMC .OHMM                    1.8 : RESISTIVITY MUD CAKE
MCST.DEGC                     20 : MUD CAKE SAMPLE TEMPERATURE
MFSS.                       MEAS : MUD FILTRATE SAMPLE SOURCE
MCSS.                       MEAS : MUD CAKE SAMPLE SOURCE
RMB .OHMM                   0.34 : RESISTIVITY MUD AT BHT
TCS .HRS                      20 : TIME CIRCULATED STOPPED
LUN .                    HL 6265 : LOGGING UNIT NUMBER
LUL .                        EDM : LOGGING UNIT LOCATION
ENGI.               MURRY WERNER : RECORDING ENGINEER
WITN.            PHILLIPS WILSON : WITNESSED BY
CLNT.                    A2DTECH : CLIENT CODE
ORIG. 6.5"/100M 16.5"/100M PRINT : ORIGIN OF DATA
UWI .           100160106122W500 : UNIQUE WELL ID
DICO.     A2D Technologies, Inc. : DIGITIZING COMPANY
~Other -----------------------------------------------------
1. CNLD TOOL DEPTH SHFITED TO RES. VIA SPLICE OF NPHISS AND NPHILS TO SFL_1. SHIFT APPLIED TO REST OF TOOL.
2. TEMPORARY CURVE NPHI2 (LIMESTONE) CALCULATED FROM NPHISSED, COMPANY=BAKER-HUGHES, TOOL TYPE=2420. INPUT MATRIX=QUARTZ, OUTPUT MATRIX=LIME. SPLICED NPHI2 TO NPHILSED TO MAKE NPOLSWS.
3. CALCUALTED DEN2 FROM DPHISSED M=2650, F=1000. SPLICED DEN2/DENED TO MAKE DENWS. CALUCLATED DPOLSWS FROM DENWS (M=2710, F=1000).
4. OTHER SHIFTING IN WELL WAS SLIGHT, WITH DUAL LATEROLOG TOOL SHFITED VIA LLS TO SFL_1.
5. WSR GAMMA RAY AND NEUTRON POROSITY CURVES TAKEN INTO CASING AS FAR AS POSSIBLE AS PER SPECS.
~ASCII -----------------------------------------------------
# ...
 2550.00000  166.19120  300.46760  224.60480  224.60480   21.12280  191.39200  191.39200 2510.78050 2510.78050    0.12920    -999.25    0.11650   47.34230  166.19120   39.78410    -999.25   36.08440   31.67850   39.78410   48.55680   49.91310   47.34230   84.42580   49.91310    0.12240    -999.25    0.12240  182.02410 -122.40480 -114.26000  -83.05430   84.42580   -0.84650    6.86030   12.44540
 2600.00000  178.87550  332.20000  228.97080  228.97080   30.90950  237.15000  237.15000 2618.00930 2618.00930    0.07050    -999.25    0.05380   32.35250  178.87550   68.56020    -999.25   70.55780   64.26660   68.56020   79.38050   37.74040   32.35250   47.20750   37.74040    0.11410    -999.25    0.11410   49.19870 -105.09090 -101.32780  -79.35360   47.20750   97.55650  -16.07000   10.95900
 2650.00000  159.84920  266.33250  233.26330  233.26330    0.18380  110.45000  110.45000 2856.88940 2856.88940   -0.05100    -999.25   -0.08590 5440.29150  159.84920   17.12450    -999.25    9.52590    8.21760   17.12450 1998.47300 1958.38150 5440.29150 16827.60160 1958.38150    0.02760    -999.25    0.02760 2000.00000 -110.94290 -110.77480  -98.81880 16827.60160   54.40410  -14.09640   12.47340
 2700.00000  192.00230  244.67750  225.17070  225.17070   79.44520   79.70000   79.70000 2629.96140 2629.96140    0.04430    -999.25    0.04680   12.58730  192.00230   48.78900    -999.25   63.73870   51.95720   48.78900    7.12700    8.29130   12.58730   19.37760    8.29130    0.12300    -999.25    0.12300   16.66990  -45.69920  -81.13490  -47.18830   19.37760   28.47150    7.59780   10.03700
 2750.00000  179.84380  246.76000  223.38840  223.38840   23.61790  107.85000  107.85000 2732.53490 2732.53490   -0.01240    -999.25   -0.01320   42.34070  179.84380   48.02190    -999.25   43.86610   38.45220   48.02190   63.52010   69.48370   42.34070   54.19030   69.48370    0.07130    -999.25    0.07130   91.40970 -116.62990  -39.52400 -114.23930   54.19030   31.95130  -12.53380   11.34900
 2800.00000  172.29490  253.49500  228.77830  228.77830   17.52250  106.25000  106.25000 2681.50950 2681.50950    0.01430    -999.25    0.01670   57.06950  172.29490   36.15190    -999.25   38.55790   32.33800   36.15190  165.15430  162.47210   57.06950  103.78530  162.47210    0.06240    -999.25    0.06240  294.42380  -21.76920  -44.20840  -14.68580  103.78530   12.41620   -1.12440   10.96040
 2850.00000  175.64160  248.74000  220.56010  220.56010   14.31360   74.65000   74.65000 2730.24220 2730.24220   -0.01160    -999.25   -0.01180   69.86360  175.64160   61.84370    -999.25   58.43550   52.52170   61.84370  193.06780  565.58660   69.86360  134.41420  565.58660    0.05750    -999.25    0.05750  257.49690  -81.54410  -40.57170  -65.47870  134.41420  -13.52720   -7.41590   10.92240
 2900.00000  160.62880  296.76500  233.36260  233.36260    2.09180  221.35000  221.35000 2757.04150 2757.04150   -0.02580    -999.25   -0.02750  478.04960  160.62880   24.63350    -999.25   23.67490   19.28010   24.63350 1989.81930 2000.00000  478.04960 1196.79790 2000.00000    0.01760    -999.25    0.01760 1981.98720  -99.10650  -89.86420  -72.85690 1196.79790   14.12880   10.82650   13.00400
 2950.00000  166.48040  310.33750  227.71940  227.71940    0.38720  228.55000  228.55000 2542.90230 2542.90230    0.10710    -999.25    0.09770 2582.33200  166.48040   16.45950    -999.25   14.83140   11.25170   16.45950 1998.12630 2000.00000 2582.33200 3710.21530 2000.00000    0.03220    -999.25    0.03220 1987.79030 -114.74570 -101.29590  -78.31200 3710.21530    7.48750   -4.07910   12.03600
 3000.00000  161.01750  319.30250  231.61590  231.61590    0.95890  250.10000  250.10000 2475.96800 2475.96800    0.15250    -999.25    0.13690 1042.88210  161.01750   27.51040    -999.25   20.13470   14.77540   27.51040 2000.00000 2000.00000 1042.88210 2205.81350 2000.00000    0.03600    -999.25    0.03600 1993.59340 -153.32670  -97.65700 -106.70880 2205.81350  185.77800    5.05230   13.31300
 3050.00000  162.92990  347.37250  223.89000  223.89000    0.75910  190.45000  190.45000 2561.26660 2561.26660    0.08440    -999.25    0.08700 1317.40990  162.92990   15.83660    -999.25   15.60770   10.54460   15.83660 2000.00000 2000.00000 1317.40990 1183.72420 2000.00000    0.04370    -999.25    0.04370 1999.39650 -146.16500 -104.19360  -89.36290 1183.72420   46.54570    0.71090   12.71260
 3100.00000  173.85300  237.27250  229.15860  229.15860    3.01860  125.60000  125.60000 2615.71070 2615.71070    0.05960    -999.25    0.05510  331.28260  173.85300   20.44710    -999.25   14.69560    9.74520   20.44710 2000.00000 1981.63660  331.28260  274.62800 1981.63660    0.06730    -999.25    0.06730 2000.00000 -120.45020 -107.95570  -53.46400  274.62800   40.93720    9.10140   11.56680
 3150.00000  151.60310  261.90000  229.93940  229.93940    3.14570  199.65000  199.65000 2773.84060 2773.84060   -0.03480    -999.25   -0.03730  317.88930  151.60310   21.11160    -999.25   23.18240   17.43910   21.11160 2000.00000 2000.00000  317.88930  361.58100 2000.00000    0.08300    -999.25    0.08300 2000.00000 -165.42430 -104.56850  -88.25390  361.58100   25.42930    6.90050   12.77000
 3200.00000  167.16600  252.72500  228.24390  228.24390    1.77450  150.75000  150.75000 2687.31470 2687.31470    0.01660    -999.25    0.01330  563.53730  167.16600   46.59700    -999.25   50.05120   45.33340   46.59700 2000.00000 1995.67740  563.53730 1275.70030 1995.67740    0.03520    -999.25    0.03520    -999.25 -119.02790  -43.57240  -31.67340 1275.70030   16.56160   -7.37580   11.55820
 3250.00000  175.82260  244.92000  224.15720  224.15720   10.48350   81.70000   81.70000 2709.70530 2709.70530    0.00080    -999.25    0.00020   95.38800  175.82260   81.87540    -999.25   88.25100   78.33720   81.87540 1043.77910 2000.00000   95.38800  228.05430 2000.00000    0.02750    -999.25    0.02750 1998.71770 -118.52190  -18.99370  -20.98320  228.05430   -0.12090   12.48330   11.60060
 3300.00000  174.89430  262.44750  225.18750  225.18750    9.49870   63.10000   63.10000 2698.25370 2698.25370    0.00390    -999.25    0.00690  105.27730  174.89430   62.92080    -999.25   58.83610   49.76730   62.92080 1111.25150 1974.68420  105.27730  212.46800 1974.68420    0.01720    -999.25    0.01720 1430.81310 -144.92710  -25.58650  -37.20430  212.46800   25.58710    0.93620   11.31240
 3350.00000  200.50900  276.83000  235.36860  235.36860   48.13940   88.85000   88.85000 2667.61690 2667.61690    0.03500    -999.25    0.02480   20.77300  200.50900  109.14330    -999.25  103.38370   95.22720  109.14330   38.46680   43.21020   20.77300   32.46880   43.21020    0.14350    -999.25    0.14350   40.32100 -129.67030  -33.50990  -22.05000   32.46880   11.10560   14.57590    9.19420
 3400.00000  210.17840  246.84500  244.23080  244.23080   39.37460   95.35000   95.35000 2773.48830 2773.48830   -0.03820    -999.25   -0.03710   25.39710  210.17840  153.77760    -999.25  152.13980  137.30150  153.77760   39.45160   46.51930   25.39710   38.05300   46.51930    0.15800    -999.25    0.15800   49.83600 -154.53580  -28.25090  -57.80660   38.05300   11.18460   23.55140    9.66400
 3450.00000  163.82780  216.96250  224.11610  224.11610    7.10540  121.65000  121.65000 2774.20260 2774.20260   -0.03860    -999.25   -0.03750  140.73760  163.82780   16.88840    -999.25    9.73700    7.55310   16.88840 1983.89640 1986.71580  140.73760  220.85260 1986.71580    0.11750    -999.25    0.11750 2000.00000 -232.29430    -999.25 -146.45620  220.85260  532.25010  714.83730  439.18500
 3500.00000  160.96140  247.16250  221.49540  221.49540    8.55560  108.90000  108.90000 2776.37210 2776.37210   -0.02420    -999.25   -0.03880  116.88300  160.96140    9.15360    -999.25    6.75520    6.32950    9.15360   61.63330  405.43670  116.88300  214.16890  405.43670    0.08310    -999.25    0.08310 1812.62080 -217.44060    -999.25 -142.49360  214.16890   17.14680    4.66920   -4.71580
 3550.00000  178.46860  224.71000  211.15320  211.15320   11.50950   77.00000   77.00000 2712.34330 2712.34330   -0.01520    -999.25   -0.00140   86.88510  178.46860    8.20800    -999.25    7.30530    6.88230    8.20800   49.98930  120.81360   86.88510   76.40470  120.81360    0.11570    -999.25    0.11570  159.29690 -157.20300    -999.25  -93.14710   76.40470   15.96840   13.10460   -1.62240
