~Version ---------------------------------------------------
VERS.      2.0 : CWLS log ASCII Standard -VERSION 2.0
WRAP.       NO : One line per depth step
CREA. 08/30/13 : LAS Creation Date
~Well ------------------------------------------------------
STRT.M                             300.0 : START DEPTH
STOP.M                            3350.0 : STOP DEPTH
STEP.M                          50.00000 : STEP LENGTH
NULL.                            -999.25 : NULL VALUE
COMP.        BP RESOURCES CANADA LIMITED : COMPANY
WELL. BP ET AL WILLESDEN GREEN 6-10-38-5 : WELL
FLD .                                    : FIELD
LOC .                                    : LOCATION
CTRY.                             CANADA : COUNTRY
SRVC.                       Schlumberger : SERVICE COMPANY
DATE.                        26-Apr-1989 : LOGDATE
PROV.                            Alberta : PROVINCE
UWI .                   102061003805W500 : UNIQUE WELL ID
SLAT.WGS84                      52.25281 : SURFACE LATITUDE
SLON.WGS84                     -114.6323 : SURFACE LONGITUDE
~Curve Information -----------------------------------------
DEPT    .M      : Depth Curve
C1ED    .MM     : CALIPER FROM DENSITY LOG [ADJ. TO RESISTIVITY LOG]
C2ED    .MM     : CALIPER FROM DENSITY LOG [ADJ. TO RESISTIVITY LOG]
CALWS   .MM     : CALIPER [C1ED]
CONDWS  .MMHO   : CONDUCTIVITY [1000/DRESWS]
DCORWS  .KG/M3  : DENSITY CORRECTION [DRHOED]
DENWS   .KG/M3  : FORMATION BULK DENSITY [RHOBED]
DPHILSED.V/V    : DENSITY POROSITY LIMESTONE [M=2710,F=1000] FROM DENSITY LOG [ADJ. TO RESISTIVITY LOG]
DPHISSED.V/V    : DENSITY POROSITY SANDSTONE [M=2650,F=1000] FROM DENSITY LOG [ADJ. TO RESISTIVITY LOG]
DPOLSWS .V/V    : DENSITY POROSITY LIMESTONE [CALC FROM DENWS,M=2710,F=1000]
DRESWS  .OHMM   : DEEP RESISTIVITY [IDPHED]
DRHOED  .KG/M3  : DENSITY CORRECTION FROM DENSITY LOG [ADJ. TO RESISTIVITY LOG]
DTED    .US/M   : SONIC INTERVAL FROM SONIC LOG
DTWS    .US/M   : COMPRESSIONAL SONIC [DTED]
GRED    .GAPI   : GAMMA RAY (CASING & COLLARS) FROM CBL LOG [ADJ. TO RESISTIVITY LOG]
GRSED   .GAPI   : GAMMA RAY FROM SONIC LOG
GRWS    .GAPI   : GAMMA RAY [GRED SPL. GRSED @ 375.3M]
HDED    .MM     : CALIPER FROM SONIC LOG
IDPHED  .OHMM   : DEEP PHASOR INDUCTION FROM RESISTIVITY LOG
IMPHED  .OHMM   : MEDIUM PHASOR INDUCTION FROM RESISTIVITY LOG
MRESWS  .OHMM   : MEDIUM RESISTIVITY [IMPHED]
NPHILSED.V/V    : NEUTRON POROSITY LIMESTONE FROM DENSITY LOG [ADJ. TO RESISTIVITY LOG]
NPHISSED.V/V    : NEUTRON POROSITY SANDSTONE FROM DENSITY LOG [ADJ. TO RESISTIVITY LOG]
NPOLSWS .V/V    : NEUTRON POROSITY LIMESTONE [NPHISSED MATRIX CONVERSION FOR LIMESTONE, SPL.TO NPHILSED @ 2429.1M]
RHOBED  .KG/M3  : BULK DENSITY FROM DENSITY LOG [ADJ. TO RESISTIVITY LOG]
SFLUED  .OHMM   : SPHERICALLY FOCUSED  FROM RESISTIVITY LOG
SGRDDED .GAPI   : GAMMA RAY FROM DENSITY LOG [ADJ. TO RESISTIVITY LOG]
SPRED   .MV     : SPONTANEOUS POTENTIAL FROM RESISTIVITY LOG
SPWS    .MV     : SPONTANEOUS POTENTIAL [BASELINE 0 MV, SPRED]
SRESWS  .OHMM   : SHALLOW RESISTIVITY [SFLUED]
TENRED  .N      : TENSION FROM RESISTIVITY LOG
TENSED  .N      : TENSION FROM SONIC LOG
~Params ----------------------------------------------------
PD  .                         GL : PERMANENT DATUM
EPD .M                     993.2 : ELEVATION PERMANENT DATUM
LMF .                         KB : LOG MEASURED FROM
DAPD.M                       7.3 : FEET ABOVE PERMANENT DATUM
DMF .                         KB : DRILLING MEASURED FROM
EKB .M                    1000.6 : KELLY BUSHING
EDF .M                    1000.3 : DRILLING FLOOR
EGL .M                     993.2 : GROUND LEVEL
DATE.                   04/26/89 : RUN DATE
RUN .                          1 : RUN NUMBER
DD  .M                      3358 : DEPTH DRILLER
DL  .M                    3356.2 : DEPTH LOGGER
BLI .M                      3353 : BOTTOM LOG INTERVAL
TLI .M                       454 : TOP LOG INTERVAL
CS  .MM                      273 : CASING SIZE
CBD .M                       454 : CASING BOTTOM DRILLER
CBL .M                       454 : CASING BOTTOM LOGGER
BS  .MM                      222 : BIT SIZE
BSD .M                      3358 : BIT SIZE AT DEPTH
DFT .                     GYP ND : DRILLING FLUID TYPE
DFD .                       1115 : DRILLING FLUID DENSITY
DFV .                         74 : DRILLING FLUID VISCOSITY
DFL .                        8.7 : DRILLING FLUID LOSS
MSS .                   FLOWLINE : MUD SAMPLE SOURCE
RMS .OHMM                   1.49 : RESISTIVITY MUD SAMPLE
MST .DEGC                      5 : MUD SAMPLE TEMPERATURE
RMF .OHMM                    1.0 : RESISTIVITY MUD FILTRATE SAMPLE
MFST.DEGC                     10 : MUD FILTRATE SAMPLE TEMPERATURE
RMC .OHMM                    1.9 : RESISTIVITY MUD CAKE
MCST.DEGC                      5 : MUD CAKE SAMPLE TEMPERATURE
MFSS.                      PRESS : MUD FILTRATE SAMPLE SOURCE
MCSS.                      PRESS : MUD CAKE SAMPLE SOURCE
RMB .OHMM                   0.09 : RESISTIVITY MUD AT BHT
TCS .HRS                    2200 : TIME CIRCULATED STOPPED
TLAB.HRS                     118 : TIME LOGGER AT BOTTOM
LUN .                       8063 : LOGGING UNIT NUMBER
LUL .                       DEER : LOGGING UNIT LOCATION
ENGI.                      DUMBA : RECORDING ENGINEER
WITN.                     GOHMAN : WITNESSED BY
CLNT.                    A2DTECH : CLIENT CODE
ORIG. 6.5"/100M 16.5"/100M PRINT : ORIGIN OF DATA
UWI .           102061003805W500 : UNIQUE WELL ID
DICO.     A2D Technologies, Inc. : DIGITIZING COMPANY
~Other -----------------------------------------------------
PISFL-CND - CBL - BHC LOG RUN
SP PROBLEMATIC BELOW 2500M
BARITE ADDED TO MUD AT LEAST 200 SACS
5% OIL IN MUD
40 KHZ PHASOR EXPERIMENTAL REPEAT PERFORMED
NO CASING CHECK DUE TO CEMENT BONDING
CYCLE SKIPS IN SHALES NOT REPEATED
~ASCII -----------------------------------------------------
  300.00000    -999.25    -999.25    -999.25    -999.25    -999.25    -999.25    -999.25    -999.25    -999.25    -999.25    -999.25    -999.25    -999.25   60.59330    -999.25   60.59330    -999.25    -999.25    -999.25    -999.25    -999.25    -999.25    -999.25    -999.25    -999.25    -999.25    -999.25    -999.25    -999.25    -999.25    -999.25
  350.00000    -999.25    -999.25    -999.25    -999.25    -999.25    -999.25    -999.25    -999.25    -999.25    -999.25    -999.25    -999.25    -999.25   48.47420    -999.25   48.47420    -999.25    -999.25    -999.25    -999.25    -999.25    -999.25    -999.25    -999.25    -999.25    -999.25    -999.25    -999.25    -999.25    -999.25    -999.25
  400.00000    -999.25    -999.25    -999.25    -999.25    -999.25    -999.25    -999.25    -999.25    -999.25    -999.25    -999.25    -999.25    -999.25   41.95200   48.89770   48.89770    -999.25    -999.25    -999.25    -999.25    -999.25    -999.25    -999.25    -999.25    -999.25    -999.25    -999.25    -999.25    -999.25    -999.25    -999.25
  450.00000    -999.25    -999.25    -999.25    -999.25    -999.25    -999.25    -999.25    -999.25    -999.25    -999.25    -999.25    -999.25    -999.25   48.24320   53.19510   53.19510    -999.25    -999.25    -999.25    -999.25    -999.25    -999.25    -999.25    -999.25    -999.25    -999.25    -999.25    -999.25    -999.25    -999.25    -999.25
  500.00000  232.34270  324.70130  232.34270  146.39360    -999.25    -999.25    -999.25    -999.25    -999.25    6.83090    -999.25  304.65880  304.65880   59.94670   84.36690   84.36690  248.14640    6.83090    7.00670    7.00670    -999.25    -999.25    -999.25    -999.25   13.31020    -999.25  -19.69620   -7.33730   13.31020 6304.15180 6269.73810
  550.00000  228.54120  314.86000  228.54120   90.67500    -999.25    -999.25    -999.25    -999.25    -999.25   11.02840    -999.25  272.47140  272.47140   80.67080   84.39080   84.39080  246.69810   11.02840    9.62080    9.62080    -999.25    -999.25    -999.25    -999.25   11.38650    -999.25  -18.88430   -4.40180   11.38650 6577.53060 6561.11800
  600.00000  226.30060  317.84270  226.30060  108.89090    -999.25    -999.25    -999.25    -999.25    -999.25    9.18350    -999.25  300.33130  300.33130   82.87510   95.36840   95.36840  241.68450    9.18350    7.66310    7.66310    -999.25    -999.25    -999.25    -999.25    6.79580    -999.25  -66.33400   -3.17740    6.79580 6931.10990 6849.80310
  650.00000  227.72910  307.82190  227.72910  109.44030    -999.25    -999.25    -999.25    -999.25    -999.25    9.13740    -999.25  302.54820  302.54820   82.64850   96.23400   96.23400  239.14610    9.13740    8.49030    8.49030    -999.25    -999.25    -999.25    -999.25    7.23150    -999.25  -71.05410   -4.34450    7.23150 7245.89550 7280.11030
  700.00000  277.39020  311.23460  277.39020  318.78610    -999.25    -999.25    -999.25    -999.25    -999.25    3.13690    -999.25  411.62580  411.62580   72.20930   59.73320   59.73320  350.76550    3.13690    2.63800    2.63800    -999.25    -999.25    -999.25    -999.25    2.70010    -999.25  -67.25300   -1.12210    2.70010 7530.65990 7381.07650
  750.00000  339.27850  244.14670  339.27850   93.98140    -999.25    -999.25    -999.25    -999.25    -999.25   10.64040    -999.25  325.47070  325.47070   71.98810   74.46680   74.46680  260.28330   10.64040    8.07540    8.07540    -999.25    -999.25    -999.25    -999.25   14.87320    -999.25  -73.50310   -7.76390   14.87320 7399.68070 7439.53770
  800.00000  228.52200  326.28680  228.52200  136.66990    -999.25    -999.25    -999.25    -999.25    -999.25    7.31690    -999.25  288.03660  288.03660   73.92820   82.75940   82.75940  243.85140    7.31690    6.34270    6.34270    -999.25    -999.25    -999.25    -999.25    6.37520    -999.25  -73.48660   -7.99820    6.37520 7527.77930 7461.40870
  850.00000  249.16440  295.05460  249.16440  143.62240    -999.25    -999.25    -999.25    -999.25    -999.25    6.96270    -999.25  374.40570  374.40570   77.11320   74.46500   74.46500  255.53860    6.96270    5.41660    5.41660    -999.25    -999.25    -999.25    -999.25    3.77180    -999.25  -71.74820   -6.51060    3.77180 7814.12820 7824.69720
  900.00000  227.68180  247.11510  227.68180   59.42900    -999.25    -999.25    -999.25    -999.25    -999.25   16.82680    -999.25  229.69600  229.69600   72.34250   58.60350   58.60350  234.18560   16.82680   19.68880   19.68880    -999.25    -999.25    -999.25    -999.25   24.69970    -999.25  -75.69260  -10.70570   24.69970 8096.77490 8000.06560
  950.00000  246.40520  301.24720  246.40520  208.65070    -999.25    -999.25    -999.25    -999.25    -999.25    4.79270    -999.25  311.32390  311.32390   77.69450   79.25820   79.25820  266.92890    4.79270    4.19880    4.19880    -999.25    -999.25    -999.25    -999.25    4.25840    -999.25  -68.68170   -3.94560    4.25840 8318.47560 8334.83080
 1000.00000  228.43950  317.81460  228.43950  150.65010    -999.25    -999.25    -999.25    -999.25    -999.25    6.63790    -999.25  287.28230  287.28230   83.17860   78.98700   78.98700  247.95100    6.63790    6.04190    6.04190    -999.25    -999.25    -999.25    -999.25    5.94900    -999.25  -68.92090   -4.43550    5.94900 8518.91330 8612.22900
 1050.00000  227.52190  332.06940  227.52190  140.25640    -999.25    -999.25    -999.25    -999.25    -999.25    7.12980    -999.25  267.71870  267.71870   57.23510   73.65640   73.65640  242.06670    7.12980    6.87710    6.87710    -999.25    -999.25    -999.25    -999.25    5.87210    -999.25  -68.99300   -4.75840    5.87210 8789.37540 8674.84130
 1100.00000  228.05770  356.22950  228.05770  116.79650    -999.25    -999.25    -999.25    -999.25    -999.25    8.56190    -999.25  288.35860  288.35860   87.33440   77.66010   77.66010  277.08140    8.56190    8.49110    8.49110    -999.25    -999.25    -999.25    -999.25    6.17750    -999.25  -70.30720   -6.51680    6.17750 8987.45740 8985.69100
 1150.00000  233.80600  366.93920  233.80600  246.67000    -999.25    -999.25    -999.25    -999.25    -999.25    4.05400    -999.25  285.49510  285.49510  100.49610   93.15610   93.15610  262.82520    4.05400    3.88130    3.88130    -999.25    -999.25    -999.25    -999.25    3.64340    -999.25  -67.56710   -4.22520    3.64340 9225.31850 9296.09590
 1200.00000  249.25210  346.94500  249.25210  100.53280    -999.25    -999.25    -999.25    -999.25    -999.25    9.94700    -999.25  260.11220  260.11220   73.98530   81.10190   81.10190  261.63320    9.94700    9.48450    9.48450    -999.25    -999.25    -999.25    -999.25    8.88840    -999.25  -69.16930   -6.27600    8.88840 9512.25900 9496.44700
 1250.00000  257.04880  289.81900  257.04880  132.07070    -999.25    -999.25    -999.25    -999.25    -999.25    7.57170    -999.25  281.88690  281.88690   75.07300   90.66990   90.66990  291.63750    7.57170    6.31340    6.31340    -999.25    -999.25    -999.25    -999.25    5.29150    -999.25  -71.16980   -8.48350    5.29150 9743.73830 9646.86130
 1300.00000  244.39150  280.81690  244.39150   44.79120    -999.25    -999.25    -999.25    -999.25    -999.25   22.32580    -999.25  231.65880  231.65880   99.71220   87.20730   87.20730  263.67990   22.32580   19.30620   19.30620    -999.25    -999.25    -999.25    -999.25   17.80340    -999.25  -71.58450   -9.03630   17.80340 9872.00050 9922.18180
 1350.00000  253.93210  344.03430  253.93210  136.65120    -999.25    -999.25    -999.25    -999.25    -999.25    7.31790    -999.25  293.90690  293.90690   58.91070   56.91220   56.91220  273.35960    7.31790    6.55090    6.55090    -999.25    -999.25    -999.25    -999.25    6.89230    -999.25  -66.54930   -5.43180    6.89230 10053.85400 9982.43700
 1400.00000  244.27940  366.76490  244.27940  104.09080    -999.25    -999.25    -999.25    -999.25    -999.25    9.60700    -999.25  247.33570  247.33570   76.02920   54.37400   54.37400  275.20790    9.60700    8.99410    8.99410    -999.25    -999.25    -999.25    -999.25   11.94550    -999.25  -64.60170   -5.15380   11.94550 10206.59130 10265.42350
