~Version ---------------------------------------------------
VERS.      2.0 : CWLS log ASCII Standard -VERSION 2.0
WRAP.       NO : One line per depth step
CREA. 09/28/17 : LAS Creation Date
~Well ------------------------------------------------------
STRT.FT                        750.0 : START DEPTH
STOP.FT                       7150.0 : STOP DEPTH
STEP.FT                     50.00000 : STEP LENGTH
NULL.                        -999.25 : NULL VALUE
COMP.     ALTANA EXPLORATION COMPANY : COMPANY
WELL. ALTANA ET AL KIRKPAT 2-4-30-21 : WELL
FLD .                                : FIELD
LOC .                                : LOCATION
CTRY.                         CANADA : COUNTRY
SRVC.                     Lane Wells : SERVICE COMPANY
DATE.                    31-Mar-1964 : LOGDATE
PROV.                        Alberta : PROVINCE
UWI .               100020403021W400 : UNIQUE WELL ID
SLAT.WGS84                  51.53364 : SURFACE LATITUDE
SLON.WGS84                 -112.8956 : SURFACE LONGITUDE
~Curve Information -----------------------------------------
DEPT  .FT    : Depth Curve
ACED  .US/F  : ACOUSTIC 3'  SPACING  FROM SONIC LOG
CALSED.IN    : CALIPER FROM SONIC LOG
CALWS .IN    : CALIPAR [CALSED]
CILDED.MMHO  : INDUCTION DEEP CONDUCTIVITY FROM RESISTIVITY LOG
CONDWS.MMHO  : CONDUCTIVITY [1000/DRESWS]
DRESWS.OHMM  : DEEP RESISTIVITY [1000/CILDED IF ILDED < 5, ILDED]
DTWS  .US/F  : COMPRESSIONAL SONIC [ACED]
GRSED .GAPI  : GAMMA RAY FROM SONIC LOG
GRWS  .GAPI  : GAMMA RAY [GRSED]
ILDED .OHMM  : INDUCTION DEEP FROM RESISTIVITY LOG
SNED  .OHMM  : SHORT NORMAL FROM RESISTIVITY LOG
SPRED .MV    : SPONTANEOUS POTENTIAL FROM RESISTIVITY LOG
SPWS  .MV    : SPONTANEOUS POTENTIAL [BASELNE 0 MV, SPRED]
SRESWS.OHMM  : SHALLOW RESISTIVITY [SNED]
~Params ----------------------------------------------------
LMF .                         KB : LOG MEASURED FROM
DAPD.FT                       12 : FEET ABOVE PERMANENT DATUM
DMF .                         KB : DRILLING MEASURED FROM
EKB .FT                     2303 : KELLY BUSHING
EGL .FT                     2291 : GROUND LEVEL
DATE.                   03/31/64 : RUN DATE
RUN .                          1 : RUN NUMBER
DD  .FT                     7160 : DEPTH DRILLER
DL  .FT                     7162 : DEPTH LOGGER
BLI .FT                     7158 : BOTTOM LOG INTERVAL
TLI .FT                      729 : TOP LOG INTERVAL
CS  .IN                    10.75 : CASING SIZE
CBD .FT                      729 : CASING BOTTOM DRILLER
CBL .FT                      729 : CASING BOTTOM LOGGER
BS  .IN                    7.875 : BIT SIZE
BSD .FT                     7160 : BIT SIZE AT DEPTH
DFT . MUD FERRO LIGNO SULPHONATE : DRILLING FLUID TYPE
DFD .                        9.6 : DRILLING FLUID DENSITY
DFV .                        128 : DRILLING FLUID VISCOSITY
DFPH.                        9.2 : DRILLING FLUID PH
DFL .                        4.9 : DRILLING FLUID LOSS
MSS .                       CIRC : MUD SAMPLE SOURCE
RMS .OHMM                    1.0 : RESISTIVITY MUD SAMPLE
MST .DEGF                     64 : MUD SAMPLE TEMPERATURE
RMF .OHMM                   0.04 : RESISTIVITY MUD FILTRATE SAMPLE
MFST.DEGF                     60 : MUD FILTRATE SAMPLE TEMPERATURE
RMC .OHMM                   0.01 : RESISTIVITY MUD CAKE
MCST.DEGF                     64 : MUD CAKE SAMPLE TEMPERATURE
MFSS.                       MEAS : MUD FILTRATE SAMPLE SOURCE
MCSS.                       MEAS : MUD CAKE SAMPLE SOURCE
RMB .OHMM                    0.5 : RESISTIVITY MUD AT BHT
TCS .HRS                       5 : TIME CIRCULATED STOPPED
LUN .                       8039 : LOGGING UNIT NUMBER
LUL .                        W C : LOGGING UNIT LOCATION
ENGI.                  MCFADZEAN : RECORDING ENGINEER
WITN.                   SERAFINI : WITNESSED BY
CLNT.                    A2DTECH : CLIENT CODE
ORIG.                2" 5" PRINT : ORIGIN OF DATA
UWI .           100020403021W400 : UNIQUE WELL ID
DICO.     A2D Technologies, Inc. : DIGITIZING COMPANY
~Other -----------------------------------------------------
~ASCII -----------------------------------------------------
  750.00000    -999.25    -999.25    -999.25  362.94500  362.94500    2.75520    -999.25    -999.25    -999.25    3.73390    4.93600  -34.12710   -3.83200    4.93600
  800.00000    -999.25    -999.25    -999.25  213.66120  184.60740    5.41690    -999.25    -999.25    -999.25    5.41690    6.55560  -36.37080   -6.92630    6.55560
  850.00000    -999.25    -999.25    -999.25  279.53340  279.53340    3.57740    -999.25    -999.25    -999.25    4.33720    4.88070  -34.88340   -6.29520    4.88070
  900.00000    -999.25    -999.25    -999.25  229.58380  229.58380    4.35570    -999.25    -999.25    -999.25    4.92500    5.39430  -32.85830   -5.12070    5.39430
  950.00000    -999.25    -999.25    -999.25  282.22260  282.22260    3.54330    -999.25    -999.25    -999.25    4.33320    4.95770  -33.21330   -5.98880    4.95770
 1000.00000    -999.25    -999.25    -999.25  256.40460  256.40460    3.90010    -999.25    -999.25    -999.25    4.44210    5.37230  -30.25670   -2.14490    5.37230
 1050.00000    -999.25    -999.25    -999.25  127.64610  122.95130    8.13330    -999.25    -999.25    -999.25    8.13330    9.44480  -34.13910   -5.14000    9.44480
 1100.00000    -999.25    -999.25    -999.25   90.12180   91.35340   10.94650    -999.25    -999.25    -999.25   10.94650   12.61010  -38.65760   -9.27900   12.61010
 1150.00000    -999.25    -999.25    -999.25  188.86280  176.52560    5.66490    -999.25    -999.25    -999.25    5.66490    6.42460  -34.23880   -4.74600    6.42460
 1200.00000    -999.25    -999.25    -999.25  215.35810  168.56870    5.93230    -999.25    -999.25    -999.25    5.93230    6.38140  -33.88690   -4.27930    6.38140
 1250.00000    -999.25    -999.25    -999.25  143.91180  130.77540    7.64670    -999.25    -999.25    -999.25    7.64670    9.72030  -35.22540   -5.50350    9.72030
 1300.00000    -999.25    -999.25    -999.25  231.55860  196.56410    5.08740    -999.25    -999.25    -999.25    5.08740    5.67650  -33.47060   -3.63460    5.67650
 1350.00000    -999.25    -999.25    -999.25  193.79380  169.12750    5.91270    -999.25    -999.25    -999.25    5.91270    6.19060  -33.32070   -3.36980    6.19060
 1400.00000    -999.25    -999.25    -999.25  259.39600  259.39600    3.85510    -999.25    -999.25    -999.25    4.83170    5.63730  -34.21470   -4.14960    5.63730
 1450.00000    -999.25    -999.25    -999.25  157.32670  141.71930    7.05620    -999.25    -999.25    -999.25    7.05620    8.56950  -35.01070   -4.83070    8.56950
 1500.00000    -999.25    -999.25    -999.25  130.66960  114.84090    8.70770    -999.25    -999.25    -999.25    8.70770    9.00270  -33.58270   -3.28850    9.00270
 1550.00000    -999.25    -999.25    -999.25  251.72420  251.72420    3.97260    -999.25    -999.25    -999.25    4.71310    5.27790  -32.98500   -2.57660    5.27790
 1600.00000    -999.25    -999.25    -999.25  152.59250  144.73670    6.90910    -999.25    -999.25    -999.25    6.90910    7.61930  -32.58090   -2.36670    7.61930
 1650.00000    -999.25    -999.25    -999.25  274.46370  274.46370    3.64350    -999.25    -999.25    -999.25    4.44250    5.52200  -32.15270   -2.20020    5.52200
 1700.00000    -999.25    -999.25    -999.25  203.23210  173.00140    5.78030    -999.25    -999.25    -999.25    5.78030    8.44600  -32.49910   -2.81000    8.44600
 1750.00000    -999.25    -999.25    -999.25  156.43580  144.59640    6.91580    -999.25    -999.25    -999.25    6.91580    9.97150  -33.85270   -4.42530    9.97150
 1800.00000    -999.25    -999.25    -999.25  240.71130  240.71130    4.15440    -999.25    -999.25    -999.25    4.67800    5.32770  -31.82620   -2.66050    5.32770
 1850.00000    -999.25    -999.25    -999.25  275.55060  275.55060    3.62910    -999.25    -999.25    -999.25    4.59320    4.92520  -31.18830   -2.28600    4.92520
 1900.00000    -999.25    -999.25    -999.25  304.36570  304.36570    3.28550    -999.25    -999.25    -999.25    4.07200    4.69280  -31.05170   -2.41110    4.69280
 1950.00000    -999.25    -999.25    -999.25  153.05010  138.54250    7.21800    -999.25    -999.25    -999.25    7.21800    6.79350  -31.58920   -3.21210    6.79350
 2000.00000    -999.25    -999.25    -999.25  141.72380  129.15220    7.74280    -999.25    -999.25    -999.25    7.74280    6.87470  -32.32190   -4.20650    6.87470
 2050.00000    -999.25    -999.25    -999.25  141.39350  130.34920    7.67170    -999.25    -999.25    -999.25    7.67170    7.23990  -31.18020   -3.32650    7.23990
 2100.00000    -999.25    -999.25    -999.25  142.02290  124.04020    8.06190    -999.25    -999.25    -999.25    8.06190    7.54960  -31.83050   -4.24020    7.54960
 2150.00000    -999.25    -999.25    -999.25  123.29970  113.67640    8.79690    -999.25    -999.25    -999.25    8.79690    8.70270  -32.39810   -5.06950    8.70270
 2200.00000    -999.25    -999.25    -999.25  132.52140  128.39440    7.78850    -999.25    -999.25    -999.25    7.78850    8.47460  -32.29990   -5.23470    8.47460
 2250.00000    -999.25    -999.25    -999.25  108.05670  106.63600    9.37770    -999.25    -999.25    -999.25    9.37770   12.78080  -30.89560   -4.09220   12.78080
 2300.00000    -999.25    -999.25    -999.25  110.70660  109.18340    9.15890    -999.25    -999.25    -999.25    9.15890   11.41530  -30.64990   -4.10820   11.41530
 2350.00000    -999.25    -999.25    -999.25  121.50420  122.22400    8.18170    -999.25    -999.25    -999.25    8.18170    8.74850  -30.85240   -4.57410    8.74850
 2400.00000    -999.25    -999.25    -999.25  129.08600  132.24710    7.56160    -999.25    -999.25    -999.25    7.56160    7.95410  -30.91120   -4.89460    7.95410
 2450.00000    -999.25    -999.25    -999.25  144.40610  139.57510    7.16460    -999.25    -999.25    -999.25    7.16460    7.79620  -30.52210   -4.76890    7.79620
 2500.00000    -999.25    -999.25    -999.25  136.05810  127.10360    7.86760    -999.25    -999.25    -999.25    7.86760    8.28840  -29.19640   -3.70500    8.28840
 2550.00000    -999.25    -999.25    -999.25  141.20910  128.68030    7.77120    -999.25    -999.25    -999.25    7.77120    8.19290  -30.29280   -5.06300    8.19290
 2600.00000    -999.25    -999.25    -999.25  142.74960  135.45360    7.38260    -999.25    -999.25    -999.25    7.38260    8.24950  -28.61870   -3.65240    8.24950
 2650.00000    -999.25    -999.25    -999.25  147.38980  136.00260    7.35280    -999.25    -999.25    -999.25    7.35280    7.79910  -28.16630   -3.37040    7.79910
 2700.00000    -999.25    -999.25    -999.25  134.00370  130.04410    7.68970    -999.25    -999.25    -999.25    7.68970    8.14940  -27.25980   -2.46390    8.14940
 2750.00000    -999.25    -999.25    -999.25  161.68300  151.87180    6.58450    -999.25    -999.25    -999.25    6.58450    7.30030  -28.47020   -3.67440    7.30030
 2800.00000    -999.25    -999.25    -999.25  139.07660  132.23490    7.56230    -999.25    -999.25    -999.25    7.56230    8.22250  -29.98170   -5.18580    8.22250
 2850.00000    -999.25    -999.25    -999.25   94.78040   96.69780   10.34150    -999.25    -999.25    -999.25   10.34150    9.37860  -29.44650   -4.65060    9.37860
 2900.00000    -999.25    -999.25    -999.25  127.77420  120.93210    8.26910    -999.25    -999.25    -999.25    8.26910    7.21760  -28.74780   -3.95190    7.21760
 2950.00000    -999.25    -999.25    -999.25  125.34210  116.86880    8.55660    -999.25    -999.25    -999.25    8.55660    8.13900  -28.58470   -3.78880    8.13900
 3000.00000    -999.25    -999.25    -999.25  113.59210  108.53640    9.21350    -999.25    -999.25    -999.25    9.21350    9.78720  -30.01300   -5.21710    9.78720
 3050.00000    -999.25    -999.25    -999.25  147.52020  139.73900    7.15620    -999.25    -999.25    -999.25    7.15620    7.78330  -29.66870   -4.87280    7.78330
 3100.00000    -999.25    -999.25    -999.25  154.59980  142.95720    6.99510    -999.25    -999.25    -999.25    6.99510    8.45650  -28.08930   -3.29340    8.45650
 3150.00000    -999.25    -999.25    -999.25  116.91740  112.42520    8.89480    -999.25    -999.25    -999.25    8.89480   11.76350  -27.15050   -2.35460   11.76350
