~Version ---------------------------------------------------
VERS.      2.0 : CWLS log ASCII Standard -VERSION 2.0
WRAP.       NO : One line per depth step
CREA. 11/10/17 : LAS Creation Date
~Well ------------------------------------------------------
STRT.FT                            300.0 : START DEPTH
STOP.FT                          12850.0 : STOP DEPTH
STEP.FT                         50.00000 : STEP LENGTH
NULL.                            -999.25 : NULL VALUE
COMP.            TRIAD OIL COMPANY, LTD. : COMPANY
WELL. TRIAD H.B. MOOSE CREEK 10-27-51-17 : WELL
FLD .                                    : FIELD
LOC .                                    : LOCATION
CTRY.                             CANADA : COUNTRY
SRVC.                       Schlumberger : SERVICE COMPANY
DATE.                        21-May-1958 : LOGDATE
PROV.                            Alberta : PROVINCE
UWI .                   100102705117W500 : UNIQUE WELL ID
SLAT.WGS84                      53.43327 : SURFACE LATITUDE
SLON.WGS84                     -116.4188 : SURFACE LONGITUDE
~Curve Information -----------------------------------------
DEPT  .FT         : Depth Curve
CALSED.IN         : CALIPER FROM SONIC LOG
CALWS .IN         : CALIPER [MCALED SPL. CALSED @ 8179'-9461']
CONDWS.MMHO       : CONDUCTIVITY [1000/DRESWS]
DRESWS.OHMM       : DEEP RESISTIVITY [LNED]
DTED  .US/F       : DELTA-TIME FROM SONIC LOG
DTWS  .US/F       : COMPRESSIONAL SONIC [DTED]
GRNED .UgRa-Eq/T  : GAMMA RAY [GRNED*16.5] FROM GRN LOG
GRSED .GAPI       : GAMMA RAY FROM SONIC LOG
GRWS  .GAPI       : GAMMA RAY [GRNED SPL. TO GRSED @ 8179'-9461']
LATED .OHMM       : LATERAL 18' 8" RESISTIVITY FROM RESISTIVITY LOG
LNED  .OHMM       : LONG NORMAL 64" RESISTIVITY FROM RESISTIVITY LOG
MCALED.IN         : MICRO CALIPER FROM MICROLOG
NEUTED.CPS        : NEUTRON FROM GRN LOG
NEUTWS.CPS        : NEUTRON [NEUTED]
SNED  .OHMM       : SHORT NORMAL 16" RESISTIVITY FROM RESISTIVITY LOG
SPRED .MV         : SPONTANEOUS POTENTIAL FROM RESISTIVITY LOG
SPWS  .MV         : SPONTANEOUS POTENTIAL [BASELINE 0 MV, SPRED]
SRESWS.OHMM       : SHALLOW RESISTIVITY [SNED]
~Params ----------------------------------------------------
LMF .                     KB : LOG MEASURED FROM
DMF .                     KB : DRILLING MEASURED FROM
EKB .FT                 3293 : KELLY BUSHING
DATE.               05/21/58 : RUN DATE
RUN .                      2 : RUN NUMBER
DD  .FT                12881 : DEPTH DRILLER
DL  .FT                12871 : DEPTH LOGGER
BLI .FT                12870 : BOTTOM LOG INTERVAL
TLI .FT                 8178 : TOP LOG INTERVAL
CBD .FT                 8182 : CASING BOTTOM DRILLER
CBL .FT                 8178 : CASING BOTTOM LOGGER
BS  .IN                8.625 : BIT SIZE
BSD .FT                12861 : BIT SIZE AT DEPTH
DFT .                   LIME : DRILLING FLUID TYPE
DFD .                   10.2 : DRILLING FLUID DENSITY
DFV .                     72 : DRILLING FLUID VISCOSITY
MSS .               FLOWLINE : MUD SAMPLE SOURCE
RMS .OHMM               0.52 : RESISTIVITY MUD SAMPLE
MST .DEGF                 65 : MUD SAMPLE TEMPERATURE
RMF .OHMM               0.25 : RESISTIVITY MUD FILTRATE SAMPLE
MFST.DEGF                 85 : MUD FILTRATE SAMPLE TEMPERATURE
RMC .OHMM               0.68 : RESISTIVITY MUD CAKE
MCST.DEGF                 85 : MUD CAKE SAMPLE TEMPERATURE
TCS .HRS                 300 : TIME CIRCULATED STOPPED
LUN .                   1571 : LOGGING UNIT NUMBER
LUL .                    EDM : LOGGING UNIT LOCATION
ENGI.                  JAMES : RECORDING ENGINEER
WITN.                 AITKEN : WITNESSED BY
CLNT.                A2DTECH : CLIENT CODE
ORIG.            2" 5" PRINT : ORIGIN OF DATA
UWI .       100102705117W500 : UNIQUE WELL ID
DICO. A2D Technologies, Inc. : DIGITIZING COMPANY
~Other -----------------------------------------------------
~ASCII -----------------------------------------------------
# ...
 8100.00000    -999.25   11.49230  100.87560    9.91320    -999.25    -999.25    -999.25   48.05160   48.05160   15.33110    9.91320   11.49230    -999.25    -999.25   10.64290  -70.53870  -15.50860   10.64290
 8150.00000    -999.25   11.29360  118.13950    8.47210    -999.25    -999.25    -999.25   38.67680   38.67680    9.70560    8.47210   11.29360    -999.25    -999.25    9.85530  -69.96080  -20.10090    9.85530
 8200.00000    8.79910    8.79910   35.92130   27.83860   75.47630   75.47630    -999.25   39.09380   39.09380   20.43340   27.83860   11.32810    -999.25    -999.25   11.17900  -63.74580  -19.10800   11.17900
 8250.00000    8.80570    8.80570   53.59370   18.65890  139.04720  139.04720    -999.25   61.89820   61.89820   40.55910   18.65890   12.32460    -999.25    -999.25    6.80540  -41.64650   -2.20480    6.80540
 8300.00000    8.79320    8.79320   33.28750   30.05030   82.36780   82.36780    -999.25   66.68900   66.68900   42.26220   30.05030   10.49860    -999.25    -999.25   13.22560  -42.14410   -5.18570   13.22560
 8350.00000    8.90360    8.90360   47.26570   21.15700   69.29950   69.29950    -999.25   54.49590   54.49590   26.82150   21.15700   11.43940    -999.25    -999.25    9.31750  -43.30170   -7.62350    9.31750
 8400.00000    8.93830    8.93830   59.09340   16.92280   77.56760   77.56760    -999.25   78.95430   78.95430   19.39950   16.92280   11.63100    -999.25    -999.25    8.81770  -40.03900   -5.62820    8.81770
 8450.00000    9.01250    9.01250   33.44560   29.89930   73.35040   73.35040    -999.25   61.99200   61.99200   29.44880   29.89930    9.50690    -999.25    -999.25   12.52420  -55.76530  -22.67460   12.52420
 8500.00000    8.86850    8.86850   19.03160   52.54420   88.78320   88.78320    -999.25   59.58210   59.58210  157.64870   52.54420    9.98800    -999.25    -999.25   16.76370  -41.91990  -10.15220   16.76370
 8550.00000    9.19240    9.19240   22.85560   43.75390   88.35510   88.35510    -999.25   92.96670   92.96670   55.20320   43.75390    9.51960    -999.25    -999.25   13.90860  -43.10280  -12.65150   13.90860
 8600.00000    8.74490    8.74490   21.22930   47.10480   68.34360   68.34360    -999.25   62.89910   62.89910   61.00320   47.10480    8.85580    -999.25    -999.25   17.94000  -38.88580   -9.76410   17.94000
 8650.00000    8.74300    8.74300   37.41330   26.73760   66.06130   66.06130    -999.25   49.65430   49.65430   40.32110   26.73760    9.14720    -999.25    -999.25   14.06640  -38.45480  -10.64960   14.06640
 8700.00000    8.75300    8.75300   25.18700   39.70300   63.56070   63.56070    -999.25   53.67950   53.67950   56.42100   39.70300    8.68390    -999.25    -999.25   18.12650  -43.93430  -16.69680   18.12650
 8750.00000    8.79760    8.79760   33.52360   29.82970   86.39590   86.39590    -999.25   84.79750   84.79750   45.58860   29.82970    9.77850    -999.25    -999.25   13.29590  -47.27950  -20.57340   13.29590
 8800.00000    8.80610    8.80610   27.08290   36.93170   92.69370   92.69370    -999.25   61.11850   61.11850   59.99600   36.93170   10.28230    -999.25    -999.25   13.93390  -36.44620  -10.26890   13.93390
 8850.00000    8.88580    8.88580   17.98530   55.60110   81.00580   81.00580    -999.25  106.09140  106.09140   96.78790   55.60110    9.53620    -999.25    -999.25   18.38540  -37.83650  -12.19330   18.38540
 8900.00000    8.77780    8.77780   22.57290   44.30530   66.85630   66.85630    -999.25   64.47230   64.47230   66.47700   44.30530    8.86090    -999.25    -999.25   17.98240  -47.49410  -22.37970   17.98240
 8950.00000    8.58910    8.58910   19.37140   51.62240   76.80700   76.80700    -999.25   93.85540   93.85540   91.80480   51.62240    9.60010    -999.25    -999.25   19.71050  -53.30140  -28.72110   19.71050
 9000.00000    8.70260    8.70260   22.42670   44.58980   63.47930   63.47930    -999.25   58.13440   58.13440   74.58580   44.58980    9.89980    -999.25    -999.25   15.56260  -55.52630  -31.47740   15.56260
 9050.00000    8.87960    8.87960   25.26050   39.58850   42.07890   42.07890    -999.25   85.89310   85.89310   55.54040   39.58850   10.44770    -999.25    -999.25   13.85820  -53.21680  -29.69670   13.85820
 9100.00000    8.71260    8.71260   33.11280   30.19980   70.16620   70.16620    -999.25   81.41860   81.41860   94.46220   30.19980   10.64690    -999.25    -999.25   11.64500  -58.96930  -35.98330   11.64500
 9150.00000    9.00920    9.00920   59.31290   16.85990   80.99300   80.99300  126.73160  108.22240  108.22240   30.97190   16.85990    9.28510  222.62210  222.62210    8.41200  -53.93520  -31.47800    8.41200
 9200.00000    8.48380    8.48380    6.04240  165.49840   62.36070   62.36070   95.46080   68.54920   68.54920  237.96160  165.49840    8.51010  340.32360  340.32360   30.61200  -85.00600  -63.08290   30.61200
 9250.00000    8.43410    8.43410    2.07880  481.04820   51.97260   51.97260   35.71430   19.86220   19.86220  682.78020  481.04820    8.50770  426.89290  426.89290   56.82480  -72.13450  -50.74280   56.82480
 9300.00000    8.48560    8.48560    3.61080  276.94480   58.99750   58.99750   50.53620   30.58720   30.58720  431.18250  276.94480    8.55600  359.03620  359.03620   39.84660  -69.08610  -48.22320   39.84660
 9350.00000    8.65960    8.65960    6.10720  163.74240   51.19360   51.19360   47.22460   25.38150   25.38150  351.41910  163.74240    9.18310  295.97450  295.97450   31.29470  -62.37400  -42.04520   31.29470
 9400.00000    8.55380    8.55380    5.83150  171.48330   49.73200   49.73200   33.94630   17.20180   17.20180  228.75310  171.48330   10.45120  319.73100  319.73100   33.06160  -69.04550  -49.24550   33.06160
 9450.00000    8.51350    8.51350    5.24250  190.74800   54.00870   54.00870   69.52930   43.96990   43.96990  303.68130  190.74800    8.67870  309.98400  309.98400   39.72480  -69.75910  -50.49320   39.72480
 9500.00000    -999.25    9.07250    7.26800  137.59030    -999.25    -999.25   50.75560    -999.25   50.75560  180.80290  137.59030    9.07250  325.62330  325.62330   33.60970  -81.49460  -62.76010   33.60970
 9550.00000    -999.25    8.53250   11.16330   89.57970    -999.25    -999.25   57.29130    -999.25   57.29130  184.52220   89.57970    8.53250  375.99910  375.99910   25.86870  -73.38860  -55.18290   25.86870
 9600.00000    -999.25    8.62960    4.56190  219.20590    -999.25    -999.25   33.02640    -999.25   33.02640  162.65220  219.20590    8.62960  356.00350  356.00350   51.32070  -77.86060  -60.18900   51.32070
 9650.00000    -999.25    8.93460    2.37970  420.22710    -999.25    -999.25   19.01380    -999.25   19.01380  551.73800  420.22710    8.93460  453.11690  453.11690   52.62800 -117.44900 -100.30610   52.62800
 9700.00000    -999.25    8.34800    4.04070  247.48480    -999.25    -999.25   21.44510    -999.25   21.44510  135.05830  247.48480    8.34800  426.24170  426.24170   56.18210 -142.75250 -126.14370   56.18210
 9750.00000    -999.25    8.56830   10.29650   97.12080    -999.25    -999.25   84.80510    -999.25   84.80510  239.29240   97.12080    8.56830  422.87770  422.87770   29.13810  -94.88160  -78.80430   29.13810
 9800.00000    -999.25    8.65780   15.00260   66.65510    -999.25    -999.25   52.24640    -999.25   52.24640  100.00000   66.65510    8.65780  368.99690  368.99690   24.28750 -102.29180  -86.74330   24.28750
 9850.00000    -999.25    8.70830   16.15650   61.89470    -999.25    -999.25   96.56460    -999.25   96.56460  100.00000   61.89470    8.70830  280.80750  280.80750   23.24480  -51.52670  -36.51230   23.24480
 9900.00000    -999.25    8.86610    6.43080  155.50970    -999.25    -999.25   41.07590    -999.25   41.07590  266.95070  155.50970    8.86610  427.32090  427.32090   33.53260  -41.18400  -26.69830   33.53260
 9950.00000    -999.25    8.75120   22.17770   45.09030    -999.25    -999.25   51.14010    -999.25   51.14010   54.04020   45.09030    8.75120  281.11800  281.11800   17.44400  -29.62630  -15.67470   17.44400
 10000.00000    -999.25    8.57550   14.30860   69.88790    -999.25    -999.25   62.70990    -999.25   62.70990  188.93400   69.88790    8.57550  336.61740  336.61740   23.57190  -19.22620   -5.80610   23.57190
