~Version ---------------------------------------------------
VERS. 2.0 : CWLS log ASCII Standard -VERSION 2.0
WRAP.  NO : ONE LINE PER DEPTH STEP
~Well ------------------------------------------------------
STRT.F                             1150.0 : START DEPTH
STOP.F                            11550.0 : STOP DEPTH
STEP.F                           50.00000 : STEP LENGTH
NULL.                             -999.25 : NULL VALUE
COMP.    AMOCO CANADA PETROLEUM CO., LTD. : COMPANY
WELL. AMOCO HB FINA SOUTH FORK 10-8-59-19 : WELL
FLD .                                     : FIELD
LOC .                                     : LOCATION
CTRY.                              CANADA : COUNTRY
SRVC.                        Schlumberger : SERVICE COMPANY
DATE.                         10-Oct-1977 : LOGDATE
PROV.                             Alberta : PROVINCE
UWI .                    100100805919W500 : UNIQUE WELL ID
SLAT.WGS84                       54.08913 : SURFACE LATITUDE
SLON.WGS84                      -116.8085 : SURFACE LONGITUDE
~Curve Information -----------------------------------------
DEPT   .F                 : 
GRD    .GAPI 45 310 01 00 : GAMMA RAY FROM DENSITY LOG
CALD   .IN   45 280 60 00 : CALIPER FROM DENSITY LOG
DCOR   .G/C3 45 356 01 00 : DENSITY CORRECTION
NPHI_SS.DEC  42 890 03 00 : NEUTRON POROSITY SANDSTONE
DPHI_SS.DEC  45 890 12 00 : DENSITY POROSITY SANDSTONE
ILD    .OHMM 07 120 46 00 : INDUCTION DEEP RESISTIVITY
ILM    .OHMM 07 120 44 00 : INDUCTION MEDIUM RESISTIVITY
LL8    .OHMM 07 220 08 00 : LATEROLOG 8
SPR    .MV   07 010 01 00 : SPONTANEOUS POTENTIAL FROM RESISTIVITY LOG
GRS    .GAPI 60 310 01 00 : GAMMA RAY FROM SONIC LOG
DT     .US/F 60 500 00 00 : DELTA-T (INTERVAL TRANSIT TIME)
CALS   .IN   60 280 50 00 : CALIPER FROM SONIC LOG
RHOB   .G/C3 45 350 01 00 : BULK DENSITY
NPHI_LS.DEC  42 890 01 00 : NEUTRON POROSITY LIMESTONE
DPHI_LS.DEC  45 890 10 00 : DENSITY POROSITY LIMESTONE
~Params ----------------------------------------------------
PD  .                     GL : PERMANENT DATUM
EPD .FT                 2976 : ELEVATION PERMANENT DATUM
LMF .                     KB : LOG MEASURED FROM
DAPD.FT                 20.7 : FEET ABOVE PERMANENT DATUM
EKB .FT               2996.7 : KELLY BUSHING
EGL .FT                 2976 : GROUND LEVEL
DATE.               10/10/77 : RUN DATE
RUN .                      1 : RUN NUMBER
DD  .FT                11577 : DEPTH DRILLER
DL  .FT                11569 : DEPTH LOGGER
BLI .FT                11563 : BOTTOM LOG INTERVAL
TLI .FT                 1534 : TOP LOG INTERVAL
CBD .FT                 1535 : CASING BOTTOM DRILLER
CBL .FT                 1534 : CASING BOTTOM LOGGER
BS  .IN                 8.75 : BIT SIZE
BSD .FT                11577 : BIT SIZE AT DEPTH
DFT .                    GEL : DRILLING FLUID TYPE
DFD .                      9 : DRILLING FLUID DENSITY
DFV .                     80 : DRILLING FLUID VISCOSITY
DFPH.                    8.5 : DRILLING FLUID PH
DFL .                    8.8 : DRILLING FLUID LOSS
MSS .               FLOWLINE : MUD SAMPLE SOURCE
RMS .OHMM               2.24 : RESISTIVITY MUD SAMPLE
MST .DEGF                 54 : MUD SAMPLE TEMPERATURE
RMF .OHMM               1.98 : RESISTIVITY MUD FILTRATE SAMPLE
MFST.DEGF                 64 : MUD FILTRATE SAMPLE TEMPERATURE
TCS .HRS                   3 : TIME CIRCULATED STOPPED
LUN .                   7772 : LOGGING UNIT NUMBER
LUL .                    EDM : LOGGING UNIT LOCATION
ENGI.         BERNISKY TRACY : RECORDING ENGINEER
WITN.                 NEWELL : WITNESSED BY
CLNT.                A2DTECH : CLIENT CODE
ORIG.            2" 5" PRINT : ORIGIN OF DATA
UWI .       100100805919W500 : UNIQUE WELL ID
DICO. A2D Technologies, Inc. : DIGITIZING COMPANY
~Other -----------------------------------------------------
~ASCII -----------------------------------------------------
# ...
 10350.00000   82.79610    9.29640   -0.03790    -999.25    -999.25   21.96730   19.32670   33.29790   55.51120   66.90560   60.57610    9.17550    2.68010    0.12210    0.01120
 10400.00000   58.28560    9.92540   -0.19060    -999.25    -999.25   40.32580   32.63860   56.11970  125.15900   65.34580   60.02790    9.41570    2.67710    0.09320    0.05980
 10450.00000   88.49030   11.96090   -0.24350    -999.25    -999.25   10.02480    9.06750   12.70740  108.02550   88.77400   71.35270   10.01480    2.38620    0.20130    0.17250
 10500.00000  106.67990   12.08780   -0.17540    -999.25    -999.25    9.80860    8.95450   12.29780   72.51960   91.86430   71.08690    9.88060    2.51990    0.20880    0.13800
 10550.00000   66.69520    9.24030   -0.05960    -999.25    -999.25   32.74780   27.04660   46.73490   33.76240   51.05770   55.54040    9.03520    2.76530    0.06920   -0.03310
 10600.00000   61.06640    9.23830    0.00470    -999.25    -999.25   32.49290   26.40840   45.72810   78.20180   50.92490   55.45010    9.07500    2.71650    0.07510   -0.01180
 10650.00000   74.89090    9.42300   -0.18140    -999.25    -999.25   20.41960   18.50920   24.95670   84.64200   63.68640   58.51270    9.17160    2.72460    0.11140   -0.01860
 10700.00000  117.09520    9.39630   -0.10990    -999.25    -999.25   14.18880   13.01460   19.86720  -75.57460  109.76550   67.22750    9.14360    2.69350    0.18820    0.00540
 10750.00000  115.83930    9.19090   -0.02810    -999.25    -999.25   17.08900   15.11730   26.51780 -110.52370  105.51300   70.86700    9.60270    2.70190    0.21470   -0.00700
 10800.00000  110.48570    8.91420    0.00720    -999.25    -999.25   73.94530   59.07140  103.19090  -27.90600  129.94290   70.58560    8.89450    2.61370    0.15570    0.04900
 10850.00000  134.04950    8.97800   -0.01080    -999.25    -999.25  225.58630  162.59570  369.68130    -999.25  145.85060   73.63370    8.94450    2.64100    0.17480    0.05200
 10900.00000  162.74460    8.93480   -0.04290    -999.25    -999.25 1581.64950 1387.38010 1469.90910 -202.37070  195.85040   70.85560    8.76690    2.57170    0.13780    0.11900
 10950.00000  155.86000    8.89800   -0.02660    -999.25    -999.25 1590.61400 1399.73610 1487.02810 -168.53150  190.88560   68.52260    8.71440    2.57410    0.14200    0.11010
 11000.00000   73.05350    8.93020   -0.02250    -999.25    -999.25  206.62040  164.93550  292.49910  -77.35690   55.48370   54.58190    8.74670    2.73650    0.06480   -0.02100
 11050.00000   37.64740    9.11870   -0.12800    -999.25    -999.25 1482.32850  907.87320 1107.57230 -129.47250   36.99250   51.88370    8.96470    2.69980    0.02700    0.02570
 11100.00000    9.68940   10.20700   -0.16690    -999.25    -999.25 1537.44570 1337.91670 1444.92520    -999.25    7.16860   48.48610    9.19250    2.64540    0.00730    0.02890
 11150.00000   10.21270    8.87160   -0.14830    -999.25    -999.25   37.28920   33.22250  123.50390  -52.84480   10.17030   51.13570    8.54590    2.65010    0.12270    0.03320
 11200.00000   11.52000    8.78850   -0.11030    -999.25    -999.25   25.22470   20.01120  120.19120  -67.67520   10.03370   52.40710    8.41440    2.68850    0.10850    0.02960
 11250.00000    9.63190    9.38050   -0.24950    -999.25    -999.25   86.21730  129.10800  271.39800 -174.36880   11.92280   47.52650    8.70230    2.58820    0.13640    0.08950
 11300.00000   16.07010    8.91360   -0.13900    -999.25    -999.25  151.80480  255.68520  434.90920 -163.51520   16.83100   47.64000    8.73950    2.67760    0.04830   -0.02370
 11350.00000   21.24370   11.67980   -0.24440    -999.25    -999.25  957.94250 1353.20580 1453.01490    -999.25    8.59930   47.62570    9.05810    2.41830    0.01580    0.09980
 11400.00000   11.41600   11.01010   -0.23820    -999.25    -999.25 1337.79850 1539.67130 1354.87610 -154.14480   14.08840   48.89070    9.11200    2.49120    0.00540    0.11810
 11450.00000   19.31270    9.70640   -0.25020    -999.25    -999.25  561.49980 1373.70940  789.51270    -999.25   18.74790   47.91490    8.96590    2.47060    0.04730    0.13230
 11500.00000  173.89530    9.01020   -0.19100    -999.25    -999.25  184.69070  100.52730  178.28430 -130.30490  185.64160   66.89550    9.05510    2.39930    0.20450    0.26050
 11550.00000    6.84680    8.48680   -0.01750    -999.25    -999.25   13.17000   10.46680   82.79980 -107.41800   42.75970   61.25080    8.73920    2.49530    0.04170    0.12240
