~Version ---------------------------------------------------
VERS.      2.0 : CWLS log ASCII Standard -VERSION 2.0
WRAP.       NO : One line per depth step
CREA. 11/14/17 : LAS Creation Date
~Well ------------------------------------------------------
STRT.FT                       1050.0 : START DEPTH
STOP.FT                      10150.0 : STOP DEPTH
STEP.FT                     50.00000 : STEP LENGTH
NULL.                        -999.25 : NULL VALUE
COMP.           CHEVRON STANDARD LTD : COMPANY
WELL. CHEVRON GULF FOXCK 12-35-61-18 : WELL
FLD .                      FOX CREEK : FIELD
LOC .                                : LOCATION
CTRY.                         CANADA : COUNTRY
SRVC.                   Schlumberger : SERVICE COMPANY
DATE.                    30-Mar-1976 : LOGDATE
PROV.                        Alberta : PROVINCE
UWI .               100123506118W500 : UNIQUE WELL ID
SLAT.WGS84                  54.32239 : SURFACE LATITUDE
SLON.WGS84                 -116.5968 : SURFACE LONGITUDE
~Curve Information -----------------------------------------
DEPT    .FT    : Depth Curve
CALDED  .IN    : CALIPER FROM DENSITY LOG [ADJ. TO SONIC LOG]
CALSED  .IN    : CALIPER FROM SONIC LOG
CALWS   .IN    : CALIPER [CALSED]
CONDWS  .OHMM  : CONDUCTIVITY [1000/DRESWS]
DCORED  .G/C3  : DENSITY CORRECTION FROM DENSITY LOG [ADJ. TO SONIC LOG]
DCORWS  .G/C3  : DENSITY CORRECTION [DCORED]
DENWS   .G/C3  : FORMATION BULK DENSITY [RHOBED]
DPHILSED.V/V   : DENSITY POROSITY LIME FROM DENSITY LOG [ADJ. TO RHOBED]
DPHISSED.V/V   : DENSITY POROSITY SAND FROM DENSITY LOG [ADJ. TO RHOBED]
DPOWS   .V/V   : DENSITY POROSITY LIME [CALC. FROM DENWS M=2710, F=1000]
DRESWS  .OHMM  : DEEP RESISTIVITY [ILDED]
DTED    .US/F  : DELTA-T FROM SONIC LOG
DTWS    .US/F  : COMPRESSIONAL SONIC [DTED]
GRDED   .GAPI  : GAMMA RAY FROM DENSITY LOG [ADJ. TO SONIC LOG]
GRSED   .GAPI  : GAMMA RAY FROM SONIC LOG
GRWS    .GAPI  : GAMMA RAY [GRSED]
ILDED   .OHMM  : DEEP INDUCTION FROM RESISTIVITY LOG
ILMED   .OHMM  : MEDIUM INDUCTION FROM RESISTIVITY LOG
LL8ED   .OHMM  : LATEROLOG 8 FROM RESISTIVITY LOG
MRESWS  .OHMM  : MEDIUM RESISTIVITY [ILMED]
NPHILSED.V/V   : NEUTRON POROSITY LIME FROM DENSITY LOG [ADJ. TO RHOBED]
NPHISSED.V/V   : NEUTRON POROSITY SAND FROM DENSITY LOG [ADJ. TO RHOBED]
NPOWS   .V/V   : NEUTRON POROSITY LIME [SS MATRIX CONVERTED FOR LS, SPL. TO NPHISSED @ 6719']
RHOBED  .G/C3  : BULK DENSITY FROM DENSITY LOG [ADJ. TO SONIC LOG]
SPRED   .MV    : SPONTANEOUS POTENTIAL FROM RESISTIVITY LOG
SPWS    .MV    : SPONTANEOUS POTENTIAL [BASELINE 0 MV, SPRED]
SRESWS  .OHMM  : SHALLOW RESISTIVITY [LL8ED]
TENDED  .LBF   : TENSION FROM DENSITY LOG [ADJ. TO GRSED]
TENSED  .LBF   : TENSION FROM SONIC LOG
~Params ----------------------------------------------------
PD  .                     GL : PERMANENT DATUM
EPD .FT               2712.6 : ELEVATION PERMANENT DATUM
LMF .                     KB : LOG MEASURED FROM
DAPD.FT                 16.4 : FEET ABOVE PERMANENT DATUM
DMF .                     KB : DRILLING MEASURED FROM
EKB .FT                 2729 : KELLY BUSHING
EDF .FT               2712.6 : DRILLING FLOOR
DATE.               03/30/76 : RUN DATE
RUN .                      1 : RUN NUMBER
DD  .FT                10180 : DEPTH DRILLER
DL  .FT                10178 : DEPTH LOGGER
BLI .FT                10176 : BOTTOM LOG INTERVAL
TLI .FT                 1117 : TOP LOG INTERVAL
CBD .FT                 1117 : CASING BOTTOM DRILLER
CBL .FT              1116.91 : CASING BOTTOM LOGGER
BS  .IN                 8.75 : BIT SIZE
BSD .FT                10180 : BIT SIZE AT DEPTH
DFT .               GEL CHEM : DRILLING FLUID TYPE
DFD .                    9.6 : DRILLING FLUID DENSITY
DFV .                    110 : DRILLING FLUID VISCOSITY
DFPH.                   10.5 : DRILLING FLUID PH
DFL .                      9 : DRILLING FLUID LOSS
RMF .OHMM               1.22 : RESISTIVITY MUD FILTRATE SAMPLE
MFST.DEGF                 68 : MUD FILTRATE SAMPLE TEMPERATURE
TCS .HRS                   3 : TIME CIRCULATED STOPPED
LUN .                   7691 : LOGGING UNIT NUMBER
LUL .                    WCT : LOGGING UNIT LOCATION
ENGI.                 KOVACS : RECORDING ENGINEER
WITN.            WONG MCLEOD : WITNESSED BY
CLNT.                A2DTECH : CLIENT CODE
ORIG.            2" 5" PRINT : ORIGIN OF DATA
UWI .       100123506118W500 : UNIQUE WELL ID
DICO. A2D Technologies, Inc. : DIGITIZING COMPANY
~Other -----------------------------------------------------
~ASCII -----------------------------------------------------
# ...
 2300.00000    -999.25   12.38340   12.38340  207.74160    -999.25    -999.25    -999.25    -999.25    -999.25    -999.25    4.81860  114.41440  114.41440    -999.25   75.30870   75.30870    4.81860    4.60270    5.01170    4.60270    -999.25    -999.25    -999.25    -999.25 -108.44530   -3.76550    5.01170    -999.25 1804.06680
 2350.00000    -999.25    9.81690    9.81690  272.68020    -999.25    -999.25    -999.25    -999.25    -999.25    -999.25    3.66730  106.14400  106.14400    -999.25   86.03110   86.03110    3.66730    3.44720    3.33740    3.44720    -999.25    -999.25    -999.25    -999.25 -108.50650   -4.22120    3.33740    -999.25 3943.55200
 2400.00000    -999.25   10.54430   10.54430  137.08090    -999.25    -999.25    -999.25    -999.25    -999.25    -999.25    7.30040  105.20860  105.20860    -999.25   72.76890   72.76890    7.30040    6.69430    6.91530    6.69430    -999.25    -999.25    -999.25    -999.25 -107.65330   -3.75860    6.91530    -999.25 5221.34290
 2450.00000    -999.25    8.82870    8.82870   60.11390    -999.25    -999.25    -999.25    -999.25    -999.25    -999.25   16.63510   89.44670   89.44670    -999.25   50.68640   50.68640   16.63510   14.73690   15.41190   14.73690    -999.25    -999.25    -999.25    -999.25 -120.43890  -16.93880   15.41190    -999.25 4093.34060
 2500.00000    -999.25    8.45520    8.45520   72.17350    -999.25    -999.25    -999.25    -999.25    -999.25    -999.25   13.85550   91.26010   91.26010    -999.25   52.13560   52.13560   13.85550   13.38010   11.53390   13.38010    -999.25    -999.25    -999.25    -999.25 -112.93860   -9.83110   11.53390    -999.25 9141.48860
 2550.00000    -999.25   11.91690   11.91690  265.09880    -999.25    -999.25    -999.25    -999.25    -999.25    -999.25    3.77220  121.12150  121.12150    -999.25   53.77760   53.77760    3.77220    3.22030    3.15320    3.22030    -999.25    -999.25    -999.25    -999.25 -102.90530   -0.18830    3.15320    -999.25  999.74990
 2600.00000    -999.25    9.30050    9.30050  197.87480    -999.25    -999.25    -999.25    -999.25    -999.25    -999.25    5.05370   84.76490   84.76490    -999.25   57.57380   57.57380    5.05370    5.73960    6.42770    5.73960    -999.25    -999.25    -999.25    -999.25 -105.70350   -3.38110    6.42770    -999.25  769.55970
 2650.00000    -999.25   11.83450   11.83450  239.95970    -999.25    -999.25    -999.25    -999.25    -999.25    -999.25    4.16960  108.81450  108.81450    -999.25   63.28130   63.28130    4.16960    3.84240    4.90340    3.84240    -999.25    -999.25    -999.25    -999.25 -104.18240   -2.25070    4.90340    -999.25 2904.37720
 2700.00000    -999.25    9.40280    9.40280   60.29540    -999.25    -999.25    -999.25    -999.25    -999.25    -999.25   16.58500   85.49690   85.49690    -999.25   46.90130   46.90130   16.58500   15.61450   15.20280   15.61450    -999.25    -999.25    -999.25    -999.25 -108.86540   -7.32820   15.20280    -999.25 4681.20430
 2750.00000    -999.25   11.73220   11.73220  209.56010    -999.25    -999.25    -999.25    -999.25    -999.25    -999.25    4.77190   99.29750   99.29750    -999.25   62.73060   62.73060    4.77190    4.36860    3.96970    4.36860    -999.25    -999.25    -999.25    -999.25 -103.62660   -2.48200    3.96970    -999.25 3381.65500
 2800.00000    -999.25    9.83400    9.83400   62.12110    -999.25    -999.25    -999.25    -999.25    -999.25    -999.25   16.10020   81.81230   81.81230    -999.25   38.80710   38.80710   16.10020   15.43470   14.60530   15.43470    -999.25    -999.25    -999.25    -999.25 -110.50340   -9.74940   14.60530    -999.25 6062.54450
 2850.00000    -999.25   11.23230   11.23230  228.00860    -999.25    -999.25    -999.25    -999.25    -999.25    -999.25    4.38580   93.62260   93.62260    -999.25   65.60280   65.60280    4.38580    4.63870    4.53280    4.63870    -999.25    -999.25    -999.25    -999.25 -102.97760   -2.61820    4.53280    -999.25 6156.59140
 2900.00000    -999.25    8.89770    8.89770   48.13280    -999.25    -999.25    -999.25    -999.25    -999.25    -999.25   20.77710   85.94650   85.94650    -999.25   42.26810   42.26810   20.77710   19.73170   20.15850   19.73170    -999.25    -999.25    -999.25    -999.25 -111.39880  -11.42990   20.15850    -999.25 6746.34670
 2950.00000    -999.25    8.58030    8.58030   92.07760    -999.25    -999.25    -999.25    -999.25    -999.25    -999.25   10.86040   84.92100   84.92100    -999.25   55.27600   55.27600   10.86040    8.83550   15.42980    8.83550    -999.25    -999.25    -999.25    -999.25 -107.61000   -8.03570   15.42980    -999.25    8.01010
 3000.00000    -999.25    8.78310    8.78310   12.10620    -999.25    -999.25    -999.25    -999.25    -999.25    -999.25   82.60210   58.40350   58.40350    -999.25   34.40580   34.40580   82.60210   39.92990  141.27010   39.92990    -999.25    -999.25    -999.25    -999.25 -108.75050   -9.56880  141.27010    -999.25  465.71030
 3050.00000    -999.25    9.88260    9.88260  224.93930    -999.25    -999.25    -999.25    -999.25    -999.25    -999.25    4.44640  101.61900  101.61900    -999.25   58.00850   58.00850    4.44640    4.18400    4.20180    4.18400    -999.25    -999.25    -999.25    -999.25 -101.54560   -2.75460    4.20180    -999.25 1831.71450
 3100.00000    -999.25    9.43700    9.43700  194.09940    -999.25    -999.25    -999.25    -999.25    -999.25    -999.25    5.15200   96.06550   96.06550    -999.25   57.70180   57.70180    5.15200    4.76150    6.40890    4.76150    -999.25    -999.25    -999.25    -999.25 -101.75170   -2.97480    6.40890    -999.25  508.04060
 3150.00000    -999.25    8.42670    8.42670   53.71630    -999.25    -999.25    -999.25    -999.25    -999.25    -999.25   18.62960   79.70240   79.70240    -999.25   40.78060   40.78060   18.62960   15.26790   20.73690   15.26790    -999.25    -999.25    -999.25    -999.25 -129.69140  -30.69470   20.73690    -999.25 1116.31120
 3200.00000    -999.25    9.69930    9.69930  109.48830    -999.25    -999.25    -999.25    -999.25    -999.25    -999.25    9.13340   88.02790   88.02790    -999.25   64.56420   64.56420    9.13340    8.85580    9.58680    8.85580    -999.25    -999.25    -999.25    -999.25 -103.78440   -4.56570    9.58680    -999.25 3197.48910
 3250.00000    -999.25    9.55630    9.55630  147.70830    -999.25    -999.25    -999.25    -999.25    -999.25    -999.25    6.77010   88.85020   88.85020    -999.25   69.80000   69.80000    6.77010    7.09710    7.75960    7.09710    -999.25    -999.25    -999.25    -999.25 -103.19320   -3.75360    7.75960    -999.25 8486.12720
 3300.00000    -999.25   10.04170   10.04170  193.50810    -999.25    -999.25    -999.25    -999.25    -999.25    -999.25    5.16780   95.17920   95.17920    -999.25   75.32200   75.32200    5.16780    5.33090    5.55890    5.33090    -999.25    -999.25    -999.25    -999.25 -101.94620   -2.47420    5.55890    -999.25 6829.08740
 3350.00000    -999.25    9.39080    9.39080  141.20700    -999.25    -999.25    -999.25    -999.25    -999.25    -999.25    7.08180   91.65960   91.65960    -999.25   91.17610   91.17610    7.08180    6.84500    6.53330    6.84500    -999.25    -999.25    -999.25    -999.25 -103.77090   -4.76200    6.53330    -999.25 7063.97150
 3400.00000    -999.25    9.51550    9.51550  122.16710    -999.25    -999.25    -999.25    -999.25    -999.25    -999.25    8.18560   87.98190   87.98190    -999.25   90.74710   90.74710    8.18560    7.87820    7.74260    7.87820    -999.25    -999.25    -999.25    -999.25 -104.08920   -5.53890    7.74260    -999.25 7313.68810
 3450.00000    -999.25   10.18500   10.18500  128.80290    -999.25    -999.25    -999.25    -999.25    -999.25    -999.25    7.76380   89.50140   89.50140    -999.25   87.12210   87.12210    7.76380    8.00430    8.25260    8.00430    -999.25    -999.25    -999.25    -999.25 -104.26440   -6.17720    8.25260    -999.25    0.00000
 3500.00000    -999.25    9.73950    9.73950  149.93180    -999.25    -999.25    -999.25    -999.25    -999.25    -999.25    6.66970   92.87580   92.87580    -999.25  107.73420  107.73420    6.66970    6.87750    8.01190    6.87750    -999.25    -999.25    -999.25    -999.25 -102.66030   -5.03390    8.01190    -999.25   10.36650
