~Version ---------------------------------------------------
VERS. 2.0 : CWLS log ASCII Standard -VERSION 2.0
WRAP.  NO : ONE LINE PER DEPTH STEP
~Well ------------------------------------------------------
STRT.M                       350.0 : START DEPTH
STOP.M                      3600.0 : STOP DEPTH
STEP.M                    50.00000 : STEP LENGTH
NULL.                      -999.25 : NULL VALUE
COMP. HUDSONS BAY OIL & GAS CO LTD : COMPANY
WELL.   HB ET AL KAYBOBS 7-5-58-18 : WELL
FLD .                           WC : FIELD
LOC .                              : LOCATION
CTRY.                       CANADA : COUNTRY
SRVC.                 Schlumberger : SERVICE COMPANY
DATE.                  15-May-1980 : LOGDATE
PROV.                      Alberta : PROVINCE
UWI .             100070505818W500 : UNIQUE WELL ID
SLAT.WGS84                 53.9828 : SURFACE LATITUDE
SLON.WGS84               -116.6361 : SURFACE LONGITUDE
~Curve Information -----------------------------------------
DEPT   .M                  : 
NPHI_SS.DEC   42 890 03 00 : NEUTRON POROSITY SANDSTONE
DPHI_SS.DEC   45 890 12 00 : DENSITY POROSITY SANDSTONE
GRD    .GAPI  45 310 01 00 : GAMMA RAY FROM DENSITY LOG
CALD   .MM    45 280 60 00 : CALIPER FROM DENSITY LOG
NPHI_LS.DEC   42 890 01 00 : NEUTRON POROSITY LIMESTONE
DPHI_LS.DEC   45 890 10 00 : DENSITY POROSITY LIMESTONE
DCOR   .KG/M3 45 356 01 00 : DENSITY CORRECTION
RHOB   .KG/M3 45 350 01 00 : BULK DENSITY
ILD    .OHMM  07 120 46 00 : INDUCTION DEEP RESISTIVITY
SFL    .OHMM  07 220 01 00 : SPHERICALLY FOCUSED LOG
ILM    .OHMM  07 120 44 00 : INDUCTION MEDIUM RESISTIVITY
SPR    .MV    07 010 01 00 : SPONTANEOUS POTENTIAL FROM RESISTIVITY LOG
CILD   .MMHO  07 110 46 00 : INDUCTION DEEP CONDUCTIVITY
GRS    .GAPI  60 310 01 00 : GAMMA RAY FROM SONIC LOG
DT     .US/M  60 500 00 00 : DELTA-T (INTERVAL TRANSIT TIME)
CALS   .MM    60 280 50 00 : CALIPER FROM SONIC LOG
~Params ----------------------------------------------------
PD  .                         GL : PERMANENT DATUM
EPD .M                      1036 : ELEVATION PERMANENT DATUM
LMF .                         KB : LOG MEASURED FROM
DAPD.M                         5 : FEET ABOVE PERMANENT DATUM
DMF .                         KB : DRILLING MEASURED FROM
EKB .M                      1041 : KELLY BUSHING
EGL .M                      1036 : GROUND LEVEL
DATE.                   05/15/80 : RUN DATE
RUN .                          1 : RUN NUMBER
DD  .M                      3627 : DEPTH DRILLER
DL  .M                    3626.9 : DEPTH LOGGER
BLI .M                      3626 : BOTTOM LOG INTERVAL
TLI .M                       377 : TOP LOG INTERVAL
CS  .MM                      244 : CASING SIZE
CBD .M                       378 : CASING BOTTOM DRILLER
CBL .M                       377 : CASING BOTTOM LOGGER
BS  .MM                      222 : BIT SIZE
BSD .M                      3627 : BIT SIZE AT DEPTH
DFT .                   GEL CHEM : DRILLING FLUID TYPE
DFD .                       1120 : DRILLING FLUID DENSITY
DFV .                        112 : DRILLING FLUID VISCOSITY
DFPH.                       10.5 : DRILLING FLUID PH
DFL .                         11 : DRILLING FLUID LOSS
MSS .                   MUD TANK : MUD SAMPLE SOURCE
RMS .OHMM                   2.35 : RESISTIVITY MUD SAMPLE
MST .DEGC                   23.3 : MUD SAMPLE TEMPERATURE
RMF .OHMM                   1.87 : RESISTIVITY MUD FILTRATE SAMPLE
MFST.DEGC                   21.7 : MUD FILTRATE SAMPLE TEMPERATURE
MFSS.                   MT PRESS : MUD FILTRATE SAMPLE SOURCE
RMB .OHMM                   0.86 : RESISTIVITY MUD AT BHT
TCS .HRS                    2300 : TIME CIRCULATED STOPPED
TLAB.HRS                     730 : TIME LOGGER AT BOTTOM
LUN .                       8156 : LOGGING UNIT NUMBER
LUL .                      EDSON : LOGGING UNIT LOCATION
ENGI.            DOWNEY MISSIUNA : RECORDING ENGINEER
WITN.                      GOUGH : WITNESSED BY
CLNT.                    A2DTECH : CLIENT CODE
ORIG. 6.5"/100M 16.5"/100M PRINT : ORIGIN OF DATA
UWI .           100070505818W500 : UNIQUE WELL ID
DICO.     A2D Technologies, Inc. : DIGITIZING COMPANY
~Other -----------------------------------------------------
~ASCII -----------------------------------------------------
# ...
 2500.00000    -999.25    -999.25   89.89060  254.88140    0.04650    0.00220    7.99690 2705.14530   21.51880   51.72260   26.46790  -19.11200    -999.25   91.96410  203.79680  239.43040
 2550.00000    -999.25    -999.25   32.22320  299.96930    0.07320    0.12970  250.31330 2484.21090   19.07870   36.07840   21.52970  -56.63530    -999.25   49.88690  177.94340  233.56560
 2600.00000    -999.25    -999.25   14.72100  260.82250   -0.00360   -0.12240    0.33170 2928.41630  261.53850  366.62620  173.09560  -85.45870    -999.25   15.77820  168.11650  252.47110
 2650.00000    -999.25    -999.25   49.14460  237.17360    0.07760    0.05640    6.69890 2612.03420   12.83300   52.36130   16.97570  -22.89620    -999.25   53.76420  191.36760  235.41550
 2700.00000    -999.25    -999.25   37.05680  272.54020    0.04010    0.03920  163.03900 2647.12570   18.98400   27.95550   15.31300   21.82210    -999.25   40.57430  195.26680  259.64890
 2750.00000    -999.25    -999.25   22.84820  237.66530    0.01560    0.01660    3.28940 2677.54860  104.33760  110.42160   93.16690    7.37290    -999.25   27.41020  174.03610  231.00620
 2800.00000    -999.25    -999.25   20.69360  292.10210    0.00530    0.03860  236.52110 2631.57540  245.10310 1693.82480  151.32770   -8.67720    -999.25   22.63580  165.11390  235.02800
 2850.00000    -999.25    -999.25   12.58190  289.03690   -0.00130    0.03520  247.05840 2647.99120 1997.14030 1163.45130  778.55910  -98.59820    -999.25   14.47460  158.37720  234.88430
 2900.00000    -999.25    -999.25   10.04560  309.83420    0.00100    0.09380  173.04900 2549.86380 1996.91050 1435.05240 1797.35310 -111.85650    -999.25   10.96780  163.68980  235.53970
 2950.00000    -999.25    -999.25   13.75020  322.05540    0.00500    0.18310  229.95690 2403.24680 2015.05410 1116.48280  510.85450 -112.05570    -999.25   14.43130  163.60080  240.83670
 3000.00000    -999.25    -999.25   12.03910  309.56320    0.01640    0.33010  186.22720 2146.62260 2006.50780 1660.18120  743.65780 -105.05390    -999.25   13.07580  157.95140  240.87160
 3050.00000    -999.25    -999.25   27.07660  240.28250    0.01260   -0.07380   -3.75700 2838.02760 2019.28770 1864.86150 1646.92050  -66.02720    -999.25   23.05820  158.26870  229.40130
 3100.00000    -999.25    -999.25   27.96140  259.07700    0.01900    0.00720  123.72810 2690.61280  888.73580  310.76010  246.53580   15.14420    -999.25   27.58600  166.31470  236.41540
 3150.00000    -999.25    -999.25   30.15820  240.76840    0.04810    0.01460   -1.01580 2679.60770   59.48580   61.82040   56.16460   24.84590    -999.25   34.66550  175.01550  235.72320
 3200.00000    -999.25    -999.25   48.34060  242.02340    0.07400    0.02980  -12.97270 2657.37820   19.50500   23.88860   20.74680   33.54240    -999.25   46.17810  192.87540  235.61460
 3250.00000    -999.25    -999.25   26.59800  239.74820    0.07340    0.01650    5.20350 2681.80220  219.00400  681.36380  215.34140   35.02430    -999.25   24.07760  169.38000  238.21720
 3300.00000    -999.25    -999.25   67.59450  265.92420    0.16480    0.19940  235.68900 2346.93750    9.98780   15.94420   10.32890   32.57300    -999.25   70.63830  220.87390  244.82260
 3350.00000    -999.25    -999.25   84.04490  246.50370    0.17510    0.02380  105.52210 2658.89210   12.17450   16.39320   13.28990   38.37920    -999.25   87.70200  218.48470  237.99010
 3400.00000    -999.25    -999.25  111.70630  231.75140    0.18100    0.08120   31.98000 2570.10790   43.52540   59.32850   40.06560   32.05560    -999.25  115.84000  254.23600  219.50850
 3450.00000    -999.25    -999.25   12.61730  288.18010    0.00890    0.06560  233.81230 2595.46310 2025.15490 1960.28430 2011.22050 -138.59260    -999.25   14.43720  160.71350  229.42720
 3500.00000    -999.25    -999.25   11.07890  199.30120    0.07160    0.03410  248.99680 2651.38570  944.20580  673.85290  388.00230 -112.99330    -999.25   11.44870  159.46160  192.66250
 3550.00000    -999.25    -999.25   10.37390  245.24190    0.06820   -0.01100  196.52620 2709.15450 2017.57690  798.18390  595.14680  -92.23980    -999.25   11.64180  160.15520  219.56550
 3600.00000    -999.25    -999.25   19.39830  243.98430    0.04090    0.02480  244.32460 2659.05150   43.39650   96.95050   36.02970  -71.45680    -999.25   15.72860  159.43910  218.09080
