~Version ---------------------------------------------------
VERS.      2.0 : CWLS log ASCII Standard -VERSION 2.0
WRAP.       NO : ONE LINE PER DEPTH STEP
CREA. 09/18/13 : LAS CREATION DATE
~Well ------------------------------------------------------
STRT.M                        450.0 : START DEPTH
STOP.M                       3000.0 : STOP DEPTH
STEP.M                     50.00000 : STEP LENGTH
NULL.                       -999.25 : NULL VALUE
COMP.              HOME OIL COMPANY : COMPANY
WELL. HOME ET AL KAYBOB 12-36-64-19 : WELL
FLD .                               : FIELD
LOC .                               : LOCATION
CTRY.                        CANADA : COUNTRY
SRVC.                  Schlumberger : SERVICE COMPANY
DATE.                   24-Jan-1987 : LOGDATE
PROV.                       Alberta : PROVINCE
UWI .              100123606419W500 : UNIQUE WELL ID
SLAT.WGS84                 54.58338 : SURFACE LATITUDE
SLON.WGS84                -116.7452 : SURFACE LONGITUDE
~Curve Information -----------------------------------------
DEPT    .M      : DEPTH METERS
CALDED  .MM     : CALIPER FROM DENSITY LOG [DEP ADJ TO GRRED]
CALRED  .MM     : CALIPER FROM RESISTIVITY LOG
CALSED  .MM     : CALIPER FROM SONIC LOG [DEP ADJ TO GRRED]
CALWS   .MM     : CALIPER [401 CALRED 814 CALDED 2213 CALRED]
CONDWS  .MMHO   : CONDUCTIVITY [1000/DRESWS]
DCORWS  .KG/M3  : DENSITY CORRECTION [DRHOED]
DENWS   .KG/M3  : BULK DENSITY [M=2710 F=1000] [CAL FR DPOLSWS]
DPHILSED.V/V    : DENSITY POROSITY [M=2710 F=1000] FROM DENSITY LOG [DEP ADJ TO GRRED]
DPHISSED.V/V    : DENSITY POROSITY [M=2650 F=1000] FROM DENSITY LOG [DEP ADJ TO GRRED]
DPOLSWS .V/V    : DENSITY POROSITY [M=2710 F=1000] [422 DPOLSCAL [DPHISSED IS CONVERTED] 1700 DPHILSED]
DRESWS  .OHMM   : DEEP RESISTIVITY [IDPHED]
DRHOED  .KG/M3  : DENSITY CORRECTION FROM DENSITY LOG [DEP ADJ TO GRRED]
DTED    .US/M   : DELTA TIME FROM SONIC LOG [DEP ADJ TO GRRED]
DTWS    .US/M   : DELTA TIME [DTED]
GRDED   .GAPI   : GAMMA RAY FROM DENSITY LOG [DEP ADJ TO GRRED]
GRRED   .GAPI   : GAMMA RAY FROM RESISTIVITY LOG
GRSED   .GAPI   : GAMMA RAY FROM SONIC LOG [DEP ADJ TO GRRED]
GRWS    .GAPI   : GAMMA RAY [401 GRSED 421 GRRED 2985 GRDED]
IDPHED  .OHMM   : INDUCTION DEEP PHASE RESISTIVITY
IMPHED  .OHMM   : INDUCTION MEDIUM PHASE RESISTIVITY
MRESWS  .OHMM   : MEDIUM RESISTIVITY [IMPHED]
MSFLED  .OHMM   : MICROSPHERICALLY FOCUSED LOG RESISTIVITY
NPHILSED.V/V    : NEUTRON POROSITY LIMESTONE FROM DENSITY LOG [DEP ADJ TO GRRED]
NPHISSED.V/V    : NEUTRON POROSITY SANDSTONE FROM DENSITY LOG [DEP ADJ TO GRRED]
NPOLSWS .V/V    : NEUTRON POROSITY LIMESTONE [420 NPOLSCAL [NPHISSED IS CONV. USING PWL MODU] 1700 NPHILSED]
PEFED   .B/E    : PHOTOELECTRIC FACTOR FROM DENSITY LOG [DEP ADJ TO GRRED]
PEFWS   .B/E    : PHOTOELECTRIC FACTOR [PEFED]
RHOBED  .KG/M3  : BULK DENSITY FROM DENSITY LOG [DEP ADJ TO GRRED]
SPRED   .MV     : SPONTANEOUS POTENTIAL FROM RESISTIVITY LOG [SHIFT IS REMOVED; RESCALED BELOW 1398M]
SPWS    .MV     : SPONTANEOUS POTENTIAL [BASELINE 0 MV] [SPRED]
TENDED  .N      : TENSION FROM DENSITY LOG [DEP ADJ TO GRRED]
TENRED  .N      : TENSION FROM RESISTIVITY LOG
TENSED  .N      : TENSION FROM SONIC LOG  [DEP ADJ TO GRRED]
~Params ----------------------------------------------------
PD  .                         GL : PERMANENT DATUM
EPD .M                     755.7 : ELEVATION PERMANENT DATUM
LMF .                         KB : LOG MEASURED FROM
DAPD.M                       7.1 : FEET ABOVE PERMANENT DATUM
DMF .                         KB : DRILLING MEASURED FROM
EKB .M                     762.8 : KELLY BUSHING
EDF .M                     762.7 : DRILLING FLOOR
EGL .M                     755.7 : GROUND LEVEL
DATE.                   01/24/87 : RUN DATE
RUN .                          1 : RUN NUMBER
DD  .M                      3015 : DEPTH DRILLER
DL  .M                      3012 : DEPTH LOGGER
BLI .M                      3010 : BOTTOM LOG INTERVAL
TLI .M                       422 : TOP LOG INTERVAL
CS  .MM                    244.5 : CASING SIZE
CBD .M                       422 : CASING BOTTOM DRILLER
CBL .M                       422 : CASING BOTTOM LOGGER
BS  .MM                      222 : BIT SIZE
BSD .M                      3015 : BIT SIZE AT DEPTH
DFT .                        GEL : DRILLING FLUID TYPE
DFD .                       1150 : DRILLING FLUID DENSITY
DFV .                        100 : DRILLING FLUID VISCOSITY
DFPH.                       10.5 : DRILLING FLUID PH
DFL .                          9 : DRILLING FLUID LOSS
MSS .                   FLOWLINE : MUD SAMPLE SOURCE
RMS .OHMM                   2.48 : RESISTIVITY MUD SAMPLE
MST .DEGC                     22 : MUD SAMPLE TEMPERATURE
RMF .OHMM                   2.22 : RESISTIVITY MUD FILTRATE SAMPLE
MFST.DEGC                     23 : MUD FILTRATE SAMPLE TEMPERATURE
RMC .OHMM                  0.888 : RESISTIVITY MUD CAKE
MCST.DEGC                     90 : MUD CAKE SAMPLE TEMPERATURE
MFSS.                      PRESS : MUD FILTRATE SAMPLE SOURCE
MCSS.                      PRESS : MUD CAKE SAMPLE SOURCE
RMB .OHMM                   0.97 : RESISTIVITY MUD AT BHT
TCS .HRS                    1500 : TIME CIRCULATED STOPPED
TLAB.HRS                    2300 : TIME LOGGER AT BOTTOM
LUN .                       8154 : LOGGING UNIT NUMBER
LUL .                        EDM : LOGGING UNIT LOCATION
ENGI.                       CHAN : RECORDING ENGINEER
WITN.                     MILLER : WITNESSED BY
CLNT.                    A2DTECH : CLIENT CODE
ORIG. 6.5"/100M 16.5"/100M PRINT : ORIGIN OF DATA
UWI .           100123606419W500 : UNIQUE WELL ID
DICO.     A2D Technologies, Inc. : DIGITIZING COMPANY
~Other -----------------------------------------------------
~ASCII -----------------------------------------------------
  450.00000  275.43610  272.85160   49.28630  272.85160  143.76280   13.45790 2235.85000    -999.25    0.25100    0.27730    6.95590   13.45790  324.65510  324.65510   53.76350   57.80140   54.29210   57.80140    6.95590    6.53960    6.53960    6.59240    -999.25    0.29460    0.25060    2.82210    2.82210 2238.98660  -32.22530  -10.81350 6421.84230 5594.80520 7641.43990
  500.00000  250.18790  291.77300   49.18890  291.77300  227.26760   13.98350 2292.11500    -999.25    0.21690    0.24440    4.40010   13.98350  342.39680  342.39680   64.58350   60.57710   65.09670   60.57710    4.40010    3.96530    3.96530    4.43610    -999.25    0.36680    0.32340    2.88410    2.88410 2289.79540  -23.33060   -3.10330 6973.26560 5754.33060 7770.29740
  550.00000  219.23470  240.50670   49.34940  240.50670   66.07200   18.78410 2197.40500    -999.25    0.27430    0.29980   15.13500   18.78410  336.28570  336.28570   53.69530   52.43040   52.71470   52.43040   15.13500   12.59670   12.59670    8.29850    -999.25    0.39870    0.35580    2.73210    2.73210 2196.17140  -33.64970  -14.55990 7270.03270 6159.95800 7920.10400
  600.00000  356.37980  396.47750   49.10900  396.47750  229.81640   24.70220 1610.66500    -999.25    0.62990    0.64290    4.35130   24.70220  367.19540  367.19540   56.33250   66.47570   60.41290   66.47570    4.35130    3.73670    3.73670    3.40060    -999.25    0.46420    0.42300    2.42660    2.42660 1565.74490  -23.36530   -4.96100 7825.90820 6364.41360 8534.22460
  650.00000  218.59150  261.39820   48.88080  261.39820   83.63860   19.47350 2253.34000    -999.25    0.24040    0.26710   11.95620   19.47350  346.55300  346.55300   48.61840   50.61230   49.04300   50.61230   11.95620   11.15370   11.15370    8.43030    -999.25    0.36110    0.31760    2.34390    2.34390 2251.54880  -30.42740  -12.70850 7556.05760 6579.52830 8480.77340
  700.00000  268.15640  273.24960   49.50890  273.24960  220.80420  125.26470 2099.72500    -999.25    0.33350    0.35690    4.52890  125.26470  354.37460  354.37460   59.07620   64.87090   63.86750   64.87090    4.52890    3.97370    3.97370    3.15120    -999.25    0.47690    0.43610    2.63890    2.63890 2095.50050  -20.18450   -3.15100 8215.70510 6893.68990 9062.35160
  750.00000  222.87020  267.65940   49.23670  267.65940  157.81830    8.58150 2448.86500    -999.25    0.12190    0.15270    6.33640    8.58150  297.65900  297.65900   53.20970   59.40200   64.49030   59.40200    6.33640    6.17150    6.17150    8.20300    -999.25    0.34490    0.30120    3.05410    3.05410 2439.81230  -20.88440   -4.53630 8353.65630 7209.39160 9231.16600
  800.00000  240.12900  305.05560    -999.25  305.05560  138.51570  114.17510 2278.09000    -999.25    0.22540    0.25260    7.21940  114.17510  300.13380  300.13380   58.78130   66.49790   66.05270   66.49790    7.21940    6.58540    6.58540    4.95250    -999.25    0.45040    0.40870    2.86230    2.86230 2276.50490  -19.13780   -3.55520 8486.61620 7234.97360 9519.34960
  850.00000  282.06450  309.56180    -999.25  282.06450  141.43070  112.31310 1965.91000    -999.25    0.41460    0.43510    7.07060  112.31310  348.24020  348.24020  114.28910  115.45200  133.88530  115.45200    7.07060    6.42170    6.42170    5.64070    -999.25    0.49110    0.45090    2.59900    2.59900 1995.71560  -18.36310   -3.87420 8672.15630 7438.68210 9712.94630
  900.00000  423.36750  336.15680    -999.25  423.36750  141.77760   43.63890 2269.34500    -999.25    0.23070    0.25770    7.05330   43.63890  316.23350  316.23350   86.88060   78.17090   93.05040   78.17090    7.05330    6.27990    6.27990    2.68180    -999.25    0.38600    0.34290    2.76030    2.76030 2259.64870  -22.32030   -8.92500 9181.20020 7683.53320 9905.42580
  950.00000  264.01060  243.84000    -999.25  264.01060  125.14700   51.74740 2259.44500    -999.25    0.23670    0.26350    7.99060   51.74740  296.91670  296.91670   89.62860   84.85700   92.64800   84.85700    7.99060    7.71530    7.71530    3.96120    -999.25    0.39040    0.34730    2.85280    2.85280 2256.29910  -19.46570   -7.16410 9443.67680 7985.18850 10091.53910
 1000.00000  298.93540  328.82420    -999.25  298.93540  133.78280   69.71010 1917.73000    -999.25    0.44380    0.46330    7.47480   69.71010  310.59780  310.59780   91.55130   92.04510   88.98310   92.04510    7.47480    6.49050    6.49050    3.40630    -999.25    0.45900    0.41760    2.16110    2.16110 1917.43410  -19.31290   -8.10500 9677.07420 8057.61040 10061.78220
 1050.00000  326.99570  314.59820    -999.25  326.99570  117.50050  116.15600 1891.33000    -999.25    0.45980    0.47880    8.51060  116.15600  275.42760  275.42760   86.13540   86.08490   84.55880   86.08490    8.51060    7.94270    7.94270    3.99850    -999.25    0.41020    0.36750    2.22390    2.22390 1887.52780  -18.23240   -8.11820 10262.68950 8526.97950 10421.45210
 1100.00000  279.70350  276.08650    -999.25  279.70350  148.60170   97.92220 1848.92500    -999.25    0.48550    0.50360    6.72940   97.92220  314.27950  314.27950  104.67760   96.63710  104.74740   96.63710    6.72940    6.32060    6.32060    5.18420    -999.25    0.39700    0.35410    2.30300    2.30300 1845.54810  -13.70250   -4.68200 10147.46780 8521.70700 10598.20610
 1150.00000  242.90940  245.81970    -999.25  242.90940  108.55520  140.87170 2138.83000    -999.25    0.30980    0.33400    9.21190  140.87170  318.93520  318.93520  116.64580  119.95660  119.12050  119.95660    9.21190    8.70080    8.70080    6.80860    -999.25    0.37330    0.33000    3.01050    3.01050 2127.60010  -12.94780   -5.02100 10176.09770 8938.13480 10938.91990
 1200.00000  243.37840  263.08640   42.61580  243.37840  113.54600  132.47360 2277.76000    -999.25    0.22560    0.25280    8.80700  132.47360  268.81290  268.81290   89.63660   84.93870   95.61530   84.93870    8.80700    8.41840    8.41840    7.50190    -999.25    0.27130    0.22730    2.60690    2.60690 2292.41210  -13.51570   -7.11270 10626.53810 9100.17580 11966.34860
 1250.00000  240.50000  235.00890   42.70930  240.50000  111.19020  102.58840 2484.67000    -999.25    0.10020    0.13180    8.99360  102.58840  269.18410  269.18410   92.95510   92.87280   92.50560   92.87280    8.99360    8.64820    8.64820   10.05900    -999.25    0.29550    0.25150    2.93500    2.93500 2470.38110  -12.69820   -8.21280 11015.80370 9444.15430 12211.72750
 1300.00000  308.48180  344.28710  346.06180  308.48180  168.83910  152.55460 2078.44000    -999.25    0.34640    0.36930    5.92280  152.55460  282.79130  282.79130   92.48950   90.25140  108.22430   90.25140    5.92280    5.56090    5.56090    6.08320    -999.25    0.33730    0.29350    2.34810    2.34810 2078.26930   -8.77280   -6.20510 11382.16310 9617.54880 12264.77440
 1350.00000  269.60130  391.18190  393.63200  269.60130  213.78030  123.52770 2106.16000    -999.25    0.32960    0.35310    4.67770  123.52770  292.58900  292.58900   79.90500   80.60170   96.53830   80.60170    4.67770    4.37390    4.37390    3.85040    -999.25    0.39730    0.35440    2.12820    2.12820 2133.35620   -6.75590   -5.85550 11602.39940 9928.21880 12612.55570
 1400.00000  230.43700  220.31300  220.12580  230.43700   73.20110  108.25430 2121.83500    -999.25    0.32010    0.34400   13.66100  108.25430  266.91870  266.91870   63.76720   48.79500   46.10700   48.79500   13.66100   18.97260   18.97260   14.65370    -999.25    0.34830    0.30460    2.15910    2.15910 2076.31910  -18.02050  -18.75830 11787.33200 12789.49510 12774.66500
 1450.00000  286.45070  275.54820  276.15130  286.45070   95.22270   43.23730 2430.55000    -999.25    0.13300    0.16340   10.50170   43.23730  252.69810  252.69810   74.08430   83.43050   83.53850   83.43050   10.50170   10.31590   10.31590    5.69970    -999.25    0.37970    0.33650    2.57130    2.57130 2404.08810   -4.41060   -6.78660 12072.15530 12960.35550 13112.30660
 1500.00000  349.53460  313.14120  313.97810  349.53460   80.21630   29.70010 2055.01000    -999.25    0.36060    0.38300   12.46630   29.70010  297.20730  297.20730   72.17200   81.99950   82.03590   81.99950   12.46630   13.90570   13.90570    8.20600    -999.25    0.47040    0.42940    2.38050    2.38050 2048.99930   -2.72860   -6.74290 12343.80570 13509.83200 13369.43650
