~Version ---------------------------------------------------
VERS.      2.0 : CWLS log ASCII Standard -VERSION 2.0
WRAP.       NO : One line per depth step
CREA. 12/14/17 : LAS Creation Date
~Well ------------------------------------------------------
STRT.FT                        1500.0 : START DEPTH
STOP.FT                        9650.0 : STOP DEPTH
STEP.FT                      50.00000 : STEP LENGTH
NULL.                         -999.25 : NULL VALUE
COMP.           OCELOT INDUSTRIES LTD : COMPANY
WELL. OIL ET AL VIRGHILLS 11-15-63-13 : WELL
FLD .                                 : FIELD
LOC .                                 : LOCATION
CTRY.                          CANADA : COUNTRY
SRVC.                   Dresser Atlas : SERVICE COMPANY
DATE.                     19-Jun-1978 : LOGDATE
PROV.                         Alberta : PROVINCE
UWI .                100111506313W500 : UNIQUE WELL ID
SLAT.WGS84                   54.45302 : SURFACE LATITUDE
SLON.WGS84                  -115.8819 : SURFACE LONGITUDE
~Curve Information -----------------------------------------
DEPT     .FT    : Depth Curve
CALD1ED  .IN    : CALIPER FROM CNFD LOG [AJ. TO RESISTIVITY LOG]
CALDED   .IN    : CALIPER FROM CDL-CNL LOG [AJ. TO RESISTIVITY LOG]
CALWS    .IN    : CALIPER [CALD1ED SPL. TO CALDED @ 1881.3M]
CONDWS   .MMHO  : CONDUCTIVITY [1000/DRESWS]
CORRED   .G/C3  : DENSITY CORRECTION FROM CDL-CNL LOG [ADJ. TO RESISTIVITY LOG/DPHILSED/DPHISSED] [CORRED*1000]
DCORED   .G/C3  : DENSITY CORRECTION FROM CNFD LOG [ADJ. TO RESISTIVITY LOG/DPHISS1ED] [DCOR1ED*1000]
DCORWS   .G/C3  : DENSITY CORRECTION [DCORED SPL.TO CORRED @ 5900']
DENWS    .G/C3  : FORMATION BULK DENSITY [CALC. FROM DPOLSWS M=2.71,F=1.00]
DPHILSED .V/V   : DENSITY POROSITY LIMESTONE [M=2.71,F=1.0] FROM CDL-CNL LOG [AJ. TO RESISTIVITY LOG]
DPHISS1ED.V/V   : DENSITY POROSITY SANDSTONE [M=2.65,F=1.0] FROM CNFD LOG [AJ. TO RESISTIVITY LOG]
DPHISSED .V/V   : DENSITY POROSITY SANDSTONE [M=2.65,F=1.0] FROM CDL-CNL LOG [AJ. TO RESISTIVITY LOG]
DPOLSWS  .V/V   : DENSITY POROSITY LIMESTONE [DPHISS1ED CONVERTED TO LIMESTONE MATRIX, M=2.71,F=1.00, SPL. TO DPHILSED @ 5604']
DRESWS   .OHMM  : DEEP RESISTIVITY [ILDED]
GRD1ED   .GAPI  : GAMMA RAY FROM CNFD LOG [AJ. TO RESISTIVITY LOG]
GRDED    .GAPI  : GAMMA RAY FROM CDL-CNL LOG [AJ. TO RESISTIVITY LOG]
GRWS     .GAPI  : GAMMA RAY [GRD1ED SPL. TO GRDED @ 5873']
ILDED    .OHMM  : DEEP INDUCTION FROM RESISTIVITY LOG
ILMED    .OHMM  : MEDIUM INDUCTION FROM RESISTIVITY LOG
MRESWS   .OHMM  : MEDIUM RESISTIVITY [ILMED]
NPHILSED .V/V   : NEUTRON POROSITY LIMESTONE FROM CDL-CNL LOG [AJ. TO RESISTIVITY LOG]
NPHISS1ED.V/V   : NEUTRON POROSITY SANDSTONE FROM CNFD LOG [AJ. TO RESISTIVITY LOG]
NPHISSED .V/V   : NEUTRON POROSITY SANDSTONE FROM CDL-CNL LOG [AJ. TO RESISTIVITY LOG]
NPOLSWS  .V/V   : NEUTRON POROSITY LIMESTONE [NPHISSED MATRIX CONVERSION FOR LIMESTONE FROM SCHLUMBERGER (CNL), SPL. TO NPHILSED @ 5604']
RHOB1ED  .G/C3  : BULK DENSITY FROM CNFD LOG [ADJ. TO RESISTIVITY LOG/DPHISS1ED]
RHOBED   .G/C3  : BULK DENSITY FROM CDL-CNL LOG [ADJ. TO RESISTIVITY LOG/DPHILSED/DPHISSED]
SFLED    .OHMM  : SPHERICALLY FOCUSED FROM RESISTIVITY LOG
SPRED    .MV    : SPONTANEOUS POTENTIAL FROM RESISTIVITY LOG
SPWS     .MV    : SPONTANEOUS POTENTIAL [BASELINE 0 MV, SPRED]
SRESWS   .OHMM  : SHALLOW RESISTIVITY [SFLED]
~Params ----------------------------------------------------
PD  .                     GL : PERMANENT DATUM
EPD .FT               3435.5 : ELEVATION PERMANENT DATUM
LMF .                     KB : LOG MEASURED FROM
DAPD.FT                 15.5 : FEET ABOVE PERMANENT DATUM
DMF .                     KB : DRILLING MEASURED FROM
EKB .FT                 3451 : KELLY BUSHING
EGL .FT               3435.5 : GROUND LEVEL
DATE.               06/19/78 : RUN DATE
RUN .                      1 : RUN NUMBER
DD  .FT                 9683 : DEPTH DRILLER
DL  .FT                 9684 : DEPTH LOGGER
BLI .FT                 9681 : BOTTOM LOG INTERVAL
TLI .FT                 1517 : TOP LOG INTERVAL
CS  .IN                8.625 : CASING SIZE
CBD .FT                 1517 : CASING BOTTOM DRILLER
CBL .FT                 1517 : CASING BOTTOM LOGGER
BS  .IN                7.875 : BIT SIZE
BSD .FT                 9683 : BIT SIZE AT DEPTH
DFT .               GEL CHEM : DRILLING FLUID TYPE
DFD .                    9.1 : DRILLING FLUID DENSITY
DFV .                     65 : DRILLING FLUID VISCOSITY
DFPH.                      9 : DRILLING FLUID PH
DFL .                     11 : DRILLING FLUID LOSS
MSS .                   CIRC : MUD SAMPLE SOURCE
RMS .OHMM                  3 : RESISTIVITY MUD SAMPLE
MST .DEGF                 76 : MUD SAMPLE TEMPERATURE
RMF .OHMM                2.8 : RESISTIVITY MUD FILTRATE SAMPLE
MFST.DEGF                 72 : MUD FILTRATE SAMPLE TEMPERATURE
RMC .OHMM                2.5 : RESISTIVITY MUD CAKE
MCST.DEGF                 72 : MUD CAKE SAMPLE TEMPERATURE
MFSS.                   MEAS : MUD FILTRATE SAMPLE SOURCE
MCSS.                   MEAS : MUD CAKE SAMPLE SOURCE
RMB .OHMM               1.23 : RESISTIVITY MUD AT BHT
TCS .HRS                   5 : TIME CIRCULATED STOPPED
LUN .                HL 6155 : LOGGING UNIT NUMBER
LUL .                     VV : LOGGING UNIT LOCATION
ENGI.                 GORDON : RECORDING ENGINEER
WITN.                  BROCK : WITNESSED BY
CLNT.                A2DTECH : CLIENT CODE
ORIG.            2" 5" PRINT : ORIGIN OF DATA
UWI .       100111506313W500 : UNIQUE WELL ID
DICO. A2D Technologies, Inc. : DIGITIZING COMPANY
~Other -----------------------------------------------------
DIL-CNFD-CNL-CDL LOG RUN
RHOBED,RHOB1ED,CORRED & DCORED VERIFY FROM 2" SCALE
~ASCII -----------------------------------------------------
# ...
 6500.00000    -999.25    8.54900    8.54900   20.08480   -0.00470    -999.25   -0.00470    2.65620    0.03140    -999.25    -999.25    0.03140   49.78880    -999.25    9.15180    9.15180   49.78880   54.44850   54.44850    0.06440    -999.25    -999.25    0.06440    -999.25    2.65420 1268.85890  -68.15910  -48.19740 1268.85890
 6550.00000    -999.25    7.97620    7.97620   33.88270    0.00460    -999.25    0.00460    2.70410    0.00340    -999.25    -999.25    0.00340   29.52760    -999.25   24.15960   24.15960   29.52760   32.13860   32.13860    0.06220    -999.25    -999.25    0.06220    -999.25    2.68680   34.65580  -53.14110  -33.43890   34.65580
 6600.00000    -999.25    7.52160    7.52160   18.62690    0.01440    -999.25    0.01440    2.67780    0.01890    -999.25    -999.25    0.01890   53.68590    -999.25   27.75160   27.75160   53.68590   58.90880   58.90880    0.04660    -999.25    -999.25    0.04660    -999.25    2.66800  100.95460  -46.67140  -27.23050  100.95460
 6650.00000    -999.25    7.71680    7.71680   28.83190    0.00400    -999.25    0.00400    2.64910    0.03560    -999.25    -999.25    0.03560   34.68750    -999.25   36.03170   36.03170   34.68750   37.25740   37.25740    0.05170    -999.25    -999.25    0.05170    -999.25    2.63400   41.51290  -32.43160  -13.25020   41.51290
 6700.00000    -999.25    8.15580    8.15580   41.58710    0.00450    -999.25    0.00450    2.69430    0.00920    -999.25    -999.25    0.00920   24.04590    -999.25   45.48730   45.48730   24.04590   24.98290   24.98290    0.09530    -999.25    -999.25    0.09530    -999.25    2.67590   35.90590  -28.07490   -9.15470   35.90590
 6750.00000    -999.25    9.84060    9.84060  132.49770    0.11180    -999.25    0.11180    2.48650    0.13070    -999.25    -999.25    0.13070    7.54730    -999.25  120.29250  120.29250    7.54730    8.29650    8.29650    0.22070    -999.25    -999.25    0.22070    -999.25    2.49030    8.83270  -26.76340   -8.10280    8.83270
 6800.00000    -999.25    8.71350    8.71350   98.97100    0.01440    -999.25    0.01440    2.69670    0.00780    -999.25    -999.25    0.00780   10.10700    -999.25   77.91140   77.91140   10.10700   10.73090   10.73090    0.12450    -999.25    -999.25    0.12450    -999.25    2.68150   13.19360  -47.77840  -29.37730   13.19360
 6850.00000    -999.25    8.28250    8.28250   20.87530    0.00670    -999.25    0.00670    2.63000    0.04680    -999.25    -999.25    0.04680   47.90360    -999.25   21.43650   21.43650   47.90360  177.80970  177.80970    0.06990    -999.25    -999.25    0.06990    -999.25    2.60280  234.49320  -91.32890  -73.16360  234.49320
 6900.00000    -999.25    8.22020    8.22020    1.57340    0.00580    -999.25    0.00580    2.68670    0.01360    -999.25    -999.25    0.01360  669.93320    -999.25   17.95980   17.95980  669.93320 1086.95430 1086.95430    0.02350    -999.25    -999.25    0.02350    -999.25    2.67420 2107.48390 -117.50050  -99.53030 2107.48390
 6950.00000    -999.25    8.25500    8.25500    1.95400   -0.01410    -999.25   -0.01410    2.68250    0.01610    -999.25    -999.25    0.01610  511.77800    -999.25   29.30930   29.30930  511.77800  990.85000  990.85000    0.02750    -999.25    -999.25    0.02750    -999.25    2.67020 2183.43330  -84.17840  -66.40460 2183.43330
 7000.00000    -999.25    8.77080    8.77080    1.38880    0.00750    -999.25    0.00750    2.71050   -0.00030    -999.25    -999.25   -0.00030  720.06560    -999.25   32.08980   32.08980  720.06560 1085.04470 1085.04470    0.02410    -999.25    -999.25    0.02410    -999.25    2.69220 2253.19820 -119.48160 -101.90290 2253.19820
 7050.00000    -999.25    8.57370    8.57370   15.59530   -0.00240    -999.25   -0.00240    2.75720   -0.02760    -999.25    -999.25   -0.02760   64.14270    -999.25   27.66160   27.66160   64.14270   60.18050   60.18050    0.04680    -999.25    -999.25    0.04680    -999.25    2.73790  282.53420 -109.20070  -91.81710  282.53420
 7100.00000    -999.25    8.79120    8.79120   18.15720    0.03330    -999.25    0.03330    2.68420    0.01510    -999.25    -999.25    0.01510   55.07450    -999.25   33.35490   33.35490   55.07450   62.29940   62.29940    0.05640    -999.25    -999.25    0.05640    -999.25    2.67200  684.94500 -129.75990 -112.57270  684.94500
 7150.00000    -999.25    7.24920    7.24920   57.16330    0.02740    -999.25    0.02740    2.57970    0.07620    -999.25    -999.25    0.07620   17.50460    -999.25   28.69490   28.69490   17.50460   39.37220   39.37220    0.08140    -999.25    -999.25    0.08140    -999.25    2.56590  770.87370 -195.99870 -179.00660  770.87370
 7200.00000    -999.25    8.66720    8.66720    1.78040    0.02260    -999.25    0.02260    2.74780   -0.02210    -999.25    -999.25   -0.02210  561.68320    -999.25   34.66090   34.66090  561.68320 1032.75950 1032.75950    0.03830    -999.25    -999.25    0.03830    -999.25    2.73190 2255.14110 -157.84230 -141.04660 2255.14110
 7250.00000    -999.25    8.58150    8.58150   31.99340    0.07020    -999.25    0.07020    2.65150    0.03420    -999.25    -999.25    0.03420   31.25640    -999.25   34.31560   34.31560   31.25640   49.65020   49.65020    0.07190    -999.25    -999.25    0.07190    -999.25    2.64520 2168.19430 -189.92490 -173.32430 2168.19430
 7300.00000    -999.25    8.50250    8.50250   11.74940    0.01640    -999.25    0.01640    2.68080    0.01710    -999.25    -999.25    0.01710   85.15520    -999.25   35.19920   35.19920   85.15520  120.90970  120.90970    0.05500    -999.25    -999.25    0.05500    -999.25    2.66390 2232.26180 -134.40440 -117.99890 2232.26180
 7350.00000    -999.25    8.46760    8.46760    0.68630    0.01760    -999.25    0.01760    2.72860   -0.01090    -999.25    -999.25   -0.01090 1457.04640    -999.25   39.70340   39.70340 1457.04640 1592.03970 1592.03970    0.01900    -999.25    -999.25    0.01900    -999.25    2.70470 2268.44430 -129.67390 -113.46480 2268.44430
 7400.00000    -999.25    8.37780    8.37780   11.44680    0.01030    -999.25    0.01030    2.66570    0.02590    -999.25    -999.25    0.02590   88.10570    -999.25   39.38450   39.38450   88.10570  138.93350  138.93350    0.04620    -999.25    -999.25    0.04620    -999.25    2.64290 1681.38130 -160.98610 -144.97210 1681.38130
 7450.00000    -999.25    8.07200    8.07200    2.13640    0.01080    -999.25    0.01080    2.70130    0.00510    -999.25    -999.25    0.00510  468.07200    -999.25   41.65530   41.65530  468.07200  707.07060  707.07060    0.01550    -999.25    -999.25    0.01550    -999.25    2.68500 2241.75710 -161.66030 -145.84270 2241.75710
 7500.00000    -999.25    8.28000    8.28000   17.04430    0.02780    -999.25    0.02780    2.70660    0.00200    -999.25    -999.25    0.00200   58.67080    -999.25   45.50190   45.50190   58.67080  171.59180  171.59180    0.04030    -999.25    -999.25    0.04030    -999.25    2.69120 1403.82930 -167.02240 -151.39990 1403.82930
 7550.00000    -999.25    7.90810    7.90810   57.79840    0.02580    -999.25    0.02580    2.96640   -0.15000    -999.25    -999.25   -0.15000   17.32680    -999.25   48.31410   48.31410   17.32680   31.33750   31.33750    0.03860    -999.25    -999.25    0.03860    -999.25    2.95130  967.79060 -101.36720  -85.93980  967.79060
 7600.00000    -999.25    9.29190    9.29190   90.24210    0.06110    -999.25    0.06110    2.62540    0.04950    -999.25    -999.25    0.04950   11.08130    -999.25   95.51900   95.51900   11.08130   11.65210   11.65210    0.12610    -999.25    -999.25    0.12610    -999.25    2.61990    8.55820  -49.80130  -34.57020    8.55820
 7650.00000    -999.25    8.16370    8.16370    9.05150    0.07350    -999.25    0.07350    2.62300    0.05090    -999.25    -999.25    0.05090  110.48450    -999.25   48.60770   48.60770  110.48450 1158.37120 1158.37120    0.10510    -999.25    -999.25    0.10510    -999.25    2.61740 1138.38680 -141.93770 -126.90170 1138.38680
 7700.00000    -999.25    8.06940    8.06940  101.94300    0.01920    -999.25    0.01920    2.70350    0.00380    -999.25    -999.25    0.00380    9.80940    -999.25   67.33580   67.33580    9.80940   10.37620   10.37620    0.13780    -999.25    -999.25    0.13780    -999.25    2.68530   22.56020  -84.63400  -69.79440   22.56020
