~Version ---------------------------------------------------
VERS.      2.0 : CWLS log ASCII Standard -VERSION 2.0
WRAP.       NO : One line per depth step
CREA. 07/27/17 : LAS Creation Date
~Well ------------------------------------------------------
STRT.FT                             1150.0 : START DEPTH
STOP.FT                            10100.0 : STOP DEPTH
STEP.FT                           50.00000 : STEP LENGTH
NULL.                              -999.25 : NULL VALUE
COMP.      SYSTEX EXPLORATION SERVICES LTD : COMPANY
WELL. SYSTEX DOME ET AL EAGLET 11-27-63-16 : WELL
FLD .                                      : FIELD
LOC .                                      : LOCATION
CTRY.                               CANADA : COUNTRY
SRVC.                         Schlumberger : SERVICE COMPANY
DATE.                          01-Jan-1973 : LOGDATE
PROV.                              Alberta : PROVINCE
UWI .                     100112706316W500 : UNIQUE WELL ID
SLAT.WGS84                        54.48232 : SURFACE LATITUDE
SLON.WGS84                        -116.336 : SURFACE LONGITUDE
~Curve Information -----------------------------------------
DEPT  .FT    : Depth Curve
CALSED.IN    : CALIPER FROM SONIC LOG
CALWS .IN    : CALIPER [CALSED]
CILDED.MMHO  : DEEP INDUCTION CONDUCTIVITY FROM RESISTIVITY LOG
CONDWS.MMHO  : CONDUCTIVITY [1000/DRESWS]
DRESWS.OHMM  : DEEP RESISTIVITY [1000/CILDED IF ILDED<1, ILDED]
DTED  .US/F  : DELTA-T (INTERVAL TRANSIT TIME) FROM SONIC LOG
DTWS  .US/F  : COMPRESSIONAL  SONIC [DTED]
GRSED .GAPI  : GAMMA RAY FROM BCS LOG
GRWS  .GAPI  : GAMMA RAY [GRSED]
ILDED .OHMM  : DEEP INDUCTION FROM RESISTIVITY LOG
SNED  .OHMM  : SHORT NORMAL FROM RESISTIVITY LOG
SPRED .MV    : SPONTANEOUS POTENTIAL FROM RESISTIVITY LOG
SPWS  .MV    : SPONTANEOUS POTENTIAL [BASELINE 0 MV, SPRED]
SRESWS.OHMM  : SHALLOW RESISTIVITY [SNED]
~Params ----------------------------------------------------
PD  .                     GL : PERMANENT DATUM
EPD .FT               3365.6 : ELEVATION PERMANENT DATUM
LMF .                     KB : LOG MEASURED FROM
DAPD.FT                 15.4 : FEET ABOVE PERMANENT DATUM
DMF .                     KB : DRILLING MEASURED FROM
EKB .FT                 3381 : KELLY BUSHING
EGL .FT               3365.6 : GROUND LEVEL
DATE.               01/01/73 : RUN DATE
RUN .                      1 : RUN NUMBER
DD  .FT                10150 : DEPTH DRILLER
DL  .FT                10150 : DEPTH LOGGER
BLI .FT                10149 : BOTTOM LOG INTERVAL
TLI .FT                 1100 : TOP LOG INTERVAL
CBD .FT                 1125 : CASING BOTTOM DRILLER
CBL .FT                 1126 : CASING BOTTOM LOGGER
BS  .IN                7.875 : BIT SIZE
BSD .FT                10150 : BIT SIZE AT DEPTH
DFT .               GEL CHEM : DRILLING FLUID TYPE
DFD .                    9.5 : DRILLING FLUID DENSITY
DFV .                    190 : DRILLING FLUID VISCOSITY
DFPH.                   10.0 : DRILLING FLUID PH
DFL .                     92 : DRILLING FLUID LOSS
RMF .OHMM               1.17 : RESISTIVITY MUD FILTRATE SAMPLE
MFST.DEGF                 61 : MUD FILTRATE SAMPLE TEMPERATURE
TCS .HRS                   9 : TIME CIRCULATED STOPPED
LUN .                   7636 : LOGGING UNIT NUMBER
LUL .                    EDM : LOGGING UNIT LOCATION
ENGI.               BENOWSKI : RECORDING ENGINEER
WITN.                  GIETZ : WITNESSED BY
CLNT.                A2DTECH : CLIENT CODE
ORIG.            2" 5" PRINT : ORIGIN OF DATA
UWI .       100112706316W500 : UNIQUE WELL ID
DICO. A2D Technologies, Inc. : DIGITIZING COMPANY
~Other -----------------------------------------------------
~ASCII -----------------------------------------------------
 1150.00000    -999.25    -999.25  124.91100  176.02220    5.68110    -999.25    -999.25    -999.25    -999.25    5.68110    6.92560 -119.94230   -4.04490    6.92560
 1200.00000    -999.25    -999.25   42.51160   49.67360   20.13140    -999.25    -999.25    -999.25    -999.25   20.13140   12.38070 -127.65560  -11.75820   12.38070
 1250.00000    -999.25    -999.25   95.82890  106.04900    9.42960    -999.25    -999.25    -999.25    -999.25    9.42960    7.07590 -121.09470   -5.19730    7.07590
 1300.00000    -999.25    -999.25   51.77570   41.49080   24.10170    -999.25    -999.25    -999.25    -999.25   24.10170   10.30190 -126.84460  -11.02400   10.30190
 1350.00000    -999.25    -999.25   67.03300   78.30490   12.77060    -999.25    -999.25    -999.25    -999.25   12.77060    8.66180 -129.26530  -14.00460    8.66180
 1400.00000    -999.25    -999.25  209.39040  230.44660    4.33940    -999.25    -999.25    -999.25    -999.25    4.33940    4.91840 -119.03070   -4.32620    4.91840
 1450.00000    -999.25    -999.25  187.54900  210.87260    4.74220    -999.25    -999.25    -999.25    -999.25    4.74220    6.26300 -117.91310   -3.76850    6.26300
 1500.00000    -999.25    -999.25  226.26600  229.68440    4.35380    -999.25    -999.25    -999.25    -999.25    4.35380    4.63470 -116.89170   -3.30330    4.63470
 1550.00000    -999.25    -999.25  142.10780  181.27760    5.51640    -999.25    -999.25    -999.25    -999.25    5.51640    6.35790 -121.23790   -8.20580    6.35790
 1600.00000    -999.25    -999.25   43.10990   49.18910   20.32970    -999.25    -999.25    -999.25    -999.25   20.32970   12.62320 -122.93060  -10.45830   12.62320
 1650.00000    -999.25    -999.25  163.75120  158.65460    6.30300    -999.25    -999.25    -999.25    -999.25    6.30300    6.93250 -116.06840   -4.15230    6.93250
 1700.00000    -999.25    -999.25   71.79450   83.90740   11.91790    -999.25    -999.25    -999.25    -999.25   11.91790    7.43250 -115.99160   -4.63540    7.43250
 1750.00000    -999.25    -999.25  134.71600  113.01480    8.84840    -999.25    -999.25    -999.25    -999.25    8.84840    7.26460 -116.05360   -5.25360    7.26460
 1800.00000    -999.25    -999.25   88.63250   96.72120   10.33900    -999.25    -999.25    -999.25    -999.25   10.33900    8.54740 -119.03230   -8.78860    8.54740
 1850.00000    -999.25    -999.25  126.70840  216.64250    4.61590    -999.25    -999.25    -999.25    -999.25    4.61590    3.70810 -112.79650   -3.11260    3.70810
 1900.00000    -999.25    -999.25    8.59810   50.69120   19.72730    -999.25    -999.25    -999.25    -999.25   19.72730   23.16460 -114.86130   -5.71200   23.16460
 1950.00000    -999.25    -999.25   99.43370  232.38520    4.30320    -999.25    -999.25    -999.25    -999.25    4.30320    4.68630 -111.13940   -2.34310    4.68630
 2000.00000    -999.25    -999.25   62.32160   99.15520   10.08520    -999.25    -999.25    -999.25    -999.25   10.08520    7.93530 -115.99530   -7.54960    7.93530
 2050.00000    -999.25    -999.25  147.64460  148.16570    6.74920    -999.25    -999.25    -999.25    -999.25    6.74920    5.93350 -110.40240   -2.30740    5.93350
 2100.00000    -999.25    -999.25   79.02790   87.03600   11.48950    -999.25    -999.25    -999.25    -999.25   11.48950    8.56730 -111.68550   -3.94340    8.56730
 2150.00000    -999.25    -999.25  216.52080  224.25550    4.45920    -999.25    -999.25    -999.25    -999.25    4.45920    4.04060 -110.93340   -3.54200    4.04060
 2200.00000    -999.25    -999.25  169.00760  182.61500    5.47600    -999.25    -999.25    -999.25    -999.25    5.47600    5.15480 -110.98250   -3.94410    5.15480
 2250.00000    -999.25    -999.25  317.67440  325.41490    3.07300    -999.25    -999.25    -999.25    -999.25    3.07300    3.57260 -110.68470   -3.99690    3.57260
 2300.00000    -999.25    -999.25  248.80730  281.30980    3.55480    -999.25    -999.25    -999.25    -999.25    3.55480    3.95480 -110.75580   -4.41870    3.95480
 2350.00000    -999.25    -999.25  364.68340  353.21960    2.83110    -999.25    -999.25    -999.25    -999.25    2.83110    3.21310 -111.06040   -5.07620    3.21310
 2400.00000    -999.25    -999.25  180.40470  182.13610    5.49040    -999.25    -999.25    -999.25    -999.25    5.49040    4.16650 -110.14390   -4.51040    4.16650
 2450.00000    -999.25    -999.25  164.21630  181.33020    5.51480    -999.25    -999.25    -999.25    -999.25    5.51480    5.93740 -110.25500   -4.97440    5.93740
 2500.00000    -999.25    -999.25  192.63440  146.20310    6.83980    -999.25    -999.25    -999.25    -999.25    6.83980    5.96850 -109.73810   -4.80820    5.96850
 2550.00000    -999.25    -999.25  180.82150  199.13180    5.02180    -999.25    -999.25    -999.25    -999.25    5.02180    5.09120 -107.77240   -3.19310    5.09120
 2600.00000    -999.25    -999.25  116.47720  126.68810    7.89340    -999.25    -999.25    -999.25    -999.25    7.89340    6.85250 -109.85540   -5.60940    6.85250
 2650.00000    -999.25    -999.25  168.93970  169.75050    5.89100    -999.25    -999.25    -999.25    -999.25    5.89100    5.81790 -109.03620   -5.09930    5.81790
 2700.00000    -999.25    -999.25   54.17030   91.05480   10.98240    -999.25    -999.25    -999.25    -999.25   10.98240    8.87960 -114.28100  -10.65520    8.87960
 2750.00000    -999.25    -999.25   80.90800   84.84350   11.78640    -999.25    -999.25    -999.25    -999.25   11.78640   10.52750 -107.67930   -4.36260   10.52750
 2800.00000    -999.25    -999.25  193.80250  207.22380    4.82570    -999.25    -999.25    -999.25    -999.25    4.82570    5.34170 -106.45780   -3.45010    5.34170
 2850.00000    -999.25    -999.25  141.24440  155.72690    6.42150    -999.25    -999.25    -999.25    -999.25    6.42150    5.94750 -106.51590   -3.81940    5.94750
 2900.00000    -999.25    -999.25  176.83470  176.48820    5.66610    -999.25    -999.25    -999.25    -999.25    5.66610    5.29580 -106.25210   -3.86460    5.29580
 2950.00000    -999.25    -999.25  201.79000  206.86800    4.83400    -999.25    -999.25    -999.25    -999.25    4.83400    5.06250 -105.31860   -3.24220    5.06250
 3000.00000    -999.25    -999.25  190.09930  183.90130    5.43770    -999.25    -999.25    -999.25    -999.25    5.43770    4.92200 -106.90110   -5.13380    4.92200
 3050.00000    -999.25    -999.25  255.47650  260.21340    3.84300    -999.25    -999.25    -999.25    -999.25    3.84300    4.71790 -105.76170   -4.30350    4.71790
 3100.00000    -999.25    -999.25   93.10360  103.07370    9.70180    -999.25    -999.25    -999.25    -999.25    9.70180    5.31790 -103.13150   -1.98440    5.31790
 3150.00000    -999.25    -999.25  174.25880  173.15420    5.77520    -999.25    -999.25    -999.25    -999.25    5.77520    4.74970 -103.13970   -2.30170    4.74970
 3200.00000    -999.25    -999.25   89.62100   80.99660   12.34620    -999.25    -999.25    -999.25    -999.25   12.34620    7.54030 -103.97960   -3.47490    7.54030
 3250.00000    -999.25    -999.25   48.66840   59.28030   16.86900    -999.25    -999.25    -999.25    -999.25   16.86900   13.01460 -110.62100  -10.64990   13.01460
 3300.00000    -999.25    -999.25  134.05080  146.53090    6.82450    -999.25    -999.25    -999.25    -999.25    6.82450    6.48970 -105.13950   -5.70210    6.48970
 3350.00000    -999.25    -999.25  216.88040  225.37750    4.43700    -999.25    -999.25    -999.25    -999.25    4.43700    4.80460 -102.80890   -3.90860    4.80460
 3400.00000    -999.25    -999.25  161.04620  161.86470    6.17800    -999.25    -999.25    -999.25    -999.25    6.17800    6.13280 -103.73070   -5.36410    6.13280
 3450.00000    -999.25    -999.25  212.47370  201.78780    4.95570    -999.25    -999.25    -999.25    -999.25    4.95570    4.34930 -102.46430   -4.63480    4.34930
 3500.00000    -999.25    -999.25  148.05220  149.90930    6.67070    -999.25    -999.25    -999.25    -999.25    6.67070    6.32840 -105.62230   -8.32650    6.32840
 3550.00000    -999.25    -999.25  113.45560  113.75010    8.79120    -999.25    -999.25    -999.25    -999.25    8.79120    7.64890 -106.00660   -9.24440    7.64890
