~Version ---------------------------------------------------
VERS.      2.0 : CWLS log ASCII Standard -VERSION 2.0
WRAP.       NO : One line per depth step
CREA. 12/20/17 : LAS Creation Date
~Well ------------------------------------------------------
STRT.FT                         300.0 : START DEPTH
STOP.FT                        9850.0 : STOP DEPTH
STEP.FT                      50.00000 : STEP LENGTH
NULL.                         -999.25 : NULL VALUE
COMP.          PACIFIC PETROLEUMS LTD : COMPANY
WELL. PACIFIC SUNRAY KAYBOB 2-2-64-19 : WELL
FLD .                                 : FIELD
LOC .                                 : LOCATION
CTRY.                          CANADA : COUNTRY
SRVC.          Schlumberger of Canada : SERVICE COMPANY
DATE.                     27-Jan-1959 : LOGDATE
PROV.                         Alberta : PROVINCE
UWI .                100020206419W500 : UNIQUE WELL ID
SLAT.WGS84                   54.50328 : SURFACE LATITUDE
SLON.WGS84                  -116.7572 : SURFACE LONGITUDE
~Curve Information -----------------------------------------
DEPT  .FT    : Depth Curve
CALWS .IN    : CALIPER [MCALED]
CONDWS.MMHO  : CONDUCTIVITY [1000/DRESWS]
DRESWS.OHMM  : DEEP RESISTIVITY [LNED]
GRED  .GAPI  : GAMMA RAY FROM CBL LOG [ADJ TO SPRED]
GRWS  .GAPI  : GAMMA RAY [GRED]
LNED  .OHMM  : 64 INCH LONG NORMAL RESISTIVITY FROM EL LOG
LT18ED.OHMM  : 18 FOOT 8 INCH LATERAL RESISTIVITY FROM EL LOG
MCALED.IN    : CALIPER FROM MICROLOG
NEUTED.CPS   : NEUTRON FROM NEUTRON LOG
NEUTWS.CPS   : NEUTRON [NEUTED]
SNED  .OHMM  : 16 INCH SHORT NORMAL RESISTIVITY FROM EL LOG
SPRED .MV    : SPONTANEOUS POTENTIAL FROM EL LOG
SPWS  .MV    : SPONTANEOUS POTENTIAL [BASELINE 0 MV] [SPRED]
SRESWS.OHMM  : SHALLOW RESISTIVITY [SNED]
~Params ----------------------------------------------------
LMF .                     KB : LOG MEASURED FROM
DMF .                     KB : DRILLING MEASURED FROM
EKB .FT               2473.7 : KELLY BUSHING
DATE.               01/27/59 : RUN DATE
RUN .                      1 : RUN NUMBER
DD  .FT                 9862 : DEPTH DRILLER
DL  .FT                 9866 : DEPTH LOGGER
BLI .FT                 9865 : BOTTOM LOG INTERVAL
TLI .FT                  684 : TOP LOG INTERVAL
CBD .FT                  685 : CASING BOTTOM DRILLER
CBL .FT                  684 : CASING BOTTOM LOGGER
BS  .IN                7.875 : BIT SIZE
BSD .FT                 9862 : BIT SIZE AT DEPTH
DFT .               OIL EMUL : DRILLING FLUID TYPE
DFD .                   10.7 : DRILLING FLUID DENSITY
DFV .                    170 : DRILLING FLUID VISCOSITY
DFPH.                      9 : DRILLING FLUID PH
DFL .                    6.6 : DRILLING FLUID LOSS
RMS .OHMM                3.9 : RESISTIVITY MUD SAMPLE
MST .DEGF                 61 : MUD SAMPLE TEMPERATURE
RMF .OHMM                2.7 : RESISTIVITY MUD FILTRATE SAMPLE
MFST.DEGF                 68 : MUD FILTRATE SAMPLE TEMPERATURE
RMC .OHMM                3.5 : RESISTIVITY MUD CAKE
MCST.DEGF                 68 : MUD CAKE SAMPLE TEMPERATURE
RMB .OHMM                1.3 : RESISTIVITY MUD AT BHT
TCS .HRS                 3.5 : TIME CIRCULATED STOPPED
LUN .                   2742 : LOGGING UNIT NUMBER
LUL .                     PR : LOGGING UNIT LOCATION
ENGI.                THOMSON : RECORDING ENGINEER
WITN.                FOGARTY : WITNESSED BY
CLNT.                A2DTECH : CLIENT CODE
ORIG.            2" 5" PRINT : ORIGIN OF DATA
UWI .       100020206419W500 : UNIQUE WELL ID
DICO. A2D Technologies, Inc. : DIGITIZING COMPANY
~Other -----------------------------------------------------
EL-ML-NEUT-CBL LOGS RUN
~ASCII -----------------------------------------------------
# ...
 5200.00000   12.08100   49.90370   20.03860   89.17670   89.17670   20.03860    3.29640   12.08100    -999.25    -999.25   12.73030  -72.78570   -1.87820   12.73030
 5250.00000    9.67210   49.92190   20.03130  102.81370  102.81370   20.03130    4.49030    9.67210    -999.25    -999.25   15.82710 -123.64190  -54.92240   15.82710
 5300.00000   12.75790   47.92670   20.86520  100.65850  100.65850   20.86520   17.35030   12.75790    -999.25    -999.25   15.84790  -84.85090  -18.31490   15.84790
 5350.00000    9.83440   56.31300   17.75790  104.34790  104.34790   17.75790   10.56260    9.83440    -999.25    -999.25   20.36420 -104.59250  -39.69150   20.36420
 5400.00000   12.47660   71.67020   13.95280   77.51000   77.51000   13.95280   10.24700   12.47660    -999.25    -999.25   11.00630  -66.77690   -2.41200   11.00630
 5450.00000   11.62290   70.33930   14.21680   85.89590   85.89590   14.21680   10.23270   11.62290    -999.25    -999.25   10.83230  -64.35040   -0.52490   10.83230
 5500.00000   11.22710   97.28480   10.27910   87.45250   87.45250   10.27910    6.48540   11.22710    -999.25    -999.25   10.87810  -64.43270   -1.14330   10.87810
 5550.00000    7.71750   31.84300   31.40410   46.22440   46.22440   31.40410    4.32970    7.71750    -999.25    -999.25   45.13130 -134.77660  -72.02220   45.13130
 5600.00000   12.97990   48.86960   20.46260  136.75210  136.75210   20.46260   22.15550   12.97990    -999.25    -999.25   13.11820  -66.95710   -4.74210   13.11820
 5650.00000   11.20130   25.61970   39.03240   79.28860   79.28860   39.03240   50.60660   11.20130    -999.25    -999.25   25.37540  -74.14800  -12.46910   25.37540
 5700.00000    7.78530   35.96020   27.80850   44.45480   44.45480   27.80850   48.87590    7.78530    -999.25    -999.25   27.28390 -137.74990  -76.61030   27.28390
 5750.00000   13.60810  164.60090    6.07530   73.38650   73.38650    6.07530    7.22110   13.60810    -999.25    -999.25    4.87050  -64.17200   -3.56850    4.87050
 5800.00000   14.54670  196.01690    5.10160   76.28730   76.28730    5.10160    1.71900   14.54670    -999.25    -999.25    4.03100  -62.49200   -2.42360    4.03100
 5850.00000   11.21600   40.54050   24.66670   91.57040   91.57040   24.66670   10.16060   11.21600    -999.25    -999.25   30.98890  -62.36420   -2.83510   30.98890
 5900.00000   11.03040   14.95930   66.84800  116.68840  116.68840   66.84800  107.73740   11.03040    -999.25    -999.25   40.43270  -62.82340   -3.83040   40.43270
 5950.00000    9.42990    1.23940  806.82140   37.38970   37.38970  806.82140  524.21850    9.42990    -999.25    -999.25  252.94130  -83.79170  -25.33810  252.94130
 6000.00000   11.66770   44.48140   22.48130   77.60620   77.60620   22.48130   27.74400   11.66770    -999.25    -999.25   16.91930  -81.82090  -23.90340   16.91930
 6050.00000   11.23790   54.20380   18.44890   67.98770   67.98770   18.44890   15.53380   11.23790    -999.25    -999.25   14.61020  -89.29820  -31.91570   14.61020
 6100.00000   11.52920   52.39660   19.08520   82.25180   82.25180   19.08520   11.89170   11.52920    -999.25    -999.25   16.99090  -89.79550  -32.95240   16.99090
 6150.00000    7.74480    9.05890  110.38920   20.34000   20.34000  110.38920   36.71530    7.74480    -999.25    -999.25   81.15050 -184.73850 -128.43150   81.15050
 6200.00000    9.15670   11.02220   90.72560  204.95270  204.95270   90.72560   54.83410    9.15670    -999.25    -999.25   70.48180 -122.71450  -66.94680   70.48180
 6250.00000   10.78840   15.69630   63.70940   36.20520   36.20520   63.70940   94.56730   10.78840    -999.25    -999.25   31.34250 -128.80330  -73.57180   31.34250
 6300.00000   10.25970    5.55510  180.01460   29.33210   29.33210  180.01460  365.70700   10.25970    -999.25    -999.25   83.79020  -81.77080  -27.07430   83.79020
 6350.00000   12.70450    5.98610  167.05240   19.43550   19.43550  167.05240  250.72130   12.70450    -999.25    -999.25   70.34590  -66.11980  -11.96260   70.34590
 6400.00000   10.89300   40.61240   24.62300   77.01330   77.01330   24.62300   16.91620   10.89300    -999.25    -999.25   20.83520 -100.20380  -46.58280   20.83520
 6450.00000   10.92980   13.02620   76.76860   32.55070   32.55070   76.76860    5.67880   10.92980    -999.25    -999.25   57.97220 -113.35100  -60.26930   57.97220
 6500.00000   10.88850   18.04710   55.41060   22.62650   22.62650   55.41060  227.33900   10.88850    -999.25    -999.25   42.37910  -99.47080  -46.92520   42.37910
 6550.00000   10.66640    2.46600  405.52290   14.91140   14.91140  405.52290  280.89400   10.66640    -999.25    -999.25  153.14870 -165.00750 -112.99700  153.14870
 6600.00000    9.07070    4.38260  228.17500   16.02460   16.02460  228.17500  140.72270    9.07070    -999.25    -999.25  126.77230 -246.74120 -195.27000  126.77230
 6650.00000    9.75110    2.98450  335.06210   18.35620   18.35620  335.06210  408.52610    9.75110    -999.25    -999.25  126.04770 -223.10060 -172.16550  126.04770
 6700.00000    9.68570   86.76940   11.52480   78.19130   78.19130   11.52480   35.26540    9.68570    -999.25    -999.25   10.96450  -56.55410   -6.15840   10.96450
 6750.00000    -999.25  161.61350    6.18760   57.88840   57.88840    6.18760    4.12340    -999.25    -999.25    -999.25    5.27090  -92.65500  -42.79540    5.27090
 6800.00000    -999.25   75.00360   13.33270   82.70630   82.70630   13.33270   12.82410    -999.25    -999.25    -999.25   15.18240  -84.68220  -35.35760   15.18240
 6850.00000    -999.25   13.43490   74.43300   58.50030   58.50030   74.43300   46.80900    -999.25    -999.25    -999.25   31.08590  -55.31020   -6.52500   31.08590
 6900.00000    -999.25    5.08190  196.77810   23.62830   23.62830  196.77810  261.73510    -999.25    -999.25    -999.25   78.17640 -111.44360  -63.19450   78.17640
 6950.00000    -999.25   10.45180   95.67720   40.00780   40.00780   95.67720  163.98270    -999.25    -999.25    -999.25   49.77640  -83.49840  -35.78860   49.77640
 7000.00000    -999.25   12.40120   80.63710   44.17220   44.17220   80.63710   91.43820    -999.25    -999.25    -999.25   45.81500  -62.25440  -15.08070   45.81500
 7050.00000    -999.25    2.60850  383.36480   44.37100   44.37100  383.36480  629.09110    -999.25    -999.25    -999.25  146.20890  -92.34690  -45.70830  146.20890
 7100.00000    -999.25    4.83890  206.65970   33.89880   33.89880  206.65970  342.02350    -999.25    -999.25    -999.25   83.03710  -92.37890  -46.27960   83.03710
 7150.00000    -999.25    2.73850  365.16740   24.08350   24.08350  365.16740  467.98680    -999.25    -999.25    -999.25  136.49960 -100.62320  -55.06000  136.49960
 7200.00000    -999.25    1.37320  728.25010   42.45470   42.45470  728.25010  807.74900    -999.25    -999.25    -999.25  238.02580  -55.53640  -10.51260  238.02580
 7250.00000    9.34780    8.11870  123.17310   51.22240   51.22240  123.17310  160.65910    9.34780    -999.25    -999.25   56.99250  -48.17990   -3.50930   56.99250
 7300.00000   10.25910   22.90840   43.65220   88.91720   88.91720   43.65220  122.53020   10.25910    -999.25    -999.25   18.60050  -68.13490  -23.70830   18.60050
 7350.00000    9.99820    1.40530  711.60060   28.08540   28.08540  711.60060  832.90770    9.99820    -999.25    -999.25  185.84700  -83.29190  -39.11140  185.84700
 7400.00000    9.98410    1.38730  720.80970   23.18590   23.18590  720.80970 2163.30300    9.98410    -999.25    -999.25  155.58310 -133.39820  -89.46220  155.58310
 7450.00000   11.74800    1.37930  724.99840   19.21740   19.21740  724.99840 1314.01490   11.74800    -999.25    -999.25  184.31960 -132.55020  -88.86020  184.31960
 7500.00000   10.10370    1.86980  534.81450   21.19710   21.19710  534.81450 1987.21350   10.10370    -999.25    -999.25  134.70790 -154.51760 -111.07220  134.70790
 7550.00000    9.81430    2.69290  371.35260   23.78360   23.78360  371.35260  688.64250    9.81430    -999.25    -999.25  119.50170 -140.97530  -97.77390  119.50170
 7600.00000   12.06610    1.54970  645.28820   21.98140   21.98140  645.28820  693.70360   12.06610    -999.25    -999.25  178.34700 -163.47380 -120.51840  178.34700
