~Version ---------------------------------------------------
VERS.      2.0 : CWLS log ASCII Standard -VERSION 2.0
WRAP.       NO : One line per depth step
CREA. 08/24/13 : LAS Creation Date
~Well ------------------------------------------------------
STRT.M                         400.0 : START DEPTH
STOP.M                        2400.0 : STOP DEPTH
STEP.M                      50.00000 : STEP LENGTH
NULL.                        -999.25 : NULL VALUE
COMP.      GULF CANADA RESOURCES INC : COMPANY
WELL. GULF POC AEC IROQUOIS 7-9-76-1 : WELL
FLD .                                : FIELD
LOC .                                : LOCATION
CTRY.                         CANADA : COUNTRY
SRVC.                        Unknown : SERVICE COMPANY
DATE.                    12-Mar-1982 : LOGDATE
PROV.                        Alberta : PROVINCE
UWI .               100070907618W500 : UNIQUE WELL ID
SLAT.WGS84                  55.56693 : SURFACE LATITUDE
SLON.WGS84                 -116.7249 : SURFACE LONGITUDE
~Curve Information -----------------------------------------
DEPT    .M      : DEPTH METER
CALDED  .MM     : CALIPER FROM DENSITY LOG
CALSED  .MM     : CALIPER FROM SONIC LOG [ADJ. TO RESISTIVITY LOG]
CALWS   .MM     : CALIPER [CALDED]
CONDWS  .MMHO   : CONDUCTIVITY [1000/DRESWS]
DCORWS  .KG/M3  : DENSITY CORRECTION [DRHOED]
DENWS   .KG/M3  : FORMATION BULK DENSITY [CALC FROM DPOLSWS,M=2710,F=1000]
DPHILSED.V/V    : DENSITY POROSITY LIMESTONE [M=2710,F=1000] FROM DENSITY LOG [ADJ. TO RESISTIVITY LOG]
DPHISSED.V/V    : DENSITY POROSITY SANDSTONE [M=2650,F=1000] FROM DENSITY LOG [ADJ. TO RESISTIVITY LOG]
DPOLSWS .V/V    : DENSITY POROSITY LIMESTONE [DPHISSED CONVERTED TO LIMESTONE MATRIX,M=2710,F=1000,SPL. TO DPHILSED @950M]
DRESWS  .OHMM   : DEEP RESISTIVITY [ILDED]
DRHOED  .KG/M3  : BULK DENSITY CORRECTION FROM DENSITY LOG
DTED    .US/M   : DELTA-T FROM SONIC LOG [ADJ. TO RESISTIVITY LOG]
DTWS    .US/M   : COMPRESSIONAL SONIC [DTED]
GRDED   .GAPI   : GAMMA RAY FROM DENSITY LOG
GRSED   .GAPI   : GAMMA RAY FROM SONIC LOG [ADJ. TO RESISTIVITY LOG]
GRWS    .GAPI   : GAMM RAY [GRSED SPL. TO GRDED @367M-2390M]
ILDED   .OHMM   : DEEP INDUCTION RESISTIVITY FROM RESISTIVITY LOG
ILMED   .OHMM   : MEDIUM INDUCTION RESISTIVITY FROM RESISTIVITY LOG
MRESWS  .OHMM   : MEDIUM RESISTIVITY [ILMED]
NPHILSED.V/V    : NEUTRON POROSITY LIMESTONE FROM DENSITY LOG [ADJ. TO RESISTIVITY LOG]
NPHISSED.V/V    : NEUTRON POROSITY SANDSTONE FROM DENSITY LOG [ADJ. TO RESISTIVITY LOG]
NPOLSWS .V/V    : NEUTRON POROSITY LIMESTONE [NPHISSED CONVERTED TO LIMESTONE MATRIX,SPL. TO NPHILSED @950M]
RHOBED  .KG/M3  : BULK DENSITY FROM DENSITY LOG [ADJ. TO RESISTIVITY LOG]
SFLUED  .OHMM   : SHALLOW FOCUSED RESISTIVITY FROM RESISTIVITY LOG
SPRED   .MV     : SPONTANEOUS POTENTIAL FROM RESISTIVITY LOG
SPWS    .MV     : SPONTANEOUS POTENTIAL [BASELINE 0 MV,SPRED]
SRESWS  .OHMM   : SHALLOW RESISTIVITY [SFLUED]
~Params ----------------------------------------------------
PD  .                         GL : PERMANENT DATUM
EPD .M                    620.75 : ELEVATION PERMANENT DATUM
LMF .                         KB : LOG MEASURED FROM
DAPD.M                       6.6 : FEET ABOVE PERMANENT DATUM
DMF .                         KB : DRILLING MEASURED FROM
EKB .M                    627.41 : KELLY BUSHING
EGL .M                    620.75 : GROUND LEVEL
DATE.                   03/12/82 : RUN DATE
RUN .                          1 : RUN NUMBER
DD  .M                      2407 : DEPTH DRILLER
DL  .M                      2408 : DEPTH LOGGER
BLI .M                      2407 : BOTTOM LOG INTERVAL
TLI .M                       372 : TOP LOG INTERVAL
CS  .MM                      244 : CASING SIZE
CBD .M                       372 : CASING BOTTOM DRILLER
CBL .M                       372 : CASING BOTTOM LOGGER
BS  .MM                      200 : BIT SIZE
BSD .M                      2407 : BIT SIZE AT DEPTH
DFT .                   GEL CHEM : DRILLING FLUID TYPE
DFD .                       1200 : DRILLING FLUID DENSITY
DFV .                         62 : DRILLING FLUID VISCOSITY
DFPH.                         11 : DRILLING FLUID PH
DFL .                          9 : DRILLING FLUID LOSS
MSS .                CIRCULATION : MUD SAMPLE SOURCE
RMS .OHMM                   2.01 : RESISTIVITY MUD SAMPLE
MST .DEGC                   25.5 : MUD SAMPLE TEMPERATURE
RMF .OHMM                   1.84 : RESISTIVITY MUD FILTRATE SAMPLE
MFST.DEGC                   17.2 : MUD FILTRATE SAMPLE TEMPERATURE
RMB .OHMM                  1.102 : RESISTIVITY MUD AT BHT
TCS .HRS                    1300 : TIME CIRCULATED STOPPED
TLAB.HRS                    1900 : TIME LOGGER AT BOTTOM
LUN .                       8330 : LOGGING UNIT NUMBER
LUL .                        EDM : LOGGING UNIT LOCATION
ENGI.                 BRANDSTROM : RECORDING ENGINEER
WITN.                 TADDINGTON : WITNESSED BY
CLNT.                    A2DTECH : CLIENT CODE
ORIG. 6.5"/100M 16.5"/100M PRINT : ORIGIN OF DATA
UWI .           100070907618W500 : UNIQUE WELL ID
DICO.     A2D Technologies, Inc. : DIGITIZING COMPANY
~Other -----------------------------------------------------
DIL-SFL/CNFD/BCS LOG RAN
RHOBED & DRHOED FROM SMALL SCALE
~ASCII -----------------------------------------------------
  400.00000  348.80150  243.09700  243.09700  168.52320   76.39500 2292.11500    -999.25    0.21690    0.24440    5.93390   76.39500  382.97570  382.97570   96.65770   85.79490   96.65770    5.93390    5.16640    5.16640    -999.25    0.43860    0.39660 2287.60500    5.49430  -84.93300   -4.00260    5.49430
  450.00000  372.48250  253.76440  253.76440  351.53090  113.74660 1875.49000    -999.25    0.46940    0.48800    2.84470  113.74660  398.60160  398.60160   86.63740   89.83250   86.63740    2.84470    2.54240    2.54240    -999.25    0.54580    0.50410 1849.59130    2.97280  -80.01370   -1.63070    2.97280
  500.00000  211.01560  206.22990  206.22990  262.53610   24.22870 2206.31500    -999.25    0.26890    0.29460    3.80900   24.22870  347.04740  347.04740   44.20630   41.54700   44.20630    3.80900    5.00200    5.00200    -999.25    0.32610    0.28220 2203.05100    8.33840 -130.94160  -52.32720    8.33840
  550.00000  208.69900  206.79170  206.79170  570.12540    9.52770 2109.13000    -999.25    0.32780    0.35140    1.75400    9.52770  397.95050  397.95050   59.28680   54.86140   59.28680    1.75400    2.20340    2.20340    -999.25    0.42000    0.37750 2109.09590    3.47610 -133.07060  -57.89610    3.47610
  600.00000  231.41270  208.46500  208.46500  374.19550   29.28150 2166.22000    -999.25    0.29320    0.31800    2.67240   29.28150  363.76670  363.76670   62.63860   61.43440   62.63860    2.67240    3.28410    3.28410    -999.25    0.42610    0.38380 2165.22440    5.77210 -113.64450  -42.81820    5.77210
  650.00000  265.58690  218.29880  218.29880  448.87330  208.84000 2135.20000    -999.25    0.31200    0.33610    2.22780  208.84000  367.14170  367.14170   91.60000   88.73240   91.60000    2.22780    2.07140    2.07140    -999.25    0.39840    0.35550 2134.83350    2.11200  -74.11180   -5.87750    2.11200
  700.00000  222.09800  211.66010  211.66010  306.59800    8.67520 2334.02500    -999.25    0.19150    0.21990    3.26160    8.67520  352.12210  352.12210   81.12670   79.16990   81.12670    3.26160    3.35730    3.35730    -999.25    0.41030    0.36760 2338.06150    3.48210  -76.10380   -8.65060    3.48210
  750.00000  236.65290  211.00650  211.00650  279.68120   32.72590 2362.07500    -999.25    0.17450    0.20350    3.57550   32.72590  332.92880  332.92880   77.47440   68.58230   77.47440    3.57550    3.83610    3.83610    -999.25    0.42940    0.38720 2339.23440    3.83500  -82.21610  -15.54400    3.83500
  800.00000  234.33110  212.54310  212.54310  100.00300   -0.64470 2587.96000    -999.25    0.03760    0.07140    9.99970   -0.64470  210.83010  210.83010   55.99970   49.95210   55.99970    9.99970   11.94850   11.94850    -999.25    0.19080    0.14750 2581.78520   22.56980  -73.36090   -7.46990   22.56980
  850.00000  228.95660  212.74310  212.74310  156.08900    8.43150 2403.65500    -999.25    0.14930    0.17910    6.40660    8.43150  294.15540  294.15540   79.83770   72.08380   79.83770    6.40660    7.08580    7.08580    -999.25    0.29410    0.25010 2420.23560    8.42500 -106.48850  -38.14620    8.42500
  900.00000  230.87250  212.88840  212.88840   80.68090    0.38310 2317.85500    0.22630    0.20130    0.22930   12.39450    0.38310  353.40140  353.40140  142.37860  125.90710  142.37860   12.39450   12.94620   12.94620    0.37470    0.44800    0.40630 2314.36740   20.18450  -76.85980   -6.04670   20.18450
  950.00000  236.55270  213.92580  213.92580  313.34210   39.79600 2336.33500    0.21630    0.19010    0.21850    3.19140   39.79600  251.48790  251.48790   39.89750   40.17550   39.89750    3.19140    4.90410    4.90410    0.22150    0.25160    0.20770 2342.09570   25.61900 -173.15070 -103.48820   25.61900
 1000.00000  248.32590  218.67090  218.67090  219.26460   24.34020 2445.80500    0.15450    -999.25    0.15450    4.56070   24.34020  245.25400  245.25400   31.58970   38.78600   31.58970    4.56070    6.97910    6.97910    0.22280    -999.25    0.22280 2458.66090   15.44720 -149.89920  -82.67300   15.44720
 1050.00000  270.65550  234.33470  234.33470   11.31150   -5.73060 2615.77900    0.05510    -999.25    0.05510   88.40570   -5.73060  172.81450  172.81450   23.66310   24.22960   23.66310   88.40570  119.87630  119.87630    0.01380    -999.25    0.01380 2620.87770  204.58870 -128.60500  -63.81500  204.58870
 1100.00000  223.83820  234.12490  234.12490  105.38960   -6.54020 2651.00500    0.03450    -999.25    0.03450    9.48860   -6.54020  181.83040  181.83040   42.36620   39.34870   42.36620    9.48860   11.10190   11.10190    0.09660    -999.25    0.09660 2644.71830   30.92410 -131.40780  -69.05410   30.92410
 1150.00000  235.04180  243.19030  243.19030   70.50400   50.32980 2588.24800    0.07120    -999.25    0.07120   14.18360   50.32980  195.65810  195.65810   37.09580   35.10910   37.09580   14.18360   16.24170   16.24170    0.08880    -999.25    0.08880 2593.32060   17.07900  -90.04200  -28.65160   17.07900
 1200.00000  210.50860  221.71100  221.71100  168.91610   90.65600 2473.84900    0.13810    -999.25    0.13810    5.92010   90.65600  213.73750  213.73750   16.26420   15.04560   16.26420    5.92010    8.50340    8.50340    0.19280    -999.25    0.19280 2474.39090   18.14600 -111.84980  -43.80370   18.14600
 1250.00000  319.77340  283.10420  283.10420  159.72650  221.99980 2116.97200    0.34680    -999.25    0.34680    6.26070  221.99980  264.05150  264.05150   56.14480   46.08530   56.14480    6.26070    5.09030    5.09030    0.35330    -999.25    0.35330 2126.27440    4.68780  -89.55230  -14.85050    4.68780
 1300.00000  213.98510  224.95930  224.95930   34.38810   36.74340 2608.08400    0.05960    -999.25    0.05960   29.07980   36.74340  176.78840  176.78840   13.60270   13.81560   13.60270   29.07980   39.89920   39.89920    0.04680    -999.25    0.04680 2610.68040  120.85430 -150.05330  -68.69590  120.85430
 1350.00000  327.71700  268.03730  268.03730  251.71160   56.67210 2237.35600    0.27640    -999.25    0.27640    3.97280   56.67210  257.35560  257.35560   63.58830   57.04110   63.58830    3.97280    4.08530    4.08530    0.22850    -999.25    0.22850 2234.75780    4.09050 -103.39120  -22.20940    4.09050
 1400.00000  318.80220  248.81790  248.81790   25.44870   -4.31670 2627.74900    0.04810    -999.25    0.04810   39.29480   -4.31670  172.37710  172.37710   13.79300   14.44340   13.79300   39.29480   49.59390   49.59390    0.01000    -999.25    0.01000 2628.46240  193.40400 -119.50090  -38.86070  193.40400
 1450.00000  306.52750  251.12070  251.12070   96.29460   11.45000 2618.51500    0.05350    -999.25    0.05350   10.38480   11.45000  210.14340  210.14340   39.90020   32.22510   39.90020   10.38480   10.96860   10.96860    0.07740    -999.25    0.07740 2602.06350   12.55620 -102.06590  -17.80380   12.55620
 1500.00000  318.78570  261.85190  261.85190  126.72180    5.97730 2636.12800    0.04320    -999.25    0.04320    7.89130    5.97730  224.31870  224.31870   48.00050   47.71690   48.00050    7.89130    8.13030    8.13030    0.10400    -999.25    0.10400 2635.46190    8.53830 -105.00640  -17.12230    8.53830
 1550.00000  429.62100  280.59920  280.59920  345.75760   51.23600 2143.64800    0.33120    -999.25    0.33120    2.89220   51.23600  290.58910  290.58910   65.62430   56.60450   65.62430    2.89220    2.53410    2.53410    0.40500    -999.25    0.40500 2177.61040    3.98920 -119.86020  -26.63210    3.98920
 1600.00000  305.07660  236.52820  236.52820    8.59870    3.38410 2677.16800    0.01920    -999.25    0.01920  116.29670    3.38410  167.47830  167.47830   15.83650   18.05650   15.83650  116.29670  130.99140  130.99140   -0.00080    -999.25   -0.00080 2699.68770  131.43260 -148.02980  -51.54350  131.43260
 1650.00000  303.84200  235.85480  235.85480   30.39910   -3.13220 2641.25800    0.04020    -999.25    0.04020   32.89570   -3.13220  165.91540  165.91540   14.95540   17.57090   14.95540   32.89570   47.03250   47.03250    0.00750    -999.25    0.00750 2639.60910   75.58210 -188.31870  -96.57360   75.58210
