~Version ---------------------------------------------------
VERS. 2.0 : CWLS log ASCII Standard -VERSION 2.0
WRAP.  NO : ONE LINE PER DEPTH STEP
~Well ------------------------------------------------------
STRT.F                        1300.0 : START DEPTH
STOP.F                       12650.0 : STOP DEPTH
STEP.F                      50.00000 : STEP LENGTH
NULL.                        -999.25 : NULL VALUE
COMP.           PETROFINA CANADA LTD : COMPANY
WELL. FINA AMOCO HB MAYBERNE 10-11-5 : WELL
FLD .                                : FIELD
LOC .                                : LOCATION
CTRY.                         CANADA : COUNTRY
SRVC.                   Schlumberger : SERVICE COMPANY
DATE.                    03-Apr-1977 : LOGDATE
PROV.                        Alberta : PROVINCE
UWI .               100101105718W500 : UNIQUE WELL ID
SLAT.WGS84                  53.91479 : SURFACE LATITUDE
SLON.WGS84                 -116.5629 : SURFACE LONGITUDE
~Curve Information -----------------------------------------
DEPT   .F                 : 
ILD    .OHMM              : DEEP INDUCTION RESISTIVITY
ILM    .OHMM              : INDUCTION MEDIUM RESISTIVITY
LL8    .OHMM              : LATEROLOG-8 RESISTIVITY
SPR    .MV                : SPONTANEOUS POTENTIAL FROM RESISTIVITY
CALD   .IN   07 280 30 00 : DIFFERENTIAL CALIPER
DCOR   .G/C3              : DENSITY CORRECTION
GRD    .GAPI 45 310 01 00 : GAMMA RAY FROM FDC
RHOB   .G/C3 45 350 01 00 : HRDD HIGH RESOLUTION FORMATION DENSITY
NPHI_LS.DEC               : NEUTRON POROSITY LIMESTONE
GRS    .GAPI 00 000 00 01 : GAMMA RAY FROM SONIC
SPHI   .DEC               : SONIC POROSITY
DT     .US/F 60 520 00 00 : ACOUSTIC TRANSIT TIME SLOWNESS, DELTA T
CALS   .IN   60 280 50 00 : CALIPER FROM SONIC LOG
DPHI_LS.DEC  45 890 10 00 : DENSITY POROSITY LIMESTONE
DPHI_SS.DEC  45 890 12 00 : DENSITY POROSITY SANDSTONE
NPOR_SS.DEC               : ENCHANCED THERMAL NEUTRON POROSITY IN SELECTED LITHOLOGY SANDSTONE
~Params ----------------------------------------------------
PD  .                     GL : PERMANENT DATUM
EPD .FT                 4315 : ELEVATION PERMANENT DATUM
LMF .                     KB : LOG MEASURED FROM
DAPD.FT                   17 : FEET ABOVE PERMANENT DATUM
EKB .FT                 4322 : KELLY BUSHING
EGL .FT                 4315 : GROUND LEVEL
DATE.               04/03/77 : RUN DATE
RUN .                      1 : RUN NUMBER
DD  .FT                12670 : DEPTH DRILLER
DL  .FT                12672 : DEPTH LOGGER
BLI .FT                12669 : BOTTOM LOG INTERVAL
TLI .FT                 1324 : TOP LOG INTERVAL
CBD .FT                 1327 : CASING BOTTOM DRILLER
CBL .FT                 1324 : CASING BOTTOM LOGGER
BS  .IN                 8.75 : BIT SIZE
BSD .FT                12670 : BIT SIZE AT DEPTH
DFT .               GEL CHEM : DRILLING FLUID TYPE
DFD .                      9 : DRILLING FLUID DENSITY
DFV .                    130 : DRILLING FLUID VISCOSITY
DFPH.                     10 : DRILLING FLUID PH
MSS .               FLOWLINE : MUD SAMPLE SOURCE
RMS .OHMM                3.2 : RESISTIVITY MUD SAMPLE
MST .DEGF                 56 : MUD SAMPLE TEMPERATURE
RMF .OHMM               2.94 : RESISTIVITY MUD FILTRATE SAMPLE
MFST.DEGF                 62 : MUD FILTRATE SAMPLE TEMPERATURE
RMB .OHMM               0.88 : RESISTIVITY MUD AT BHT
TCS .HRS                   4 : TIME CIRCULATED STOPPED
LUN .                   7667 : LOGGING UNIT NUMBER
LUL .                    EDM : LOGGING UNIT LOCATION
ENGI.          CAMPBELL BIGG : RECORDING ENGINEER
WITN.         SANDERS DAVIES : WITNESSED BY
CLNT.                A2DTECH : CLIENT CODE
ORIG.            2" 5" PRINT : ORIGIN OF DATA
UWI .       100101105718W500 : UNIQUE WELL ID
DICO. A2D Technologies, Inc. : DIGITIZING COMPANY
~Other -----------------------------------------------------
~ASCII -----------------------------------------------------
# ...
 5600.00000    7.86170   10.87610   16.22940  -22.81400   10.91560    0.02230   66.91670    2.50250    -999.25   68.95540    0.21480   84.54260   10.71870    -999.25    0.08380    0.33300
 5650.00000    9.94470   12.28590   11.68600  -23.29940   11.30840   -0.00700   79.29930    2.53100    -999.25   75.25440    0.14590   75.66110   10.88250    -999.25    0.06430    0.26270
 5700.00000    8.72720   10.00830   10.57410  -21.90090   12.17030    0.04740   92.67270    2.48630    -999.25   93.84040    0.18960   81.16920   11.67610    -999.25    0.11150    0.32380
 5750.00000    8.02280    9.31680    9.04470  -22.78080   13.27990    0.00100  117.95730    2.57150    -999.25  112.11770    0.18850   81.23600    9.93690    -999.25    0.05190    0.26410
 5800.00000    8.16850    9.61210    9.14510  -24.25320   13.61920    0.02320  108.55670    2.56350    -999.25  119.04940    0.18700   81.53120   10.37480    -999.25    0.04370    0.28710
 5850.00000    9.36530   11.22660   10.82340  -24.47810   12.66410    0.03510  110.75450    2.54230    -999.25  115.24150    0.17380   79.24420   10.33790    -999.25    0.07430    0.27320
 5900.00000    7.93840    9.32020   10.11760  -21.52110   11.62400    0.02750  113.58110    2.57620    -999.25  123.16480    0.20900   84.22880   10.41420    -999.25    0.05840    0.29640
 5950.00000    9.76170   11.58950   13.05660  -21.95730   10.37540    0.04560  136.05680    2.48510    -999.25  139.51000    0.24210   88.80770   10.23130    -999.25    0.09350    0.35400
 6000.00000   11.79540   13.96440   14.93630  -20.59520   11.26100    0.09980  111.27650    2.44940    -999.25  119.47830    0.17620   79.72400    9.84730    -999.25    0.11940    0.29210
 6050.00000    8.95350   10.08600   10.74940  -20.49880   12.68130    0.02710  115.90570    2.44600    -999.25  126.58590    0.19750   82.57220   10.20500    -999.25    0.10990    0.28940
 6100.00000    8.46440   10.02830    9.60290  -21.88660   12.74380    0.05360  118.61820    2.37570    -999.25  117.91410    0.19910   82.42280    9.87510    -999.25    0.16130    0.31850
 6150.00000    6.91690    7.99120    7.76030  -21.38630   12.99400    0.02650  113.73070    2.40920    -999.25  110.33640    0.18310   80.73650   10.12220    -999.25    0.16580    0.31840
 6200.00000    7.87650    9.05460    8.50770  -22.17140   12.58690    0.08050  116.40360    2.39860    -999.25  120.81140    0.19990   82.60740    9.87680    -999.25    0.15220    0.27120
 6250.00000    7.38140    8.86070    8.33160  -22.16870   14.17090    0.16880  114.38670    1.98970    -999.25  115.13030    0.19200   81.95280   11.06300    -999.25    0.40040    0.30710
 6300.00000   10.80640   15.16330   21.83040  -25.09580   12.81060    0.20020  101.63500    2.37470    -999.25  116.75030    0.19210   81.87210   10.09230    -999.25    0.18980    0.30280
 6350.00000    7.93730   10.04390    9.59320  -23.18190   11.06740    0.12100  120.17910    2.37570    -999.25  116.18820    0.17920   80.01430    9.94430    -999.25    0.20220    0.26850
 6400.00000    7.03530    8.60970    8.24900  -20.42580   12.57210    0.21760  124.34040    2.23110    -999.25  127.53600    0.22720   85.89550   10.07840    -999.25    0.26480    0.38490
 6450.00000    6.68140    8.20810    7.74630  -19.37140   11.97310    0.11210  109.57940    2.27080    -999.25  120.54020    0.19310   82.06350    9.99670    -999.25    0.25190    0.36150
 6500.00000    8.20220    9.78880    8.96520  -21.75840   10.67830    0.23120  116.03640    1.93770    -999.25  108.06610    0.18310   80.74210    9.89860    -999.25    0.41130    0.32950
 6550.00000   16.29050   19.56710   16.92820  -32.62680   10.02470    0.15710   72.33870    2.34210    -999.25  102.87640    0.13510   73.82170    9.47280    -999.25    0.20040    0.27580
 6600.00000   11.56070   13.72660   12.86570  -22.09960    9.92600    0.05030  101.37780    2.51790    -999.25  112.79820    0.13330   73.97560   10.14620    -999.25    0.09870    0.28110
 6650.00000    9.64050   12.26940   12.31790  -21.06420   10.53690    0.20860  114.75230    2.14740    -999.25  119.60370    0.16800   78.84450   10.55990    -999.25    0.32100    0.30400
 6700.00000    8.82100   10.89720   10.33240  -20.91530   12.01970    0.16230  108.37370    1.81900    -999.25  118.47350    0.16170   77.53900   10.52770    -999.25    -999.25    0.32330
 6750.00000    9.34140   11.70570   11.15690  -25.16660   11.07830    0.12530  104.90280    1.73480    -999.25  115.64370    0.16160   77.22890   10.09410    -999.25    -999.25    0.31770
 6800.00000    7.75330    9.83460    9.24830  -26.07130   11.60090    0.07940  110.84190    1.61250    -999.25  129.50300    0.16690   78.57590    9.82350    -999.25    -999.25    0.33630
 6850.00000    9.20040   11.03840   11.44580  -25.17040   11.77860    0.07550  113.98030    1.62830    -999.25  116.06440    0.17220   79.24650    9.62570    -999.25    -999.25    0.33260
 6900.00000    8.25390    9.84060   10.44420  -22.09130   12.98070    0.07470  110.24430    1.58150    -999.25  124.38970    0.24990   89.52780   10.69580    -999.25    -999.25    0.39800
 6950.00000    9.92210   12.41520   13.37100  -23.27210   10.44570    0.21110  146.22620    1.89340    -999.25  141.23480    0.21040   84.66040    9.21210    -999.25    0.44340    0.35730
 7000.00000    8.73470   11.05010   11.70440  -23.23680    9.92210    0.16840  129.61850    1.91850    -999.25  129.21550    0.21690   85.05000   10.08070    -999.25    0.45670    0.36230
 7050.00000   11.95800   15.09650   16.61520  -23.59650   10.86310    0.09020  125.52030    2.25040    -999.25  151.13380    0.25160   89.17190    9.45960    -999.25    0.23590    0.36730
 7100.00000   15.05030   20.44380   27.55110  -24.28290    9.59070    0.22530  132.78460    2.33420    -999.25  109.03660    0.16000   77.43320    9.12570    -999.25    0.15690    0.28470
 7150.00000   14.76500   18.11300   22.91620  -26.87450   11.08890    0.23820  144.78960    2.27470    -999.25  153.12930    0.25550   90.42960    9.38920    -999.25    0.22860    0.34180
 7200.00000    8.16520   10.27420   10.90860  -24.25750   12.49180    0.15490  116.24580    1.83910    -999.25  116.96380    0.23240   87.04920    9.81740    -999.25    0.46200    0.38110
 7250.00000   13.85260   17.51460   19.79280  -22.76860   10.85660    0.24160  165.66700    2.37380    -999.25  180.11670    0.27140   92.03320    9.62020    -999.25    0.18300    0.36980
 7300.00000    6.66360    8.78310    8.34670  -26.68990   12.75100    0.21310  100.15280    2.13840    -999.25  106.62090    0.19330   82.11840   10.13780    -999.25    0.30300    0.30000
 7350.00000    7.87970   10.99270   11.94060  -30.09610   10.07790    0.09900   87.71620    2.52410    -999.25  122.74380    0.19610   82.24410   10.73640    -999.25    0.08580    0.22330
 7400.00000    8.62650   11.28600   10.61640  -28.03720    9.52290    0.17780  118.69990    2.33130    -999.25  121.51570    0.15300   76.12160    9.48100    -999.25    0.20180    0.28910
 7450.00000    7.66420   10.61730   11.37250  -24.87930    9.63360    0.00230  102.67180    2.55610    -999.25  111.38250    0.19290   81.70960   10.84330    -999.25    0.04810    0.27820
 7500.00000    7.54040    9.28360    8.73780  -23.99750   10.19090    0.01850  109.95700    2.53400    -999.25  108.65350    0.16380   77.71550   10.03350    -999.25    0.05800    0.28290
 7550.00000    6.37480    8.19670    8.78940  -22.99530   10.80760    0.15080  109.70920    2.38190    -999.25  112.47670    0.19060   81.60080   11.69470    -999.25    0.15820    0.34350
 7600.00000    4.81140    5.76180    6.35890  -24.72760   12.35470    0.18120  128.04340    2.09200    -999.25  144.87370    0.26340   90.30920   10.77310    -999.25    0.38750    0.44260
 7650.00000    3.29290    3.51080    4.20050  -25.48240    -999.25    0.06680   74.94140    1.46300    -999.25   82.27720    0.24200   87.64230   13.86140    -999.25    -999.25    0.55790
 7700.00000    4.70040    5.61630    6.37640  -22.84550   14.41610    0.08560   95.94110    1.50450    -999.25   99.49830    0.27850   93.76710   12.76220    -999.25    -999.25    0.48930
