~Version ---------------------------------------------------
VERS.      2.0 : CWLS log ASCII Standard -VERSION 2.0
WRAP.       NO : One line per depth step
CREA. 08/04/17 : LAS Creation Date
~Well ------------------------------------------------------
STRT.FT                      550.0 : START DEPTH
STOP.FT                    12450.0 : STOP DEPTH
STEP.FT                   50.00000 : STEP LENGTH
NULL.                      -999.25 : NULL VALUE
COMP.       CALIFORNIA STANDARD CO : COMPANY
WELL. STANDARD CYNTHIA 16-21-49-13 : WELL
FLD .                           WC : FIELD
LOC .                              : LOCATION
CTRY.                       CANADA : COUNTRY
SRVC.                 Schlumberger : SERVICE COMPANY
DATE.                  28-Dec-1957 : LOGDATE
PROV.                      Alberta : PROVINCE
UWI .             100162104913W500 : UNIQUE WELL ID
SLAT.WGS84                53.24881 : SURFACE LATITUDE
SLON.WGS84               -115.8321 : SURFACE LONGITUDE
~Curve Information -----------------------------------------
DEPT  .FT         : Depth Curve
CALMED.IN         : CALIPER FROM FROM MLL LOG
CALWS .IN         : CALIPER [MCALED]
CILDED.MMHO       : DEEP INDUCTION CONDUCTIVITY FROM IL LOG [ADJ. TO SPRED]
CONDWS.MMHO       : CONDUCTIVITY [1000/DRESWS]
DRESWS.OHMM       : DEEP RESISTIVITY [LNED]
GRNED .UgRa-Eq/T  : GAMMA RAY FROM GRN LOG
GRWS  .GAPI       : GAMMA RAY[GRNED*16.5]
ILDED .OHMM       : DEEP INDUCTION RESISTIVITY FROM IL LOG [ADJ. TO SPRED]
LL7ED .OHMM       : LATEROLOG 7 FROM LL LOG
LNED  .OHMM       : LONG NORMAL RESISTIVITY FROM EL LOG
LT18ED.OHMM       : LATERAL 18' FROM EL LOG
MCALED.IN         : MLT (MICROLOG) CALIPER FROM ML LOG
MLLED .OHMM       : MICRO FOCUSED LATEROLOG RESISTIVITY FROM MLL LOG
MRESWS.OHMM       : MEDIUM RESISTIVITY [LL7ED]
NEUTED.CPS        : NEUTRON FROM GRN LOG
NEUTWS.CPS        : NEUTRON [NEUTED]
SNED  .OHMM       : SHORT NORMAL RESISTIVITY FROM EL LOG
SPR1ED.MV         : SPONTANEOUS POTENTIAL FROM IL LOG [ADJ. TO SPRED]
SPR2ED.MV         : SPONTANEOUS POTENTIAL FROM LL LOG
SPRED .MV         : SPONTANEOUS POTENTIAL FROM EL LOG
SPWS  .MV         : SPONTANEOUS POTENTIAL [SPR1ED SPL. TO SPRED @644']
SRESWS.OHMM       : SHALLOW RESISTIVITY [SNED]
~Params ----------------------------------------------------
PD  .                        : PERMANENT DATUM
EPD .FT                    0 : ELEVATION PERMANENT DATUM
LMF .                     KB : LOG MEASURED FROM
DAPD.FT                    0 : FEET ABOVE PERMANENT DATUM
DMF .                     KB : DRILLING MEASURED FROM
EKB .FT                 3297 : KELLY BUSHING
EDF .FT                    0 : DRILLING FLOOR
EGL .FT                    0 : GROUND LEVEL
DATE.               12/28/57 : RUN DATE
RUN .                      4 : RUN NUMBER
DD  .FT                12492 : DEPTH DRILLER
DL  .FT                12492 : DEPTH LOGGER
BLI .FT                12491 : BOTTOM LOG INTERVAL
TLI .FT                 8904 : TOP LOG INTERVAL
CS  .IN                    0 : CASING SIZE
CBD .FT                  616 : CASING BOTTOM DRILLER
CBL .FT                  616 : CASING BOTTOM LOGGER
BS  .IN                    9 : BIT SIZE
BSD .FT                12492 : BIT SIZE AT DEPTH
DFT .               OIL EMUL : DRILLING FLUID TYPE
DFD .                   10.7 : DRILLING FLUID DENSITY
DFV .                    140 : DRILLING FLUID VISCOSITY
DFPH.                     13 : DRILLING FLUID PH
DFL .                    3.6 : DRILLING FLUID LOSS
MSS .                        : MUD SAMPLE SOURCE
RMS .OHMM                1.1 : RESISTIVITY MUD SAMPLE
MST .DEGF                 50 : MUD SAMPLE TEMPERATURE
RMF .OHMM                  0 : RESISTIVITY MUD FILTRATE SAMPLE
MFST.DEGF                  0 : MUD FILTRATE SAMPLE TEMPERATURE
RMC .OHMM                  0 : RESISTIVITY MUD CAKE
MCST.DEGF                  0 : MUD CAKE SAMPLE TEMPERATURE
MFSS.                        : MUD FILTRATE SAMPLE SOURCE
MCSS.                        : MUD CAKE SAMPLE SOURCE
RMB .OHMM               0.28 : RESISTIVITY MUD AT BHT
TCS .HRS                   3 : TIME CIRCULATED STOPPED
TLAB.HRS                   0 : TIME LOGGER AT BOTTOM
LUN .                   1749 : LOGGING UNIT NUMBER
LUL .                     DV : LOGGING UNIT LOCATION
ENGI.                  GOETZ : RECORDING ENGINEER
WITN.             CHARLESTON : WITNESSED BY
CLNT.                A2DTECH : CLIENT CODE
ORIG.            2" 5" PRINT : ORIGIN OF DATA
UWI .       100162104913W500 : UNIQUE WELL ID
DICO. A2D Technologies, Inc. : DIGITIZING COMPANY
OS  .                        : OTHER SERVICES
PWI .                        : PRIMARY WELL IDENTIFIER
R1  .                        : REMARKS 1
R2  .                        : REMARKS 2
LSRV.                        : LOG MNEMONIC
~Other -----------------------------------------------------
~ASCII -----------------------------------------------------
# ...
 3750.00000    8.71100    9.88050  105.11810   69.62780   14.36210    6.21970  102.62550   29.78400    -999.25   14.36210   12.35100    9.88050   25.30340    -999.25  231.23010  231.23010   17.98860  -61.87020    -999.25  -71.26720   -2.68180   17.98860
 3800.00000    8.60300   10.01300  140.03480  102.14920    9.78960    6.73340  111.10190   21.81740    -999.25    9.78960   11.20990   10.01300   15.15450    -999.25  249.55220  249.55220   12.76620  -58.61340    -999.25  -70.95090   -2.33970   12.76620
 3850.00000    -999.25   10.29860  149.18240  126.91320    7.87940    5.30050   87.45830   18.51260    -999.25    7.87940    9.10130   10.29860    -999.25    -999.25  258.82950  258.82950    9.85300  -56.94620    -999.25  -69.63010   -1.40560    9.85300
 3900.00000    -999.25   10.76470  203.25450  152.59620    6.55330    6.61860  109.20610   12.84080    -999.25    6.55330    3.44180   10.76470    -999.25    -999.25  236.18120  236.18120    6.39910  -50.71370    -999.25  -69.76730   -1.27470    6.39910
 3950.00000    -999.25   11.04620  318.95880  158.27540    6.31810    7.07460  116.73090    8.70750    -999.25    6.31810    9.54150   11.04620    -999.25    -999.25  222.25560  222.25560    5.46980  -53.95150    -999.25  -71.24110   -2.82560    5.46980
 4000.00000    -999.25   11.27830  124.59360   87.51640   11.43560    6.79810  112.16830   22.32270    -999.25   11.43560   19.28450   11.27830    -999.25    -999.25  219.94220  219.94220   13.71100  -60.41260    -999.25  -72.45350   -4.33130   13.71100
 4050.00000    8.63220   10.42990  151.53340  102.28090    9.77700    5.65630   93.32900   19.34550    -999.25    9.77700    6.28280   10.42990   10.59990    -999.25  219.43110  219.43110   10.29260  -58.94070    -999.25  -73.02210   -4.23600   10.29260
 4100.00000    7.52110    8.66600   85.49610   61.94940   16.14220    4.11800   67.94700   43.08070    -999.25   16.14220   13.34360    8.66600   22.68860    -999.25  242.17570  242.17570   25.35300  -84.22720    -999.25  -96.73570  -19.75610   25.35300
 4150.00000   10.06340   11.45040  209.80230  110.69320    9.04440    6.28610  103.72070   12.74360    -999.25    9.04440    5.47390   11.45040    4.14220    -999.25  202.80430  202.80430    7.38280  -54.53190    -999.25  -71.42990   -2.98480    7.38280
 4200.00000    8.25500   10.03130  117.76630   94.91270   10.53600    5.27520   87.04080   27.65330    -999.25   10.53600    9.77510   10.03130   20.91730    -999.25  246.55190  246.55190   13.63650  -56.41340    -999.25  -72.10650   -2.83720   13.63650
 4250.00000    8.45800   10.05520  238.26190  131.02270    7.63250    7.38770  121.89670   11.38610    -999.25    7.63250    5.58980   10.05520    6.47350    -999.25  208.86170  208.86170    5.81260  -49.02700    -999.25  -70.03250   -1.43040    5.81260
 4300.00000    9.46050   11.49030  147.79370  105.71270    9.45960    6.19340  102.19030   19.69090    -999.25    9.45960    9.23430   11.49030   21.89500    -999.25  197.17620  197.17620   10.55190  -56.30930    -999.25  -71.12900   -2.66040   10.55190
 4350.00000    8.40520   11.73320  157.15930   79.49440   12.57950    5.34930   88.26350   17.27680    -999.25   12.57950   18.00490   11.73320    9.08350    -999.25  227.14920  227.14920    9.77210  -45.84690    -999.25  -72.05660   -5.21680    9.77210
 4400.00000    8.73850   12.53110  162.50200  132.24560    7.56170    5.45680   90.03640   17.32460    -999.25    7.56170    7.38070   12.53110    9.62910    -999.25  200.15320  200.15320    8.75410  -54.87430    -999.25  -73.18100   -4.54400    8.75410
 4450.00000    7.98500   11.81990  132.90370   61.79480   16.18260    5.65830   93.36190   22.43990    -999.25   16.18260    5.44320   11.81990   14.38450    -999.25  217.97270  217.97270   14.60210  -54.42630    -999.25  -75.43720   -6.11340   14.60210
 4500.00000    7.80620    8.45590   67.34020   30.29260   33.01600    3.39420   56.00430   71.89120    -999.25   33.01600   44.05390    8.45590   24.05160    -999.25  240.02700  240.02700   38.07720  -84.78540    -999.25  -99.16310  -36.12690   38.07720
 4550.00000    8.21730   10.64810  175.55390  116.13730    8.61050    6.16690  101.75470   17.00700    -999.25    8.61050   12.52520   10.64810   13.27990    -999.25  211.00910  211.00910    9.04800  -45.96960    -999.25  -71.51270   -2.91620    9.04800
 4600.00000    7.82490   10.20570   88.34330   41.97540   23.82350    4.26690   70.40380   43.76020    -999.25   23.82350   16.23210   10.20570   44.51830    -999.25  244.05230  244.05230   26.36040  -50.41370    -999.25  -74.82330   -7.07090   26.36040
 4650.00000    8.34840   11.88860  160.93040  111.65490    8.95660    5.04490   83.24080   17.32300    -999.25    8.95660   11.99210   11.88860    9.42630    -999.25  194.78020  194.78020    9.90380  -41.20580    -999.25  -71.41590   -2.86720    9.90380
 4700.00000    7.83360   12.07640  122.73910   85.26170   11.72860    5.58510   92.15420   25.28340    -999.25   11.72860    7.66400   12.07640   17.92100    -999.25  217.24590  217.24590   12.01910  -44.01690    -999.25  -70.64600   -1.66860   12.01910
 4750.00000    8.10700    9.74280  121.57920   59.77740   16.72870    3.22860   53.27190   23.31770    -999.25   16.72870   47.47140    9.74280   21.44280    -999.25  229.43470  229.43470   16.14660  -39.33930    -999.25  -79.11040  -20.32730   16.14660
 4800.00000    8.05550   10.44100  115.06900   55.07060   18.15850    4.67310   77.10610   26.37480    -999.25   18.15850   14.15170   10.44100   26.84820    -999.25  207.78460  207.78460   19.10840  -34.34920    -999.25  -70.74960   -2.67670   19.10840
 4850.00000    8.39470   10.34380  107.66850   75.10830   13.31410    4.86230   80.22800   27.96970    -999.25   13.31410   22.76820   10.34380    7.38860    -999.25  216.19860  216.19860   16.84900  -43.85690    -999.25  -71.33380   -3.35270   16.84900
 4900.00000    8.20400    9.86330  108.50490   75.74050   13.20560    3.84190   63.39130   27.63540    -999.25   13.20560   16.20380    9.86330   25.99100    -999.25  220.15050  220.15050   17.95460  -44.70800    -999.25  -72.17990   -4.47280   17.95460
 4950.00000    7.99390    9.08160   76.26400   31.22570   32.02490    4.06820   67.12530   56.36300    -999.25   32.02490   16.64600    9.08160   34.22950    -999.25  233.42630  233.42630   35.45970  -59.32110    -999.25  -78.47010   -8.88420   35.45970
 5000.00000    8.10260   11.35870  139.74750   75.28840   13.28690    5.21360   86.02520   20.41500    -999.25   13.28690   10.16690   11.35870    9.61010    -999.25  213.71950  213.71950   12.56030  -42.86560    -999.25  -69.05590   -1.40210   12.56030
 5050.00000    7.94990   10.99330  126.81090   76.99530   12.98780    5.45270   89.96950   22.86290    -999.25   12.98780   10.94770   10.99330   14.23250    -999.25  211.32900  211.32900   13.86640  -41.57400    -999.25  -67.42570    0.41520   13.86640
 5100.00000    7.75060   11.33000  113.86940   40.36860   24.77170    5.25620   86.72730   28.68740    -999.25   24.77170   10.45350   11.33000   21.32770    -999.25  226.96540  226.96540   27.11110  -39.90430    -999.25  -73.94930   -1.30560   27.11110
 5150.00000    8.12330   10.92880   98.97480   70.96360   14.09330    4.53070   74.75740   35.77370    -999.25   14.09330   13.94280   10.92880   19.41320    -999.25  233.03560  233.03560   22.19290  -45.92200    -999.25  -69.96480   -2.17290   22.19290
 5200.00000    8.32550   12.21840  121.80590   33.48500   29.86410    5.19350   85.69280   23.82510    -999.25   29.86410   16.68310   12.21840    9.44150    -999.25  195.26520  195.26520   25.03580  -37.42570    -999.25  -71.74030   -4.44240   25.03580
 5250.00000    7.94650   12.43410  152.63600   85.10510   11.75030    5.29590   87.38280   18.27920    -999.25   11.75030   16.97700   12.43410   12.33240    -999.25  205.40690  205.40690   10.80890  -39.28460    -999.25  -71.59610   -4.42280   10.80890
 5300.00000    8.01850   11.53780  143.58560   99.69200   10.03090    5.14230   84.84880   19.67690    -999.25   10.03090   12.30860   11.53780    8.64020    -999.25  200.49820  200.49820   12.02810  -40.01910    -999.25  -72.89300   -5.88890   12.02810
