~Version ---------------------------------------------------
VERS. 2.0 : CWLS log ASCII Standard -VERSION 2.0
WRAP.  NO : ONE LINE PER DEPTH STEP
~Well ------------------------------------------------------
STRT.F                        1050.0 : START DEPTH
STOP.F                       11000.0 : STOP DEPTH
STEP.F                      50.00000 : STEP LENGTH
NULL.                        -999.25 : NULL VALUE
COMP.           PETROFINA CANADA LTD : COMPANY
WELL. FINA AMOCO HB GROAT 10-9-58-16 : WELL
FLD .                             WC : FIELD
LOC .                                : LOCATION
CTRY.                         CANADA : COUNTRY
SRVC.         Schlumberger of Canada : SERVICE COMPANY
DATE.                    08-Apr-1977 : LOGDATE
PROV.                        Alberta : PROVINCE
UWI .               100100905816W500 : UNIQUE WELL ID
SLAT.WGS84                  54.00097 : SURFACE LATITUDE
SLON.WGS84                 -116.3132 : SURFACE LONGITUDE
~Curve Information -----------------------------------------
DEPT   .F                 : 
GRS    .GAPI 60 310 01 00 : GAMMA RAY FROM SONIC LOG
DT     .US/F 60 500 00 00 : DELTA-T (INTERVAL TRANSIT TIME)
CALS   .IN   60 280 50 00 : CALIPER FROM SONIC LOG
SPR    .MV   07 010 01 00 : SPONTANEOUS POTENTIAL FROM RESISTIVITY LOG
ILD    .OHMM 07 120 46 00 : INDUCTION DEEP RESISTIVITY
ILM    .OHMM 07 120 44 00 : INDUCTION MEDIUM RESISTIVITY
LL8    .OHMM 07 220 08 00 : LATEROLOG 8
CALD   .IN   45 280 60 00 : CALIPER FROM DENSITY LOG
DCOR   .G/C3 45 356 01 00 : DENSITY CORRECTION
GRD    .GAPI 45 310 01 00 : GAMMA RAY FROM DENSITY LOG
RHOB   .G/C3 45 350 01 00 : BULK DENSITY
NPHI_SS.DEC  42 890 03 00 : NEUTRON POROSITY SANDSTONE
DPHI_SS.DEC  45 890 12 00 : DENSITY POROSITY SANDSTONE
NPHI_LS.DEC  42 890 01 00 : NEUTRON POROSITY LIMESTONE
DPHI_LS.DEC  45 890 10 00 : DENSITY POROSITY LIMESTONE
~Params ----------------------------------------------------
PD  .                     GL : PERMANENT DATUM
EPD .FT               3310.2 : ELEVATION PERMANENT DATUM
LMF .                     KB : LOG MEASURED FROM
DAPD.FT                 13.5 : FEET ABOVE PERMANENT DATUM
EKB .FT                 3324 : KELLY BUSHING
EGL .FT               3310.2 : GROUND LEVEL
DATE.               04/08/77 : RUN DATE
RUN .                      1 : RUN NUMBER
DD  .FT                11000 : DEPTH DRILLER
DL  .FT                11005 : DEPTH LOGGER
BLI .FT                10999 : BOTTOM LOG INTERVAL
TLI .FT                 1159 : TOP LOG INTERVAL
CBD .FT                 1159 : CASING BOTTOM DRILLER
CBL .FT                 1159 : CASING BOTTOM LOGGER
BS  .IN                 8.75 : BIT SIZE
BSD .FT                11000 : BIT SIZE AT DEPTH
DFT .                    GEL : DRILLING FLUID TYPE
DFD .                    9.2 : DRILLING FLUID DENSITY
DFV .                    245 : DRILLING FLUID VISCOSITY
DFPH.                     10 : DRILLING FLUID PH
DFL .                    7.2 : DRILLING FLUID LOSS
MSS .               FLOWLINE : MUD SAMPLE SOURCE
RMS .OHMM               2.52 : RESISTIVITY MUD SAMPLE
MST .DEGF                 56 : MUD SAMPLE TEMPERATURE
RMF .OHMM               2.35 : RESISTIVITY MUD FILTRATE SAMPLE
MFST.DEGF                 50 : MUD FILTRATE SAMPLE TEMPERATURE
TCS .HRS                 3.5 : TIME CIRCULATED STOPPED
LUN .                   7809 : LOGGING UNIT NUMBER
LUL .                    EDM : LOGGING UNIT LOCATION
ENGI.               BERNISKY : RECORDING ENGINEER
WITN.                 HALKOW : WITNESSED BY
CLNT.                A2DTECH : CLIENT CODE
ORIG.            2" 5" PRINT : ORIGIN OF DATA
UWI .       100100905816W500 : UNIQUE WELL ID
DICO. A2D Technologies, Inc. : DIGITIZING COMPANY
~Other -----------------------------------------------------
~ASCII -----------------------------------------------------
# ...
 5650.00000  112.88550   87.86890    9.41690  -61.57950    8.60060    8.91810   11.13740   11.26200    0.26390  118.96520    2.31090    0.36680    0.18310    -999.25    -999.25
 5700.00000  134.45590  100.43360    9.08140  -62.98150   15.50490   16.63340   26.77540    9.26320    0.02710  141.98370    2.42050    0.44770    0.15000    -999.25    -999.25
 5750.00000   95.60370   77.34270    9.53980  -61.30420    7.05020    7.30080    7.60870   12.94880    0.26400   93.39410    1.98420    0.33000    0.36130    -999.25    -999.25
 5800.00000  102.78490   84.07340   10.56510  -63.43230    5.42700    5.61520    6.27010   12.97530    0.26440   97.61800    1.87740    0.40550    0.45030    -999.25    -999.25
 5850.00000  104.31820   75.93670    9.54240  -64.40250    7.52520    7.79140    8.69510   11.15270    0.18860   94.90590    1.82410    0.33520    0.45060    -999.25    -999.25
 5900.00000  106.16450   80.18080    9.68160  -62.92920    7.00740    7.25060    7.92100   11.88300    0.25430  105.99480    2.06660    0.36260    0.32600    -999.25    -999.25
 5950.00000  100.21320   83.06690   10.16370  -61.39910    6.04650    6.37990    7.42120   12.22560    0.26400  103.57440    2.13810    0.38310    0.28480    -999.25    -999.25
 6000.00000   97.36100   79.31760   10.25650  -61.26480    6.93350    7.17150    7.58970    -999.25    0.19780   99.80690    1.83160    0.40030    0.44060    -999.25    -999.25
 6050.00000  125.63680   80.23170   12.50570  -59.54960    6.03290    6.78250    6.25890    -999.25    0.14650  109.53400    1.56180    0.50010    -999.25    -999.25    -999.25
 6100.00000   86.20430   88.81350   14.09190  -58.31570    2.51740    2.79920    3.34770    -999.25    0.15170   83.36270    1.57160    0.52050    -999.25    -999.25    -999.25
 6150.00000   85.18910  111.26870   14.32740  -58.81110    4.00300    4.30370    5.67700    -999.25    0.20230   76.82810    1.70490    0.52350    0.45010    -999.25    -999.25
 6200.00000   91.46400   84.93250   11.33510  -60.73790    5.45670    5.66570    6.73290   15.17950    0.15170   97.06760    1.56620    0.43390    0.45080    -999.25    -999.25
 6250.00000   38.99530   67.71550    9.28480  -86.27320   17.86140   15.80450   21.82080    9.59940    0.10520   55.89940    2.47330    0.17980    0.12950    -999.25    -999.25
 6300.00000   87.35620   72.47970    9.74180  -59.37280   10.15060    9.32840   11.60890   10.85730    -999.25   87.66050    2.30910    0.22530    0.19560    -999.25    -999.25
 6350.00000   47.23030   72.45530    9.43320  -72.57630   12.21630   13.58960   15.78180    9.34540    0.02670   42.92520    2.57500    0.22590    0.05670    -999.25    -999.25
 6400.00000   43.89540   83.49260    8.31430 -106.29970   15.97830   18.16910   18.10210    8.49790    0.13120   37.93120    2.45490    0.26410    0.15060    -999.25    -999.25
 6450.00000   66.68640   74.03720    9.52750  -62.24640    9.67200   10.00460   15.60350    9.33660    0.15760   83.82070    2.21750    0.37210    0.22780    -999.25    -999.25
 6500.00000   68.73880   70.44640    9.75030  -61.58310    8.77090    9.01770    9.28730    9.77690    0.02690   69.41240    2.56110    0.22350    0.06480    -999.25    -999.25
 6550.00000   82.08020   73.10360    9.62370  -68.16860   11.28470   12.78880   16.08640    9.52640    0.01210   83.20130    2.61480    0.24610    0.00840    -999.25    -999.25
 6600.00000   58.04400   64.80930    9.51530  -87.98220   13.85640   15.60170   19.37380    9.69870    0.01230   64.03590    2.54070    0.21630    0.05230    -999.25    -999.25
 6650.00000   66.94640   96.43740   10.16630  -56.70540   12.31180   13.20890   18.60190   10.27800    0.00410   84.32840    2.50660    0.25000    0.11590    -999.25    -999.25
 6700.00000   83.40810   71.88180    9.94170  -63.92000    9.00250   10.14770   12.48470   10.45500    0.06080   70.55840    2.44990    0.31970    0.14370    -999.25    -999.25
 6750.00000   68.90650   75.81930   10.01370  -60.60780    8.85090    9.23060   13.03430   10.54310    0.07710   64.03680    2.54090    0.23970    0.06570    -999.25    -999.25
 6800.00000   92.04990   80.97430    9.97580  -63.88790    7.52430    8.02160   10.87980    9.55810    0.08690  121.22140    2.75110    0.30410   -0.02710    -999.25    -999.25
 6850.00000   64.76060   70.14790    9.50970  -66.56620   11.30420   12.98200   19.26830    9.67210    0.10820   83.73950    2.71030    0.19140   -0.01080    -999.25    -999.25
 6900.00000   70.38000   68.64430    9.34750  -60.22520   17.26210   23.03400   27.55020    9.20240    0.11620   53.23390    2.75380    0.19340   -0.05440    -999.25    -999.25
 6950.00000   71.79240   76.78230   10.10620  -59.70010    8.43350    9.49150   12.17650   10.59920    0.26420   81.08600    2.52460    0.25290    0.10030    -999.25    -999.25
 7000.00000   62.64310   69.09100    9.49360  -55.21870   12.61730   13.25920   20.23370    9.51190    0.11240   97.19570    2.69430    0.24390   -0.03840    -999.25    -999.25
 7050.00000   52.78610   63.90090    9.15780  -61.51520   35.51300   49.92730   49.31470    9.05040    0.09280   58.62400    2.72220    0.20880   -0.01280    -999.25    -999.25
 7100.00000   90.14310   78.11630    9.93950  -58.79160   11.15600   12.21620   15.20510   10.63350    0.24770   96.91840    2.42360    0.40150    0.21370    -999.25    -999.25
 7150.00000   48.55640   65.03340    8.74970  -96.63020   10.69130   13.69980   21.27670    9.72780    0.26090   71.86460    2.55050    0.25350    0.06950    -999.25    -999.25
 7200.00000  105.88440   78.49040    9.76460  -53.40390    8.62650    9.30620   10.43350   11.72360    0.26290   97.78490    2.43460    0.37600    0.16710    -999.25    -999.25
 7250.00000   93.96290   60.64010   10.66360  -55.10960    3.95500    4.23200    5.74030   13.48700    0.26250   93.00180    2.19010    0.42170    0.27720    0.41590    0.27820
 7300.00000   36.29630   70.48980    8.31860 -170.91320    7.01420   11.56550   46.82850    8.40440    0.15280   45.24030    2.48910    -999.25    -999.25    0.13910    0.12870
 7350.00000   23.33830   54.21630    8.83510  -92.21010  173.89470  530.25050  753.43430    8.86310    0.07910   18.78240    2.66900    -999.25    -999.25    0.02270   -0.00880
 7400.00000   13.20180   53.29640    8.85390 -114.26840   64.88560   83.37390  148.69500    8.64520    0.03640   10.83000    2.56310    -999.25    -999.25    0.04190    0.08320
 7450.00000  143.97790   61.21700    8.87290  -96.63620  532.51630  429.11180 1048.59830    9.04230    0.01930   55.21410    2.61060    -999.25    -999.25    0.08440    0.06000
 7500.00000   93.22320   63.77000    9.14970  -82.41290   10.52190   11.66020   15.05850    9.25690    0.00320   89.03170    2.56280    -999.25    -999.25    0.10240    0.09640
 7550.00000   32.92950   47.53640    9.11300 -111.88910   23.59340   26.82480   29.85980   10.03970    0.23440   44.15760    2.78300    -999.25    -999.25    0.09160   -0.00390
 7600.00000   45.55610   55.31280    9.36500  -88.46840   47.03140   59.88850  287.86110   10.01560    0.25030   42.05840    2.71880    -999.25    -999.25    0.03630    0.08260
 7650.00000   17.40860   49.67500   10.09500 -129.14070 1508.22900  501.67210  297.83280   13.25460    0.25100    9.73290    2.57560    -999.25    -999.25    0.03110    0.15160
 7700.00000    8.59990   47.46180    9.84280 -148.49220   88.94130  115.61010  180.90270   12.04660    0.16640    9.79570    2.59570    -999.25    -999.25    0.02150    0.09010
 7750.00000   67.17540   61.17110    9.20210  -76.38090    6.81130    7.60970   26.19720    9.25090    0.06620   61.65110    2.69350    -999.25    -999.25    0.07440    0.02650
 7800.00000   62.88730   56.63570    8.91090  -82.50970   11.79810   13.79760   21.51820    9.11650    0.03010   57.28830    2.65540    -999.25    -999.25    0.07010    0.03820
 7850.00000   60.82110   59.67340    9.07520  -81.39530    8.07360    9.10180   13.85260    9.19720    0.02850   50.61030    2.68920    -999.25    -999.25    0.11830   -0.00640
 7900.00000   50.32970   52.24450    9.17460  -52.31770   39.73140   46.43520   74.60220    9.32170    0.02880   11.82840    2.69510    -999.25    -999.25    0.04710    0.01410
