~Version ---------------------------------------------------
VERS.      2.0 : CWLS log ASCII Standard -VERSION 2.0
WRAP.       NO : One line per depth step
CREA. 08/31/17 : LAS Creation Date
~Well ------------------------------------------------------
STRT.FT                       1300.0 : START DEPTH
STOP.FT                      12650.0 : STOP DEPTH
STEP.FT                     50.00000 : STEP LENGTH
NULL.                        -999.25 : NULL VALUE
COMP.           PETROFINA CANADA LTD : COMPANY
WELL. FINA AMOCO HB MAYBERNE 10-11-5 : WELL
FLD .                                : FIELD
LOC .                                : LOCATION
CTRY.                         CANADA : COUNTRY
SRVC.                   Schlumberger : SERVICE COMPANY
DATE.                    03-Apr-1977 : LOGDATE
PROV.                        Alberta : PROVINCE
UWI .               100101105718W500 : UNIQUE WELL ID
SLAT.WGS84                  53.91479 : SURFACE LATITUDE
SLON.WGS84                 -116.5629 : SURFACE LONGITUDE
~Curve Information -----------------------------------------
DEPT    .FT    : Depth Curve
CALDED  .IN    : DIFFERENTIAL CALIPER FROM DENSITY LOG
CALSED  .IN    : CALIPER FROM SONIC LOG [ADJ. TO GRED]
CALWS   .IN    : CALIPER [CALSED]
CONDWS  .MMHO  : CONDCUTIVITY [1000/DRESWS]
DCORED  .G/C3  : DENSITY CORRECTION FROM DENSITY LOG
DCORWS  .G/C3  : DENSITY CORRECTION [DRHOED]
DENWS   .G/C3  : FORMATION BULK DENSITY [RHOBED]
DPHILSED.V/V   : DENSITY POROSITY LIME [M=2.71, F=1.0] FROM DENSITY LOG [ADJ. TO RHOBED]
DPHISSED.V/V   : DENSITY POROSITY SAND [M=2.65, F=1.0] FROM DENSITY LOG [ADJ, TO RHOBED]
DPOLSWS .V/V   : DENSITY POROSITY LIME [CALC FROM DENWS, M=2.71, F=1.0]
DRESWS  .OHMM  : DEEP RESISTIVITY [ILDED]
DTED    .US/F  : DELTA-T FROM SONIC LOG [ADJ. TO GRDED]
DTWS    .US/F  : COMPRESSIONAL SONIC [DTED]
GRDED   .GAPI  : GAMMA RAY FROM DENSITY LOG
GRSED   .GAPI  : GAMMA RAY FROM SONIC LOG
GRWS    .GAPI  : GAMMA RAY [GRSED]
ILDED   .OHMM  : DEEP INDUCTION RESISTIVITY FROM RESISTIVITY LOG
ILMED   .OHMM  : MEDIUM INDUCTION RESISTIVITY FROM RESISTIVITY LOG
LL8ED   .OHMM  : LATEROLOG-8 RESISTIVITY FROM RESISTIVITY LOG
MRESWS  .OHMM  : MEDIUM RESISTIVITY [ILMED]
NPHILSED.V/V   : NEUTRON POROSITY LIME FROM DENSITY LOG [ADJ. TO RHOBED]
NPOLSWS .V/V   : NEUTRON POROSITY LIME [SS CONVERTS TO LS. SPL. TO LS @ 8849']
NPORSSED.V/V   : NEUTRON POROSITY SAND FROM DENSITY LOG [ADJ. TO RHOBED]
RHOBED  .G/C3  : DENSITY FORMATION DENSITY FROM DENSITY LOG
SPHIED  .V/V   : SONIC POROSITY [DTM=189, DTF=55.6] FROM SONIC LOG [ADJ. TO GRDED]
SPRED   .MV    : SPONTANEOUS POTENTIAL FROM RESISTIVITY LOG
SPWS    .MV    : SPONTANEOUS POTENTIAL [BASELINE 0 MV, SPRED]
SRESWS  .OHMM  : SHALLOW RESISTIVITY [LL8ED]
~Params ----------------------------------------------------
PD  .                     GL : PERMANENT DATUM
EPD .FT                 4315 : ELEVATION PERMANENT DATUM
LMF .                     KB : LOG MEASURED FROM
DAPD.FT                   17 : FEET ABOVE PERMANENT DATUM
EKB .FT                 4322 : KELLY BUSHING
EGL .FT                 4315 : GROUND LEVEL
DATE.               04/03/77 : RUN DATE
RUN .                      1 : RUN NUMBER
DD  .FT                12670 : DEPTH DRILLER
DL  .FT                12672 : DEPTH LOGGER
BLI .FT                12669 : BOTTOM LOG INTERVAL
TLI .FT                 1324 : TOP LOG INTERVAL
CBD .FT                 1327 : CASING BOTTOM DRILLER
CBL .FT                 1324 : CASING BOTTOM LOGGER
BS  .IN                 8.75 : BIT SIZE
BSD .FT                12670 : BIT SIZE AT DEPTH
DFT .               GEL CHEM : DRILLING FLUID TYPE
DFD .                      9 : DRILLING FLUID DENSITY
DFV .                    130 : DRILLING FLUID VISCOSITY
DFPH.                     10 : DRILLING FLUID PH
MSS .               FLOWLINE : MUD SAMPLE SOURCE
RMS .OHMM                3.2 : RESISTIVITY MUD SAMPLE
MST .DEGF                 56 : MUD SAMPLE TEMPERATURE
RMF .OHMM               2.94 : RESISTIVITY MUD FILTRATE SAMPLE
MFST.DEGF                 62 : MUD FILTRATE SAMPLE TEMPERATURE
RMB .OHMM               0.88 : RESISTIVITY MUD AT BHT
TCS .HRS                   4 : TIME CIRCULATED STOPPED
LUN .                   7667 : LOGGING UNIT NUMBER
LUL .                    EDM : LOGGING UNIT LOCATION
ENGI.          CAMPBELL BIGG : RECORDING ENGINEER
WITN.         SANDERS DAVIES : WITNESSED BY
CLNT.                A2DTECH : CLIENT CODE
ORIG.            2" 5" PRINT : ORIGIN OF DATA
UWI .       100101105718W500 : UNIQUE WELL ID
DICO. A2D Technologies, Inc. : DIGITIZING COMPANY
~Other -----------------------------------------------------
~ASCII -----------------------------------------------------
 1300.00000    -999.25    -999.25    -999.25    -999.25    -999.25    -999.25    -999.25    -999.25    -999.25    -999.25    -999.25    -999.25    -999.25    -999.25   45.35020   45.35020    -999.25    -999.25    -999.25    -999.25    -999.25    -999.25    -999.25    -999.25    -999.25    -999.25    -999.25    -999.25
 1350.00000    -999.25    9.83200    9.83200  199.04690    -999.25    -999.25    -999.25    -999.25    -999.25    -999.25    5.02400  104.07910  104.07910    -999.25   87.91200   87.91200    5.02400    5.38680    5.47680    5.38680    -999.25    -999.25    -999.25    -999.25    0.37090  -46.44240   -5.74940    5.47680
 1400.00000    -999.25    9.59600    9.59600   93.48040    -999.25    -999.25    -999.25    -999.25    -999.25    -999.25   10.73510  100.09200  100.09200    -999.25   72.33420   72.33420   10.73510   11.72010   13.65790   11.72010    -999.25    -999.25    -999.25    -999.25    0.19810  -52.22960  -16.06670   13.65790
 1450.00000    -999.25    9.75720    9.75720   72.99840    -999.25    -999.25    -999.25    -999.25    -999.25    -999.25   13.70580   93.08770   93.08770    -999.25   66.55160   66.55160   13.70580   12.28530   10.96910   12.28530    -999.25    -999.25    -999.25    -999.25    0.19280  -54.17810  -22.56790   10.96910
 1500.00000    -999.25   10.20130   10.20130  245.73850    -999.25    -999.25    -999.25    -999.25    -999.25    -999.25    4.11900  119.85420  119.85420    -999.25   84.10360   84.10360    4.11900    3.63490    5.81080    3.63490    -999.25    -999.25    -999.25    -999.25    0.29890  -33.37930   -6.27650    5.81080
 1550.00000    -999.25   10.84030   10.84030  178.37560    -999.25    -999.25    -999.25    -999.25    -999.25    -999.25    5.64470  100.55640  100.55640    -999.25   82.34340   82.34340    5.64470    6.05450    6.32940    6.05450    -999.25    -999.25    -999.25    -999.25    0.40980  -35.69070  -10.67830    6.32940
 1600.00000    -999.25   10.33680   10.33680  267.98890    -999.25    -999.25    -999.25    -999.25    -999.25    -999.25    3.77790  134.26170  134.26170    -999.25   83.48070   83.48070    3.77790    3.32120    4.66490    3.32120    -999.25    -999.25    -999.25    -999.25    0.37130  -29.64450   -4.75250    4.66490
 1650.00000    -999.25    9.92830    9.92830  107.14550    -999.25    -999.25    -999.25    -999.25    -999.25    -999.25    9.34790   95.45130   95.45130    -999.25   77.87100   77.87100    9.34790    8.99550    9.38090    8.99550    -999.25    -999.25    -999.25    -999.25    0.18720  -30.10980   -5.33750    9.38090
 1700.00000    -999.25    9.94570    9.94570  190.03840    -999.25    -999.25    -999.25    -999.25    -999.25    -999.25    5.26480  100.77640  100.77640    -999.25   92.89000   92.89000    5.26480    4.21620    5.07620    4.21620    -999.25    -999.25    -999.25    -999.25    0.45240  -24.68370   -0.03170    5.07620
 1750.00000    -999.25   10.07920   10.07920   95.59560    -999.25    -999.25    -999.25    -999.25    -999.25    -999.25   10.47290   85.21140   85.21140    -999.25  106.29460  106.29460   10.47290   11.14040   10.44810   11.14040    -999.25    -999.25    -999.25    -999.25    0.26940  -30.39780   -5.86500   10.44810
 1800.00000    -999.25    9.59270    9.59270  430.22190    -999.25    -999.25    -999.25    -999.25    -999.25    -999.25    2.32540   92.41860   92.41860    -999.25   89.33640   89.33640    2.32540    3.41840    3.11790    3.41840    -999.25    -999.25    -999.25    -999.25    0.45020  -24.39000    0.00000    3.11790
 1850.00000    -999.25    9.71800    9.71800  286.56710    -999.25    -999.25    -999.25    -999.25    -999.25    -999.25    3.49040  116.53690  116.53690    -999.25   91.04350   91.04350    3.49040    3.29520    5.22880    3.29520    -999.25    -999.25    -999.25    -999.25    0.33910  -30.95900   -6.66560    5.22880
 1900.00000    -999.25   10.46210   10.46210  253.83420    -999.25    -999.25    -999.25    -999.25    -999.25    -999.25    3.94320   92.17370   92.17370    -999.25   99.60700   99.60700    3.94320    4.39880    4.76110    4.39880    -999.25    -999.25    -999.25    -999.25    0.42440  -26.23690   -2.06330    4.76110
 1950.00000    -999.25    9.84840    9.84840  348.45200    -999.25    -999.25    -999.25    -999.25    -999.25    -999.25    2.87140  110.47000  110.47000    -999.25   95.10370   95.10370    2.87140    2.93300    6.37420    2.93300    -999.25    -999.25    -999.25    -999.25    0.33420  -25.75930   -1.70600    6.37420
 2000.00000    -999.25    9.59930    9.59930   86.52650    -999.25    -999.25    -999.25    -999.25    -999.25    -999.25   11.56960   91.35050   91.35050    -999.25  123.86750  123.86750   11.56960   11.17680   15.96750   11.17680    -999.25    -999.25    -999.25    -999.25    0.36050  -34.44880  -10.51470   15.96750
 2050.00000    -999.25   10.17730   10.17730   91.56130    -999.25    -999.25    -999.25    -999.25    -999.25    -999.25   10.94770  105.99600  105.99600    -999.25   98.59740   98.59740   10.94770   11.87780   14.57520   11.87780    -999.25    -999.25    -999.25    -999.25    0.20560  -36.61730  -12.80230   14.57520
 2100.00000    -999.25    9.71910    9.71910  182.68790    -999.25    -999.25    -999.25    -999.25    -999.25    -999.25    5.69850   93.61400   93.61400    -999.25   76.89620   76.89620    5.69850    7.47440   12.47490    7.47440    -999.25    -999.25    -999.25    -999.25    0.40800  -31.74720   -8.12640   12.47490
 2150.00000    -999.25   10.54580   10.54580  205.30000    -999.25    -999.25    -999.25    -999.25    -999.25    -999.25    4.88820  105.03590  105.03590    -999.25  106.27240  106.27240    4.88820    4.52570    5.55490    4.52570    -999.25    -999.25    -999.25    -999.25    0.41640  -26.54150   -3.16110    5.55490
 2200.00000    -999.25    9.82160    9.82160  105.33730    -999.25    -999.25    -999.25    -999.25    -999.25    -999.25    9.49400   95.16510   95.16510    -999.25   72.39520   72.39520    9.49400    8.98510    8.69040    8.98510    -999.25    -999.25    -999.25    -999.25    0.29450  -38.98850  -15.84970    8.69040
 2250.00000    -999.25    9.26210    9.26210   35.79690    -999.25    -999.25    -999.25    -999.25    -999.25    -999.25   27.94210   80.47990   80.47990    -999.25   68.26080   68.26080   27.94210   29.32370   28.82480   29.32370    -999.25    -999.25    -999.25    -999.25    0.21380  -46.17560  -23.27590   28.82480
 2300.00000    -999.25    9.99900    9.99900   62.20160    -999.25    -999.25    -999.25    -999.25    -999.25    -999.25   16.07730   92.82020   92.82020    -999.25   63.55430   63.55430   16.07730   14.63330   15.27320   14.63330    -999.25    -999.25    -999.25    -999.25    0.27170  -42.46940  -19.80890   15.27320
 2350.00000    -999.25    9.73150    9.73150  149.26770    -999.25    -999.25    -999.25    -999.25    -999.25    -999.25    6.70110   92.44180   92.44180    -999.25   68.14790   68.14790    6.70110    6.27590    7.01390    6.27590    -999.25    -999.25    -999.25    -999.25    0.23170  -30.17950   -7.44030    7.01390
 2400.00000    -999.25    9.07040    9.07040  102.30620    -999.25    -999.25    -999.25    -999.25    -999.25    -999.25    9.77640   90.25850   90.25850    -999.25   62.90310   62.90310    9.77640    9.40200    8.83890    9.40200    -999.25    -999.25    -999.25    -999.25    0.29060  -31.15690   -6.69410    8.83890
 2450.00000    -999.25    8.32790    8.32790   87.19210    -999.25    -999.25    -999.25    -999.25    -999.25    -999.25   11.47100  100.51070  100.51070    -999.25   72.03940   72.03940   11.47100   10.75520   10.11740   10.75520    -999.25    -999.25    -999.25    -999.25    0.31250  -32.58130   -6.38630   10.11740
 2500.00000    -999.25    8.01520    8.01520   20.99650    -999.25    -999.25    -999.25    -999.25    -999.25    -999.25   48.44330  128.47920  128.47920    -999.25   28.15770   28.15770   48.44330   81.78840   96.34030   81.78840    -999.25    -999.25    -999.25    -999.25    -999.25  -33.33160   -6.17750   96.34030
