~Version ---------------------------------------------------
VERS.      2.0 : CWLS log ASCII Standard -VERSION 2.0
WRAP.       NO : One line per depth step
CREA. 09/28/13 : LAS Creation Date
~Well ------------------------------------------------------
STRT.M                         300.0 : START DEPTH
STOP.M                        2050.0 : STOP DEPTH
STEP.M                      50.00000 : STEP LENGTH
NULL.                        -999.25 : NULL VALUE
COMP.        VOYAGER PETROLEUMS PLC. : COMPANY
WELL. VOYAGER ET AL BRUCE 6-14-48-14 : WELL
FLD .                                : FIELD
LOC .                                : LOCATION
CTRY.                         CANADA : COUNTRY
SRVC.                        Unknown : SERVICE COMPANY
DATE.                    15-Dec-1982 : LOGDATE
PROV.                        Alberta : PROVINCE
UWI .               100061404814W400 : UNIQUE WELL ID
SLAT.WGS84                  53.13711 : SURFACE LATITUDE
SLON.WGS84                 -111.9453 : SURFACE LONGITUDE
~Curve Information -----------------------------------------
DEPT    .M      : DEPTH METER
CALI1ED .MM     : CALIPER 1 FROM DENSITY LOG [ADJ. TO RESISTIVITY LOG]
CALI2ED .MM     : CALIPER 2 FROM DENSITY LOG [ADJ. TO RESISTIVITY LOG]
CALSED  .MM     : CALIPER FROM SONIC LOG [ADJ. TO RESISTIVITY LOG]
CALWS   .MM     : CALIPER [CALSED SPL. TO CALI1ED @ 2050 M]
CONDWS  .MMHO   : CONDUCTIVITY [1000/DRESWS]
DCORWS  .KG/M3  : DENSITY CORRECTION [DRHOED]
DENWS   .KG/M3  : FORMATION BULK DENSITY [CALC. FROM DPOLSWS, M=2710, F=1000]
DPHILSED.V/V    : DENSITY POROSITY LIMESTONE [M=2710, F=1000] FROM DENSITY LOG
DPHISSED.V/V    : DENSITY POROSITY SANDSTONE [M=2650, F=1000] FROM DENSITY LOG
DPOLSWS .V/V    : DENSITY POROSITY LIMESTONE [DPHISSED CONVERTED TO LIMESTONE MATRIX , M=2710, F =1000, SPL. TO DPHILSED FROM 799 M TO 1698.5 M]
DRESWS  .OHMM   : DEEP RESISTIVITY [ILDED]
DRHOED  .KG/M3  : BULK DENSITY CORRECTION FROM DENSITY LOG [ADJ. TO DPHISSED/DPHILSED/RESISTIVITY LOG]
DTED    .US/M   : DELTA-T FROM SONIC LOG [ADJ. TO RESISTIVITY LOG]
DTWS    .US/M   : COMPRESSIONAL SONIC [DTED]
GRSED   .GAPI   : GAMMA RAY FROM SONIC LOG [ADJ. TO RESISTIVITY LOG]
GRWS    .GAPI   : GAMMA RAY [GRSED]
ILDED   .OHMM   : DEEP INDUCTION RESISTIVITY FROM RESISTIVITY LOG
ILMED   .OHMM   : MEDIUM INDUCTION RESISTIVITY FROM RESISTIVITY LOG
MRESWS  .OHMM   : MEDIUM RESISTIVITY [ILMED]
NPHILSED.V/V    : NEUTRON POROSITY LIMESTONE FROM DENSITY LOG [ADJ. TO RESISTIVITY LOG]
NPHISSED.V/V    : NEUTRON POROSITY SANDSTONE FROM DENSITY LOG [ADJ. TO RESISTIVITY LOG]
NPOLSWS .V/V    : NEUTRON POROSITY LIMESTONE [NPHISSED CONVERTED TO LIMESTONE MATRIX , SPL. TO NPHILSED FROM 799 M TO 1700 M]
RHOBED  .KG/M3  : BULK DENSITY FROM DENSITY LOG [ADJ. TO DPHISSED/DPHILSED/RESISTIVITY LOG]
SFLUED  .OHMM   : SHALLOW FOCUSED RESISTIVITY FROM RESISTIVITY LOG
SPRED   .MV     : SPONTANEOUS POTENTIAL FROM RESISTIVITY LOG
SPWS    .MV     : SPONTANEOUS POTENTIAL [BASELINE 0 MV, SPRED]
SRESWS  .OHMM   : SHALLOW RESISTIVITY [SFLUED]
~Params ----------------------------------------------------
PD  .                         GL : PERMANENT DATUM
EPD .M                     685.8 : ELEVATION PERMANENT DATUM
LMF .                         KB : LOG MEASURED FROM
DAPD.M                         4 : FEET ABOVE PERMANENT DATUM
DMF .                         KB : DRILLING MEASURED FROM
EKB .M                     689.8 : KELLY BUSHING
EGL .M                     685.8 : GROUND LEVEL
DATE.                   12/15/82 : RUN DATE
RUN .                          1 : RUN NUMBER
DD  .M                      2088 : DEPTH DRILLER
DL  .M                    2086.6 : DEPTH LOGGER
BLI .M                      2085 : BOTTOM LOG INTERVAL
TLI .M                     891.4 : TOP LOG INTERVAL
CS  .MM                      178 : CASING SIZE
CBD .M                       891 : CASING BOTTOM DRILLER
CBL .M                       891 : CASING BOTTOM LOGGER
BS  .MM                      159 : BIT SIZE
BSD .M                      2088 : BIT SIZE AT DEPTH
DFT .                 SALT BRINE : DRILLING FLUID TYPE
DFD .                       1270 : DRILLING FLUID DENSITY
DFV .                         74 : DRILLING FLUID VISCOSITY
DFPH.                        8.5 : DRILLING FLUID PH
DFL .                         30 : DRILLING FLUID LOSS
MSS .                   FLOWLINE : MUD SAMPLE SOURCE
RMS .OHMM                   0.09 : RESISTIVITY MUD SAMPLE
MST .DEGC                   19.9 : MUD SAMPLE TEMPERATURE
RMF .OHMM                   0.07 : RESISTIVITY MUD FILTRATE SAMPLE
MFST.DEGC                   22.2 : MUD FILTRATE SAMPLE TEMPERATURE
MFSS.                      PRESS : MUD FILTRATE SAMPLE SOURCE
RMB .OHMM                  0.041 : RESISTIVITY MUD AT BHT
TCS .HRS                     100 : TIME CIRCULATED STOPPED
TLAB.HRS                     745 : TIME LOGGER AT BOTTOM
LUN .                       8108 : LOGGING UNIT NUMBER
LUL .                 MAINWRIGHT : LOGGING UNIT LOCATION
ENGI.                  MAGNUSSON : RECORDING ENGINEER
WITN.                       HECK : WITNESSED BY
CLNT.                    A2DTECH : CLIENT CODE
ORIG. 6.5"/100M 16.5"/100M PRINT : ORIGIN OF DATA
UWI .           100061404814W400 : UNIQUE WELL ID
DICO.     A2D Technologies, Inc. : DIGITIZING COMPANY
~Other -----------------------------------------------------
CNFD-DILSFL-BCS LOG RAN.
RHOB & DRHO FROM SMALL SECTION.
~ASCII -----------------------------------------------------
  300.00000    -999.25    -999.25  255.62600  255.62600  262.49480  111.12100 2259.77500    -999.25    0.23650    0.26330    3.80960  111.12100  406.62630  406.62630   58.67250   58.67250    3.80960    3.69030    3.69030    -999.25    0.48390    0.44340 2256.56570    4.08700  -27.51940  -11.22630    4.08700
  350.00000    -999.25    -999.25  267.01730  267.01730  240.47130  151.83370 2222.48500    -999.25    0.25910    0.28510    4.15850  151.83370  396.64970  396.64970   94.06640   94.06640    4.15850    3.98700    3.98700    -999.25    0.45660    0.41510 2221.14870    4.52270  -33.99000  -15.84410    4.52270
  400.00000    -999.25    -999.25  257.93580  257.93580  210.15910   35.95660 2174.96500    -999.25    0.28790    0.31290    4.75830   35.95660  381.08730  381.08730   94.23250   94.23250    4.75830    4.59670    4.59670    -999.25    0.46280    0.42150 2174.58300    4.98110  -38.27770  -17.18690    4.98110
  450.00000    -999.25    -999.25  255.36700  255.36700  185.52880   68.69820 2392.27000    -999.25    0.15620    0.18580    5.39000   68.69820  378.39000  378.39000  138.37530  138.37530    5.39000    5.18110    5.18110    -999.25    0.41980    0.37730 2393.90890    5.92830  -30.74060  -13.50590    5.92830
  500.00000    -999.25    -999.25  248.03270  248.03270  174.08860   60.44120 2359.43500    -999.25    0.17610    0.20500    5.74420   60.44120  367.28280  367.28280  106.16030  106.16030    5.74420    5.39800    5.39800    -999.25    0.39640    0.35350 2358.39280    5.99250  -38.00620  -26.81150    5.99250
  550.00000    -999.25    -999.25  247.21340  247.21340  145.97900   57.59050 2458.10500    -999.25    0.11630    0.14730    6.85030   57.59050  294.62660  294.62660   97.83330   97.83330    6.85030    6.62860    6.62860    -999.25    0.28360    0.23960 2455.60110    6.98010  -40.85200  -35.66660    6.98010
  600.00000    -999.25    -999.25  233.34820  233.34820  154.04760   59.35030 2332.21000    -999.25    0.19260    0.22090    6.49150   59.35030  347.79410  347.79410  135.35060  135.35060    6.49150    6.23000    6.23000    -999.25    0.41640    0.37390 2330.56400    7.98630  -23.38560  -23.74090    7.98630
  650.00000    -999.25    -999.25  247.83940  247.83940  357.35980   92.11200 2362.73500    -999.25    0.17410    0.20310    2.79830   92.11200  369.46930  369.46930  104.79090  104.79090    2.79830    2.73310    2.73310    -999.25    0.41420    0.37160 2363.25390    3.15670  -18.16920  -19.54960    3.15670
  700.00000    -999.25    -999.25  245.78330  245.78330  190.18280   72.31700 2415.04000    -999.25    0.14240    0.17250    5.25810   72.31700  303.28910  303.28910   90.66140   90.66140    5.25810    5.08540    5.08540    -999.25    0.30900    0.26510 2414.18160    5.89790  -19.17030  -21.57590    5.89790
  750.00000    -999.25    -999.25  244.50090  244.50090  278.04810    6.27040 2357.78500    -999.25    0.17710    0.20600    3.59650    6.27040  309.43370  309.43370   64.40870   64.40870    3.59650    3.45580    3.45580    -999.25    0.31820    0.27430 2358.79320    3.66350  -13.61370  -17.04440    3.66350
  800.00000    -999.25    -999.25  237.90390  237.90390  271.33360   18.25020 2461.53700    0.14530    0.11540    0.14530    3.68550   18.25020  307.15420  307.15420   88.94030   88.94030    3.68550    3.51860    3.51860    0.28720    0.34370    0.28720 2458.63570    3.53690  -22.67460  -37.35040    3.53690
  850.00000    -999.25    -999.25  226.18890  226.18890  637.42990   41.24000 2321.65900    0.22710    0.19070    0.22710    1.56880   41.24000  301.63400  301.63400   39.91410   39.91410    1.56880    1.65750    1.65750    0.27880    0.34110    0.27880 2325.01070    9.10670 -104.07320 -116.13750    9.10670
  900.00000  163.20490  155.90690  148.79870  148.79870  594.17710  147.74810 2511.46900    0.11610    -999.25    0.11610    1.68300  147.74810  261.26190  261.26190   72.24270   72.24270    1.68300    1.37180    1.37180    0.21760    -999.25    0.21760 2473.82080    1.84700  -55.62900  -82.28710    1.84700
  950.00000  221.51790  223.29110  213.72140  213.72140  137.99190   40.78640 2687.25700    0.01330    -999.25    0.01330    7.24680   40.78640  251.79920  251.79920   85.17060   85.17060    7.24680    6.74840    6.74840    0.19990    -999.25    0.19990 2684.87650   10.30110  -73.14800 -128.64750   10.30110
 1000.00000  235.12540  204.34430  213.69090  213.69090  238.88580   24.35400 2617.83100    0.05390    -999.25    0.05390    4.18610   24.35400  306.07150  306.07150  115.80200  115.80200    4.18610    3.13760    3.13760    0.29030    -999.25    0.29030 2623.73510    4.97950  -74.97470 -159.31550    4.97950
 1050.00000  226.40240  197.53030  211.72750  211.72750  236.38430   24.03710 2617.14700    0.05430    -999.25    0.05430    4.23040   24.03710  308.22270  308.22270  112.90230  112.90230    4.23040    3.80440    3.80440    0.27270    -999.25    0.27270 2616.40330    5.17020  -76.38350 -189.56560    5.17020
 1100.00000  194.28540  190.37730  184.54320  184.54320   52.85940   10.79140 2640.91600    0.04040    -999.25    0.04040   18.91810   10.79140  209.50590  209.50590   51.86840   51.86840   18.91810    5.21640    5.21640    0.14510    -999.25    0.14510 2626.60280   16.92910  -78.26530 -220.28870   16.92910
 1150.00000  183.55630  186.92810  178.34530  178.34530  106.44070   10.96330 2657.67400    0.03060    -999.25    0.03060    9.39490   10.96330  235.36730  235.36730   49.37060   49.37060    9.39490   10.09540   10.09540    0.16380    -999.25    0.16380 2659.70530   12.38020  -79.34100 -250.20570   12.38020
 1200.00000  185.41970  167.32010  174.49190  174.49190   72.01390    2.82350 2659.89700    0.02930    -999.25    0.02930   13.88620    2.82350  176.50730  176.50730   13.52410   13.52410   13.88620    8.67980    8.67980    0.05980    -999.25    0.05980 2659.22850   15.85300  -62.53160 -262.23760   15.85300
 1250.00000  199.15430  186.73050  187.04360  187.04360   71.13840   36.83590 2705.04100    0.00290    -999.25    0.00290   14.05710   36.83590  203.58020  203.58020   49.49090   49.49090   14.05710    7.49190    7.49190    0.12370    -999.25    0.12370 2703.52810   15.57560  -68.84400 -297.39130   15.57560
 1300.00000  184.23940  170.38620  177.52770  177.52770   34.62140    7.20280 2669.47300    0.02370    -999.25    0.02370   28.88390    7.20280  172.44200  172.44200   18.10560   18.10560   28.88390    8.34530    8.34530    0.05600    -999.25    0.05600 2666.14720   25.10190  -71.62110 -329.00970   25.10190
 1350.00000  191.05610  171.14930  192.08840  192.08840  108.31420   -5.53930 2663.14600    0.02740    -999.25    0.02740    9.23240   -5.53930  175.71190  175.71190   16.12270   16.12270    9.23240    4.88490    4.88490    0.09310    -999.25    0.09310 2642.92330    9.89360  -64.06570 -350.29560    9.89360
 1400.00000  185.17540  191.88790  181.27870  181.27870   17.91570   14.77970 2734.62400   -0.01440    -999.25   -0.01440   55.81690   14.77970  170.16820  170.16820   21.45690   21.45690   55.81690   10.83000   10.83000    0.04160    -999.25    0.04160 2730.91770   59.29600  -68.22660 -383.29780   59.29600
 1450.00000  177.32480  172.79940  173.34490  173.34490   33.01880    2.92110 2678.70700    0.01830    -999.25    0.01830   30.28580    2.92110  191.85010  191.85010   45.01580   45.01580   30.28580    9.93310    9.93310    0.09490    -999.25    0.09490 2679.44090   36.35080  -65.15480 -409.06730   36.35080
 1500.00000  368.86920  371.49370  338.66590  338.66590    1.89960   -1.09860 2002.23100    0.41390    -999.25    0.41390  526.42310   -1.09860  217.00920  217.00920   28.25100   28.25100  526.42310   89.43810   89.43810    0.09330    -999.25    0.09330 2045.54740  125.23770 -103.20710 -475.96090  125.23770
 1550.00000  403.01640  405.00600  371.98830  371.98830   77.91070   40.99810 2065.33000    0.37700    -999.25    0.37700   12.83520   40.99810  228.43530  228.43530   21.43290   21.43290   12.83520    3.92800    3.92800    0.04220    -999.25    0.04220 2052.56880  127.92450 -115.10730 -516.70250  127.92450
