~Version ---------------------------------------------------
VERS.      2.0 : CWLS log ASCII Standard -VERSION 2.0
WRAP.       NO : One line per depth step
CREA. 12/14/17 : LAS Creation Date
~Well ------------------------------------------------------
STRT.FT                   850.0 : START DEPTH
STOP.FT                 12200.0 : STOP DEPTH
STEP.FT                50.00000 : STEP LENGTH
NULL.                   -999.25 : NULL VALUE
COMP. ATLANTIC REFINING COMPANY : COMPANY
WELL.  HB ET AL MARL 6-16-55-18 : WELL
FLD .                           : FIELD
LOC .                           : LOCATION
CTRY.                    CANADA : COUNTRY
SRVC.              Schlumberger : SERVICE COMPANY
DATE.               23-Apr-1959 : LOGDATE
PROV.                   Alberta : PROVINCE
UWI .          100061605518W500 : UNIQUE WELL ID
SLAT.WGS84             53.75017 : SURFACE LATITUDE
SLON.WGS84            -116.6167 : SURFACE LONGITUDE
~Curve Information -----------------------------------------
DEPT   .FT      : Depth Curve
CALWS  .IN      : CALIPER [MCALED]
CILDED .MMHO    : CONDUCTIVITY FROM IE LOG
CNCLSED.V/V     : NEUTRON POROSITY LIMESTONE FROM DENSITY LOG
CONDWS .MMHO    : CONDUCTIVITY [1000/DRESWS]
DRESWS .OHMM    : DEEP RESISTIVITY [ILDED] IF ILDED<1;1000/CILDED;ELSE ILDED
DTED   .US/F    : DELTA TIME FROM SONIC LOG [ADJ TO GRNED]
DTWS   .US/F    : DELTA TIME [DTED]
GRDED  .GAPI    : GAMMA RAY FROM DENSITY LOG
GRED   .GAPI    : GAMMA RAY FROM CBL LOG [ADJ TO GRDED]
GRNED  .CU      : GAMMA RAY FROM GRN LOG LOG [ADJ TO GRDED]
GRSED  .MG/TON  : GAMMA RAY FROM SONIC LOG LOG [ADJ TO GRNED]
GRWS   .GAPI    : GAMMA RAY [SPL GRED 5480' GRDED 8374' GRNED 10882' GRDED, CONVERTED TO GAPI UNIT (8374'-10880')*2.16, (10882'-FR)*16.5]
ILDED  .OHMM    : INDUCTION LOG DEEP RESISTIVITY FROM IE LOG
LL7ED  .OHMM    : LATEROLOG 7 FROM LATEROLOG [ADJ TO ILDED]
LNED   .OHMM    : 64 INCH LONG NORMAL RESISTIVITY FROM EL
LT18ED .OHMM    : LATERAL 18' 8" FROM EL LOG
MCALED .IN      : CALIPER MICROLOG
NEUTED .CU      : NEUTRON FROM GRN LOG [ADJ TO CNCLSED]
NEUTWS .CU      : NEUTRON [NEUTED]
NPOLSWS.V/V     : NEUTRON POROSITY LIMESTONE [CNCLSED]
SN1ED  .OHMM    : 16 INCH SHORT NORMAL RESISTIVITY FROM EL
SNED   .OHMM    : 16 INCH SHORT NORMAL RESISTIVITY FROM IE
SPR1ED .MV      : SPONTANEOUS POTENTIAL FROM EL LOG
SPRED  .MV      : SPONTANEOUS POTENTIAL FROM IE LOG
SPSED  .MV      : SPONTANEOUS POTENTIAL FROM SONIC LOG [ADJ TO GRNED]
SPWS   .MV      : SPONTANEOUS POTENTIAL [BASELINE 0 MV] [SPRED]
SRESWS .OHMM    : SHALLOW RESISTIVITY [SNED]
~Params ----------------------------------------------------
LMF .                     KB : LOG MEASURED FROM
DMF .                     KB : DRILLING MEASURED FROM
EKB .FT                 3203 : KELLY BUSHING
EGL .FT                 3190 : GROUND LEVEL
DATE.               04/23/59 : RUN DATE
RUN .                      3 : RUN NUMBER
DD  .FT                12230 : DEPTH DRILLER
DL  .FT                12233 : DEPTH LOGGER
BLI .FT                12228 : BOTTOM LOG INTERVAL
TLI .FT                10500 : TOP LOG INTERVAL
BS  .IN                8.625 : BIT SIZE
BSD .FT                12230 : BIT SIZE AT DEPTH
DFT .                    GYP : DRILLING FLUID TYPE
DFD .                    9.3 : DRILLING FLUID DENSITY
DFV .                     68 : DRILLING FLUID VISCOSITY
DFPH.                   12.5 : DRILLING FLUID PH
DFL .                    6.8 : DRILLING FLUID LOSS
RMS .OHMM               0.75 : RESISTIVITY MUD SAMPLE
MST .DEGF                 54 : MUD SAMPLE TEMPERATURE
RMF .OHMM               0.35 : RESISTIVITY MUD FILTRATE SAMPLE
MFST.DEGF                 80 : MUD FILTRATE SAMPLE TEMPERATURE
RMC .OHMM               0.72 : RESISTIVITY MUD CAKE
MCST.DEGF                 80 : MUD CAKE SAMPLE TEMPERATURE
RMB .OHMM               0.75 : RESISTIVITY MUD AT BHT
TCS .HRS                 3.5 : TIME CIRCULATED STOPPED
LUN .                   1571 : LOGGING UNIT NUMBER
LUL .                    EDM : LOGGING UNIT LOCATION
ENGI.                REBYRNA : RECORDING ENGINEER
WITN.                  EVANS : WITNESSED BY
CLNT.                A2DTECH : CLIENT CODE
ORIG.            2" 5" PRINT : ORIGIN OF DATA
UWI .       100061605518W500 : UNIQUE WELL ID
DICO. A2D Technologies, Inc. : DIGITIZING COMPANY
~Other -----------------------------------------------------
IE-EL-LL/ML/CNL/GRN/CBL/SONIC LOGS RUN
~ASCII -----------------------------------------------------
# ...
 6050.00000   15.07450   85.09010    0.58410   84.59130   11.82150    -999.25    -999.25   38.03540   54.74010    -999.25    -999.25   38.03540   11.82160    -999.25    -999.25    -999.25   15.07450    -999.25    -999.25    0.58410    -999.25   13.50260    -999.25  -34.89520    -999.25   -8.90320   13.50260
 6100.00000   14.01310   74.23330    0.47290   74.57840   13.40870    -999.25    -999.25   43.39250   57.03590    -999.25    -999.25   43.39250   13.40870    -999.25    -999.25    -999.25   14.01310    -999.25    -999.25    0.47290    -999.25   15.29720    -999.25  -32.81930    -999.25   -7.79680   15.29720
 6150.00000   14.33900   88.52050    0.57190   92.72570   10.78450    -999.25    -999.25   39.17840   59.41940    -999.25    -999.25   39.17840   10.78450    -999.25    -999.25    -999.25   14.33900    -999.25    -999.25    0.57190    -999.25   12.74670    -999.25  -29.44560    -999.25   -5.38770   12.74670
 6200.00000   14.84610   83.84810    0.57280   82.78560   12.07940    -999.25    -999.25   39.37880   65.44040    -999.25    -999.25   39.37880   12.07940    -999.25    -999.25    -999.25   14.84610    -999.25    -999.25    0.57280    -999.25   14.31240    -999.25  -30.81820    -999.25   -7.72500   14.31240
 6250.00000   13.90440   99.07760    0.65530  103.15550    9.69410    -999.25    -999.25   44.91670   64.47060    -999.25    -999.25   44.91670    9.69410    -999.25    -999.25    -999.25   13.90440    -999.25    -999.25    0.65530    -999.25   12.41300    -999.25  -26.81820    -999.25   -4.68960   12.41300
 6300.00000   13.73240   91.32390    0.56650   95.22680   10.50120    -999.25    -999.25   41.86280   64.67980    -999.25    -999.25   41.86270   10.50120    -999.25    -999.25    -999.25   13.73240    -999.25    -999.25    0.56650    -999.25   14.13140    -999.25  -26.58530    -999.25   -5.41650   14.13140
 6350.00000   13.66830   92.24310    0.62320   94.25430   10.60960    -999.25    -999.25   45.47490   71.18260    -999.25    -999.25   45.47490   10.60960    -999.25    -999.25    -999.25   13.66830    -999.25    -999.25    0.62320    -999.25   14.17030    -999.25  -23.65910    -999.25   -3.45980   14.17030
 6400.00000   13.12600   78.30130    0.61290   78.36250   12.76120    -999.25    -999.25   45.42140   69.31140    -999.25    -999.25   45.42140   12.76120    -999.25    -999.25    -999.25   13.12600    -999.25    -999.25    0.61290    -999.25   16.79380    -999.25  -20.03460    -999.25   -0.79990   16.79380
 6450.00000   13.49730   92.06850    0.62440   93.03540   10.74860    -999.25    -999.25   43.89670   59.62450    -999.25    -999.25   43.89670   10.74860    -999.25    -999.25    -999.25   13.49730    -999.25    -999.25    0.62440    -999.25   14.63460    -999.25  -22.45820    -999.25   -4.18810   14.63460
 6500.00000   12.60060   60.12480    0.58610   59.18180   16.89710    -999.25    -999.25   45.38190   61.34440   29.04390    -999.25   45.38190   16.89710    -999.25    -999.25    -999.25   12.60060 1051.33170 1051.33170    0.58610    -999.25   22.72910    -999.25  -20.27270    -999.25   -3.38200   22.72910
 6550.00000   14.02820   65.77340    0.63820   64.44110   15.51800    -999.25    -999.25   54.94340   61.40890   28.47620    -999.25   54.94350   15.51800    -999.25    -999.25    -999.25   14.02820 1141.25880 1141.25880    0.63820    -999.25   21.38340    -999.25  -21.75480    -999.25   -8.11640   21.38340
 6600.00000   13.89540   61.13930    0.57020   59.49550   16.80800    -999.25    -999.25   51.21530   69.14140   29.30980    -999.25   51.21530   16.80800    -999.25    -999.25    -999.25   13.89540 1152.04680 1152.04680    0.57020    -999.25   23.31540    -999.25  -18.41860    -999.25   -8.06530   23.31540
 6650.00000   12.41740   36.31710    0.68970   34.67860   28.83620    -999.25    -999.25   47.49020   71.99270   29.19780    -999.25   47.49020   28.83620    -999.25    -999.25    -999.25   12.41740 1175.54500 1175.54500    0.68970    -999.25   38.65280    -999.25  -12.18250    -999.25   -4.83110   38.65280
 6700.00000   12.38100   79.47430    0.62980   78.77370   12.69460    -999.25    -999.25   49.12510   69.76710   28.74640    -999.25   49.12510   12.69460    -999.25    -999.25    -999.25   12.38100 1188.90420 1188.90420    0.62980    -999.25   18.51330    -999.25  -12.40690    -999.25   -1.65420   18.51330
 6750.00000   12.63680   55.54950    0.56100   54.25550   18.43130    -999.25    -999.25   43.49430   90.72720   25.51640    -999.25   43.49430   18.43130    -999.25    -999.25    -999.25   12.63680 1225.55270 1225.55270    0.56100    -999.25   26.71790    -999.25  -15.56070    -999.25   -1.40680   26.71790
 6800.00000   15.14990  189.18280    0.43070  178.58100    5.59970    -999.25    -999.25   53.11140    -999.25   35.81070    -999.25   53.11130    5.59970    9.57600   12.30810    -999.25   15.14990 1209.78860 1209.78860    0.43070   11.48010    3.03260  -33.68440  -31.05650    -999.25   -7.22520    3.03260
 6850.00000   11.01220  141.89610    0.23360  135.36380    7.38750    -999.25    -999.25   43.89190    -999.25   25.12450    -999.25   43.89190    7.38750   11.53340   12.65770    6.65480   11.01220 1906.72940 1906.72940    0.23360   11.10770    2.81620  -32.74250  -31.91680    -999.25   -4.53770    2.81620
 6900.00000   10.40100  218.86320    0.38070  212.22410    4.71200    -999.25    -999.25   71.35310    -999.25   39.18020    -999.25   71.35310    4.71200    7.67550   11.49910    9.69510   10.40100 1442.17160 1442.17160    0.38070   13.60410    2.79280  -33.67230  -29.19440    -999.25   -3.66680    2.79280
 6950.00000   10.33540  114.13480    0.27930  107.24670    9.32430    -999.25    -999.25   57.96810    -999.25   37.75810    -999.25   57.96810    9.32430   14.82110   14.25870   10.55390   10.33540 1674.32690 1674.32690    0.27930   14.50150    3.41980  -32.69590  -26.64750    -999.25   -2.97140    3.41980
 7000.00000   10.66620  112.68130    0.40640  108.30830    9.23290    -999.25    -999.25   59.99760    -999.25   36.72490    -999.25   59.99760    9.23290   14.90720   11.69490   12.02470   10.66620 1351.20680 1351.20680    0.40640   12.06950    2.93530  -32.36330  -26.71570    -999.25   -4.89110    2.93530
 7050.00000   11.10090  148.68730    0.44820  144.40950    6.92470    -999.25    -999.25   52.68860    -999.25   34.24560    -999.25   52.68870    6.92470   10.94520   10.72080   11.45210   11.10090 1155.80090 1155.80090    0.44820   11.23230    2.40050  -32.82500  -22.66220    -999.25   -2.67980    2.40050
 7100.00000   11.19360  153.16530    0.48980  139.85620    7.15020    -999.25    -999.25   66.00530    -999.25   38.30320    -999.25   66.00530    7.15020    9.44070   10.06130    9.71780   11.19360 1273.11190 1273.11190    0.48980   11.35130    2.86230  -32.17870  -29.63880    -999.25   -9.14790    2.86230
 7150.00000   13.31980  322.51530    0.59680  348.56570    2.86890    -999.25    -999.25   49.61400    -999.25   34.55750    -999.25   49.61400    2.86890    6.30010    5.70840    4.78340   13.31980 1069.10310 1069.10310    0.59680    6.06360    1.48650  -31.25660  -27.40530    -999.25   -5.87660    1.48650
 7200.00000   11.12100  174.93830    0.50580  174.80380    5.72070    -999.25    -999.25   61.42290    -999.25   37.11660    -999.25   61.42290    5.72070    9.60970   10.12820    7.08660   11.12100 1095.88090 1095.88090    0.50580   10.18580    2.11710  -31.52000  -25.18860    -999.25   -2.62200    2.11710
 7250.00000    8.86540   43.50380    0.13650   36.27540   27.56690    -999.25    -999.25   40.55780    -999.25   25.82510    -999.25   40.55780   27.56690   43.37540   48.28900   10.82340    8.86540 1995.43910 1995.43910    0.13650   38.73120    6.50030  -34.40900  -28.73370    -999.25   -5.12930    6.50030
 7300.00000   11.90200  236.41900    0.53790  245.38070    4.07530    -999.25    -999.25   60.76850    -999.25   35.40060    -999.25   60.76850    4.07530    8.99620    7.31550   16.57190   11.90200 1088.19030 1088.19030    0.53790    5.42060    2.09240  -30.48100  -26.27240    -999.25   -1.63540    2.09240
