~Version ---------------------------------------------------
VERS.      2.0 : CWLS log ASCII Standard -VERSION 2.0
WRAP.       NO : One line per depth step
CREA. 10/06/17 : LAS Creation Date
~Well ------------------------------------------------------
STRT.FT                        300.0 : START DEPTH
STOP.FT                       6300.0 : STOP DEPTH
STEP.FT                     50.00000 : STEP LENGTH
NULL.                        -999.25 : NULL VALUE
COMP.       DOW CHEMICAL CANADA INC. : COMPANY
WELL. DOW 103B FTSASK NACL 14-11-55- : WELL
FLD .                                : FIELD
LOC .                                : LOCATION
CTRY.                         CANADA : COUNTRY
SRVC.                        Unknown : SERVICE COMPANY
DATE.                    04-Mar-1977 : LOGDATE
PROV.                        Alberta : PROVINCE
UWI .               106141105522W400 : UNIQUE WELL ID
SLAT.WGS84                   53.7424 : SURFACE LATITUDE
SLON.WGS84                 -113.1655 : SURFACE LONGITUDE
~Curve Information -----------------------------------------
DEPT   .FT    : Depth Curve
CALDED .IN    : CALIPER FROM DENSITY FROM DENSITY LOG
CALWS  .IN    : CALIPER [CALDED]
CORRED .G/C3  : DENSITY CORRECTION FROM DENSITY LOG
DCORWS .G/C3  : DENSITY CORRECTION [CORRED]
DENWS  .G/C3  : FORMATION BULK DENSITY [RHOBED]
DPOLSWS.V/V   : DENSITY POROSITY LIMESTONE [ CALC. FROM DENWS, ASSUMED M=2.71, F=1.0]
GRDED  .GAPI  : GAMMA RAY FROM DENSITY LOG
GRNED  .GAPI  : GAMMA RAY FROM  NEUTRON LOG [ADJ. TO DENSITY LOG]
GRWS   .GAPI  : GAMMA RAY [GRDED SPL. TO GRNED @ 690']
NEUTED .NAPI  : NEUTRON FROM NEUTRON LOG [ADJ. TO DENSITY LOG]
NEUTWS .NAPI  : NEUTRON [NEUTED]
RHOBED .G/C3  : BULK DENSITY FROM DENSITY LOG
~Params ----------------------------------------------------
PD  .                     GL : PERMANENT DATUM
EPD .FT               2059.1 : ELEVATION PERMANENT DATUM
LMF .                     KB : LOG MEASURED FROM
DAPD.FT                 18.5 : FEET ABOVE PERMANENT DATUM
DMF .                     KB : DRILLING MEASURED FROM
EKB .FT               2076.6 : KELLY BUSHING
EGL .FT               2059.1 : GROUND LEVEL
DATE.               03/04/77 : RUN DATE
RUN .                      1 : RUN NUMBER
DD  .FT                 6320 : DEPTH DRILLER
DL  .FT                 6322 : DEPTH LOGGER
BLI .FT                 6320 : BOTTOM LOG INTERVAL
TLI .FT                  694 : TOP LOG INTERVAL
CS  .IN                   16 : CASING SIZE
CBD .FT                  700 : CASING BOTTOM DRILLER
BS  .IN                14.75 : BIT SIZE
BSD .FT                 6320 : BIT SIZE AT DEPTH
DFT .               SALT GEL : DRILLING FLUID TYPE
TCS .HRS                   3 : TIME CIRCULATED STOPPED
ENGI.               FRENETTE : RECORDING ENGINEER
WITN.                  PASNA : WITNESSED BY
CLNT.                A2DTECH : CLIENT CODE
ORIG.            2" 5" PRINT : ORIGIN OF DATA
UWI .       106141105522W400 : UNIQUE WELL ID
DICO. A2D Technologies, Inc. : DIGITIZING COMPANY
~Other -----------------------------------------------------
GRN-DEN LOG RAN
~ASCII -----------------------------------------------------
# ...
 3100.00000   17.38450   17.38450    0.10630    0.10630    2.47430    0.13780   82.10840  103.11010   82.10840  123.29610  123.29610    2.47430
 3150.00000   15.14880   15.14880    0.09750    0.09750    2.42400    0.16730   64.77860   80.81750   64.77860  146.65120  146.65120    2.42400
 3200.00000   14.69510   14.69510    0.02490    0.02490    2.25640    0.26530   47.44800   54.72680   47.44800  103.49140  103.49140    2.25640
 3250.00000   17.33590   17.33590    0.08880    0.08880    2.60390    0.06200   38.53240   49.24770   38.53240   63.21370   63.21370    2.60390
 3300.00000   16.18230   16.18230    0.04890    0.04890    2.50260    0.12130   33.29550   45.25060   33.29550   69.50280   69.50280    2.50260
 3350.00000   15.18050   15.18050    0.07640    0.07640    2.51720    0.11270   29.41440   41.65680   29.41440   61.86020   61.86020    2.51720
 3400.00000   16.97070   16.97070    0.03900    0.03900    2.61160    0.05760   80.62700   82.14730   80.62700   42.55720   42.55720    2.61160
 3450.00000   15.21630   15.21630    0.06390    0.06390    2.65350    0.03300   35.18410   49.63880   35.18410  366.02730  366.02730    2.65350
 3500.00000   15.34390   15.34390    0.04140    0.04140    2.64550    0.03770   27.52550   42.58370   27.52550  262.02000  262.02000    2.64550
 3550.00000   14.36570   14.36570    0.09020    0.09020    2.56390    0.08550   32.41700   46.37100   32.41700  194.92780  194.92780    2.56390
 3600.00000   14.53440   14.53440    0.03550    0.03550    2.66790    0.02460   60.14550   78.45320   60.14550   78.34340   78.34340    2.66790
 3650.00000   14.51590   14.51590    0.07700    0.07700    2.68660    0.01370   71.84760   87.09650   71.84760   41.57100   41.57100    2.68660
 3700.00000   14.43430   14.43430    0.01140    0.01140    2.53840    0.10040   77.81880   80.24510   77.81880  107.20310  107.20310    2.53840
 3750.00000   14.06170   14.06170    0.02820    0.02820    2.61410    0.05610   76.90090   92.84670   76.90090  157.75240  157.75240    2.61410
 3800.00000   18.56670   18.56670   -0.12320   -0.12320    1.38930    0.77230   63.34620   74.13290   63.34620  114.00260  114.00260    1.38930
 3850.00000   15.03170   15.03170    0.03140    0.03140    2.47740    0.13600   93.61750  107.46930   93.61750  210.13260  210.13260    2.47740
 3900.00000   19.38880   19.38880   -0.01370   -0.01370    1.47610    0.72160   70.26990   80.40070   70.26990   27.61460   27.61460    1.47610
 3950.00000   15.85690   15.85690    0.00130    0.00130    2.64940    0.03540   88.74020   97.22480   88.74020  224.97090  224.97090    2.64940
 4000.00000   15.13760   15.13760   -0.00490   -0.00490    2.61260    0.05700   75.23680   87.42510   75.23680  248.00520  248.00520    2.61260
 4050.00000   15.63220   15.63220    0.00650    0.00650    2.61940    0.05300   98.09730  111.16750   98.09730  176.61720  176.61720    2.61940
 4100.00000   14.72340   14.72340   -0.00320   -0.00320    2.65330    0.03320   51.19540   66.64090   51.19540  345.90850  345.90850    2.65330
 4150.00000   16.21960   16.21960    0.01810    0.01810    2.62460    0.04990   54.09250   68.70500   54.09250  302.78870  302.78870    2.62460
 4200.00000   14.57250   14.57250    0.00480    0.00480    2.65290    0.03340   58.26990   74.39830   58.26990  377.27540  377.27540    2.65290
 4250.00000   15.40900   15.40900    0.01130    0.01130    2.58400    0.07370   96.76540  112.23130   96.76540  254.60950  254.60950    2.58400
 4300.00000   15.21200   15.21200    0.00770    0.00770    2.67080    0.02300   31.01160   53.14640   31.01160  501.27260  501.27260    2.67080
 4350.00000   15.72570   15.72570    0.02650    0.02650    2.66210    0.02800   54.84830   67.58720   54.84830  447.43840  447.43840    2.66210
 4400.00000   14.41750   14.41750    0.03770    0.03770    2.62750    0.04820   30.50700   44.99150   30.50700  524.72920  524.72920    2.62750
 4450.00000   14.80050   14.80050    0.06560    0.06560    2.52900    0.10580   24.29550   40.09920   24.29550  228.39420  228.39420    2.52900
 4500.00000   14.03110   14.03110    0.03790    0.03790    2.61770    0.05400   27.71880   44.70910   27.71880  186.36420  186.36420    2.61770
 4550.00000   14.19520   14.19520    0.01680    0.01680    2.68080    0.01710   23.82510   39.86850   23.82510  174.72610  174.72610    2.68080
 4600.00000   14.63930   14.63930    0.01660    0.01660    2.65060    0.03470   27.90900   41.85970   27.90900   65.16980   65.16980    2.65060
 4650.00000   14.94880   14.94880    0.00060    0.00060    2.69190    0.01060   29.85350   47.62140   29.85350   68.74760   68.74760    2.69190
 4700.00000   14.95030   14.95030    0.00590    0.00590    2.67840    0.01850   49.23150   56.66310   49.23150   66.35550   66.35550    2.67840
 4750.00000   14.29900   14.29900    0.00020    0.00020    2.68410    0.01510   48.50150   52.56310   48.50150   72.61950   72.61950    2.68410
 4800.00000   14.36110   14.36110    0.00160    0.00160    2.67250    0.02200   54.62000   60.42760   54.62000   80.15640   80.15640    2.67250
 4850.00000   14.04240   14.04240    0.00360    0.00360    2.66640    0.02550   37.10820   49.27610   37.10820  168.96660  168.96660    2.66640
 4900.00000   15.20390   15.20390    0.03400    0.03400    2.69370    0.00950   28.30730   43.74070   28.30730  681.58090  681.58090    2.69370
 4950.00000   14.76640   14.76640    0.04760    0.04760    2.61820    0.05370   24.43380   36.89140   24.43380  454.56470  454.56470    2.61820
 5000.00000   15.22990   15.22990    0.03360    0.03360    2.68030    0.01740   46.47020   68.80700   46.47020  464.73770  464.73770    2.68030
 5050.00000   15.01620   15.01620    0.01680    0.01680    2.69230    0.01030   53.73360   71.91400   53.73360  377.22660  377.22660    2.69230
 5100.00000   14.97490   14.97490    0.02850    0.02850    2.69090    0.01120   47.73130   65.93220   47.73130  340.35080  340.35080    2.69090
 5150.00000   15.38980   15.38980    0.01730    0.01730    2.67140    0.02250   20.87730   37.13780   20.87730  391.88580  391.88580    2.67140
 5200.00000   14.58060   14.58060    0.00590    0.00590    2.70780    0.00130   43.39940   54.14690   43.39940  412.82430  412.82430    2.70780
 5250.00000   15.56800   15.56800    0.07330    0.07330    2.22520    0.28350  102.63630  114.15150  102.63630  210.09120  210.09120    2.22520
 5300.00000   16.67670   16.67670   -0.03900   -0.03900    1.77400    0.54740   75.45740   84.71100   75.45740  218.39220  218.39220    1.77400
 5350.00000   14.37420   14.37420    0.00970    0.00970    2.48510    0.13150   51.22570   66.58300   51.22570  218.31650  218.31650    2.48510
 5400.00000   15.13530   15.13530    0.04660    0.04660    2.69830    0.00680   57.85640   69.32360   57.85640  284.81120  284.81120    2.69830
 5450.00000   20.00000   20.00000   -0.02110   -0.02110    1.46700    0.72690   21.38120   42.49560   21.38120   54.43730   54.43730    1.46700
 5500.00000   20.00000   20.00000   -0.02480   -0.02480    1.45940    0.73130   39.84040   62.89220   39.84040   78.98780   78.98780    1.45940
 5550.00000   20.00000   20.00000   -0.02240   -0.02240    1.46580    0.72760   28.97630   52.07100   28.97630   49.73430   49.73430    1.46580
 5600.00000   19.71340   19.71340    0.06810    0.06810    1.89670    0.47560   43.71740   68.27870   43.71740  188.34010  188.34010    1.89670
 5650.00000   20.00000   20.00000   -0.01600   -0.01600    1.46290    0.72930   26.65420   46.53970   26.65420   47.65580   47.65580    1.46290
 5700.00000   16.98740   16.98740    0.04260    0.04260    2.49800    0.12400   99.37320  105.18960   99.37320  132.67480  132.67480    2.49800
 5750.00000   16.50890   16.50890    0.06810    0.06810    2.19170    0.30310   91.93240  100.13200   91.93240  162.34370  162.34370    2.19170
 5800.00000   15.26030   15.26030    0.03160    0.03160    2.69610    0.00820   26.97490   42.98550   26.97490  366.98690  366.98690    2.69610
 5850.00000   15.26100   15.26100    0.00550    0.00550    2.71360   -0.00210   71.20950   78.84570   71.20950  259.82040  259.82040    2.71360
