~Version ---------------------------------------------------
VERS.      2.0 : CWLS log ASCII Standard -VERSION 2.0
WRAP.       NO : One line per depth step
CREA. 10/26/17 : LAS Creation Date
~Well ------------------------------------------------------
STRT.FT                     850.0 : START DEPTH
STOP.FT                    9900.0 : STOP DEPTH
STEP.FT                  50.00000 : STEP LENGTH
NULL.                     -999.25 : NULL VALUE
COMP. SHELL CANADA RESOURCES LTD. : COMPANY
WELL.   SHELL MAHASKA 11-33-56-13 : WELL
FLD .                             : FIELD
LOC .                             : LOCATION
CTRY.                      CANADA : COUNTRY
SRVC.                Schlumberger : SERVICE COMPANY
DATE.                 12-May-1977 : LOGDATE
PROV.                     Alberta : PROVINCE
UWI .            100113305613W500 : UNIQUE WELL ID
SLAT.WGS84               53.88568 : SURFACE LATITUDE
SLON.WGS84              -115.8759 : SURFACE LONGITUDE
~Curve Information -----------------------------------------
DEPT    .FT    : Depth Curve
CALSED  .IN    : CALIPER FROM SONIC LOG
CALWS   .IN    : CALIPER [CALSED]
CONDWS  .MMHO  : CONDUCTIVITY [1000/DRESWS]
DCORWS  .G/C3  : DENSITY CORRECTION [DRHOED]
DENWS   .G/C3  : BULK DENSITY [M=2.71, F=1.00] [RHOBED]
DPHILSED.V/V   : DENSITY POROSITY [M=2.71, F=1.00] FROM DENSITY LOG [DEP. ADJ. TO GRSED]
DPHISSED.V/V   : DENSITY POROSITY [M=2.65, F=1.00] FROM DENSITY LOG [DEP. ADJ. TO GRSED]
DPOLSWS .V/V   : DENSITY POROSITY [M=2.71, F=1.00] [CAL. FROM DENWS]
DRESWS  .OHMM  : DEEP RESISTIVITY [LLDED]
DRHOED  .G/C3  : DENSITY CORRECTION FROM DENSITY LOG [DEP. ADJ. TO GRSED]
DTED    .US/F  : DELTA TIME FROM SONIC LOG
DTWS    .US/F  : DELTA TIME [DTED]
GRDED   .GAPI  : GAMMA RAY FROM DENSITY LOG [DEP. ADJ. TO GRSED]
GRSED   .GAPI  : GAMMA RAY FROM SONIC LOG
GRWS    .GAPI  : GAMMA RAY [GRSED]
LLDED   .OHMM  : LATEROLOG DEEP RESISTIVITY  [READINGS >2000 ARE REDUCED TO 2000 OHMM]
LLSED   .OHMM  : LATEROLOG SHALLOW RESISTIVITY [READINGS >2000 ARE REDUCED TO 2000 OHMM]
NPHILSED.V/V   : NEUTRON POROSITY LIMESTONE FROM DENSITY LOG [DEP. ADJ. TO GRSED]
NPHISSED.V/V   : NEUTRON POROSITY SANDSTONE FROM DENSITY LOG [DEP. ADJ. TO GRSED]
NPOLSWS .V/V   : NEUTRON POROSITY LIMESTONE [1007' NPOLSCAL [CONV. FROM NPHISSED] 6161' NPHILSED]
RHOBED  .G/C3  : BULK DENSITY FROM DENSITY LOG [DEP. ADJ. TO GRSED]
SRESWS  .OHMM  : SHALLOW RESISTIVITY [LLSED]
~Params ----------------------------------------------------
PD  .                     GL : PERMANENT DATUM
EPD .FT                 2626 : ELEVATION PERMANENT DATUM
LMF .                     KB : LOG MEASURED FROM
DAPD.FT                 21.2 : FEET ABOVE PERMANENT DATUM
EKB .FT               2647.2 : KELLY BUSHING
EGL .FT                 2626 : GROUND LEVEL
DATE.               05/12/77 : RUN DATE
RUN .                      2 : RUN NUMBER
DD  .FT                 9950 : DEPTH DRILLER
DL  .FT                 9947 : DEPTH LOGGER
BLI .FT                 9931 : BOTTOM LOG INTERVAL
TLI .FT                 8800 : TOP LOG INTERVAL
CBD .FT                 1026 : CASING BOTTOM DRILLER
BS  .IN                 8.75 : BIT SIZE
BSD .FT                 9950 : BIT SIZE AT DEPTH
DFT .                    KCL : DRILLING FLUID TYPE
DFD .                    8.9 : DRILLING FLUID DENSITY
DFV .                     65 : DRILLING FLUID VISCOSITY
DFPH.                   10.5 : DRILLING FLUID PH
MSS .             CIRCULATED : MUD SAMPLE SOURCE
RMS .OHMM               0.28 : RESISTIVITY MUD SAMPLE
MST .DEGF                 76 : MUD SAMPLE TEMPERATURE
RMF .OHMM               0.12 : RESISTIVITY MUD FILTRATE SAMPLE
MFST.DEGF                186 : MUD FILTRATE SAMPLE TEMPERATURE
RMB .OHMM               0.19 : RESISTIVITY MUD AT BHT
TCS .HRS                   1 : TIME CIRCULATED STOPPED
LUN .              OSU C 308 : LOGGING UNIT NUMBER
LUL .                    EDM : LOGGING UNIT LOCATION
ENGI.                   BIGG : RECORDING ENGINEER
WITN.                   WEBB : WITNESSED BY
CLNT.                A2DTECH : CLIENT CODE
ORIG.            2" 5" PRINT : ORIGIN OF DATA
UWI .       100113305613W500 : UNIQUE WELL ID
DICO. A2D Technologies, Inc. : DIGITIZING COMPANY
~Other -----------------------------------------------------
~ASCII -----------------------------------------------------
# ...
 7250.00000    9.54220    9.54220    2.27040    0.20380    2.63640    0.02810    -999.25    0.04300  440.44590    0.20380   49.90890   49.90890   13.24500   17.72250   17.72250  440.44590  164.78870    0.00280    -999.25    0.00280    2.63640  164.78870
 7300.00000    9.65030    9.65030    0.56280    0.21520    2.66920    0.02510    -999.25    0.02390 1776.81080    0.21520   49.85660   49.85660   11.82000   16.60190   16.60190 1776.81080  149.76500   -0.00040    -999.25   -0.00040    2.66920  149.76500
 7350.00000    9.82850    9.82850    1.76110    0.19410    2.65160    0.03000    -999.25    0.03420  567.81200    0.19410   48.57940   48.57940   14.20500   16.72170   16.72170  567.81200  195.94890   -0.00020    -999.25   -0.00020    2.65160  195.94890
 7400.00000    9.86620    9.86620    5.25790    0.25090    2.53940    0.09720    -999.25    0.09980  190.19140    0.25090   50.58610   50.58610   12.72000   19.98240   19.98240  190.19140  140.88690    0.00890    -999.25    0.00890    2.53940  140.88690
 7450.00000    9.22790    9.22790    3.14690    0.03010    2.72910   -0.01480    -999.25   -0.01120  333.15470    0.03010   48.47580   48.47580   10.50750   15.96610   15.96610  333.15470  195.41880    0.00420    -999.25    0.00420    2.72910  195.41880
 7500.00000    9.51590    9.51590    0.50000    0.18910    2.72700   -0.01670    -999.25   -0.00990 2000.00000    0.18910   48.44260   48.44260   13.78500   19.64610   19.64610 2000.00000  414.79760    0.00180    -999.25    0.00180    2.72700  414.79760
 7550.00000   10.04950   10.04950    0.50000    0.25240    2.60040    0.06520    -999.25    0.06410 2000.00000    0.25240   48.41410   48.41410   19.29000   23.30330   23.30330 2000.00000  274.36070    0.00420    -999.25    0.00420    2.60040  274.36070
 7600.00000    9.49090    9.49090    1.58280    0.21950    2.67450    0.02820    -999.25    0.02080  631.78740    0.21950   48.52540   48.52540   14.49000   23.45390   23.45390  631.78740  293.53830   -0.00180    -999.25   -0.00180    2.67450  293.53830
 7650.00000    9.58080    9.58080    1.32210    0.24290    2.44380    0.15980    -999.25    0.15570  756.38010    0.24290   48.71880   48.71880   11.50500   16.56160   16.56160  756.38010  199.32410    0.00180    -999.25    0.00180    2.44380  199.32410
 7700.00000    9.57830    9.57830    2.08680    0.10250    2.60150    0.05750    -999.25    0.06350  479.26090    0.10250   48.72420   48.72420   14.18250   16.66560   16.66560  479.26090  243.00660    0.00540    -999.25    0.00540    2.60150  243.00660
 7750.00000    8.91510    8.91510   10.85880    0.09810    2.75010   -0.02580    -999.25   -0.02350   92.09150    0.09810   48.93180   48.93180   18.81000   19.29900   19.29900   92.09150   81.41770    0.05020    -999.25    0.05020    2.75010   81.41770
 7800.00000    9.15580    9.15580    5.52910    0.02470    2.82020   -0.06770    -999.25   -0.06440  180.85990    0.02470   49.90580   49.90580   27.31500   27.71680   27.71680  180.85990  141.69830    0.03090    -999.25    0.03090    2.82020  141.69830
 7850.00000    8.82330    8.82330   15.32060    0.00140    2.72030   -0.00820    -999.25   -0.00600   65.27150    0.00140   51.81680   51.81680   29.86500   30.65730   30.65730   65.27150   93.64160    0.06290    -999.25    0.06290    2.72030   93.64160
 7900.00000    8.91920    8.91920   20.46280    0.25030    2.53820    0.10720    -999.25    0.10050   48.86910    0.25030   52.35830   52.35830   23.35500   25.97650   25.97650   48.86910   41.86590    0.12080    -999.25    0.12080    2.53820   41.86590
 7950.00000    9.70840    9.70840    8.01340    -999.25    2.65130    0.03430    -999.25    0.03430  124.96370    -999.25   50.18390   50.18390   25.12500   29.34690   29.34690  124.96370   98.13180    0.07630    -999.25    0.07630    2.65130   98.13180
 8000.00000    8.96410    8.96410    8.19630    0.01240    2.74830   -0.02940    -999.25   -0.02240  122.00670    0.01240   51.76740   51.76740   36.13500   45.26390   45.26390  122.00670  127.45010    0.03500    -999.25    0.03500    2.74830  127.45010
 8050.00000    9.02950    9.02950   24.51120   -0.01280    2.68280    0.01320    -999.25    0.01590   40.79770   -0.01280   55.72560   55.72560   43.41000   52.42910   52.42910   40.79770   47.04700    0.05110    -999.25    0.05110    2.68280   47.04700
 8100.00000    9.09100    9.09100   37.05580    0.00060    2.69290    0.00860    -999.25    0.01000   26.98630    0.00060   58.73790   58.73790   59.58750   61.14200   61.14200   26.98630   31.54900    0.08080    -999.25    0.08080    2.69290   31.54900
 8150.00000    9.03430    9.03430   59.04200    0.01120    2.67900    0.00910    -999.25    0.01810   16.93710    0.01120   61.31060   61.31060   58.17000   65.10540   65.10540   16.93710   19.49850    0.11300    -999.25    0.11300    2.67900   19.49850
 8200.00000    9.11610    9.11610   78.70050    0.00820    2.66320    0.02270    -999.25    0.02740   12.71260    0.00820   64.43310   64.43310   72.12000   76.46700   76.46700   12.71260   14.27900    0.14390    -999.25    0.14390    2.66320   14.27900
 8250.00000   14.03130   14.03130  183.01280    0.24890    2.26840    0.26480    -999.25    0.25820    5.46410    0.24890   80.64090   80.64090   98.44500  107.77490  107.77490    5.46410    5.63720    0.32830    -999.25    0.32830    2.26840    5.63720
 8300.00000    9.35040    9.35040  132.08120    0.01240    2.63320    0.04010    -999.25    0.04490    7.57110    0.01240   73.49040   73.49040   95.71500   99.42250   99.42250    7.57110    9.02980    0.22790    -999.25    0.22790    2.63320    9.02980
 8350.00000    9.10000    9.10000   13.18620   -0.00140    2.69140    0.00540    -999.25    0.01090   75.83700   -0.00140   55.10930   55.10930   46.09500   41.32340   41.32340   75.83700   86.77000    0.05000    -999.25    0.05000    2.69140   86.77000
 8400.00000    9.66940    9.66940  114.16050    0.25050    2.38060    0.19930    -999.25    0.19260    8.75960    0.25050   72.42220   72.42220   92.08500   94.25200   94.25200    8.75960   10.01890    0.23700    -999.25    0.23700    2.38060   10.01890
 8450.00000   11.71770   11.71770  180.87730    0.24120    2.39120    0.18530    -999.25    0.18640    5.52930    0.24120   79.36310   79.36310  107.17500  114.33660  114.33660    5.52930    6.36330    0.32830    -999.25    0.32830    2.39120    6.36330
 8500.00000    8.95500    8.95500   52.79220    0.01390    2.69030    0.00970    -999.25    0.01150   18.94220    0.01390   62.88550   62.88550   78.46500   74.81990   74.81990   18.94220   21.73220    0.12820    -999.25    0.12820    2.69030   21.73220
 8550.00000    9.10970    9.10970   96.05870    0.00180    2.66580    0.01800    -999.25    0.02580   10.41030    0.00180   69.75690   69.75690  101.67000  112.33610  112.33610   10.41030   11.95970    0.19730    -999.25    0.19730    2.66580   11.95970
 8600.00000    9.12180    9.12180   69.71700   -0.01220    2.66760    0.01660    -999.25    0.02480   14.34370   -0.01220   65.80660   65.80660   87.60000   91.40130   91.40130   14.34370   16.67090    0.16030    -999.25    0.16030    2.66760   16.67090
 8650.00000    9.07070    9.07070  101.36950    0.00950    2.65580    0.02690    -999.25    0.03170    9.86490    0.00950   69.02390   69.02390   96.51000  100.16000  100.16000    9.86490   11.90930    0.20080    -999.25    0.20080    2.65580   11.90930
 8700.00000    9.08730    9.08730   50.62250   -0.00020    2.67440    0.01490    -999.25    0.02080   19.75870   -0.00020   62.62600   62.62600   77.00250   81.37660   81.37660   19.75870   22.90680    0.13530    -999.25    0.13530    2.67440   22.90680
 8750.00000    9.01810    9.01810   77.53740    0.06220    2.71540   -0.00280    -999.25   -0.00320   12.89700    0.06220   67.74910   67.74910   92.13000   96.56280   96.56280   12.89700   13.67340    0.18070    -999.25    0.18070    2.71540   13.67340
 8800.00000    8.98620    8.98620   79.85500    0.05140    2.72410   -0.00810    -999.25   -0.00820   12.52270    0.05140   70.87410   70.87410  109.05000  102.92730  102.92730   12.52270   13.04120    0.20240    -999.25    0.20240    2.72410   13.04120
