~Version ---------------------------------------------------
VERS. 2.0 : CWLS log ASCII Standard -VERSION 2.0
WRAP.  NO : ONE LINE PER DEPTH STEP
~Well ------------------------------------------------------
STRT.F                              1350.0 : START DEPTH
STOP.F                             12000.0 : STOP DEPTH
STEP.F                            50.00000 : STEP LENGTH
NULL.                              -999.25 : NULL VALUE
COMP.                 CHEVRON STANDARD LTD : COMPANY
WELL. CHEVRON AMOCO WASKAHIGAN 10-17-64-24 : WELL
FLD .                                      : FIELD
LOC .                                      : LOCATION
CTRY.                               CANADA : COUNTRY
SRVC.                         Schlumberger : SERVICE COMPANY
DATE.                          17-Sep-1977 : LOGDATE
PROV.                              Alberta : PROVINCE
UWI .                     100101706424W500 : UNIQUE WELL ID
SLAT.WGS84                        54.54045 : SURFACE LATITUDE
SLON.WGS84                       -117.5875 : SURFACE LONGITUDE
~Curve Information -----------------------------------------
DEPT   .F                 : 
SPR    .MV   99 010 00 00 : SELF POTENTIAL
ILD    .OHMM 06 121 12 00 : INDUCTION LOG RESISTIVITY
ILM    .OHMM 07 120 44 00 : INDUCTION LOG MEDIUM RESISTIVITY
DFL    .OHMM 07 220 01 00 : DIGITAL FOCUSED LATEROLOG
GRS    .GAPI              : GAMMA RAY FROM SONIC LOG
CALS   .IN                : CALIPER FROM SONIC LOG
TENS   .LB   60 635 01 00 : TENSION FROM SONIC LOG
DRHO   .G/C3 00 000 00 01 : DENSITY CORRECTION
RHOB   .G/C3 45 350 01 00 : BULK DENSITY
CALD   .IN   70 280 01 00 : CALIPER FROM DENSITY LOG
GRD    .GAPI              : GAMMA RAY FROM DENSITY LOG
TEND   .LB                : TENSION FROM DENSITY LOG
DPHI_SS.DEC  45 890 12 00 : DENSITY POROSITY SANDSTONE
NPHI_SS.DEC               : NEUTRON POROSITY SANDSTONE
NPHI_LS.DEC               : NEUTRON POROSITY IN SELECTED LITHOLOGY SANDSTONE
DPHI_LS.DEC  45 890 00 00 : DENSITY POROSITY
DT     .US/F 60 520 00 00 : DELTA TIME FROM SONIC LOG
~Params ----------------------------------------------------
PD  .                     GL : PERMANENT DATUM
EPD .FT               2874.1 : ELEVATION PERMANENT DATUM
LMF .                     KB : LOG MEASURED FROM
DAPD.FT                 18.5 : FEET ABOVE PERMANENT DATUM
EKB .FT               2892.6 : KELLY BUSHING
EGL .FT               2874.1 : GROUND LEVEL
DATE.               09/17/77 : RUN DATE
RUN .                      1 : RUN NUMBER
DD  .FT                11989 : DEPTH DRILLER
DL  .FT                11985 : DEPTH LOGGER
BLI .FT                11979 : BOTTOM LOG INTERVAL
TLI .FT                 1516 : TOP LOG INTERVAL
CBD .FT              1516.87 : CASING BOTTOM DRILLER
CBL .FT                 1516 : CASING BOTTOM LOGGER
BS  .IN                 8.75 : BIT SIZE
BSD .FT                11989 : BIT SIZE AT DEPTH
DFT .                    GEL : DRILLING FLUID TYPE
DFD .                      9 : DRILLING FLUID DENSITY
DFV .                     90 : DRILLING FLUID VISCOSITY
DFPH.                    9.5 : DRILLING FLUID PH
DFL .                    8.4 : DRILLING FLUID LOSS
MSS .               FLOWLINE : MUD SAMPLE SOURCE
RMS .OHMM               1.53 : RESISTIVITY MUD SAMPLE
MST .DEGF                 68 : MUD SAMPLE TEMPERATURE
RMF .OHMM               1.36 : RESISTIVITY MUD FILTRATE SAMPLE
MFST.DEGF                 62 : MUD FILTRATE SAMPLE TEMPERATURE
RMC .OHMM               1.37 : RESISTIVITY MUD CAKE
MCST.DEGF                 62 : MUD CAKE SAMPLE TEMPERATURE
TCS .HRS                   5 : TIME CIRCULATED STOPPED
LUN .                   7772 : LOGGING UNIT NUMBER
LUL .                    EDM : LOGGING UNIT LOCATION
ENGI.         BERNISKY TRACY : RECORDING ENGINEER
WITN.             RICHARDSON : WITNESSED BY
CLNT.                A2DTECH : CLIENT CODE
ORIG.            2" 5" PRINT : ORIGIN OF DATA
UWI .       100101706424W500 : UNIQUE WELL ID
DICO. A2D Technologies, Inc. : DIGITIZING COMPANY
~Other -----------------------------------------------------
~ASCII -----------------------------------------------------
# ...
 5450.00000  -46.02490    6.72830    6.93380    7.05260  114.91820    9.30810 4540.39210    0.08550    2.52810   10.72660  119.11230 3806.13570    0.06890    0.38790    -999.25    -999.25   81.01910
 5500.00000  -45.17630    5.54150    5.70900    6.14330  110.52090    9.52780 4510.09860    0.09430    2.52950   12.14260  115.24300 3779.06300    0.02750    0.35580    -999.25    -999.25   83.99450
 5550.00000  -45.46920    5.82330    6.05580    6.81340  110.37170    9.64750 4510.03760    0.22510    2.48670   12.85760  123.60090 3700.80810    0.09540    0.37180    -999.25    -999.25   86.86150
 5600.00000  -44.41630    3.47990    3.58570    4.27570  126.09450    9.57460 4473.66750    0.13150    2.45650   11.81640  130.56520 3722.60640    0.11640    0.39040    -999.25    -999.25   96.64050
 5650.00000  -44.56290    2.76380    3.24970    3.34190  104.33030    9.43940 4335.64700    0.10850    2.27280   12.35210  130.18480 3766.96920    0.17570    0.45660    -999.25    -999.25   82.33960
 5700.00000  -44.80300    5.01550    5.22210    6.77560  106.85550    9.87100 4271.11280    0.09790    2.48860   13.63400  108.25110 3614.58010    0.14220    0.35330    -999.25    -999.25   95.78540
 5750.00000  -45.73570    9.25020    9.76250   12.41650   98.70920    9.68110 4210.49170    0.19930    2.53780   12.33800  104.08470 3646.10350    0.05640    0.19750    -999.25    -999.25   78.13000
 5800.00000  -46.23200   10.83790   11.42490   13.31930   96.34190    9.91040 4150.50050    0.21040    2.55490   12.00390  102.92020 3457.77730    0.06810    0.26130    -999.25    -999.25   81.28910
 5850.00000  -49.96200   16.39950   17.78640   15.91500   79.71600    9.63940 3914.68290    0.23840    2.57260   11.54080   83.32080 3448.37650    0.05410    0.20880    -999.25    -999.25   70.52290
 5900.00000  -69.64960    9.84650   10.74490   15.61670   52.60560    8.34370 4056.30000    0.11970    2.34720    9.47050   84.47250 3418.76560    0.15180    0.22070    -999.25    -999.25   76.50670
 5950.00000  -44.67490    8.73760    9.00290    9.65700   95.21590    9.59530 3884.65600    0.22160    2.37410   11.23100  105.27640 3411.06250    0.14890    0.26400    -999.25    -999.25   75.61890
 6000.00000  -63.04640   23.30180   25.09450   21.63790   49.95240    9.08450 3871.86040    0.05700    2.53740    9.18960   49.42550 3378.07370    0.07170    0.26840    -999.25    -999.25   75.59230
 6050.00000  -46.25690   13.73490   14.15360   15.83930   75.58700    9.74780 3790.77340    0.02280    2.54840   10.30350   70.18270 3345.14450    0.02370    0.27060    -999.25    -999.25   71.80740
 6100.00000  -50.34810    8.55280    7.57120   11.70470   99.34900   10.21120 3721.87920    0.09690    2.51660   11.10500  114.32070 3231.35740    0.12310   -0.01160    -999.25    -999.25   82.98630
 6150.00000  -47.42800   14.75990   12.15420   11.97170   80.71590    9.76610 3664.01930    0.15080    2.52970   10.64780   70.72340 3188.65040    0.07910    0.29540    -999.25    -999.25   77.67060
 6200.00000  -49.18160   10.69500   11.62520   16.80320   86.92770    9.42130 3512.19680    0.06620    2.65390   10.18540  101.20590 3186.76270    0.01800    0.34520    -999.25    -999.25   70.51280
 6250.00000  -73.39480   17.87920   24.33820   36.30070   37.05400    9.06450 3630.97070    -999.25    -999.25    -999.25    -999.25    -999.25    -999.25    -999.25    -999.25    -999.25   71.09380
 6300.00000  -55.61160   14.89920   15.41630   18.85010   77.50290    9.87940 3468.08250    -999.25    -999.25    -999.25    -999.25    -999.25    -999.25    -999.25    -999.25    -999.25   71.56870
 6350.00000  -68.41770   11.91310   12.76710   12.67750   55.50260    9.93440 3396.24950    -999.25    -999.25    -999.25    -999.25    -999.25    -999.25    -999.25    -999.25    -999.25   69.33050
 6400.00000  -73.03400   13.33790   13.97540   14.85280   76.35460    9.46330 3413.60820    -999.25    -999.25    -999.25    -999.25    -999.25    -999.25    -999.25    -999.25    -999.25   69.63690
 6450.00000  -55.86700   13.84600   16.31960   19.43970   78.14360    9.26840 3162.62230    -999.25    -999.25    -999.25    -999.25    -999.25    -999.25    -999.25    -999.25    -999.25   69.43920
 6500.00000  -47.89550   13.37470   14.81570   25.58140   77.20700    9.78620 3250.63310    -999.25    -999.25    -999.25    -999.25    -999.25    -999.25    -999.25    -999.25    -999.25   75.61900
 6550.00000  -66.98140   12.89850   13.33830   16.25050   53.96450    9.56580 3137.43430    -999.25    -999.25    -999.25    -999.25    -999.25    -999.25    -999.25    -999.25    -999.25   70.47170
 6600.00000  -40.54980   11.58370   11.94390   13.56640   64.87910   10.01110 4526.76420    -999.25    -999.25    -999.25    -999.25    -999.25    -999.25    -999.25    -999.25    -999.25   70.51330
 6650.00000  -69.45310   10.50950   11.60420   13.87070   51.92680    9.03200 4512.89890    -999.25    -999.25    -999.25    -999.25    -999.25    -999.25    -999.25    -999.25    -999.25   71.23240
 6700.00000  -50.38430   17.93380   18.57390   16.31600   72.30210    9.34820 4292.77390    0.04680    2.60720   10.21840   98.62830 3945.59770   -0.00010    0.24830    -999.25    -999.25   60.43980
 6750.00000  -65.55170   12.41620   15.93540   30.92510   75.20950    9.87520 4243.57910    0.02870    2.67840   10.10810   78.07400 3912.98830    0.00790    0.22890    -999.25    -999.25   70.50310
 6800.00000  -79.13190    9.53950    9.95610   10.14770  100.33960    9.46230 4240.37990    0.16990    2.58620   10.22200  112.71540 3851.05760    0.00040    0.30460    -999.25    -999.25   77.29930
 6850.00000 -107.02210   34.96770   39.83730   52.40720   57.21780    9.25960 4102.46880    0.09530    2.55570    9.75820   43.31640 3844.66160    0.04250    0.16180    -999.25    -999.25   67.84540
 6900.00000 -111.86180   15.31020   16.45050   23.81710  102.63680    9.56600 3958.68650    0.24890    2.54710   10.73800  115.83480 3829.99660    0.11190    0.27400    -999.25    -999.25   72.17260
 6950.00000 -113.76410   27.93600   31.01090   28.43920   74.96720    9.78960 3980.72050    0.04590    2.63810   10.63400   95.33060 3768.14110    0.03760    0.16670    -999.25    -999.25   60.61020
 7000.00000 -116.92330   20.22630   20.88940   21.79920   81.81570    9.50200 3865.17850    0.06880    2.65380   10.27870  105.55830 3784.47750   -0.00740    0.24220    -999.25    -999.25   65.53950
 7050.00000 -113.66160   15.21250   18.89160   24.37310  116.94760    9.77290 3849.62480    0.11960    2.53600    9.98530  101.53330 3704.73390    0.17610    0.34820    -999.25    -999.25   80.96280
 7100.00000 -110.49260   18.23520   19.60920   21.40850   92.92290    9.02310 3932.52320    0.05500    2.62310    9.11770   88.83150 3747.71290    0.02660    0.23580    -999.25    -999.25   71.02490
 7150.00000 -107.87130   22.29160   25.25350   29.05790   78.48450    8.96330 3781.45750    0.00750    2.61710    9.06330   81.56990 3714.88920   -0.01170    0.22790    -999.25    -999.25   67.47310
 7200.00000 -105.53840   18.92370   20.58100   20.73990   62.19340    9.17190 3673.92530    0.02070    2.62010    8.79310   69.64170 3667.02830    0.00510    0.18250    -999.25    -999.25   64.25060
 7250.00000 -164.31750    9.39560   15.20030   33.06160   25.36380    8.11420 3725.37110    0.16390    2.47580    8.42190   29.03330 3682.74610    0.11700    0.18420    -999.25    -999.25   65.81750
 7300.00000  -92.42670    7.86580    8.55320    8.12450  112.58480    8.46180 3385.26560    0.19720    1.66380   14.99690  120.25300 3624.20410    0.46090    0.47280    -999.25    -999.25  101.24870
 7350.00000 -104.42640   74.44980   99.20790  104.01710  205.31740    8.91880 3636.30470    0.04940    2.33460    9.10990  220.35210 3614.89600    0.20190    0.39000    -999.25    -999.25   88.41400
 7400.00000 -138.18330 1415.46970 1533.55030 1426.29900    -999.25    8.88250 3552.66020    0.01480    2.38320    9.19680  305.99760 3596.45700    0.17720    0.32500    -999.25    -999.25   75.85380
 7450.00000 -124.92170   23.48610   24.39010   29.81880   76.92940    8.93790 3445.58230    0.01370    2.53940    9.40920   82.33930 3538.97460    0.06110    0.17580    -999.25    -999.25   66.02350
