~Version ---------------------------------------------------
VERS.      2.0 : CWLS log ASCII Standard -VERSION 2.0
WRAP.       NO : One line per depth step
CREA. 11/16/17 : LAS Creation Date
~Well ------------------------------------------------------
STRT.FT                         1050.0 : START DEPTH
STOP.FT                        10100.0 : STOP DEPTH
STEP.FT                       50.00000 : STEP LENGTH
NULL.                          -999.25 : NULL VALUE
COMP.             PETROFINA CANADA LTD : COMPANY
WELL.        FINA ET AL WIND 7-7-61-16 : WELL
FLD .                                  : FIELD
LOC .                                  : LOCATION
CTRY.                           CANADA : COUNTRY
SRVC. Schlumberger Well Surveying Corp : SERVICE COMPANY
DATE.                      23-Jan-1978 : LOGDATE
PROV.                          Alberta : PROVINCE
UWI .                 100070706116W500 : UNIQUE WELL ID
SLAT.WGS84                    54.25864 : SURFACE LATITUDE
SLON.WGS84                    -116.383 : SURFACE LONGITUDE
~Curve Information -----------------------------------------
DEPT    .FT    : Depth Curve
CALDED  .IN    : CALIPER FROM DENSITY LOG [ADJ.TO RESISTIVITY LOG]
CALSED  .IN    : CALIPER FROM SONIC LOG [ADJ.TO RESISTIVITY LOG]
CALWS   .IN    : CALIPER [CALSED]
CONDWS  .MMHO  : CONDUCTIVITY [1000/DRESWS]
DCORWS  .G/C3  : DENSITY CORRECTION [DRHOED]
DENWS   .G/C3  : FORMATION BULK DENSITY [RHOBED]
DPHILSED.V/V   : DENSITY POROSITY LIMESTONE [M=2.71, F=1.00] FROM DENSITY LOG [ADJ.TO RESISTIVITY LOG]
DPHISSED.V/V   : DENSITY POROSITY SANDSTONE [M=2.65, F=1.00] FROM DENSITY LOG [ADJ.TO RESISTIVITY LOG]
DPOLSWS .V/V   : DENSITY POROSITY LIMESTONE [CALC FROM DENWS, M=2.71, F=1.00]
DRESWS  .OHMM  : DEEP RESISTIVITY [ILDED]
DRHOED  .G/C3  : DENSITY CORRECTION FROM DENSITY LOG [ADJ.TO RESISTIVITY LOG]
DTED    .US/F  : DELTA TIME FROM SONIC LOG [ADJ.TO RESISTIVITY LOG]
DTWS    .US/F  : COMPRESSIONAL SONIC [DTED]
GRDED   .GAPI  : GAMMA RAY FROM DENSITY LOG [ADJ.TO RESISTIVITY LOG]
GRDRED  .GAPI  : GAMMA RAY [FROM REPEAT SECTION] FROM DENSITY LOG [ADJ.TO RESISTIVITY LOG]
GRSED   .GAPI  : GAMMA RAY FROM SONIC LOG [ADJ.TO RESISTIVITY LOG]
GRSRED  .GAPI  : GAMMA RAY [FROM REPEAT SECTION] FROM SONIC LOG [ADJ.TO RESISTIVITY LOG]
GRWS    .GAPI  : GAMMA RAY [GRSED SPL.TO GRSRED @ 10087.5']
ILDED   .OHMM  : DEEP INDUCTION FROM RESISTIVITY LOG
ILMED   .OHMM  : MEDIUM INDUCTION FROM RESISTIVITY LOG
LL8ED   .OHMM  : LATEROLOG 8 FROM RESISTIVITY LOG
MRESWS  .OHMM  : MEDIUM RESISTIVITY [ILMED]
NPHILSED.V/V   : NEUTRON POROSITY LIMESTONE FROM DENSITY LOG [ADJ.TO RESISTIVITY LOG]
NPHISSED.V/V   : NEUTRON POROSITY SANDSTONE FROM DENSITY LOG [ADJ.TO RESISTIVITY LOG]
NPOLSWS .V/V   : NEUTRON POROSITY LIMESTONE [NPHISSED MATRIX (SLB) CONVERSION FOR LIMESTONE, SPL.TO NPHILSED @ 6298']
RHOBED  .G/C3  : BULK DENSITY FROM DENSITY LOG [ADJ.TO RESISTIVITY LOG]
SPRED   .MV    : SPONTANEOUS POTENTIAL FROM RESISTIVITY LOG
SPWS    .MV    : SPONTANEOUS POTENTIAL [BASELINE 0 MV, SPRED]
SRESWS  .OHMM  : SHALLOW RESISTIVITY [LL8ED]
~Params ----------------------------------------------------
PD  .                     GL : PERMANENT DATUM
EPD .FT               2840.2 : ELEVATION PERMANENT DATUM
LMF .                     KB : LOG MEASURED FROM
DAPD.FT                 13.8 : FEET ABOVE PERMANENT DATUM
EKB .FT                 2854 : KELLY BUSHING
EGL .FT               2840.2 : GROUND LEVEL
DATE.               01/23/78 : RUN DATE
RUN .                      1 : RUN NUMBER
DD  .FT                10130 : DEPTH DRILLER
DL  .FT                10136 : DEPTH LOGGER
BLI .FT                10130 : BOTTOM LOG INTERVAL
TLI .FT                 1041 : TOP LOG INTERVAL
CBD .FT                 1041 : CASING BOTTOM DRILLER
CBL .FT                 1041 : CASING BOTTOM LOGGER
BS  .IN                7.875 : BIT SIZE
BSD .FT                10130 : BIT SIZE AT DEPTH
DFT .               GEL CHEM : DRILLING FLUID TYPE
DFD .                    9.1 : DRILLING FLUID DENSITY
DFV .                     88 : DRILLING FLUID VISCOSITY
DFPH.                    9.6 : DRILLING FLUID PH
DFL .                      6 : DRILLING FLUID LOSS
MSS .               FLOWLINE : MUD SAMPLE SOURCE
RMF .OHMM                2.1 : RESISTIVITY MUD FILTRATE SAMPLE
MFST.DEGF                 61 : MUD FILTRATE SAMPLE TEMPERATURE
RMB .OHMM               0.67 : RESISTIVITY MUD AT BHT
TCS .HRS                 2.5 : TIME CIRCULATED STOPPED
LUN .                   7730 : LOGGING UNIT NUMBER
LUL .                    EDM : LOGGING UNIT LOCATION
ENGI.               CAMPBELL : RECORDING ENGINEER
WITN.                  SMITH : WITNESSED BY
CLNT.                A2DTECH : CLIENT CODE
ORIG.            2" 5" PRINT : ORIGIN OF DATA
UWI .       100070706116W500 : UNIQUE WELL ID
DICO. A2D Technologies, Inc. : DIGITIZING COMPANY
~Other -----------------------------------------------------
~ASCII -----------------------------------------------------
# ...
 8550.00000    9.44550    9.59700    9.59700    5.47980    0.00980    2.70950   -0.00570    -999.25    0.00030  182.48720    0.00980   50.94420   50.94420   27.85660    -999.25   33.63840    -999.25   33.63840  182.48720  207.42140  331.57390  207.42140    0.01090    -999.25    0.01090    2.70950  -81.35770  -29.27160  331.57390
 8600.00000    9.08860    8.98720    8.98720    8.72720    0.00800    2.70010   -0.00180    -999.25    0.00580  114.58470    0.00800   52.41190   52.41190   30.50410    -999.25   31.22210    -999.25   31.22210  114.58470  123.68580  169.12380  123.68580    0.02530    -999.25    0.02530    2.70010  -63.40230  -15.52580  169.12380
 8650.00000    9.15070    9.17590    9.17590    8.66500   -0.00120    2.69040   -0.00110    -999.25    0.01150  115.40700   -0.00120   52.00420   52.00420   25.08670    -999.25   31.20280    -999.25   31.20280  115.40700  128.64900  175.98340  128.64900    0.01720    -999.25    0.01720    2.69040  -65.26780  -21.57080  175.98340
 8700.00000    9.60340    9.51360    9.51360   62.33580    0.00860    2.69130    0.00350    -999.25    0.01090   16.04210    0.00860   59.82120   59.82120   56.83040    -999.25   61.21410    -999.25   61.21410   16.04210   17.30480   21.18030   17.30480    0.09400    -999.25    0.09400    2.69130  -41.05500   -1.56770   21.18030
 8750.00000    9.61920    9.48200    9.48200   91.51480    0.00900    2.68370    0.01560    -999.25    0.01540   10.92720    0.00900   63.47710   63.47710   64.77840    -999.25   68.36960    -999.25   68.36960   10.92720   11.86590   15.33500   11.86590    0.12270    -999.25    0.12270    2.68370  -40.65880   -4.09220   15.33500
 8800.00000    9.55520    9.73770    9.73770   93.54010    0.00690    2.69520   -0.00410    -999.25    0.00870   10.69060    0.00690   63.85610   63.85610   64.89210    -999.25   78.69940    -999.25   78.69940   10.69060   11.53960   15.36880   11.53960    0.13550    -999.25    0.13550    2.69520  -38.97230   -3.81620   15.36880
 8850.00000    9.31140    9.26340    9.26340   66.44720    0.02110    2.73130   -0.01740    -999.25   -0.01250   15.04960    0.02110   60.27820   60.27820   62.28710    -999.25   62.72860    -999.25   62.72860   15.04960   16.77590   22.59880   16.77590    0.10730    -999.25    0.10730    2.73130  -39.14810   -5.41060   22.59880
 8900.00000    9.80400    9.73450    9.73450   99.74070    0.00760    2.65790    0.01960    -999.25    0.03050   10.02600    0.00760   65.82780   65.82780   76.72250    -999.25   83.05440    -999.25   83.05440   10.02600   11.27870   14.75150   11.27870    0.14000    -999.25    0.14000    2.65790  -34.89440   -3.23630   14.75150
 8950.00000    9.28110    9.25550    9.25550    8.34660    0.00390    2.59160    0.06650    -999.25    0.06920  119.82570    0.00390   65.33670   65.33670   74.71360    -999.25   80.42320    -999.25   80.42320  119.82570  179.66460  335.92450  179.66460    0.15860    -999.25    0.15860    2.59160  -49.64730  -17.78540  335.92450
 9000.00000   10.13670    9.77480    9.77480  100.21650    0.17910    2.71170   -0.00270    -999.25   -0.00100    9.97840    0.17910   62.09780   62.09780   79.83620    -999.25   80.99870    -999.25   80.99870    9.97840   13.04660   31.93930   13.04660    0.12260    -999.25    0.12260    2.71170  -39.73180   -6.76610   31.93930
 9050.00000   10.79570   10.00240   10.00240  177.43400    0.25630    2.45760    0.13710    -999.25    0.14760    5.63590    0.25630   75.80970   75.80970  104.62720    -999.25  110.04310    -999.25  110.04310    5.63590    5.89820    7.81020    5.89820    0.23640    -999.25    0.23640    2.45760  -45.84800  -13.65990    7.81020
 9100.00000    9.20090    9.28290    9.28290   53.11670    0.01170    2.72650   -0.01450    -999.25   -0.00960   18.84630    0.01170   60.25800   60.25800   65.15940    -999.25   78.50890    -999.25   78.50890   18.84630   21.04970   25.05710   21.04970    0.09480    -999.25    0.09480    2.72650  -36.17840   -4.77180   25.05710
 9150.00000    9.29270    9.26840    9.26840  100.24660    0.00150    2.70550   -0.00220    -999.25    0.00260    9.97540    0.00150   67.68100   67.68100  107.72150    -999.25  112.07900    -999.25  112.07900    9.97540   10.58410   14.48980   10.58410    0.19120    -999.25    0.19120    2.70550  -33.87320   -3.25080   14.48980
 9200.00000    9.40340    9.48030    9.48030   94.14880    0.00860    2.69100    0.00690    -999.25    0.01110   10.62240    0.00860   66.60640   66.60640  100.70520    -999.25   97.17070    -999.25   97.17070   10.62240   11.16790   14.36850   11.16790    0.16260    -999.25    0.16260    2.69100  -34.90820   -5.24660   14.36850
 9250.00000   10.65790    9.88110    9.88110  156.12310    0.11350    2.66650    0.01690    -999.25    0.02540    6.40520    0.11350   74.05280   74.05280  126.25910    -999.25  131.35310    -999.25  131.35310    6.40520    6.90720    9.64510    6.90720    0.24860    -999.25    0.24860    2.66650  -38.42600   -9.71600    9.64510
 9300.00000    9.24810    9.37970    9.37970  131.92790    0.02350    2.66720    0.01920    -999.25    0.02500    7.57990    0.02350   70.27630   70.27630  110.54630    -999.25  113.02460    -999.25  113.02460    7.57990    8.19120   11.78120    8.19120    0.21090    -999.25    0.21090    2.66720  -34.13290   -6.37860   11.78120
 9350.00000    9.01950    9.07280    9.07280  121.12310    0.01700    2.71720   -0.01260    -999.25   -0.00420    8.25630    0.01700   68.45890   68.45890  101.59690    -999.25  103.99550    -999.25  103.99550    8.25630    8.94860   12.63680    8.94860    0.17860    -999.25    0.17860    2.71720  -31.13530   -4.34150   12.63680
 9400.00000    9.03380    9.16050    9.16050  111.55360    0.01990    2.71180   -0.00380    -999.25   -0.00110    8.96430    0.01990   69.07470   69.07470  113.93240    -999.25  110.21330    -999.25  110.21330    8.96430    9.31480   13.82060    9.31480    0.18130    -999.25    0.18130    2.71180  -29.66840   -3.71920   13.82060
 9450.00000    8.83020    8.89990    8.89990    5.02130    0.03040    2.64220    0.02700    -999.25    0.03960  199.42910    0.03040   56.99440   56.99440  131.23840    -999.25  155.20320    -999.25  155.20320  199.42910  255.56880 1005.42870  255.56880    0.07130    -999.25    0.07130    2.64220  -60.43580  -34.95040 1005.42870
 9500.00000    8.68190    8.83610    8.83610    0.62570    0.02240    2.57130    0.08130    -999.25    0.08110 1598.31150    0.02240   65.36840   65.36840  166.42240    -999.25  177.15230    -999.25  177.15230 1598.31150 1508.46910 1414.95010 1508.46910    0.18270    -999.25    0.18270    2.57130 -117.35290  -92.25810 1414.95010
 9550.00000    8.76600    8.87320    8.87320    5.62120    0.00730    2.70520   -0.00470    -999.25    0.00280  177.89810    0.00730   52.91920   52.91920   48.82770    -999.25   53.89860    -999.25   53.89860  177.89810  221.56250  391.35400  221.56250    0.07190    -999.25    0.07190    2.70520  -48.12130  -23.28390  391.35400
 9600.00000    9.01120    8.98550    8.98550    2.95200    0.00610    2.69720   -0.00120    -999.25    0.00750  338.75210    0.00610   49.15770   49.15770   10.84640    -999.25   11.63480    -999.25   11.63480  338.75210  340.58740  415.60940  340.58740    0.01220    -999.25    0.01220    2.69720 -175.57910 -151.00000  415.60940
 9650.00000   10.30390    9.17710    9.17710    0.64820    0.21410    2.66020    0.01900    -999.25    0.02910 1542.69090    0.21410   48.09880   48.09880   10.87990    -999.25   12.50100    -999.25   12.50100 1542.69090 1491.65000 1440.14200 1491.65000    0.00190    -999.25    0.00190    2.66020 -198.34100 -174.01660 1440.14200
 9700.00000    9.54800    9.11440    9.11440    1.15730    0.21860    2.70990   -0.00260    -999.25    0.00000  866.28820    0.21860   48.29390   48.29390   11.17420    -999.25   13.07670    -999.25   13.07670  866.28820 1468.94620 1434.76660 1468.94620    0.00600    -999.25    0.00600    2.70990 -175.43790 -151.37180 1434.76660
 9750.00000    9.47310    8.94490    8.94490    1.44810    0.23970    2.65320    0.02710    -999.25    0.03320  690.53770    0.23970   48.22200   48.22200   10.96350    -999.25   15.17940    -999.25   15.17940  690.53770  795.17740  591.50290  795.17740    0.00650    -999.25    0.00650    2.65320 -168.51560 -144.70410  591.50290
