~Version ---------------------------------------------------
VERS.      2.0 : CWLS log ASCII Standard -VERSION 2.0
WRAP.       NO : One line per depth step
CREA. 11/07/17 : LAS Creation Date
~Well ------------------------------------------------------
STRT.FT                        300.0 : START DEPTH
STOP.FT                       5950.0 : STOP DEPTH
STEP.FT                     50.00000 : STEP LENGTH
NULL.                        -999.25 : NULL VALUE
COMP.                   PETRO-CANADA : COMPANY
WELL. PACIFIC ET AL NIPISI 4-26-80-8 : WELL
FLD .                                : FIELD
LOC .                                : LOCATION
CTRY.                         CANADA : COUNTRY
SRVC.                   Schlumberger : SERVICE COMPANY
DATE.                    05-Jan-1966 : LOGDATE
PROV.                        Alberta : PROVINCE
UWI .               100042608008W500 : UNIQUE WELL ID
SLAT.WGS84             55.9581377259 : SURFACE LATITUDE
SLON.WGS84           -115.1456120509 : SURFACE LONGITUDE
~Curve Information -----------------------------------------
DEPT  .FT    : Depth Curve
CALWS .IN    : CALIPER [MCALED]
CILDED.MMHO  : CONDUCTIVITY FROM IEL LOG
CONDWS.MMHO  : CONDUCTIVITY [1000/DRESWS]
DRESWS.OHMM  : DEEP RESISTIVITY [ILDED] IF ILDED<5;1000/CILDED;ELSE ILDED
DTED  .US/F  : DELTA TIME FROM SONIC LOG
DTWS  .US/F  : DELTA TIME [DTED]
GRSED .GAPI  : GAMMA RAY FROM SONIC LOG
GRWS  .GAPI  : GAMMA RAY [GRSED]
ILDED .OHMM  : INDUCTION LOG DEEP RESISTIVITY
MCALED.IN    : CALIPER FROM MICROLOG
SNED  .OHMM  : 16 INCH SHORT NORMAL RESISTIVITY FROM IEL LOG
SPRED .MV    : SPONTANEOUS POTENTIAL FROM IEL LOG
SPWS  .MV    : SPONTANEOUS POTENTIAL [BASELINE 0 MV] [SPRED]
SRESWS.OHMM  : SHALLOW RESISTIVITY [SNED]
~Params ----------------------------------------------------
PD  .                     GL : PERMANENT DATUM
EPD .FT               2165.8 : ELEVATION PERMANENT DATUM
LMF .                     KB : LOG MEASURED FROM
DAPD.FT                 12.2 : FEET ABOVE PERMANENT DATUM
EKB .FT                 2178 : KELLY BUSHING
EGL .FT               2165.8 : GROUND LEVEL
DATE.               01/05/66 : RUN DATE
RUN .                      1 : RUN NUMBER
DD  .FT                 5980 : DEPTH DRILLER
DL  .FT                 5979 : DEPTH LOGGER
BLI .FT                 5978 : BOTTOM LOG INTERVAL
TLI .FT                  628 : TOP LOG INTERVAL
CBD .FT                  626 : CASING BOTTOM DRILLER
CBL .FT                  628 : CASING BOTTOM LOGGER
BS  .IN                7.875 : BIT SIZE
BSD .FT                 5980 : BIT SIZE AT DEPTH
DFT .                    GEL : DRILLING FLUID TYPE
DFD .                   10.2 : DRILLING FLUID DENSITY
DFV .                    115 : DRILLING FLUID VISCOSITY
DFPH.                     10 : DRILLING FLUID PH
DFL .                      8 : DRILLING FLUID LOSS
RMS .OHMM              0.643 : RESISTIVITY MUD SAMPLE
MST .DEGF                 36 : MUD SAMPLE TEMPERATURE
RMF .OHMM              0.588 : RESISTIVITY MUD FILTRATE SAMPLE
MFST.DEGF                 40 : MUD FILTRATE SAMPLE TEMPERATURE
RMC .OHMM               1.02 : RESISTIVITY MUD CAKE
MCST.DEGF                 41 : MUD CAKE SAMPLE TEMPERATURE
RMB .OHMM              0.301 : RESISTIVITY MUD AT BHT
TCS .HRS                   3 : TIME CIRCULATED STOPPED
LUN .                   3705 : LOGGING UNIT NUMBER
LUL .                    EDM : LOGGING UNIT LOCATION
ENGI.                  BERRY : RECORDING ENGINEER
WITN.                 CHETIN : WITNESSED BY
CLNT.                A2DTECH : CLIENT CODE
ORIG.            2" 5" PRINT : ORIGIN OF DATA
UWI .       100042608008W500 : UNIQUE WELL ID
DICO. A2D Technologies, Inc. : DIGITIZING COMPANY
~Other -----------------------------------------------------
~ASCII -----------------------------------------------------
  300.00000    -999.25    -999.25    -999.25    -999.25    -999.25    -999.25   30.35510   30.35510    -999.25    -999.25    -999.25    -999.25    -999.25    -999.25
  350.00000    -999.25    -999.25    -999.25    -999.25    -999.25    -999.25   82.54140   82.54140    -999.25    -999.25    -999.25    -999.25    -999.25    -999.25
  400.00000    -999.25    -999.25    -999.25    -999.25    -999.25    -999.25   54.43340   54.43340    -999.25    -999.25    -999.25    -999.25    -999.25    -999.25
  450.00000    -999.25    -999.25    -999.25    -999.25    -999.25    -999.25   69.37230   69.37230    -999.25    -999.25    -999.25    -999.25    -999.25    -999.25
  500.00000    -999.25    -999.25    -999.25    -999.25    -999.25    -999.25   65.98480   65.98480    -999.25    -999.25    -999.25    -999.25    -999.25    -999.25
  550.00000    -999.25    -999.25    -999.25    -999.25    -999.25    -999.25   50.71810   50.71810    -999.25    -999.25    -999.25    -999.25    -999.25    -999.25
  600.00000    -999.25    -999.25    -999.25    -999.25    -999.25    -999.25   44.41140   44.41140    -999.25    -999.25    -999.25    -999.25    -999.25    -999.25
  650.00000   12.08680  105.33020  107.64520    9.29080  168.00960  168.00960   69.43930   69.43930    9.29080   12.08680    7.16950  -60.50070  -14.00780    7.16950
  700.00000   17.91040  134.62160  131.04100    7.63120  198.71720  198.71720   43.71730   43.71730    7.63120   17.91040    4.75970  -54.45090   -9.84880    4.75970
  750.00000   18.02050  185.17020  198.30550    5.04280  172.84090  172.84090   66.37100   66.37100    5.04280   18.02050    4.05030  -55.06000  -12.32990    4.05030
  800.00000   17.98640  242.37600  242.37600    4.12580  152.50490  152.50490   76.36240   76.36240    4.27640   17.98640    3.97740  -55.06490  -14.20690    3.97740
  850.00000   17.95810  196.09020  193.71940    5.19290  191.85060  191.85060   58.00140   58.00140    5.26600   17.95810    3.32110  -48.51620   -9.54910    3.32110
  900.00000   17.89110  293.94930  293.94930    3.41000  140.92100  140.92100   60.82210   60.82210    4.18980   17.89110    3.16560  -43.73540   -6.53380    3.16560
  950.00000   15.88840  434.43550  434.43550    2.30180  155.84570  155.84570   85.06570   85.06570    4.10640   15.88840    2.85820  -57.19740  -20.51550    2.85820
 1000.00000   14.78260  363.36580  363.36580    2.75290  150.78200  150.78200   60.08910   60.08910    4.19440   14.78260    3.11860  -51.38200  -15.21460    3.11860
 1050.00000   14.16020  329.20100  329.20100    3.03770  138.96040  138.96040   59.07330   59.07330    4.10340   14.16020    3.56970  -45.50690   -9.85410    3.56970
 1100.00000   12.43630  254.82840  254.82840    3.92550  143.57850  143.57850   74.33780   74.33780    4.22410   12.43630    3.85490  -49.80810  -14.67490    3.85490
 1150.00000   17.87070  600.33540  600.33540    1.66580  196.26280  196.26280   48.42790   48.42790    1.80290   17.87070    2.15650  -39.16260   -4.54650    2.15650
 1200.00000   17.97160  460.66460  460.66460    2.17080  200.11130  200.11130   34.53200   34.53200    2.06540   17.97160    2.38420  -38.62560   -4.08530    2.38420
 1250.00000    8.23990  221.55600  221.55600    4.51360  127.85620  127.85620   59.45390   59.45390    3.93070    8.23990    5.62340  -60.03690  -24.53880    5.62340
 1300.00000   12.05720  281.96340  281.96340    3.54660  148.21120  148.21120   52.56830   52.56830    3.35990   12.05720    3.83680  -60.13860  -23.68250    3.83680
 1350.00000   12.05130  333.91970  333.91970    2.99650  185.56050  185.56050   39.35470   39.35470    2.62520   12.05130    3.16040  -49.76350  -12.26310    3.16040
 1400.00000    8.71530  286.68940  286.68940    3.48810  125.16600  125.16600   58.35850   58.35850    2.88710    8.71530    5.69190  -64.33430  -25.45660    5.69190
 1450.00000   11.13480  296.95410  296.95410    3.36750  138.03880  138.03880   54.36190   54.36190    2.89590   11.13480    4.13420  -58.74740  -18.48540    4.13420
 1500.00000   10.31840  243.00700  243.00700    4.11580  119.64810  119.64810   63.62450   63.62450    3.55760   10.31840    5.04200  -64.09280  -22.46030    5.04200
 1550.00000    9.14840  187.64010  187.64010    5.32940  114.21820  114.21820   52.20020   52.20020    4.94110    9.14840    6.85200  -61.07770  -18.07470    6.85200
 1600.00000    9.65790  249.77150  249.77150    4.00390  119.95790  119.95790   55.44730   55.44730    3.35840    9.65790    5.08280  -68.00330  -23.61600    5.08280
 1650.00000    9.54480  212.07120  212.07120    4.71550  117.44250  117.44250   54.31670   54.31670    4.13530    9.54480    6.47560  -65.53410  -19.76940    6.47560
 1700.00000   13.15340  218.24310  218.24310    4.58200  121.24390  121.24390   54.33450   54.33450    4.00850   13.15340    4.69440  -57.56700  -10.41810    4.69440
 1750.00000   14.79950  266.59560  266.59560    3.75320  149.11800  149.11800   54.69380   54.69380    3.16620   14.79950    4.41990  -52.83340   -4.31400    4.41990
 1800.00000   13.46110  157.59140  169.43980    5.90180  129.97720  129.97720   50.13540   50.13540    5.90180   13.46110    5.31790  -52.68160   -5.09180    5.31790
 1850.00000    9.82930  223.18570  205.61830    4.98780  190.16490  190.16490   54.21410   54.21410    5.37060    9.82930    4.24770  -54.51050   -8.04900    4.24770
 1900.00000    9.52820   36.82780   43.50610   22.98980   83.49160   83.49160   23.08120   23.08120   22.98980    9.52820   14.71090  -61.77150  -16.43280   14.71090
 1950.00000    9.11580   24.61530   26.85310   37.23960   81.75860   81.75860   21.40240   21.40240   37.23960    9.11580   23.61320  -56.33680  -12.12650   23.61320
 2000.00000    9.21480   21.38570   23.70900   42.24110   65.51010   65.51010   25.63080   25.63080   42.24110    9.21480   26.60630  -58.77240  -15.67920   26.60630
 2050.00000   11.13100   65.99430   67.72960   14.76460   71.20690   71.20690   38.60830   38.60830   14.76460   11.13100   13.93730  -62.49270  -20.51670   13.93730
 2100.00000    9.28030   31.76780   39.41130   25.44420   63.90640   63.90640   22.92480   22.92480   25.44420    9.28030   21.53640  -51.16960  -10.57080   21.53640
 2150.00000    8.99960   35.21260   38.64030   25.88190   59.94170   59.94170   17.47300   17.47300   25.88190    8.99960   26.94590  -56.60790  -17.60590   26.94590
 2200.00000    9.08160   54.59080   55.96280   17.86900   71.91350   71.91350   25.23880   25.23880   17.86900    9.08160   17.01650  -44.46320   -7.06600   17.01650
 2250.00000   10.69770  204.80730  204.80730    4.88280   94.75420   94.75420   29.39360   29.39360    4.89200   10.69770    5.62090  -40.94650   -4.50030    5.62090
 2300.00000   10.95680  184.37960  183.04960    5.46300   98.38570   98.38570   32.31300   32.31300    5.46300   10.95680    6.15920  -39.76300   -3.69680    6.15920
 2350.00000    9.63160  114.89060  115.02170    8.69580   92.94070   92.94070   22.42850   22.42850    8.69580    9.63160    8.91020  -40.05320   -4.37080    8.91020
 2400.00000    9.02210   71.26180   72.94650   13.70870   71.53360   71.53360   22.75770   22.75770   13.70870    9.02210   14.12340  -51.87350  -16.57300   14.12340
 2450.00000    8.49950   33.18670   36.78070   27.18820   56.85840   56.85840   15.72790   15.72790   27.18820    8.49950   31.61420  -59.31690  -24.40020   31.61420
 2500.00000    8.75150   56.83690   61.62990   16.22590   65.49020   65.49020   23.65070   23.65070   16.22590    8.75150   15.98580  -51.63560  -17.09880   15.98580
 2550.00000    9.43690   87.02980   80.37940   12.44100   67.40070   67.40070   40.84320   40.84320   12.44100    9.43690   11.02890  -47.08150  -12.92470   11.02890
 2600.00000   12.30330  298.60660  298.60660    3.34930  119.28850  119.28850  112.59090  112.59090    2.88150   12.30330    4.36370  -41.35770   -7.58470    4.36370
 2650.00000    8.80600   12.83610   21.12070   47.36710   55.02460   55.02460   20.81650   20.81650   47.36710    8.80600   30.67580  -47.23480  -11.99170   30.67580
 2700.00000    8.92900   15.37340   20.56090   48.63610   54.32750   54.32750   13.93370   13.93370   48.63610    8.92900   40.11980  -71.72620  -34.14950   40.11980
