~Version ---------------------------------------------------
VERS.      2.0 : CWLS log ASCII Standard -VERSION 2.0
WRAP.       NO : One line per depth step
CREA. 09/29/17 : LAS Creation Date
~Well ------------------------------------------------------
STRT.FT                        1400.0 : START DEPTH
STOP.FT                       12550.0 : STOP DEPTH
STEP.FT                      50.00000 : STEP LENGTH
NULL.                         -999.25 : NULL VALUE
COMP.    PAN AMERICAN PETROLEUM CORP. : COMPANY
WELL. SCURRY C-1 GOLD CREEK 6-17-68-4 : WELL
FLD .                                 : FIELD
LOC .                                 : LOCATION
CTRY.                          CANADA : COUNTRY
SRVC.                      Lane Wells : SERVICE COMPANY
DATE.                     15-Apr-1965 : LOGDATE
PROV.                         Alberta : PROVINCE
UWI .                100061706804W600 : UNIQUE WELL ID
SLAT.WGS84                   54.88524 : SURFACE LATITUDE
SLON.WGS84                   -118.574 : SURFACE LONGITUDE
~Curve Information -----------------------------------------
DEPT  .FT    : Depth Curve
AC1ED .US/F  : DELTA TIME (1' SPAN ACOUSTIC) FROM SONIC LOG
ACED  .US/F  : DELTA TIME (3' SPAN ACOUSTIC) FROM SONIC LOG
CALWS .IN    : CALIPER [MCALED]
CILDED.MMHO  : CONDUCTIVITY FROM RESISTIVITY LOG
CONDWS.MMHO  : CONDUCTIVITY [1000/DRESWS]
DRESWS.OHMM  : DEEP RESISTIVITY [1000/CILDED IF ILDED <=1 THEN ILDED]
DTWS  .US/F  : COMPRESSIONAL SONIC [ACED]
GRNED .GAPI  : GAMMA RAY FROM NEUTRON LOG [ADJ.TO RESISTIVITY LOG]
GRSED .GAPI  : GAMMA RAY FROM SONIC LOG
GRWS  .GAPI  : GAMMA RAY [GRSED]
ILDED .OHMM  : DEEP INDUCTION FROM RESISTIVITY LOG
MCALED.IN    : MICRO CALIPER FROM MLL LOG [ADJ.TO RESISTIVITY LOG]
NEUTED.NAPI  : NEUTRON FROM NEUTRON LOG [ADJ.TO RESISTIVITY LOG]
NEUTWS.NAPI  : NEUTRON [NEUTED]
SNED  .OHMM  : SHORT NORMAL FROM RESISTIVITY LOG
SPRED .MV    : SPONTANEOUS POTENTIAL FROM RESISTIVITY LOG
SPWS  .MV    : SPONTANEOUS POTENTIAL [BASELINE 0 MV, SPRED]
SRESWS.OHMM  : SHALLOW RESISTIVITY [SNED]
~Params ----------------------------------------------------
PD  .                     GL : PERMANENT DATUM
EPD .FT                 2238 : ELEVATION PERMANENT DATUM
LMF .                     KB : LOG MEASURED FROM
DAPD.FT                 15.1 : FEET ABOVE PERMANENT DATUM
DMF .                     KB : DRILLING MEASURED FROM
EKB .FT                 2253 : KELLY BUSHING
EGL .FT                 2238 : GROUND LEVEL
DATE.               04/15/65 : RUN DATE
RUN .                      2 : RUN NUMBER
DD  .FT                12655 : DEPTH DRILLER
DL  .FT                12596 : DEPTH LOGGER
BLI .FT                12592 : BOTTOM LOG INTERVAL
TLI .FT                11054 : TOP LOG INTERVAL
CS  .IN               13.375 : CASING SIZE
CBD .FT                 1389 : CASING BOTTOM DRILLER
CBL .FT                 1389 : CASING BOTTOM LOGGER
BS  .IN                6.125 : BIT SIZE
BSD .FT                12655 : BIT SIZE AT DEPTH
DFT .                MUD GEL : DRILLING FLUID TYPE
DFD .                    9.8 : DRILLING FLUID DENSITY
DFV .                    120 : DRILLING FLUID VISCOSITY
DFPH.                   10.5 : DRILLING FLUID PH
DFL .                      7 : DRILLING FLUID LOSS
MSS .               MUD TANK : MUD SAMPLE SOURCE
RMS .OHMM                1.4 : RESISTIVITY MUD SAMPLE
MST .DEGF                 40 : MUD SAMPLE TEMPERATURE
RMF .OHMM                0.8 : RESISTIVITY MUD FILTRATE SAMPLE
MFST.DEGF                 55 : MUD FILTRATE SAMPLE TEMPERATURE
RMC .OHMM               1.15 : RESISTIVITY MUD CAKE
MCST.DEGF                 60 : MUD CAKE SAMPLE TEMPERATURE
MFSS.                   MEAS : MUD FILTRATE SAMPLE SOURCE
MCSS.                   MEAS : MUD CAKE SAMPLE SOURCE
RMB .OHMM               0.25 : RESISTIVITY MUD AT BHT
TCS .HRS                   7 : TIME CIRCULATED STOPPED
LUN .                   8054 : LOGGING UNIT NUMBER
LUL .                     WC : LOGGING UNIT LOCATION
ENGI.        MOORE MCFADZEAN : RECORDING ENGINEER
WITN.                  SAMIS : WITNESSED BY
CLNT.                A2DTECH : CLIENT CODE
ORIG.            2" 5" PRINT : ORIGIN OF DATA
UWI .       100061706804W600 : UNIQUE WELL ID
DICO. A2D Technologies, Inc. : DIGITIZING COMPANY
~Other -----------------------------------------------------
IEL-AC-NEUTRON LOG RUN
~ASCII -----------------------------------------------------
 1400.00000    -999.25  101.87570   13.74680  210.26340  180.73700    5.53290  101.87570    -999.25   48.83310   48.83310    5.53290   13.74680    -999.25    -999.25    6.89720    -999.25    -999.25    6.89720
 1450.00000    -999.25  109.57260   15.17650  197.27010  169.09600    5.91380  109.57260    -999.25   46.11000   46.11000    5.91380   15.17650    -999.25    -999.25    4.96930  -52.56920   -9.75290    4.96930
 1500.00000    -999.25   96.46750   15.14380  285.84700  239.25160    4.17970   96.46750    -999.25   59.03640   59.03640    4.17970   15.14380    -999.25    -999.25    3.63470  -50.44090   -7.47880    3.63470
 1550.00000    -999.25  102.26820   15.80480  173.32060  154.90400    6.45590  102.26820    -999.25   45.41620   45.41620    6.45590   15.80480    -999.25    -999.25    7.14800  -50.52590   -7.39950    7.14800
 1600.00000    -999.25   88.65550   13.87060  117.82690  109.48110    9.13400   88.65550    -999.25   44.44450   44.44450    9.13400   13.87060    -999.25    -999.25   10.66340  -50.74260   -7.31900   10.66340
 1650.00000    -999.25   89.14400   13.14820  130.41610  116.92210    8.55270   89.14400    -999.25   47.36060   47.36060    8.55270   13.14820    -999.25    -999.25   11.81120  -52.24050   -8.52260   11.81120
 1700.00000    -999.25  104.24810   14.10920  183.51960  159.75970    6.25940  104.24810    -999.25   41.51500   41.51500    6.25940   14.10920    -999.25    -999.25    5.39890  -56.47280  -12.45790    5.39890
 1750.00000    -999.25   87.47100   12.00180  151.15600  152.82110    6.54360   87.47100    -999.25   45.98410   45.98410    6.54360   12.00180    -999.25    -999.25    7.16110  -58.60710  -14.29670    7.16110
 1800.00000    -999.25  126.76790    9.02920  234.73180  196.18950    5.09860  126.76790    -999.25   32.79760   32.79760    5.09860    9.02920    -999.25    -999.25    5.58570  -61.20120  -16.59620    5.58570
 1850.00000    -999.25   88.56240   12.73020   99.75780   93.44140   10.70190   88.56240    -999.25   41.20880   41.20880   10.70190   12.73020    -999.25    -999.25   14.37630  -54.58550   -9.68330   14.37630
 1900.00000    -999.25   92.67900   12.85340  163.72740  156.69810    6.38170   92.67900    -999.25   40.92770   40.92770    6.38170   12.85340    -999.25    -999.25    6.71550  -54.65810   -9.46160    6.71550
 1950.00000    -999.25   99.88100   14.11450  166.37070  154.93070    6.45450   99.88100    -999.25   40.51240   40.51240    6.45450   14.11450    -999.25    -999.25    6.91220  -52.06870   -6.57520    6.91220
 2000.00000    -999.25   95.11650   15.49050  182.37870  156.26460    6.39940   95.11650    -999.25   40.46410   40.46410    6.39940   15.49050    -999.25    -999.25    5.95390  -54.56470   -8.77560    5.95390
 2050.00000    -999.25   99.49190   11.72790  135.73680  121.38150    8.24570   99.49190    -999.25   37.31470   37.31470    8.24570   11.72790    -999.25    -999.25    9.80310  -53.69300   -7.60950    9.80310
 2100.00000    -999.25   96.61280   15.00900  164.57460  148.52880    6.73270   96.61280    -999.25   41.07940   41.07940    6.73270   15.00900    -999.25    -999.25    7.85310  -54.84390   -8.46320    7.85310
 2150.00000    -999.25   92.94780   11.17230   81.02790   77.37600   12.92390   92.94780    -999.25   29.08350   29.08350   12.92390   11.17230    -999.25    -999.25   24.19210  -64.17970  -17.50460   24.19210
 2200.00000    -999.25   91.64890   10.98620   81.59440   76.94320   12.99660   91.64890    -999.25   34.33840   34.33840   12.99660   10.98620    -999.25    -999.25   22.12000  -65.39380  -18.42160   22.12000
 2250.00000    -999.25   95.04650   11.52610   89.39060   84.57880   11.82330   95.04650    -999.25   33.70450   33.70450   11.82330   11.52610    -999.25    -999.25   19.49270  -70.05900  -22.79130   19.49270
 2300.00000    -999.25   95.20620   12.66530   94.36340   89.06950   11.22740   95.20620    -999.25   31.63650   31.63650   11.22740   12.66530    -999.25    -999.25   17.74090  -67.41840  -19.85630   17.74090
 2350.00000    -999.25  100.13830   13.71290  191.81150  179.06390    5.58460  100.13830    -999.25   45.98040   45.98040    5.58460   13.71290    -999.25    -999.25    5.93920  -54.03400   -6.97560    5.93920
 2400.00000    -999.25   92.45950   16.00960  119.07900  111.57100    8.96290   92.45950    -999.25   63.48820   63.48820    8.96290   16.00960    -999.25    -999.25   11.14970  -54.54590   -8.74520   11.14970
 2450.00000    -999.25   91.54730   13.87890  124.16520  115.40150    8.66540   91.54730    -999.25   53.74650   53.74650    8.66540   13.87890    -999.25    -999.25    9.85150  -54.12090   -9.59000    9.85150
 2500.00000    -999.25   95.67790   13.47370  128.95360  118.56910    8.43390   95.67790    -999.25   67.02900   67.02900    8.43390   13.47370    -999.25    -999.25   10.30540  -54.35260  -11.08510   10.30540
 2550.00000    -999.25   88.62420   13.41110  102.90530   96.35480   10.37840   88.62420    -999.25   59.97710   59.97710   10.37840   13.41110    -999.25    -999.25   15.75610  -55.48310  -13.47350   15.75610
 2600.00000    -999.25   93.98050   11.99430  109.18100  103.15340    9.69430   93.98050    -999.25   91.43160   91.43160    9.69430   11.99430    -999.25    -999.25   14.22210  -52.87600  -12.13640   14.22210
 2650.00000    -999.25   85.19780   15.61030  103.14200   96.18900   10.39620   85.19780    -999.25   58.19260   58.19260   10.39620   15.61030    -999.25    -999.25   14.21590  -51.00120  -11.51940   14.21590
 2700.00000    -999.25   99.92050   16.33860  122.15040  114.21520    8.75540   99.92050    -999.25   61.25780   61.25780    8.75540   16.33860    -999.25    -999.25   10.23430  -50.44860  -12.23650   10.23430
 2750.00000    -999.25   91.08710   16.33860  127.94540  120.24430    8.31640   91.08710    -999.25   59.93430   59.93430    8.31640   16.33860    -999.25    -999.25    9.07110  -49.61390  -12.66540    9.07110
 2800.00000    -999.25   90.64200   14.70800  113.90730  107.16510    9.33140   90.64200    -999.25   51.76220   51.76220    9.33140   14.70800    -999.25    -999.25   10.12420  -40.42790   -4.73720   10.12420
 2850.00000    -999.25   81.78180   14.55050   68.25950   62.73050   15.94120   81.78180    -999.25   42.34070   42.34070   15.94120   14.55050    -999.25    -999.25   19.79500  -48.89840  -14.47780   19.79500
 2900.00000    -999.25   97.68640   16.33860   91.94880   86.42670   11.57050   97.68640    -999.25   54.73890   54.73890   11.57050   16.33860    -999.25    -999.25    9.83620  -40.91870   -7.75570    9.83620
 2950.00000    -999.25  102.60820   16.33860  102.98940   96.66880   10.34460  102.60820    -999.25   50.91670   50.91670   10.34460   16.33860    -999.25    -999.25    8.27090  -41.77660   -9.88340    8.27090
 3000.00000    -999.25   80.43560   16.33860   74.57610   71.35160   14.01510   80.43560    -999.25   54.64240   54.64240   14.01510   16.33860    -999.25    -999.25   12.29320  -44.10230  -13.79150   12.29320
 3050.00000    -999.25   82.02920   10.17700   54.77290   49.11850   20.35920   82.02920    -999.25   23.55420   23.55420   20.35920   10.17700    -999.25    -999.25   45.07980  -71.13650  -42.26660   45.07980
 3100.00000    -999.25   92.66210   11.97700   70.80660   67.01250   14.92260   92.66210    -999.25   46.89390   46.89390   14.92260   11.97700    -999.25    -999.25   20.86850  -56.90220  -29.14260   20.86850
 3150.00000    -999.25   82.44910   12.80730   70.17000   65.35390   15.30130   82.44910    -999.25   56.69110   56.69110   15.30130   12.80730    -999.25    -999.25   19.67530  -49.27780  -21.66840   19.67530
 3200.00000    -999.25   88.97710   16.33860   91.66990   85.76480   11.65980   88.97710    -999.25   56.07760   56.07760   11.65980   16.33860    -999.25    -999.25   12.39720  -47.78300  -20.32560   12.39720
 3250.00000    -999.25   81.95010   16.20130   87.86140   80.84400   12.36950   81.95010    -999.25   63.77770   63.77770   12.36950   16.20130    -999.25    -999.25   11.89770  -47.41110  -20.10510   11.89770
 3300.00000    -999.25   79.96230   16.16060   76.45910   73.67930   13.57350   79.96230    -999.25   60.33110   60.33110   13.57350   16.16060    -999.25    -999.25   14.83310  -46.57230  -19.41620   14.83310
