~Version ---------------------------------------------------
VERS. 2.0 : CWLS log ASCII Standard -VERSION 2.0
WRAP.  NO : ONE LINE PER DEPTH STEP
~Well ------------------------------------------------------
STRT.F                        1500.0 : START DEPTH
STOP.F                       10000.0 : STOP DEPTH
STEP.F                      50.00000 : STEP LENGTH
NULL.                        -999.25 : NULL VALUE
COMP. PHILLIPS PETROLEUM CANADA LTD. : COMPANY
WELL.    PHILLIPS KAYBOB 10-17-64-19 : WELL
FLD .                         KAYBOB : FIELD
LOC .                                : LOCATION
CTRY.                         CANADA : COUNTRY
SRVC.                          Welex : SERVICE COMPANY
DATE.                    17-Sep-1958 : LOGDATE
PROV.                        Alberta : PROVINCE
UWI .               100101706419W500 : UNIQUE WELL ID
SLAT.WGS84                  54.54004 : SURFACE LATITUDE
SLON.WGS84                 -116.8321 : SURFACE LONGITUDE
~Curve Information -----------------------------------------
DEPT .F    0   1   0  0 : 1 MEASURED DEPTH
GRN  .CPS  35 310 30 00 : GAMMA RAY FROM GRN LOG
NEUT .CPS  35 330 30 00 : NEUTRON
SPR  .MV   07 010 01 00 : SPONTANEOUS POTENTIAL FROM RESISTIVITY LOG
COND .MMHO 07 110 46 00 : INDUCTION CONDUCTIVITY
GUARD.OHMM 07 120 05 00 : GUARD LOG RESISITIVITY
MCAL .IN   15 280 01 00 : MLT (MICROLOG) CALIPER
~Params ----------------------------------------------------
LMF .                              KB : LOG MEASURED FROM
DAPD.FT                            14 : FEET ABOVE PERMANENT DATUM
DMF .                              KB : DRILLING MEASURED FROM
EKB .FT                          2588 : KELLY BUSHING
EDF .FT                          2586 : DRILLING FLOOR
EGL .FT                          2575 : GROUND LEVEL
DATE.                        09/17/58 : RUN DATE
RUN .                               1 : RUN NUMBER
DD  .FT                         10049 : DEPTH DRILLER
DL  .FT                         10047 : DEPTH LOGGER
BLI .FT                         10042 : BOTTOM LOG INTERVAL
TLI .FT                          1498 : TOP LOG INTERVAL
CS  .IN                         9.625 : CASING SIZE
CBD .FT                          1504 : CASING BOTTOM DRILLER
CBL .FT                          1498 : CASING BOTTOM LOGGER
BS  .IN                         7.875 : BIT SIZE
BSD .FT                         10049 : BIT SIZE AT DEPTH
DFT . OIL EMULSION GEL CAUSTIC TANNEX : DRILLING FLUID TYPE
DFD .                            10.9 : DRILLING FLUID DENSITY
DFV .                             114 : DRILLING FLUID VISCOSITY
DFPH.                             8.5 : DRILLING FLUID PH
DFL .                             4.1 : DRILLING FLUID LOSS
MSS .                      CIRCULATED : MUD SAMPLE SOURCE
RMS .OHMM                        3.84 : RESISTIVITY MUD SAMPLE
MST .DEGF                          54 : MUD SAMPLE TEMPERATURE
RMF .OHMM                           2 : RESISTIVITY MUD FILTRATE SAMPLE
MFST.DEGF                          72 : MUD FILTRATE SAMPLE TEMPERATURE
RMC .OHMM                        2.62 : RESISTIVITY MUD CAKE
MCST.DEGF                          69 : MUD CAKE SAMPLE TEMPERATURE
RMB .OHMM                        1.15 : RESISTIVITY MUD AT BHT
ENGI.                          FOWLER : RECORDING ENGINEER
WITN.                    HANKINS MOTE : WITNESSED BY
CLNT.                         A2DTECH : CLIENT CODE
ORIG.                     2" 5" PRINT : ORIGIN OF DATA
UWI .                100101706419W500 : UNIQUE WELL ID
DICO.          A2D Technologies, Inc. : DIGITIZING COMPANY
~Other -----------------------------------------------------
~ASCII -----------------------------------------------------
# ...
 6650.00000   45.17030  497.50440  -95.81880    0.03290   63.59810    8.28350
 6700.00000   58.73590  724.60110  -93.25460    0.00590  282.18330    8.25270
 6750.00000   30.83250  691.80340 -222.79670    0.00730  183.28200    8.09560
 6800.00000   30.36640  645.72250 -220.80560    0.00650  365.29330    8.34940
 6850.00000   34.54890  466.87810  -99.53590    0.14470    7.57610    8.46350
 6900.00000  110.00540  387.80890  -90.56110    0.18400    4.74620    8.42290
 6950.00000   76.50250  477.46460  -97.64450    0.03870   85.64310    8.38300
 7000.00000   60.97990  651.03550  -51.70160    0.01270   84.82460    8.47610
 7050.00000   39.26530  696.67200 -125.86930    0.00990  122.50410    8.28400
 7100.00000   44.10690  621.51720  -46.33820    0.02340   49.69970    8.30890
 7150.00000   30.39910  581.40090 -200.45210    0.01290   98.87320    7.70830
 7200.00000   37.99300  603.38380  -82.02670    0.07620   15.18590    8.34450
 7250.00000   43.32110  631.06600  -65.48180    0.01990   51.68170    8.35490
 7300.00000   61.38500  630.35750  -50.15750    0.00520  268.40710    8.37940
 7350.00000   54.58500  757.07290  -59.81930    0.00430 1186.98330    8.46440
 7400.00000   60.99410  576.60670  -60.36430    0.02100   52.49120    8.47970
 7450.00000   67.68470  564.99460  -69.84730    0.02610   41.51470    8.57030
 7500.00000  109.46630  420.41900  -63.46430    0.00890  243.18680    8.46010
 7550.00000   37.48830  815.87990  -76.00260    0.00500  580.72410    8.56920
 7600.00000   35.37390  827.10820  -87.82780    0.00430  530.66410    8.61470
 7650.00000   34.31320  824.70570  -77.14270    0.00460  860.74400    8.60080
 7700.00000   36.72130  819.40680 -107.00380    0.00510  474.47190    8.56380
 7750.00000   33.55290  798.99330  -70.03130    0.00510  493.37510    8.45380
 7800.00000   30.42930  753.51710 -104.58000    0.00580  290.39670    8.50830
 7850.00000   31.80990  743.02900 -102.81700    0.01140  106.13940    8.36310
 7900.00000   32.98790  750.56550  -76.21170    0.00620  274.41490    8.38790
 7950.00000   34.74320  784.88120  -87.02730    0.00790  209.31250    8.16160
 8000.00000   37.15590  789.79940  -83.47430    0.00680  233.28990    8.46360
 8050.00000   31.12790  797.93140 -106.43520    0.00500 1232.12550    8.40490
 8100.00000   35.75750  733.52910 -144.74590    0.00730  301.56890    8.31400
 8150.00000   32.58440  764.34670 -156.04140    0.00980  136.10880    8.32270
 8200.00000   35.51700  717.64860    -999.25    0.00720  221.54620    7.98260
 8250.00000   35.88430  798.33980 -199.95120    0.00440 1989.91830    8.56660
 8300.00000   39.67330  620.74820 -196.77760    0.03650   64.73980    8.14100
 8350.00000   36.05460  450.68040 -249.75890    0.02650   50.80320    7.73390
 8400.00000   45.19040  487.33980 -175.68560    0.01490   68.23610    8.41070
 8450.00000   46.89790  729.58510 -110.02370    0.00500  414.79340    8.35410
 8500.00000   48.71260  687.19530 -101.96240    0.00670  258.29460    8.27030
 8550.00000   66.62280  536.35610  -76.17920    0.01790   60.40280    8.31300
 8600.00000   33.70720  720.46140  -95.57710    0.00720  280.91370    8.03560
 8650.00000   61.05730  502.05350  -74.61100    0.06520   16.20640    8.24890
 8700.00000   72.18390  486.57940  -81.33790    0.08170   11.44030    8.23510
 8750.00000   77.50740  474.09490  -85.48540    0.09810    9.21530    8.21000
 8800.00000   53.14690  562.37050  -97.68830    0.03190   35.56790    8.18020
 8850.00000   58.37010  519.13350  -99.35880    0.08840   11.24800    8.19960
 8900.00000   49.26370  467.35140  -95.00660    0.03520   32.31680    7.92600
 8950.00000   94.64100  316.49050 -104.14290    0.27420    3.56030   10.14460
 9000.00000   95.18190  335.24690 -100.83260    0.17370    4.92990    8.71190
 9050.00000   97.24690  319.24670  -98.35120    0.26790    3.46410   10.19680
 9100.00000   96.59730  308.06250  -90.14850    0.29380    2.86700   10.48230
 9150.00000  101.67600  345.62840  -76.59020    0.15170    6.43360    8.29030
 9200.00000   81.94650  472.16530  -67.78400    0.11460    8.39410    7.86530
 9250.00000   97.44790  402.90700  -51.90280    0.14180    6.57530    8.00000
 9300.00000   93.34370  399.06650  -35.92940    0.07400   13.16590    7.97270
 9350.00000   87.70920  380.43080  -27.64610    0.16640    5.61960    7.71440
 9400.00000  118.02970  377.83230  -27.91690    0.16070    5.97190    8.03980
 9450.00000  104.33550  384.32350  -41.99840    0.08860   10.72740    7.82540
 9500.00000  109.61590  345.39650  -59.61690    0.14570    6.76830    8.04470
 9550.00000  117.54930  424.98340  -76.65400    0.01040  121.91210    7.74300
 9600.00000  105.48590  410.29030 -101.10920    0.01520   83.40180    7.97950
 9650.00000   45.08730  643.87670 -109.44530    0.01320  100.42180    7.79790
 9700.00000  131.35620  349.71890  -88.62760    0.04990   22.27420    8.19110
 9750.00000   64.85260  497.98980  -56.62080    0.01360  104.66470    7.94720
 9800.00000   67.31430  487.50160  -29.42800    0.10620   12.48230    7.88600
 9850.00000   45.97620  653.22280  -33.03990    0.00360 1734.60910    7.88110
 9900.00000   37.77070  653.59350 -168.18540    0.00930  132.78360    7.14830
 9950.00000   28.80370  790.16710 -110.22820    0.00340  535.68740    7.22100
 10000.00000   32.35760  655.63270 -121.98540    0.00480  435.02940    7.14180
