~Version ---------------------------------------------------
VERS.      2.0 : CWLS log ASCII Standard -VERSION 2.0
WRAP.       NO : One line per depth step
CREA. 08/01/17 : LAS Creation Date
~Well ------------------------------------------------------
STRT.FT                                1400.0 : START DEPTH
STOP.FT                               13550.0 : STOP DEPTH
STEP.FT                              50.00000 : STEP LENGTH
NULL.                                 -999.25 : NULL VALUE
COMP.               EXXONMOBIL RESOURCES LTD. : COMPANY
WELL. CDN-SUP ET AL BREWSTER CK 6-12-42-11 #6 : WELL
FLD .                                         : FIELD
LOC .                                         : LOCATION
CTRY.                                  CANADA : COUNTRY
SRVC.                            Schlumberger : SERVICE COMPANY
DATE.                             03-May-1962 : LOGDATE
PROV.                                 Alberta : PROVINCE
UWI .                        100061204211W500 : UNIQUE WELL ID
SLAT.WGS84                           52.60151 : SURFACE LATITUDE
SLON.WGS84                          -115.4546 : SURFACE LONGITUDE
~Curve Information -----------------------------------------
DEPT  .FT    : Depth Curve
CALMED.IN    : CALIPER FROM MICROLOG
CALWS .IN    : CALIPER [CALMED]
CILDED.MMHO  : CONDUCTIVITY FROM RESISTIVITY LOG
CONDWS.MMHO  : CONDUCTIVITY [1000/DRESWS]
DRESWS.OHMM  : DEEP RESISTIVITY [ILDED] IF DRESWS<1;1000/CONDWS
GRNED .GAPI  : GAMMA RAY FROM NEUTRON LOG
GRWS  .GAPI  : GAMMA RAY [GRNED]
ILDED .OHMM  : INDUCTION LOG DEEP RESISTIVITY
NEUTED.CPS   : NEUTRON FROM NEUTRON LOG
NEUTWS.CPS   : NEUTRON [NEUTED]
SNED  .OHMM  : 16 INCH SHORT NORMAL RESISTIVITY FROM IEL
SPRED .MV    : SPONTANEOUS POTENTIAL FROM RESISTIVITY LOG
SPWS  .MV    : SPONTANEOUS POTENTIAL [BASELINE 0 MV] [SPRED]
SRESWS.OHMM  : SHALLOW RESISTIVITY [SNED]
~Params ----------------------------------------------------
PD  .                     GL : PERMANENT DATUM
EPD .FT                 3360 : ELEVATION PERMANENT DATUM
LMF .                     KB : LOG MEASURED FROM
DAPD.FT                   16 : FEET ABOVE PERMANENT DATUM
EKB .FT                 3376 : KELLY BUSHING
EGL .FT                 3360 : GROUND LEVEL
DATE.               05/03/62 : RUN DATE
RUN .                      2 : RUN NUMBER
DD  .FT                13600 : DEPTH DRILLER
DL  .FT                13574 : DEPTH LOGGER
BLI .FT                13573 : BOTTOM LOG INTERVAL
TLI .FT                10193 : TOP LOG INTERVAL
CBD .FT                 1380 : CASING BOTTOM DRILLER
CBL .FT                 1380 : CASING BOTTOM LOGGER
BS  .IN                    9 : BIT SIZE
BSD .FT                13600 : BIT SIZE AT DEPTH
DFT .                 UNICAL : DRILLING FLUID TYPE
DFD .                    9.8 : DRILLING FLUID DENSITY
DFV .                    190 : DRILLING FLUID VISCOSITY
DFPH.                    8.5 : DRILLING FLUID PH
DFL .                    4.6 : DRILLING FLUID LOSS
RMS .OHMM                2.5 : RESISTIVITY MUD SAMPLE
MST .DEGF                 54 : MUD SAMPLE TEMPERATURE
RMF .OHMM               0.72 : RESISTIVITY MUD FILTRATE SAMPLE
MFST.DEGF                 71 : MUD FILTRATE SAMPLE TEMPERATURE
RMC .OHMM               1.08 : RESISTIVITY MUD CAKE
MCST.DEGF                 71 : MUD CAKE SAMPLE TEMPERATURE
RMB .OHMM               0.24 : RESISTIVITY MUD AT BHT
TCS .HRS                   5 : TIME CIRCULATED STOPPED
LUN .                   2771 : LOGGING UNIT NUMBER
ENGI.                 GORITZ : RECORDING ENGINEER
WITN.              MACINTOSH : WITNESSED BY
CLNT.                A2DTECH : CLIENT CODE
ORIG.            2" 5" PRINT : ORIGIN OF DATA
UWI .       100061204211W500 : UNIQUE WELL ID
DICO. A2D Technologies, Inc. : DIGITIZING COMPANY
~Other -----------------------------------------------------
~ASCII -----------------------------------------------------
# ...
 8750.00000   14.78810   14.78810  167.45230  173.36730    5.76810   98.06880   98.06880    5.76810  165.99380  165.99380    8.34980  -21.21130   -4.19210    8.34980
 8800.00000    9.47580    9.47580   81.91860   72.87780   13.72160   91.07220   91.07220   13.72160  229.21110  229.21110   19.01690  -21.75550   -4.68490   19.01690
 8850.00000    9.75230    9.75230   85.49630   76.90710   13.00270   73.03470   73.03470   13.00270  216.35040  216.35040   17.62720  -20.35970   -3.23760   17.62720
 8900.00000   10.07780   10.07780   91.60190   85.07890   11.75380   50.19010   50.19010   11.75380  238.88470  238.88470   15.28530  -21.12120   -3.94760   15.28530
 8950.00000    9.71380    9.71380   94.45770   89.92400   11.12070   82.71850   82.71850   11.12070  182.44650  182.44650   17.13300  -20.85900   -3.63370   17.13300
 9000.00000   12.48480   12.48480  185.18560  181.38940    5.51300  104.53870  104.53870    5.51300  195.33800  195.33800   10.74750  -22.33130   -5.05480   10.74750
 9050.00000    9.97510    9.97510   77.27530   71.08580   14.06750   64.65830   64.65830   14.06750  246.77880  246.77880   20.21440  -21.99220   -4.66420   20.21440
 9100.00000   10.88760   10.88760   93.05850   89.04320   11.23050   68.06100   68.06100   11.23050  206.35380  206.35380   15.81570  -20.36120   -2.98170   15.81570
 9150.00000   10.80090   10.80090   84.69730   79.17470   12.63030   70.75380   70.75380   12.63030  249.98250  249.98250   21.05000  -21.80940   -4.37850   21.05000
 9200.00000   10.03790   10.03790   73.93450   65.80400   15.19690   61.94620   61.94620   15.19690  251.15480  251.15480   20.86040  -20.36090   -2.87830   20.86040
 9250.00000   10.36270   10.36270   99.18390   92.08950   10.85900   68.32150   68.32150   10.85900  250.17020  250.17020   20.29650  -18.97400   -1.44010   20.29650
 9300.00000   10.01390   10.01390   96.33900   90.81990   11.01080   83.33360   83.33360   11.01080  211.12540  211.12540   16.43200  -20.48890   -2.90350   16.43200
 9350.00000    9.97930    9.97930   85.93270   77.15570   12.96080   90.41880   90.41880   12.96080  229.58970  229.58970   19.12220  -22.13490   -4.49810   19.12220
 9400.00000   11.25780   11.25780  106.68090  100.86030    9.91470   74.36780   74.36780    9.91470  229.47130  229.47130   15.03510  -20.82140   -3.13310   15.03510
 9450.00000   11.27660   11.27660   96.66010   93.63760   10.69020   72.95250   72.95250   10.69020  231.35050  231.35050   17.64680  -20.65460   -2.91460   17.64680
 9500.00000    9.58150    9.58150   70.79410   66.46370   15.04580   95.50230   95.50230   15.04580  212.92120  212.92120   20.26330  -22.88660   -5.09530   20.26330
 9550.00000   10.13860   10.13860   41.48820   31.43580   31.81090   53.93460   53.93460   31.81090  270.97970  270.97970   39.49370  -20.55550   -2.71280   39.49370
 9600.00000   13.94700   13.94700   53.59270   43.22680   23.13380   49.88380   49.88380   23.13380  246.18410  246.18410   29.42390  -25.83430   -6.56790   29.42390
 9650.00000   10.58690   10.58690   85.38070   81.91890   12.20720   87.61570   87.61570   12.20720  223.07810  223.07810   18.22680  -21.37220    0.48690   18.22680
 9700.00000    9.49370    9.49370   53.91250   44.30140   22.68710   59.00870   59.00870   22.68710  268.77380  268.77380   35.69340  -44.26350  -19.79890   35.69340
 9750.00000    9.62420    9.62420   62.87780   29.04350   34.43110   54.33680   54.33680   34.43110  346.72390  346.72390   42.75920  -57.59740  -30.55310   42.75920
 9800.00000    9.04530    9.04530   17.55020   11.74560   85.13850   21.27130   21.27130   85.13850  409.88770  409.88770  151.36850 -103.97800  -74.34100  151.36850
 9850.00000    9.60560    9.60560   13.17030    9.93700  100.63450   35.31110   35.31110  100.63450  388.76310  388.76310  204.82420  -74.08550  -41.85590  204.82420
 9900.00000   10.91360   10.91360   15.13970   11.21500   89.16650   33.15680   33.15680   89.16650  338.91840  338.91840  116.31250  -76.35220  -41.53000  116.31250
 9950.00000   11.16540   11.16540   22.22150   16.09010   62.57470   40.22030   40.22030   62.57470  300.80430  300.80430   88.85810  -79.83830  -42.41050   88.85810
 10000.00000    9.46350    9.46350   23.48830   15.57730   64.19610   56.11200   56.11200   64.19610  320.09180  320.09180   94.43570  -88.45410  -48.44660   94.43570
 10050.00000    9.03880    9.03880   21.67780   15.43010   64.80820   87.89280   87.89280   64.80820  298.48900  298.48900   86.11670  -91.99740  -49.39730   86.11670
 10100.00000    9.03760    9.03760   16.08170   10.98890   91.00070   32.56010   32.56010   91.00070  388.68520  388.68520  152.67020 -136.74440  -91.55170  152.67020
 10150.00000    8.28980    8.28980   28.88170   18.42940   54.26110   34.28570   34.28570   54.26110  330.51180  330.51180  118.09990 -180.66360 -132.87820  118.09990
 10200.00000    9.32070    9.32070   16.65400   12.12210   82.50690   93.18790   93.18790   82.50690  322.67290  322.67290  103.80920 -114.17850  -63.78750  103.80920
 10250.00000    8.89910    8.89910   80.28520   72.17140   13.85590  107.53700  107.53700   13.85590  239.96160  239.96160   22.02350  -98.18560  -45.21500   22.02350
 10300.00000    8.92580    8.92580   47.34060   36.18090   27.63890   72.37250   72.37250   27.63890  318.70500  318.70500   54.01580  -79.14750  -23.58420   54.01580
 10350.00000    8.87270    8.87270   16.93250   11.25440   88.85390   61.11160   61.11160   88.85390  417.30370  417.30370  174.21420  -75.78420  -17.62830  174.21420
 10400.00000   10.39910   10.39910    6.37700    4.34470  230.16610   74.81780   74.81780  230.16610  343.18400  343.18400   86.53170  -95.01600   -6.45520   86.53170
 10450.00000   10.10540   10.10540    2.42990    1.38410  722.47080   50.55330   50.55330  722.47080  358.80170  358.80170  134.48640  -92.85600   -7.88170  134.48640
 10500.00000    9.96870    9.96870    2.35430    1.38520  721.93450   55.21950   55.21950  721.93450  339.42360  339.42360  141.35090  -85.11560   -3.69210  141.35090
 10550.00000   10.65540   10.65540    2.33470    1.38700  720.96870   48.46520   48.46520  720.96870  344.00850  344.00850  116.66840  -98.05270  -20.19790  116.66840
 10600.00000   10.50400   10.50400    3.09880    1.57540  634.75690   60.77670   60.77670  634.75690  401.19060  401.19060   80.87140 -119.95350  -45.66740   80.87140
 10650.00000   10.37050   10.37050   14.89860   13.52090   73.95980  105.32390  105.32390   73.95980  323.60480  323.60480   45.72970  -90.78150  -20.06400   45.72970
 10700.00000   11.69050   11.69050    7.25800    5.13490  194.88850   78.33480   78.33480  194.88850  324.79460  324.79460   72.80630  -96.88050  -29.74950   72.80630
 10750.00000   10.95220   10.95220    3.75570    1.87440  533.50100  240.01620  240.01620  533.50100  318.23860  318.23860  154.37950 -110.02020  -46.44000  154.37950
 10800.00000   11.85830   11.85830   12.31190   10.07480   99.25790   41.36180   41.36180   99.25790  331.49090  331.49090   55.10510 -139.28090  -79.26940   55.10510
 10850.00000   12.77610   12.77610    5.29630    3.60830  277.14190   46.94960   46.94960  277.14190  286.72570  286.72570  144.87590 -164.53090 -108.08810  144.87590
 10900.00000   11.28630   11.28630    2.49390    1.38760  720.66440   45.78650   45.78650  720.66440  374.44570  374.44570  111.88190 -135.56890  -82.69470  111.88190
 10950.00000   11.18300   11.18300    1.87080    1.38160  723.81580   35.89710   35.89710  723.81580  404.64990  404.64990  124.32190 -114.60370  -65.31610  124.32190
 11000.00000   12.94670   12.94670    5.10600    2.50710  398.87450   32.32460   32.32460  398.87450  329.28290  329.28290  110.94510 -136.76640  -91.02960  110.94510
 11050.00000   10.92730   10.92730    4.86840    3.04180  328.75210   52.47650   52.47650  328.75210  291.55870  291.55870   85.92600 -153.98040 -111.81220   85.92600
 11100.00000    8.88120    8.88120   16.99320   15.83780   63.14010   79.28710   79.28710   63.14010  334.59590  334.59590   75.27400 -176.03040 -137.43090   75.27400
 11150.00000    9.18020    9.18020   44.88500   42.56420   23.49390   55.54880   55.54880   23.49390  319.15950  319.15950   54.49590 -150.09700 -115.06610   54.49590
