~Version ---------------------------------------------------
VERS.      2.0 : CWLS log ASCII Standard -VERSION 2.0
WRAP.       NO : One line per depth step
CREA. 11/28/17 : LAS Creation Date
~Well ------------------------------------------------------
STRT.FT                         1150.0 : START DEPTH
STOP.FT                        10350.0 : STOP DEPTH
STEP.FT                       50.00000 : STEP LENGTH
NULL.                          -999.25 : NULL VALUE
COMP.           QUINTANA PETROLEUM LTD : COMPANY
WELL. QUINTANA ET AL HSOUND 6-33-61-17 : WELL
FLD .                                  : FIELD
LOC .                                  : LOCATION
CTRY.                           CANADA : COUNTRY
SRVC.                     Schlumberger : SERVICE COMPANY
DATE.                      09-Sep-1973 : LOGDATE
PROV.                          Alberta : PROVINCE
UWI .                 100063306117W500 : UNIQUE WELL ID
SLAT.WGS84                    54.31664 : SURFACE LATITUDE
SLON.WGS84                   -116.4934 : SURFACE LONGITUDE
~Curve Information -----------------------------------------
DEPT  .FT    : Depth Curve
CALSED.IN    : CALIPER FROM SONIC LOG
CALWS .IN    : CALIPER [CALSED]
CILDED.MMHO  : DEEP INDUCTION CONDUCTIVITY FROM RESISTIVITY LOG
CONDWS.MMHO  : CONDUCTIVITY [1000/DRESWS]
DRESWS.OHMM  : DEEP RESISTIVITY [1000/CILDED IF ILDED <=5, ILDED]
DTED  .US/F  : DELTA-TIME FROM SONIC LOG
DTWS  .US/F  : COMPRESSIONAL SONIC [DTED]
GRSED .GAPI  : GAMMA RAY FROM SONIC LOG
GRWS  .GAPI  : GAMMA RAY [GRSED]
ILDED .OHMM  : DEEP INDUCTION RESISTIVITY FROM RESISTIVITY LOG
ILMED .OHMM  : MEDIUM INDUCTION RESISTIVITY FROM RESISTIVITY LOG
LL8ED .OHMM  : 8 INCH LATEROLOG FROM RESWISTIVITY LOG
MRESWS.OHMM  : MEDIUM RESISTIVITY [ILMED]
SPRED .MV    : SPONTANEOUS POTENTIAL FROM RESISTIVITY LOG
SPWS  .MV    : SPONTANEOUS POTENTIAL [BASELINE 0 MV, SPRED]
SRESWS.OHMM  : SHALLOW RESISTIVITY [LL8ED]
~Params ----------------------------------------------------
PD  .                     GL : PERMANENT DATUM
EPD .FT               2958.7 : ELEVATION PERMANENT DATUM
LMF .                     KB : LOG MEASURED FROM
DAPD.FT                 17.5 : FEET ABOVE PERMANENT DATUM
EKB .FT               2976.2 : KELLY BUSHING
EGL .FT               2958.7 : GROUND LEVEL
DATE.               09/09/73 : RUN DATE
RUN .                      1 : RUN NUMBER
DD  .FT                10370 : DEPTH DRILLER
DL  .FT                10364 : DEPTH LOGGER
BLI .FT                10358 : BOTTOM LOG INTERVAL
TLI .FT                 1130 : TOP LOG INTERVAL
CBD .FT                 1130 : CASING BOTTOM DRILLER
CBL .FT                 1130 : CASING BOTTOM LOGGER
BS  .IN                 8.75 : BIT SIZE
BSD .FT                10370 : BIT SIZE AT DEPTH
DFT .               GEL CHEM : DRILLING FLUID TYPE
DFD .                    9.2 : DRILLING FLUID DENSITY
DFV .                    125 : DRILLING FLUID VISCOSITY
DFPH.                   10.5 : DRILLING FLUID PH
DFL .                    9.8 : DRILLING FLUID LOSS
MSS .             CIRCULATED : MUD SAMPLE SOURCE
RMS .OHMM               2.45 : RESISTIVITY MUD SAMPLE
MST .DEGF                 66 : MUD SAMPLE TEMPERATURE
RMF .OHMM               2.33 : RESISTIVITY MUD FILTRATE SAMPLE
MFST.DEGF                 65 : MUD FILTRATE SAMPLE TEMPERATURE
RMB .OHMM               0.85 : RESISTIVITY MUD AT BHT
TCS .HRS                 2.5 : TIME CIRCULATED STOPPED
LUN .                   7502 : LOGGING UNIT NUMBER
LUL .                    RDM : LOGGING UNIT LOCATION
ENGI.                  LEITH : RECORDING ENGINEER
WITN.                  FEDOR : WITNESSED BY
CLNT.                A2DTECH : CLIENT CODE
ORIG.            2" 5" PRINT : ORIGIN OF DATA
UWI .       100063306117W500 : UNIQUE WELL ID
DICO. A2D Technologies, Inc. : DIGITIZING COMPANY
~Other -----------------------------------------------------
~ASCII -----------------------------------------------------
# ...
 3300.00000    9.21960    9.21960   48.76380   49.22400   20.31530   70.63060   70.63060   40.47760   40.47760   20.31530    -999.25   29.96810    -999.25  -94.14290  -28.14420   29.96810
 3350.00000    9.31790    9.31790  198.33960  198.33960    5.04190   92.66670   92.66670   66.69100   66.69100    5.11140    -999.25    6.00440    -999.25  -85.26430  -19.26560    6.00440
 3400.00000    9.32280    9.32280  104.55010  113.77860    8.78900   85.32000   85.32000   58.63760   58.63760    8.78900    -999.25    9.47240    -999.25  -87.27990  -21.28120    9.47240
 3450.00000    9.93930    9.93930  139.02090  143.18240    6.98410   90.05660   90.05660   65.61010   65.61010    6.98410    -999.25    8.35230    -999.25  -84.62650  -18.62780    8.35230
 3500.00000   10.51260   10.51260  191.04780  191.04780    5.23430   95.89170   95.89170   75.46080   75.46080    5.20790    -999.25    6.51560    -999.25  -85.08610  -19.08740    6.51560
 3550.00000   11.66580   11.66580  140.74690  145.07890    6.89280   90.72630   90.72630   87.58820   87.58820    6.89280    -999.25    7.53900    -999.25  -89.31840  -23.31970    7.53900
 3600.00000   11.39920   11.39920  130.22850  131.50630    7.60420   86.55460   86.55460   83.21570   83.21570    7.60420    -999.25    8.37890    -999.25  -88.67580  -22.67710    8.37890
 3650.00000   11.77120   11.77120  142.66060  146.56950    6.82270   92.87510   92.87510   89.88820   89.88820    6.82270    -999.25    7.92940    -999.25  -88.19900  -22.20030    7.92940
 3700.00000    9.81660    9.81660  148.69500  152.20730    6.57000  104.01470  104.01470  162.21500  162.21500    6.57000    -999.25    9.13740    -999.25  -83.88570  -17.88700    9.13740
 3750.00000    9.45670    9.45670   99.11380  102.51890    9.75430   87.38950   87.38950   95.72870   95.72870    9.75430    -999.25   12.15160    -999.25  -84.15100  -18.15230   12.15160
 3800.00000    9.89000    9.89000  134.85880  137.28720    7.28400   90.74010   90.74010   97.29740   97.29740    7.28400    -999.25    8.50210    -999.25  -85.25830  -19.25960    8.50210
 3850.00000    9.81850    9.81850  137.88780  139.00860    7.19380   92.11150   92.11150   93.06100   93.06100    7.19380    -999.25    8.10990    -999.25  -85.97480  -19.97610    8.10990
 3900.00000   11.16030   11.16030  150.72350  152.90750    6.53990   93.91910   93.91910   85.13090   85.13090    6.53990    -999.25    7.64930    -999.25  -87.27770  -21.27900    7.64930
 3950.00000   11.55470   11.55470  141.34140  141.45990    7.06920   88.83010   88.83010   78.66500   78.66500    7.06920    -999.25    7.47330    -999.25  -86.06740  -20.06870    7.47330
 4000.00000   10.05100   10.05100  112.57240  113.97310    8.77400   83.08390   83.08390   74.32980   74.32980    8.77400    -999.25    9.97970    -999.25  -84.96050  -18.96180    9.97970
 4050.00000   10.55730   10.55730  148.86810  151.72200    6.59100   86.53310   86.53310   87.94320   87.94320    6.59100    -999.25    7.87210    -999.25  -84.00730  -18.00860    7.87210
 4100.00000   10.72970   10.72970  169.73970  172.81010    5.78670   91.71150   91.71150   95.63920   95.63920    5.78670    -999.25    6.97460    -999.25  -84.53780  -18.53910    6.97460
 4150.00000   10.32740   10.32740  138.78580  140.79550    7.10250   87.91040   87.91040   92.75450   92.75450    7.10250    -999.25    8.04450    -999.25  -83.76290  -17.76420    8.04450
 4200.00000   11.19580   11.19580  144.01360  144.93850    6.89950   89.55670   89.55670   91.07820   91.07820    6.89950    -999.25    7.73210    -999.25  -84.07480  -18.07610    7.73210
 4250.00000   11.14440   11.14440  157.64240  155.53310    6.42950   90.49940   90.49940   85.71960   85.71960    6.42950    -999.25    7.62060    -999.25  -82.83200  -16.83330    7.62060
 4300.00000   11.10490   11.10490  118.19830  119.19240    8.38980   86.66040   86.66040  101.58050  101.58050    8.38980    -999.25    9.62900    -999.25  -81.11240  -15.11370    9.62900
 4350.00000   10.28000   10.28000  118.32620  119.42440    8.37350   84.24410   84.24410   92.26090   92.26090    8.37350    -999.25    9.87920    -999.25  -81.17100  -15.17230    9.87920
 4400.00000   10.53450   10.53450  125.86360  127.89520    7.81890   86.33060   86.33060   89.81830   89.81830    7.81890    -999.25    8.84010    -999.25  -84.57440  -18.57570    8.84010
 4450.00000   10.39000   10.39000  131.58630  133.40670    7.49640   87.27560   87.27560  104.66420  104.66420    7.49640    -999.25    8.68670    -999.25  -84.42840  -18.42970    8.68670
 4500.00000   10.39270   10.39270  150.48930  152.75570    6.54640   88.32410   88.32410   99.83430   99.83430    6.54640    -999.25    8.39960    -999.25  -82.66090  -16.66220    8.39960
 4550.00000   10.53040   10.53040  168.76000  171.15960    5.84250   95.10830   95.10830  102.78770  102.78770    5.84250    -999.25    7.43540    -999.25  -81.18330  -15.18460    7.43540
 4600.00000   10.32670   10.32670  116.00040  118.26200    8.45580   92.84140   92.84140  110.62720  110.62720    8.45580    -999.25   11.87000    -999.25  -80.33860  -14.33990   11.87000
 4650.00000   10.19620   10.19620  131.30000  131.77310    7.58880   91.08250   91.08250  101.29890  101.29890    7.58880    -999.25   10.72450    -999.25  -79.64970  -13.65100   10.72450
 4700.00000    9.18960    9.18960   99.10900  101.18230    9.88320   94.88300   94.88300  124.88360  124.88360    9.88320    -999.25   15.16250    -999.25  -78.68830  -12.68960   15.16250
 4750.00000    9.50720    9.50720  114.53170  115.62030    8.64900   93.96250   93.96250  120.58140  120.58140    8.64900    -999.25   13.49070    -999.25  -77.88500  -11.88630   13.49070
 4800.00000   10.06030   10.06030  157.34250  160.77950    6.21970   93.83330   93.83330  102.90170  102.90170    6.21970    -999.25    9.11340    -999.25  -76.93680  -10.93810    9.11340
 4850.00000   10.61030   10.61030  150.54960  151.44170    6.60320   82.96500   82.96500   87.29000   87.29000    6.60320    -999.25    8.01280    -999.25  -79.09380  -13.10330    8.01280
 4900.00000   10.58140   10.58140  187.23630  187.23630    5.34080   87.03000   87.03000   97.13250   97.13250    5.33130    -999.25    6.72690    -999.25  -78.30700  -12.52450    6.72690
 4950.00000   10.49030   10.49030  186.16450  186.16450    5.37190   88.12010   88.12010   96.00370   96.00370    5.46220    -999.25    6.88530    -999.25  -77.17440  -11.60130    6.88530
 5000.00000   10.34440   10.34440  158.06480  159.16980    6.28260   85.14890   85.14890   98.32140   98.32140    6.28260    -999.25    7.96800    -999.25  -76.15330  -10.78810    7.96800
 5050.00000    9.99190    9.99190  117.61940  119.08450    8.39740   74.61780   74.61780   79.86320   79.86320    8.39740    -999.25   11.44260    -999.25  -78.58910  -13.43190   11.44260
 5100.00000   10.72290   10.72290  170.73840  167.19610    5.98100   85.46480   85.46480   97.22350   97.22350    5.98100    -999.25    7.57790    -999.25  -79.98810  -15.04030    7.57790
 5150.00000   11.73870   11.73870  242.97840  242.97840    4.11560   96.82670   96.82670   90.06780   90.06780    4.27580    -999.25    5.55660    -999.25  -81.28130  -16.54150    5.55660
 5200.00000   10.59910   10.59910    -999.25  180.73550    5.53290   90.52940   90.52940  103.40790  103.40790    5.53290    -999.25    6.56070    -999.25  -76.99250  -12.46200    6.56070
 5250.00000   10.99920   10.99920    -999.25  421.38970    2.37310  100.35680  100.35680   83.44710   83.44710    2.37310    2.26910    3.25300    2.26910  -76.29090  -11.96840    3.25300
 5300.00000   10.51210   10.51210    -999.25  336.55300    2.97130   95.90110   95.90110   90.13660   90.13660    2.97130    2.70340    4.02850    2.70340  -77.60790  -13.49340    4.02850
 5350.00000   10.65450   10.65450    -999.25  228.28440    4.38050   89.60150   89.60150   98.53200   98.53200    4.38050    4.22550    5.32110    4.22550  -76.23260  -12.32740    5.32110
 5400.00000    9.44050    9.44050    -999.25   80.26580   12.45860   72.44900   72.44900   65.74310   65.74310   12.45860   13.08190   21.49750   13.08190  -78.82290  -15.12570   21.49750
