~Version ---------------------------------------------------
VERS.      2.0 : CWLS log ASCII Standard -VERSION 2.0
WRAP.       NO : One line per depth step
CREA. 01/05/18 : LAS Creation Date
~Well ------------------------------------------------------
STRT.FT                         300.0 : START DEPTH
STOP.FT                       11250.0 : STOP DEPTH
STEP.FT                      50.00000 : STEP LENGTH
NULL.                         -999.25 : NULL VALUE
COMP.            MOBIL OIL CANADA LTD : COMPANY
WELL. MOBIL ET AL ROSEVEAR 10-4-54-15 : WELL
FLD .                              WC : FIELD
LOC .                                 : LOCATION
CTRY.                          CANADA : COUNTRY
SRVC.                    Schlumberger : SERVICE COMPANY
DATE.                     09-Jul-1971 : LOGDATE
PROV.                         Alberta : PROVINCE
UWI .                100100405415W500 : UNIQUE WELL ID
SLAT.WGS84                   53.63557 : SURFACE LATITUDE
SLON.WGS84                  -116.1457 : SURFACE LONGITUDE
~Curve Information -----------------------------------------
DEPT    .FT    : Depth Curve
CALDED  .IN    : CALIPER FROM DENSITY LOG [ADJ. TO RESISTIVITY LOG]
CALNED  .IN    : CALIPER FROM NEUTRON LOG [ADJ. TO RESISTIVITY LOG]
CALSED  .IN    : CALIPER FROM SONIC LOG [ADJ. TO RESISTIVITY LOG]
CALWS   .IN    : CALIPER [CALSED]
CILDED  .MMHO  : CONDUCTIVITY FROM RESISTIVITY LOG
CONDWS  .MMHO  : CONDUCTIVITY [1000/DRESWS]
DCORWS  .G/C3  : DENSITY CORRECTION [DRHOED]
DENWS   .G/C3  : FORMATION BULK DENSITY [RHOBED]
DPHILSED.V/V   : DENSITY POROSITY LIMESTONE [M=2.71 F=1.00] FROM DENSITY LOG [ADJ. TO RESISTIVITY LOG]
DPOLSWS .V/V   : DENSITY POROSITY LIMESTONE [CALC FROM DENWS, M=2.71 F=1.00]
DRESWS  .OHMM  : DEEP RESISTIVITY [1000/CILDED IF ILDED <=1, ILDED]
DRHOED  .G/C3  : DENSITY CORRECTION FROM DENSITY LOG [ADJ. TO RESISTIVITY LOG]
DTED    .US/F  : DELTA-T FROM SONIC LOG [ADJ. TO RESISTIVITY LOG]
DTWS    .US/F  : COMPRESSIONAL SONIC [DTED]
GRDED   .GAPI  : GAMMA RAY FROM DENSITY LOG [ADJ. TO RESISTIVITY LOG]
GRNED   .GAPI  : GAMMA RAY NEUTRON LOG [ADJ. TO RESISTIVITY LOG]
GRSED   .GAPI  : GAMMA RAY FROM SONIC LOG [ADJ. TO RESISTIVITY LOG]
GRWS    .GAPI  : GAMMA RAY [GRSED]
ILDED   .OHMM  : DEEP INDUCTION FROM RERSISTIVITY LOG
MCALED  .IN    : CALIPER FROM MICROLOG
NPOLSWS .V/V   : NEUTRON POROSITY LIMESTONE [SNPLSED]
RHOBED  .G/C3  : BULK DENSITY FROM DENSITY LOG  [ADJ. TO RESISTIVITY LOG]
SNED    .OHMM  : SHORT NORMAL RESISTIVITY FROM RESISTIVITY LOG
SNPLSED .V/V   : SIDE WALL NEUTRON POROSITY FROM DENSITY LOG [ADJ. TO RESISTIVITY LOG]
SPRED   .MV    : SPONTANEOUS POTENTIAL FROM RESISTIVITY LOG
SPWS    .MV    : SPONTANEOUS POTENTIAL [BASELINE 0 MV, SPRED]
SRESWS  .OHMM  : SHALLOW RESISTIVITY [SNED]
~Params ----------------------------------------------------
PD  .                     GL : PERMANENT DATUM
EPD .FT                 2903 : ELEVATION PERMANENT DATUM
LMF .                     KB : LOG MEASURED FROM
DAPD.FT                   13 : FEET ABOVE PERMANENT DATUM
EKB .FT                 2916 : KELLY BUSHING
EGL .FT                 2903 : GROUND LEVEL
DATE.               07/09/71 : RUN DATE
RUN .                      1 : RUN NUMBER
DD  .FT                11300 : DEPTH DRILLER
DL  .FT                11289 : DEPTH LOGGER
BLI .FT                11288 : BOTTOM LOG INTERVAL
TLI .FT                 1176 : TOP LOG INTERVAL
CBD .FT                 1176 : CASING BOTTOM DRILLER
CBL .FT                 1176 : CASING BOTTOM LOGGER
BS  .IN                 8.75 : BIT SIZE
BSD .FT                11300 : BIT SIZE AT DEPTH
DFT .                    GEL : DRILLING FLUID TYPE
DFD .                    9.1 : DRILLING FLUID DENSITY
DFV .                    100 : DRILLING FLUID VISCOSITY
DFPH.                     11 : DRILLING FLUID PH
DFL .                    8.2 : DRILLING FLUID LOSS
RMS .OHMM               2.46 : RESISTIVITY MUD SAMPLE
MST .DEGF                 71 : MUD SAMPLE TEMPERATURE
RMF .OHMM               2.36 : RESISTIVITY MUD FILTRATE SAMPLE
MFST.DEGF                 72 : MUD FILTRATE SAMPLE TEMPERATURE
RMC .OHMM               2.22 : RESISTIVITY MUD CAKE
MCST.DEGF                 72 : MUD CAKE SAMPLE TEMPERATURE
TCS .HRS                   5 : TIME CIRCULATED STOPPED
LUN .                   7501 : LOGGING UNIT NUMBER
LUL .                    EDM : LOGGING UNIT LOCATION
ENGI.                  PLUNE : RECORDING ENGINEER
WITN.                   DOAN : WITNESSED BY
CLNT.                A2DTECH : CLIENT CODE
ORIG.            2" 5" PRINT : ORIGIN OF DATA
UWI .       100100405415W500 : UNIQUE WELL ID
DICO. A2D Technologies, Inc. : DIGITIZING COMPANY
~Other -----------------------------------------------------
~ASCII -----------------------------------------------------
# ...
 1600.00000    -999.25    -999.25   10.74030   10.74030  167.93130  171.51960    -999.25    -999.25    -999.25    -999.25    5.83020    -999.25   91.05370   91.05370    -999.25    -999.25   59.34260   59.34260    5.83020    -999.25    -999.25    -999.25    6.18770    -999.25 -138.12840   -2.35850    6.18770
 1650.00000    -999.25    -999.25   10.33050   10.33050  111.40030  111.40820    -999.25    -999.25    -999.25    -999.25    8.97600    -999.25   89.29120   89.29120    -999.25    -999.25   63.35470   63.35470    8.97600    -999.25    -999.25    -999.25    9.90570    -999.25 -136.77360   -2.53980    9.90570
 1700.00000    -999.25    -999.25   11.09710   11.09710  126.38560  126.38870    -999.25    -999.25    -999.25    -999.25    7.91390    -999.25   93.77680   93.77680    -999.25    -999.25   59.73370   59.73370    7.91390    -999.25    -999.25    -999.25    9.12360    -999.25 -141.69020   -5.98510    9.12360
 1750.00000    -999.25    -999.25   10.77870   10.77870  179.02120  183.38190    -999.25    -999.25    -999.25    -999.25    5.45310    -999.25  100.16450  100.16450    -999.25    -999.25   80.10800   80.10800    5.45310    -999.25    -999.25    -999.25    5.61940    -999.25 -140.02510   -2.49490    5.61940
 1800.00000    -999.25    -999.25   10.72170   10.72170  160.60920  169.25630    -999.25    -999.25    -999.25    -999.25    5.90820    -999.25   91.07220   91.07220    -999.25    -999.25   73.92580   73.92580    5.90820    -999.25    -999.25    -999.25    6.93670    -999.25 -139.34200   -2.05690    6.93670
 1850.00000    -999.25    -999.25   10.77810   10.77810  113.10960  112.62320    -999.25    -999.25    -999.25    -999.25    8.88920    -999.25   86.76850   86.76850    -999.25    -999.25   67.16010   67.16010    8.88920    -999.25    -999.25    -999.25    8.13960    -999.25 -139.91530   -2.87660    8.13960
 1900.00000    -999.25    -999.25   10.26960   10.26960   94.89180   93.27050    -999.25    -999.25    -999.25    -999.25   10.72150    -999.25   83.41810   83.41810    -999.25    -999.25   54.47210   54.47210   10.72150    -999.25    -999.25    -999.25   10.22360    -999.25 -139.73280   -2.93810   10.22360
 1950.00000    -999.25    -999.25   10.78940   10.78940   96.35740   96.35440    -999.25    -999.25    -999.25    -999.25   10.37840    -999.25   84.91000   84.91000    -999.25    -999.25   70.20280   70.20280   10.37840    -999.25    -999.25    -999.25    7.81770    -999.25 -138.39150   -1.84310    7.81770
 2000.00000    -999.25    -999.25   10.38930   10.38930  128.86240  128.84270    -999.25    -999.25    -999.25    -999.25    7.76140    -999.25   82.18370   82.18370    -999.25    -999.25   63.55130   63.55130    7.76140    -999.25    -999.25    -999.25    7.44050    -999.25 -137.82390   -1.51950    7.44050
 2050.00000    -999.25    -999.25   10.53930   10.53930   90.81860   91.56170    -999.25    -999.25    -999.25    -999.25   10.92160    -999.25   81.41180   81.41180    -999.25    -999.25   62.67830   62.67830   10.92160    -999.25    -999.25    -999.25   10.28300    -999.25 -139.63590   -3.57670   10.28300
 2100.00000    -999.25    -999.25   10.09990   10.09990  284.53300  313.12650    -999.25    -999.25    -999.25    -999.25    3.19430    -999.25  101.34680  101.34680    -999.25    -999.25   78.99920   78.99920    3.19430    -999.25    -999.25    -999.25    4.07240    -999.25 -137.62600   -1.81320    4.07240
 2150.00000    -999.25    -999.25   10.00120   10.00120  175.42180  175.39860    -999.25    -999.25    -999.25    -999.25    5.70130    -999.25   98.97620   98.97620    -999.25    -999.25   77.13220   77.13220    5.70130    -999.25    -999.25    -999.25    5.31660    -999.25 -136.79220   -1.22330    5.31660
 2200.00000    -999.25    -999.25    9.75590    9.75590   99.63370   98.84350    -999.25    -999.25    -999.25    -999.25   10.11820    -999.25   78.53210   78.53210    -999.25    -999.25   66.10870   66.10870   10.11820    -999.25    -999.25    -999.25   10.16100    -999.25 -137.74820   -2.42580   10.16100
 2250.00000    -999.25    -999.25    9.90790    9.90790  125.63340  125.60760    -999.25    -999.25    -999.25    -999.25    7.96130    -999.25   85.33440   85.33440    -999.25    -999.25   75.16770   75.16770    7.96130    -999.25    -999.25    -999.25    6.92360    -999.25 -138.01380   -2.93530    6.92360
 2300.00000    -999.25    -999.25   10.41460   10.41460  184.90110  185.00020    -999.25    -999.25    -999.25    -999.25    5.40540    -999.25   94.99360   94.99360    -999.25    -999.25   78.98080   78.98080    5.40540    -999.25    -999.25    -999.25    5.54840    -999.25 -137.15590   -2.32260    5.54840
 2350.00000    -999.25    -999.25   10.46430   10.46430  203.74390  206.09120    -999.25    -999.25    -999.25    -999.25    4.85330    -999.25  100.10450  100.10450    -999.25    -999.25   85.63710   85.63710    4.85330    -999.25    -999.25    -999.25    5.79120    -999.25 -137.02070   -2.43380    5.79120
 2400.00000    -999.25    -999.25   10.08190   10.08190  120.54100  120.53710    -999.25    -999.25    -999.25    -999.25    8.29620    -999.25   88.37700   88.37700    -999.25    -999.25   66.12890   66.12890    8.29620    -999.25    -999.25    -999.25    8.71950    -999.25 -137.25750   -2.91450    8.71950
 2450.00000    -999.25    -999.25   10.63540   10.63540  173.64830  178.32320    -999.25    -999.25    -999.25    -999.25    5.60860    -999.25   94.59540   94.59540    -999.25    -999.25   76.21980   76.21980    5.60860    -999.25    -999.25    -999.25    5.18290    -999.25 -136.68660   -2.58990    5.18290
 2500.00000    -999.25    -999.25   10.54570   10.54570  160.83290  160.84150    -999.25    -999.25    -999.25    -999.25    6.21730    -999.25   84.78210   84.78210    -999.25    -999.25   68.00970   68.00970    6.21730    -999.25    -999.25    -999.25    5.51450    -999.25 -135.39940   -1.58980    5.51450
 2550.00000    -999.25    -999.25   10.74770   10.74770  224.86320  224.67370    -999.25    -999.25    -999.25    -999.25    4.45090    -999.25  107.44700  107.44700    -999.25    -999.25   81.65090   81.65090    4.45090    -999.25    -999.25    -999.25    5.00400    -999.25 -136.05400   -2.56030    5.00400
 2600.00000    -999.25    -999.25   10.21480   10.21480   94.45750   93.57650    -999.25    -999.25    -999.25    -999.25   10.68750    -999.25   80.21210   80.21210    -999.25    -999.25   54.25010   54.25010   10.68750    -999.25    -999.25    -999.25    9.74050    -999.25 -135.19990   -2.02360    9.74050
 2650.00000    -999.25    -999.25   10.28140   10.28140  122.39050  122.36760    -999.25    -999.25    -999.25    -999.25    8.17210    -999.25   89.87300   89.87300    -999.25    -999.25   61.95360   61.95360    8.17210    -999.25    -999.25    -999.25    9.65530    -999.25 -135.42710   -2.56500    9.65530
 2700.00000    -999.25    -999.25   10.24430   10.24430  173.71110  175.41320    -999.25    -999.25    -999.25    -999.25    5.70500    -999.25   91.33580   91.33580    -999.25    -999.25   83.52470   83.52470    5.70500    -999.25    -999.25    -999.25    5.83080    -999.25 -135.06180   -2.51710    5.83080
 2750.00000    -999.25    -999.25   10.12780   10.12780  215.57570  216.01070    -999.25    -999.25    -999.25    -999.25    4.62940    -999.25   92.04660   92.04660    -999.25    -999.25   87.79950   87.79950    4.62940    -999.25    -999.25    -999.25    4.82750    -999.25 -133.75930   -1.52890    4.82750
 2800.00000    -999.25    -999.25   10.06690   10.06690  309.88110  316.30560    -999.25    -999.25    -999.25    -999.25    3.16150    -999.25   93.56940   93.56940    -999.25    -999.25   86.67440   86.67440    3.16150    -999.25    -999.25    -999.25    3.62450    -999.25 -133.24030   -1.32570    3.62450
 2850.00000    -999.25    -999.25   11.12640   11.12640  234.69280  243.99330    -999.25    -999.25    -999.25    -999.25    4.09930    -999.25   99.21660   99.21660    -999.25    -999.25   74.81410   74.81410    4.09930    -999.25    -999.25    -999.25    4.55750    -999.25 -133.38840   -1.79120    4.55750
