~Version ---------------------------------------------------
VERS.      2.0 : CWLS log ASCII Standard -VERSION 2.0
WRAP.       NO : One line per depth step
CREA. 09/29/17 : LAS Creation Date
~Well ------------------------------------------------------
STRT.FT                      2600.0 : START DEPTH
STOP.FT                     12600.0 : STOP DEPTH
STEP.FT                    50.00000 : STEP LENGTH
NULL.                       -999.25 : NULL VALUE
COMP. AMOCO CANADA COMPANY LIMITED. : COMPANY
WELL.        AMOCO NIPAC 6-20-50-15 : WELL
FLD .                               : FIELD
LOC .                               : LOCATION
CTRY.                        CANADA : COUNTRY
SRVC.                  Schlumberger : SERVICE COMPANY
DATE.                   07-Aug-1978 : LOGDATE
PROV.                       Alberta : PROVINCE
UWI .              100062005015W500 : UNIQUE WELL ID
SLAT.WGS84                 53.32816 : SURFACE LATITUDE
SLON.WGS84                -116.1619 : SURFACE LONGITUDE
~Curve Information -----------------------------------------
DEPT    .FT    : Depth Curve
CALDED  .IN    : CALIPER FROM DENSITY LOG [ADJ. TO RESISTIVITY LOG]
CALSED  .IN    : CALIPER FROM SONIC LOG [ADJ. TO RESISTIVITY LOG]
CALWS   .IN    : CALIPER [CALSED]
CONDWS  .MMHO  : CONDUCTIVITY [1000/DRESWS]
DCORED  .G/C3  : DENSITY CORRECTION FROM DENSITY LOG [ADJ. TO RESISTIVITY LOG]
DCORWS  .G/C3  : DENSITY CORRECTION [DCORED]
DENWS   .G/C3  : BULK DENSITY [RHOBED]
DPHILSED.V/V   : DENSITY POROSITY LIMESTONE [M=2.71, F=1.00] FROM DENSITY LOG [ADJ. TO RESISTIVITY LOG]
DPHISSED.V/V   : DENSITY POROSITY SANDSTONE [M=2.65, F=1.00] FROM DENSITY LOG [ADJ. TO RESISTIVITY LOG]
DPOLSWS .V/V   : DENSITY POROSITY LIMESTONE [CALC FROM DENWS,M=2.71, F=1.00]
DRESWS  .OHMM  : DEEP RESISTIVITY [ILDED]
DTED    .US/F  : DELTA-T FROM SONIC LOG [ADJ. TO RESISTIVITY LOG]
DTWS    .US/F  : COMPRESSIONAL SONIC [DTED]
GRDED   .GAPI  : GAMMA RAY FROM DENSITY LOG [ADJ. TO RESISTIVITY LOG]
GRSED   .GAPI  : GAMMA RAY  FRPM SONIC LOG [ADJ. TO RESISTIVITY LOG]
GRWS    .GAPI  : GAMMA RAY [GRDED]
ILDED   .OHMM  : DEEP INDUCTION RESISTIVITY FROM RESISTIVITY LOG
ILMED   .OHMM  : MEDIUM INDUCTION RESISTIVITY FROM RESISTIVITY LOG
LL8ED   .OHMM  : LATEROLOG 8 RESISTIVITY FROM RESISTIVITY LOG
MRESWS  .OHMM  : MEDIUM RESISTIVITY [ILMED]
NPHILSED.V/V   : NEUTRON POROSITY LIMESTONE FROM DENSITY LOG [ADJ. TO RESISTIVITY LOG]
NPHISSED.V/V   : NEUTRON POROSITY SANDSTONE FROM DENSITY LOG [ADJ. TO RESISTIVITY LOG]
NPOLSWS .V/V   : NEUTRON POROSITY LIMESTONE [NPHISSED CONVERTED TO LIMESTONE MATRIX, SPL. TO NPHILSED @ 8990' ]
RHOBED  .G/C3  : BULK DENSITY  FROM DENSITY LOG [ADJ. TO RESISTIVITY LOG]
SFLED   .OHMM  : SPHERICALLY FOCUSED RESISTIVITY FROM RESISTIVITY LOG
SPRED   .MV    : SPONTANEOUS POTENTIAL FROM RESISTIVITY LOG
SPWS    .MV    : SPONTANEOUS POTENTIAL [BASELINE 0 MV,SPRED]
SRESWS  .OHMM  : SHALLOW RESISTIVITY [LL8ED SPL. TO SFLED @ 8997']
~Params ----------------------------------------------------
PD  .                     GL : PERMANENT DATUM
EPD .FT               101.84 : ELEVATION PERMANENT DATUM
LMF .                     KB : LOG MEASURED FROM
DAPD.FT                 6.22 : FEET ABOVE PERMANENT DATUM
DMF .                     KB : DRILLING MEASURED FROM
EKB .FT              1017.06 : KELLY BUSHING
EGL .FT              1010.84 : GROUND LEVEL
DATE.               08/07/78 : RUN DATE
RUN .                      3 : RUN NUMBER
DD  .FT               3846.6 : DEPTH DRILLER
DL  .FT                 3846 : DEPTH LOGGER
BLI .FT                 3845 : BOTTOM LOG INTERVAL
TLI .FT                 3290 : TOP LOG INTERVAL
CBD .FT                 2742 : CASING BOTTOM DRILLER
CBL .FT                 2741 : CASING BOTTOM LOGGER
BS  .MM                  216 : BIT SIZE
BSD .FT               3846.6 : BIT SIZE AT DEPTH
RMF .OHMM               1.36 : RESISTIVITY MUD FILTRATE SAMPLE
MFST.DEGF               22.2 : MUD FILTRATE SAMPLE TEMPERATURE
RMC .OHMM               0.94 : RESISTIVITY MUD CAKE
MCST.DEGF               24.4 : MUD CAKE SAMPLE TEMPERATURE
LUN .                   7809 : LOGGING UNIT NUMBER
LUL .                    EDM : LOGGING UNIT LOCATION
ENGI.            GUNN DRONEN : RECORDING ENGINEER
WITN.                CULSHAW : WITNESSED BY
CLNT.                A2DTECH : CLIENT CODE
ORIG.            2" 5" PRINT : ORIGIN OF DATA
UWI .       100062005015W500 : UNIQUE WELL ID
DICO. A2D Technologies, Inc. : DIGITIZING COMPANY
~Other -----------------------------------------------------
DIL-SFL/CNFD/BCS LOG RAN
SPRED HAS GAPS AT MANY INTERVAL DUE TO NOT VISIBILITY OF SP IN PRINT
GR RAN RAN THROUGH CASING FROM 8980'-9000' SO GRWS ADDED +10 API.
NEUTRON MATRIX CONVERSION FOR LIMESTONE USING SCHLUMBERGER CHART
MUD CONTAIN BARITE
~ASCII -----------------------------------------------------
# ...
 10100.00000   10.86140    9.28030    9.28030    0.80370    0.16140    0.16140    2.60940    0.06330    -999.25    0.05880 1244.25100   49.20420   49.20420    9.65300    7.72380    9.65300 1244.25100 1360.43250    -999.25 1360.43250    0.00590    -999.25    0.00590    2.60940 1442.94740  -51.68000  -60.84580 1442.00540
 10150.00000   11.13750    9.17190    9.17190    1.35950    0.12320    0.12320    2.70660    0.00070    -999.25    0.00200  735.56650   48.32590   48.32590    9.77340   10.25900    9.77340  735.56650  460.14170    -999.25  460.14170    0.00590    -999.25    0.00590    2.70660 1415.02080  -74.16780  -82.15270 1415.36560
 10200.00000   10.33050    9.07790    9.07790   14.06570    0.08340    0.08340    2.59160    0.07180    -999.25    0.06920   71.09500   48.59820   48.59820    9.86920    8.63640    9.86920   71.09500  244.81350    -999.25  244.81350    0.00320    -999.25    0.00320    2.59160 1298.56560 -110.13470 -116.93170 1112.56900
 10250.00000   12.72890    9.29230    9.29230    4.19520    0.12430    0.12430    2.38330    0.19310    -999.25    0.19110  238.36870   53.60440   53.60440   12.15190   11.40050   12.15190  238.36870  257.83300    -999.25  257.83300    0.01560    -999.25    0.01560    2.38330 1318.70590  -42.79610  -48.41230 1407.32950
 10300.00000   13.09030    9.33110    9.33110    1.19380    0.00640    0.00640    2.20920    0.29940    -999.25    0.29290  851.67310   49.79460   49.79460    7.84470    7.51910    7.84470  851.67310  333.28000    -999.25  333.28000    0.00910    -999.25    0.00910    2.20920 1233.73190  -44.51170  -48.94950 1320.07780
 10350.00000   10.14300    9.29790    9.29790   31.45870    0.16400    0.16400    2.65780    0.03270    -999.25    0.03050   31.78770   52.44460   52.44460    8.00270    7.42980    8.00270   31.78770   43.67900    -999.25   43.67900    0.01020    -999.25    0.01020    2.65780  112.08760  -65.64870  -68.89850  108.30140
 10400.00000   12.59580    9.36790    9.36790    0.71690    0.03940    0.03940    2.49070    0.13150    -999.25    0.12820 1394.94240   52.54810   52.54810   10.14770    9.25530   10.14770 1394.94240  583.52300    -999.25  583.52300    0.00340    -999.25    0.00340    2.49070 1439.45980    -999.25    -999.25 1438.58290
 10450.00000   13.03790    9.53430    9.53430    0.74660    0.10540    0.10540    2.45930    0.14920    -999.25    0.14660 1339.37990   49.29850   49.29850   11.59400   11.79520   11.59400 1339.37990  278.77010    -999.25  278.77010    0.01810    -999.25    0.01810    2.45930 1432.03110    -999.25    -999.25 1427.48950
 10500.00000   11.69190    9.30430    9.30430    4.81060    0.09350    0.09350    2.19030    0.30510    -999.25    0.30390  207.87630   51.96570   51.96570   10.74910    9.83710   10.74910  207.87630   74.53140    -999.25   74.53140    0.03250    -999.25    0.03250    2.19030  128.25710  -58.48280  -58.18310  132.12680
 10550.00000    8.65630    9.07340    9.07340    1.52320    0.01150    0.01150    2.89390   -0.12340    -999.25   -0.10750  680.25140   49.75800   49.75800    7.53360    5.92680    7.53360  680.25140  306.45470    -999.25  306.45470    0.01560    -999.25    0.01560    2.89390 1425.43250  -59.01990  -57.54170 1421.91380
 10600.00000    8.39840    8.47490    8.47490   60.52240    0.01810    0.01810    2.71430   -0.00700    -999.25   -0.00250   16.52280   51.19440   51.19440    7.07450    6.87400    7.07450   16.52280   28.69120    -999.25   28.69120    0.09030    -999.25    0.09030    2.71430  116.18130 -147.31050 -144.64440   94.80460
 10650.00000    8.73740    8.71400    8.71400    1.61900   -0.00840   -0.00840    2.90170   -0.12080    -999.25   -0.11210  617.65370   48.59470   48.59470    6.78550    6.96850    6.78550  617.65370 1489.06380    -999.25 1489.06380    0.00880    -999.25    0.00880    2.90170  829.48670  -76.10740  -72.26050  463.57960
 10700.00000    8.94630    8.68420    8.68420   32.34330    0.05730    0.05730    2.69590    0.00160    -999.25    0.00820   30.91830   54.22190   54.22190   59.03490   55.03500   59.03490   30.91830   32.79040    -999.25   32.79040    0.07210    -999.25    0.07210    2.69590   37.13160    -999.25    -999.25   36.74010
 10750.00000   11.38240    9.10760    9.10760    5.99630    0.09750    0.09750    2.49930    0.12340    -999.25    0.12320  166.76890   51.52350   51.52350   16.95880   13.95890   16.95880  166.76890   78.26530    -999.25   78.26530    0.07030    -999.25    0.07030    2.49930  163.99520  -91.97410  -72.41360  112.33690
 10800.00000   12.53120    8.91440    8.91440    7.75140    0.07320    0.07320    2.22860    0.28470    -999.25    0.28150  131.03080   52.68890   52.68890   21.20490   18.86980   21.20490  131.03080  195.07410    -999.25  195.07410    0.10650    -999.25    0.10650    2.22860  205.86220  -78.92490  -42.94350  214.65260
 10850.00000    8.67990    9.11340    9.11340   13.92860    0.11920    0.11920    2.78810   -0.05170    -999.25   -0.04570   71.79450   54.63250   54.63250   20.03200   15.27870   20.03200   71.79450   68.06560    -999.25   68.06560    0.10550    -999.25    0.10550    2.78810   86.62070  -58.50900   -5.97480   87.73020
 10900.00000    8.78720    8.45840    8.45840  131.91220    0.03050    0.03050    2.76440   -0.03980    -999.25   -0.03180    7.58080   45.23470   45.23470   10.12780   11.46370   10.12780    7.58080   10.12270    -999.25   10.12270    0.14290    -999.25    0.14290    2.76440   25.52460  -96.31070  -52.79480   24.78850
 10950.00000    8.53290    8.48580    8.48580   48.84770    0.08140    0.08140    2.70920   -0.00070    -999.25    0.00050   20.47180   37.11700   37.11700   10.91560   11.74370   10.91560   20.47180   30.58900    -999.25   30.58900    0.14720    -999.25    0.14720    2.70920   70.42910  -65.28190  -34.01300   68.53270
 11000.00000    8.90460    8.42320    8.42320   33.35470   -0.00720   -0.00720    2.69230    0.01070    -999.25    0.01040   29.98080   36.66590   36.66590   13.83620   15.43170   13.83620   29.98080   44.85320    -999.25   44.85320    0.08880    -999.25    0.08880    2.69230   85.15820  -74.32930  -55.23410   82.58390
 11050.00000    8.74800    8.48190    8.48190   63.60640    0.00790    0.00790    2.62600    0.04970    -999.25    0.04910   15.72190   39.15750   39.15750   15.06670   15.10950   15.06670   15.72190   23.19700    -999.25   23.19700    0.16770    -999.25    0.16770    2.62600   43.53750  -63.79070  -56.84490   43.56810
 11100.00000    9.18570    8.63560    8.63560   30.39900   -0.00140   -0.00140    2.71590   -0.01060    -999.25   -0.00340   32.89580   38.20750   38.20750   13.12640   15.24420   13.12640   32.89580   36.60660    -999.25   36.60660    0.09560    -999.25    0.09560    2.71590   69.65050  -55.62860  -60.92960   67.67690
 11150.00000   11.37150    9.40950    9.40950   11.63370    0.14930    0.14930    2.68160    0.01910    -999.25    0.01660   85.95730   37.66190   37.66190   33.96280   34.62380   33.96280   85.95730   76.49650    -999.25   76.49650    0.01820    -999.25    0.01820    2.68160  201.67830    8.01340  -28.60240  161.74070
 11200.00000   10.62450    9.58100    9.58100   38.53850    0.17540    0.17540    2.70180   -0.00530    -999.25    0.00480   25.94810   40.56390   40.56390   31.88100   31.41050   31.88100   25.94810   27.30090    -999.25   27.30090    0.05910    -999.25    0.05910    2.70180   34.43290   46.89730  -19.74310   33.50530
 11250.00000   11.05780    9.51140    9.51140   68.28500    0.12660    0.12660    2.72180   -0.00660    -999.25   -0.00690   14.64450   41.06750   41.06750   73.87210   76.94290   73.87210   14.64450   19.75150    -999.25   19.75150    0.06230    -999.25    0.06230    2.72180   35.34410   52.71550  -13.22450   25.16990
 11300.00000   12.01340   10.21230   10.21230  120.59940    0.10280    0.10280    2.70010   -0.00330    -999.25    0.00580    8.29300   46.27670   46.27670   73.41520   75.84400   73.41520    8.29300    8.91450    -999.25    8.91450    0.16590    -999.25    0.16590    2.70010   12.72410    -999.25    -999.25   12.83370
