~Version ---------------------------------------------------
VERS.      2.0 : CWLS log ASCII Standard -VERSION 2.0
WRAP.       NO : One line per depth step
CREA. 07/13/13 : LAS Creation Date
~Well ------------------------------------------------------
STRT.M                           300.0 : START DEPTH
STOP.M                          4000.0 : STOP DEPTH
STEP.M                        50.00000 : STEP LENGTH
NULL.                          -999.25 : NULL VALUE
COMP. CHEVRON CANADA RESOURCES LIMITED : COMPANY
WELL.    CHEVRON SHELL KARR 13-20-65-2 : WELL
FLD .                                  : FIELD
LOC .                                  : LOCATION
CTRY.                           CANADA : COUNTRY
SRVC.                     Schlumberger : SERVICE COMPANY
DATE.                      28-Jul-1996 : LOGDATE
PROV.                          Alberta : PROVINCE
UWI .                 100132006502W600 : UNIQUE WELL ID
SLAT.WGS84                    54.64389 : SURFACE LATITUDE
SLON.WGS84                   -118.2702 : SURFACE LONGITUDE
~Curve Information -----------------------------------------
DEPT    .M      : DEPTH METER
AHT10ED .OHMM   : 10 INCH RESISTIVITY TWO FOOT RESOLUTION FROM PEX-AIT-RXO LOG
AHT20ED .OHMM   : 20 INCH RESISTIVITY TWO FOOT RESOLUTION FROM PEX-AIT-RXO LOG
AHT30ED .OHMM   : 30 INCH RESISTIVITY TWO FOOT RESOLUTION FROM PEX-AIT-RXO LOG
AHT60ED .OHMM   : 60 INCH RESISTIVITY TWO FOOT RESOLUTION FROM PEX-AIT-RXO LOG
AHT90ED .OHMM   : 90 INCH RESISTIVITY TWO FOOT RESOLUTION FROM PEX-AIT-RXO LOG
AHTRTED .OHMM   : ARRAY INDUCTION TWO FOOT RT FROM PEX-AIT-RXO LOG
AHTRXED .OHMM   : ARRAY INDUCTION TWO FOOT RXO FROM PEX-AIT-RXO LOG
CAL2ED  .MM     : CALIPER 2 FROM CN-LDT LOG
CALDED  .MM     : CALIPER FROM CN-LDT LOG
CALWS   .MM     : CALIPER [CALSED SPL.TO CALDED @ 3909.3M]
CONDWS  .MMHO   : CONDUCTIVITY [1000/DRESWS]
DCORWS  .KG/M3  : DENSITY CORRECTION [HDRAED SPL.TO DRHOED @ 3909.7M]
DENWS   .KG/M3  : FORMATION BULK DENSITY [CALC FROM DPOLSWS, M=2710, F=1000]
DPHILSED.V/V    : DENSITY POROSITY LIMESTONE [M=2710, F=1000] FROM CN-LDT LOG
DPHZLSED.V/V    : DENSITY POROSITY LIMESTONE [M=2710, F=1000] FROM CND LOG
DPHZSSED.V/V    : DENSITY POROSITY SANDSTONE [M=2650, F=1000] FROM CND LOG
DPOLSWS .V/V    : DENSITY POROSITY LIMESTONE [DPHZSSED CONVERTED TO LS MATRIX,M=2710 F=1000 SPL.TO DPHZLSED @ 2678.9M & DPHILSED @ 3909.6M]
DRESWS  .OHMM   : DEEP RESISTIVITY [AHT90ED SPL.TO IDPHED @ 3913.9M]
DRHOED  .KG/M3  : DENSITY CORRECTION FROM CN-LDT LOG
DT1RRED .US/M   : DELTA TIME SHEAR LOWER DIPOLE RECEIVER [FROM REPEAT] FROM DIPOLE SONIC LOG
DT2ED   .US/M   : DELTA TIME SHEAR UPPER DIPOLE FROM DIPOLE SONIC LOG
DT2RED  .US/M   : DELTA TIME SHEAR RA-UPPER DIPOLE RECEIVER DIPOLE SONIC LOG
DT4PED  .US/M   : DELTA TIME COMP - P & S FROM DIPOLE SONIC LOG
DT4SED  .US/M   : DELTA TIME SHEAR WAVE P&S MODE FROM DIPOLE SONIC LOG
DTED    .US/M   : DELTA TIME FROM SONIC LOG
DTSWS   .US/M   : SHEAR SONIC [DT4SED]
DTWS    .US/M   : COMPRESSIONAL SONIC [DTED SPL.TO DT4PED @ 3909.3M]
GRDED   .GAPI   : GAMMA RAY FROM CND LOG
GRSED   .GAPI   : GAMMA RAY FROM SONIC LOG
GRWS    .GAPI   : GAMMA RAY [GRDED]
HCALSED .MM     : HRCC CALIPER CALIBRATED FROM SONIC LOG
HDED    .MM     : HOLE DIAMETER FROM SONIC LOG
HDRAED  .KG/M3  : DENSITY CORRECTION FROM CND LOG
IDPHED  .OHMM   : DEEP INDUCTION PHASOR FROM PI LOG
IMPHED  .OHMM   : MEDIUM INDUCTION PHASORFROM PI LOG
MRESWS  .OHMM   : MEDIUM RESISTIVITY [AHT30ED SPL.TO IMPHED @ 3913.9M]
NPOLSWS .V/V    : NEUTRON POROSITY LIMESTONE [NPORSSED MATRIX (SLB) CONVERSION FOR LIMESTONE, SPL.TO NPORLSED @ 2675.1M]
NPORLSED.V/V    : NEUTRON POROSITY LIMESTONE FROM CND LOG
NPORSSED.V/V    : NEUTRON POROSITY SANDSTONE FROM CND LOG
PEFED   .B/E    : PHOTOELECTRIC FACTOR FROM CN-LDT LOG
PEFWS   .B/E    : PHOTOELECTRIC FACTOR [PEFZED SPL.TO PEFED @ 3909.7M]
PEFZED  .B/E    : PHOTOELECTRIC FACTOR FROM CND LOG
RHOBED  .KG/M3  : BULK DENSITY FROM CN-LDT LOG
RHOZED  .KG/M3  : FORMATION DENSITY FROM CND LOG
RXOZED  .OHMM   : STANDARD RESOLUTION INVADED ZONE RESISTIVITY FROM PEX-AIT-RXO LOG
SPRED   .MV     : SPONTANEOUS POTENTIAL FROM PEX-AIT-RXO LOG
SPWS    .MV     : SPONTANEOUS POTENTIAL [BASELINE 0 MV, SPRED]
SRESWS  .OHMM   : SHALLOW RESISTIVITY [AHT10ED]
TENDED  .N      : TENSION FROM CND LOG
TENSED  .N      : TENSION FROM SONIC LOG
~Params ----------------------------------------------------
PD  .                                   GL : PERMANENT DATUM
EPD .M                               850.4 : ELEVATION PERMANENT DATUM
LMF .                                   KB : LOG MEASURED FROM
DAPD.M                                 6.8 : FEET ABOVE PERMANENT DATUM
DMF .                                   KB : DRILLING MEASURED FROM
EKB .M                                 857 : KELLY BUSHING
EGL .M                               850.4 : GROUND LEVEL
DATE.                             07/28/96 : RUN DATE
RUN .                                    1 : RUN NUMBER
DD  .M                                4006 : DEPTH DRILLER
DL  .M                                4002 : DEPTH LOGGER
BLI .M                              4000.2 : BOTTOM LOG INTERVAL
TLI .M                              3909.3 : TOP LOG INTERVAL
CS  .MM                              177.8 : CASING SIZE
CBD .M                                3918 : CASING BOTTOM DRILLER
CBL .M                              3909.3 : CASING BOTTOM LOGGER
BS  .MM                                152 : BIT SIZE
BSD .M                                4006 : BIT SIZE AT DEPTH
DFT .                               ENVERT : DRILLING FLUID TYPE
DFD .                                 1610 : DRILLING FLUID DENSITY
TCS .HRS                               930 : TIME CIRCULATED STOPPED
TLAB.HRS                              1700 : TIME LOGGER AT BOTTOM
LUN .                                 2028 : LOGGING UNIT NUMBER
LUL .                        GRANDE PRAIRE : LOGGING UNIT LOCATION
ENGI.                              BAILLIE : RECORDING ENGINEER
WITN.                              LILLICO : WITNESSED BY
CLNT.                              A2DTECH : CLIENT CODE
ORIG. 6.5"/100 M 16.5"/100M 33"/100M PRINT : ORIGIN OF DATA
UWI .                     100132006502W600 : UNIQUE WELL ID
DICO.               A2D Technologies, Inc. : DIGITIZING COMPANY
~Other -----------------------------------------------------
PEX-AIT-RXO-PI-CNL-LDT-DSI-BCS LOG RUN IN COMBO
RHOZED,RHOBED DIG IN SMALL SCALE
~ASCII -----------------------------------------------------
# ...
 1800.00000    2.37580    3.98790    4.44960    5.26590    5.03640    5.25500    2.36440    -999.25    -999.25  323.85580  198.55450    -999.25    -999.25    -999.25    -999.25    -999.25    -999.25    5.03640    -999.25    -999.25    -999.25    -999.25    -999.25    -999.25  314.37440    -999.25  314.37440    -999.25   98.22130   98.22130  323.85580  400.91120    -999.25    -999.25    -999.25    4.44960    -999.25    -999.25    -999.25    -999.25    -999.25    -999.25    -999.25    -999.25    1.43730    3.65060   -3.85760    2.37580    -999.25 14891.60740
 1850.00000    1.81140    2.63070    2.87180    3.51800    3.77550    3.76930    1.44140    -999.25    -999.25  295.14090  264.86560    -999.25    -999.25    -999.25    -999.25    -999.25    -999.25    3.77550    -999.25    -999.25    -999.25    -999.25    -999.25    -999.25  319.98140    -999.25  319.98140    -999.25   88.52750   88.52750  295.14090  365.76690    -999.25    -999.25    -999.25    2.87180    -999.25    -999.25    -999.25    -999.25    -999.25    -999.25    -999.25    -999.25    2.04010    9.73290   -2.08750    1.81140    -999.25 14548.40430
 1900.00000    4.47080    7.76990    9.08320   12.05010   12.92630    9.78270    4.26700    -999.25    -999.25  273.29470   77.36170    -999.25    -999.25    -999.25    -999.25    -999.25    -999.25   12.92630    -999.25    -999.25    -999.25    -999.25    -999.25    -999.25  273.41090    -999.25  273.41090    -999.25   90.94820   90.94820  273.29470  415.70340    -999.25    -999.25    -999.25    9.08320    -999.25    -999.25    -999.25    -999.25    -999.25    -999.25    -999.25    -999.25    3.13460   -2.80760  -19.69750    4.47080    -999.25 15035.42770
 1950.00000   16.38370   19.61790   19.43160   17.79300   18.69190   18.43870   16.44360    -999.25    -999.25  306.81170   53.49910    -999.25    -999.25    -999.25    -999.25    -999.25    -999.25   18.69190    -999.25    -999.25    -999.25    -999.25    -999.25    -999.25  237.82550    -999.25  237.82550    -999.25   86.05660   86.05660  306.81170  287.88490    -999.25    -999.25    -999.25   19.43160    -999.25    -999.25    -999.25    -999.25    -999.25    -999.25    -999.25    -999.25    4.33420   -9.66500  -31.62440   16.38370    -999.25 15492.98440
 2000.00000    4.80750    9.97840   12.42840   12.53450   18.83530   16.81310    4.27260    -999.25    -999.25  258.11050   53.09180    -999.25    -999.25    -999.25    -999.25    -999.25    -999.25   18.83530    -999.25    -999.25    -999.25    -999.25    -999.25    -999.25  204.38820    -999.25  204.38820    -999.25   74.74220   74.74220  258.11050  387.64120    -999.25    -999.25    -999.25   12.42840    -999.25    -999.25    -999.25    -999.25    -999.25    -999.25    -999.25    -999.25    8.82910  -22.30780  -48.64220    4.80750    -999.25 15205.21000
 2050.00000   18.93520   20.59850   21.00860   21.46720   22.18460   21.87500   18.05100    -999.25    -999.25  258.32340   45.07630    -999.25    -999.25    -999.25    -999.25    -999.25    -999.25   22.18460    -999.25    -999.25    -999.25    -999.25    -999.25    -999.25  207.46850    -999.25  207.46850    -999.25   64.70770   64.70770  258.32340  313.90840    -999.25    -999.25    -999.25   21.00860    -999.25    -999.25    -999.25    -999.25    -999.25    -999.25    -999.25    -999.25   16.76460   -6.11770  -34.08300   18.93520    -999.25 15289.80270
 2100.00000   18.26980   29.02140   31.35500   42.56630   48.80760   46.93060   17.21130    -999.25    -999.25  258.50890   20.48860    -999.25    -999.25    -999.25    -999.25    -999.25    -999.25   48.80760    -999.25    -999.25    -999.25    -999.25    -999.25    -999.25  209.97170    -999.25  209.97170    -999.25   47.80880   47.80880  258.50890  364.31200    -999.25    -999.25    -999.25   31.35500    -999.25    -999.25    -999.25    -999.25    -999.25    -999.25    -999.25    -999.25   24.56560  -14.81340  -44.23240   18.26980    -999.25 15357.36130
 2150.00000   19.38070   19.69370   20.29110   20.68730   21.10000   21.34080   20.76950    -999.25    -999.25  276.59520   47.39340    -999.25    -999.25    -999.25    -999.25    -999.25    -999.25   21.10000    -999.25    -999.25    -999.25    -999.25    -999.25    -999.25  216.76120    -999.25  216.76120    -999.25   69.70900   69.70900  276.59520  307.95940    -999.25    -999.25    -999.25   20.29110    -999.25    -999.25    -999.25    -999.25    -999.25    -999.25    -999.25    -999.25   21.60320    4.18590  -26.09370   19.38070    -999.25 15513.62500
 2200.00000   25.67980   24.96260   23.64650   22.53250   23.02190   26.24220   22.69980    -999.25    -999.25  281.79390   43.43690    -999.25    -999.25    -999.25    -999.25    -999.25    -999.25   23.02190    -999.25    -999.25    -999.25    -999.25    -999.25    -999.25  222.76680    -999.25  222.76680    -999.25   83.79200   83.79200  281.79390  333.81020    -999.25    -999.25    -999.25   23.64650    -999.25    -999.25    -999.25    -999.25    -999.25    -999.25    -999.25    -999.25   27.54380   11.93750  -19.20270   25.67980    -999.25 15923.93160
 2250.00000   23.19620   23.89890   24.94380   25.62460   27.34370   28.43740   24.05800    -999.25    -999.25  266.88400   36.57150    -999.25    -999.25    -999.25    -999.25    -999.25    -999.25   27.34370    -999.25    -999.25    -999.25    -999.25    -999.25    -999.25  246.15380    -999.25  246.15380    -999.25   95.74590   95.74590  266.88400  308.45800    -999.25    -999.25    -999.25   24.94380    -999.25    -999.25    -999.25    -999.25    -999.25    -999.25    -999.25    -999.25   31.66790   21.77320  -10.22750   23.19620    -999.25 16206.27830
 2300.00000   35.07610   47.15550   42.61210   44.19970   46.44440   49.09900   36.17420    -999.25    -999.25  257.14930   21.53110    -999.25    -999.25    -999.25    -999.25    -999.25    -999.25   46.44440    -999.25    -999.25    -999.25    -999.25    -999.25    -999.25  201.34800    -999.25  201.34800    -999.25   52.76430   52.76430  257.14930  348.12170    -999.25    -999.25    -999.25   42.61210    -999.25    -999.25    -999.25    -999.25    -999.25    -999.25    -999.25    -999.25   55.37160  -11.39260  -44.25390   35.07610    -999.25 18019.51760
 2350.00000   35.14910   29.61990   32.15320   26.71700   23.93620   31.19070   23.84740    -999.25    -999.25  238.32510   41.77770   46.76630 2457.11500    -999.25    -999.25    0.11690    0.14790   23.93620    -999.25    -999.25    -999.25    -999.25    -999.25    -999.25  219.92720    -999.25  219.92720   29.94570   29.68570   29.68570  238.32510  275.68170   46.76630    -999.25    -999.25   32.15320    0.10050    -999.25    0.14290    -999.25    2.52860    2.52860    -999.25 2459.06590   43.33650   14.12850  -19.90140   35.14910 16280.52340 16251.81050
 2400.00000   11.07270   10.69610   19.75650   26.43780   25.68640   24.13430   10.79980    -999.25    -999.25  381.43960   38.93110  367.91800 2228.09500    -999.25    -999.25    0.25570    0.28180   25.68640    -999.25    -999.25    -999.25    -999.25    -999.25    -999.25  237.41940    -999.25  237.41940   74.95950   76.52080   76.52080  381.43960  274.70930  367.91800    -999.25    -999.25   19.75650    0.31140    -999.25    0.35500    -999.25    4.15780    4.15780    -999.25 2252.55960    1.53400   21.84160  -21.60470   11.07270 16394.34960 16484.88870
 2450.00000    0.89540    1.31610    1.91690    4.17400    4.71980    4.31470    0.65210    -999.25    -999.25  623.25040  211.87340   77.13830 1535.26000    -999.25    -999.25    0.67560    0.68700    4.71980    -999.25    -999.25    -999.25    -999.25    -999.25    -999.25  354.31880    -999.25  354.31880   40.24960   40.50880   40.50880  623.25040  410.80060   77.13830    -999.25    -999.25    1.91690    0.85770    -999.25    0.86990    -999.25    4.34220    4.34220    -999.25 1541.16460    0.47040   47.90600   -5.15300    0.89540 15421.40330 15413.40230
 2500.00000   73.49440   66.85440   77.18800   85.38740   88.25720   94.84530   74.51270    -999.25    -999.25  245.95200   11.33050    1.89560 2728.70500    -999.25    -999.25   -0.04770   -0.01090   88.25720    -999.25    -999.25    -999.25    -999.25    -999.25    -999.25  189.58250    -999.25  189.58250   76.94400   77.10290   77.10290  245.95200  278.21540    1.89560    -999.25    -999.25   77.18800    0.12490    -999.25    0.16780    -999.25    3.45950    3.45950    -999.25 2729.37010  165.58130  -69.74390 -113.23900   73.49440 16469.44530 16519.75780
