~Version ---------------------------------------------------
VERS.      2.0 : CWLS log ASCII Standard -VERSION 2.0
WRAP.       NO : One line per depth step
CREA. 11/14/17 : LAS Creation Date
~Well ------------------------------------------------------
STRT.FT                                 1000.0 : START DEPTH
STOP.FT                                10050.0 : STOP DEPTH
STEP.FT                               50.00000 : STEP LENGTH
NULL.                                  -999.25 : NULL VALUE
COMP. THE BRITISH AMERICAN OIL COMPANY LIMITED : COMPANY
WELL.    B.A. FRONTIER LITTLE SMOKY 10-2-67-21 : WELL
FLD .                                          : FIELD
LOC .                                          : LOCATION
CTRY.                                   CANADA : COUNTRY
SRVC.                             Schlumberger : SERVICE COMPANY
DATE.                              21-Mar-1966 : LOGDATE
PROV.                                  Alberta : PROVINCE
UWI .                         100100206721W500 : UNIQUE WELL ID
SLAT.WGS84                            54.77228 : SURFACE LATITUDE
SLON.WGS84                           -117.0858 : SURFACE LONGITUDE
~Curve Information -----------------------------------------
DEPT  .FT    : Depth Curve
CALSED.IN    : CALIPER FROM SONIC LOG
CALWS .IN    : CALIPER [CALSED]
CILDED.MMHO  : CONDUCTIVITY FROM RESISTIVITY LOG
CONDWS.MMHO  : CONDUCTIVITY [1000/DRESWS]
DRESWS.OHMM  : DEEP RESISTIVITY [1000/CILDED, IF ILDED<1, ILDED]
DTED  .US/F  : DELTA-T FROM SONIC LOG
DTWS  .US/F  : COMPRESSISONAL SONIC [DTED]
GRSED .GAPI  : GAMMA RAY FROM SONIC LOG
GRWS  .GAPI  : GAMMA RAY [GRSED]
ILDED .OHMM  : DEEP INDUCTION FROM RESISTIVITY LOG
MCALED.IN    : MLT MICROLOG CALIPER FROM ML-C LOG
SNED  .OHMM  : SHORT NORMAL FROM RESISTIVITY LOG
SPRED .MV    : SPONTANEOUS POTENTIAL FROM RESISTIVITY LOG
SPWS  .MV    : SPONTANEOUS POTENTIAL [BASELINE 0 MV, SPRED]
SRESWS.OHMM  : SHALLOW RESISTIVITY [SNED]
~Params ----------------------------------------------------
PD  .                     GL : PERMANENT DATUM
EPD .FT                 2440 : ELEVATION PERMANENT DATUM
LMF .                     KB : LOG MEASURED FROM
DAPD.FT                   13 : FEET ABOVE PERMANENT DATUM
EKB .FT                 2453 : KELLY BUSHING
EGL .FT                 2440 : GROUND LEVEL
DATE.               03/21/66 : RUN DATE
RUN .                      1 : RUN NUMBER
DD  .FT                10080 : DEPTH DRILLER
DL  .FT                10081 : DEPTH LOGGER
BLI .FT                10080 : BOTTOM LOG INTERVAL
TLI .FT                 1022 : TOP LOG INTERVAL
CBD .FT                 1020 : CASING BOTTOM DRILLER
CBL .FT                 1022 : CASING BOTTOM LOGGER
BS  .IN                 8.75 : BIT SIZE
BSD .FT                10080 : BIT SIZE AT DEPTH
DFT .            CAUSTIC GEL : DRILLING FLUID TYPE
DFD .                    9.7 : DRILLING FLUID DENSITY
DFV .                     85 : DRILLING FLUID VISCOSITY
DFPH.                     10 : DRILLING FLUID PH
DFL .                      8 : DRILLING FLUID LOSS
RMS .OHMM               2.06 : RESISTIVITY MUD SAMPLE
MST .DEGF                 67 : MUD SAMPLE TEMPERATURE
RMF .OHMM               1.74 : RESISTIVITY MUD FILTRATE SAMPLE
MFST.DEGF                 67 : MUD FILTRATE SAMPLE TEMPERATURE
RMC .OHMM                2.3 : RESISTIVITY MUD CAKE
MCST.DEGF                 67 : MUD CAKE SAMPLE TEMPERATURE
RMB .OHMM               0.68 : RESISTIVITY MUD AT BHT
TCS .HRS                 4.5 : TIME CIRCULATED STOPPED
LUN .                   3534 : LOGGING UNIT NUMBER
LUL .                    WCT : LOGGING UNIT LOCATION
ENGI.               THOMPSON : RECORDING ENGINEER
WITN.              SCHOMAKER : WITNESSED BY
CLNT.                A2DTECH : CLIENT CODE
ORIG.            2" 5" PRINT : ORIGIN OF DATA
UWI .       100100206721W500 : UNIQUE WELL ID
DICO. A2D Technologies, Inc. : DIGITIZING COMPANY
~Other -----------------------------------------------------
~ASCII -----------------------------------------------------
# ...
 7900.00000    8.68800    8.68800    8.47410    4.16330  240.19140   50.38800   50.38800   15.36980   15.36980  240.19140    -999.25  151.54490 -147.22740  -85.37310  151.54490
 7950.00000    8.76020    8.76020    9.25850    4.01420  249.11430   52.41940   52.41940   15.90170   15.90170  249.11430    -999.25  200.07350 -134.47330  -72.66170  200.07350
 8000.00000    8.76340    8.76340    8.65530    5.34120  187.22500   52.94200   52.94200   16.94450   16.94450  187.22500    -999.25  135.63970 -148.76110  -86.99200  135.63970
 8050.00000    8.75810    8.75810   10.93740    6.21340  160.94270   51.96760   51.96760   14.31590   14.31590  160.94270    -999.25  114.52800 -176.06490 -114.33830  114.52800
 8100.00000    8.53530    8.53530   34.31770   30.51800   32.76760   53.39490   53.39490   18.65870   18.65870   32.76760    -999.25   92.81210 -209.00230 -147.31850   92.81210
 8150.00000    8.52480    8.52480   20.27620   15.81830   63.21790   53.86910   53.86910   13.60200   13.60200   63.21790    -999.25   97.73020 -206.69070 -145.04940   97.73020
 8200.00000    8.50300    8.50300   59.36970   56.82300   17.59850   55.82560   55.82560   31.85790   31.85790   17.59850    -999.25   40.69000 -148.00940  -86.41080   40.69000
 8250.00000    8.34450    8.34450   17.67680   14.55610   68.69970   54.73440   54.73440   15.05900   15.05900   68.69970    -999.25  115.81170 -171.54920 -109.99310  115.81170
 8300.00000    8.79180    8.79180   13.46910    8.90400  112.30950   51.94740   51.94740   27.57330   27.57330  112.30950    -999.25   87.83850 -155.24510  -93.73150   87.83850
 8350.00000    8.76250    8.76250   25.86670   24.83370   40.26790   53.93410   53.93410   33.31990   33.31990   40.26790    -999.25   71.25170  -95.38510  -33.91430   71.25170
 8400.00000    8.74420    8.74420   11.19320    7.09970  140.85180   53.26900   53.26900   31.77850   31.77850  140.85180    -999.25  131.78160  -74.17200  -12.74370  131.78160
 8450.00000    9.28490    9.28490   50.47640   45.76810   21.84930   79.59190   79.59190   65.31860   65.31860   21.84930    -999.25   31.47250  -64.71280   -3.32720   31.47250
 8500.00000    9.44090    9.44090    9.80960    4.72860  211.47810   57.95260   57.95260   19.16460   19.16460  211.47810    -999.25  136.99930 -101.45030  -40.10720  136.99930
 8550.00000    8.95450    8.95450   15.54870   11.20850   89.21780   56.71690   56.71690   26.05590   26.05590   89.21780    -999.25   87.02660  -88.64720  -27.34660   87.02660
 8600.00000    9.34710    9.34710   66.10730   64.65000   15.46790   63.46800   63.46800   58.85880   58.85880   15.46790    -999.25   23.10700  -63.60930   -2.35150   23.10700
 8650.00000   13.00000   13.00000  175.44900  187.38520    5.33660   76.05810   76.05810   70.92290   70.92290    5.33660    -999.25    6.80890  -73.30570  -13.55530    6.80890
 8700.00000   11.63010   11.63010  106.77630  106.36830    9.40130   66.99640   66.99640   56.25140   56.25140    9.40130    -999.25   10.57500  -71.40440  -13.58020   10.57500
 8750.00000   14.32100   14.32100  175.89760  176.31710    5.67160   79.33730   79.33730   66.94030   66.94030    5.67160    -999.25    5.09590  -80.18050  -24.26990    5.09590
 8800.00000   13.79980   13.79980  205.97840  205.97320    4.85500   82.63850   82.63850   79.44530   79.44530    4.85500    -999.25    5.13630  -77.99340  -23.99640    5.13630
 8850.00000   14.70140   14.70140  156.57340  156.57540    6.38670   78.10250   78.10250   71.39480   71.39480    6.38670   15.62130    5.77910  -86.73760  -34.66690    5.77910
 8900.00000   15.17980   15.17980  167.07340  167.07320    5.98540   76.98250   76.98250   63.54200   63.54200    5.98540   17.88810    5.23670  -94.50600  -44.34890    5.23670
 8950.00000   14.77480   14.77480  181.85730  181.87110    5.49840   79.10410   79.10410   73.35310   73.35310    5.49840   19.05700    4.93590  -79.74580  -31.51490    4.93590
 9000.00000   13.29500   13.29500  219.34660  219.35120    4.55890   85.92330   85.92330   80.27000   80.27000    4.55890   14.18830    4.97950  -64.02450  -17.70720    4.97950
 9050.00000    9.81600    9.81600   83.48690   81.63670   12.24940   62.98140   62.98140   66.97630   66.97630   12.24940    9.26060   15.77970  -52.54640   -8.14270   15.77970
 9100.00000    9.34530    9.34530   52.09450   51.83850   19.29070   60.55860   60.55860   59.37010   59.37010   19.29070    8.55700   23.45840  -48.90660   -6.42920   23.45840
 9150.00000    9.60950    9.60950   85.72400   84.41310   11.84650   68.81380   68.81380   81.95540   81.95540   11.84650   13.44070   15.68330  -54.88850  -14.32470   15.68330
 9200.00000    9.91670    9.91670   98.97410   98.97360   10.10370   70.18640   70.18640   84.62280   84.62280   10.10370   15.25880   13.74660  -56.63180  -17.99420   13.74660
 9250.00000    9.73190    9.73190   89.64790   89.64750   11.15480   67.22980   67.22980   73.49260   73.49260   11.15480   13.85150   14.75020  -37.50630   -0.78230   14.75020
 9300.00000    9.92870    9.92870  109.73770  109.73580    9.11280   61.75130   61.75130   74.85120   74.85120    9.11280   14.44210   12.76670  -42.67540   -6.35430   12.76670
 9350.00000    9.61590    9.61590  132.35660  132.35570    7.55540   75.15230   75.15230   88.87570   88.87570    7.55540   14.00850   10.79760  -55.14750  -18.82640   10.79760
 9400.00000    9.13990    9.13990   74.09470   72.75210   13.74530   64.49980   64.49980   61.93380   61.93380   13.74530   12.54460   17.40070  -53.09450  -16.77340   17.40070
 9450.00000    9.53170    9.53170  182.30560  189.27920    5.28320   66.92790   66.92790   80.30760   80.30760    5.28320   13.79090    8.43020  -56.67050  -20.34940    8.43020
 9500.00000    8.79020    8.79020   10.98340    8.81330  113.46530   72.09020   72.09020  108.71360  108.71360  113.46530    9.78620  100.11200  -38.47770   -2.15660  100.11200
 9550.00000    9.13810    9.13810   48.54510   48.70280   20.53270   62.80050   62.80050   46.84690   46.84690   20.53270    9.43830   27.46130  -41.47400   -5.15290   27.46130
 9600.00000   10.50780   10.50780  121.55490  118.47080    8.44090   79.84270   79.84270  100.71120  100.71120    8.44090   10.15880   14.28890  -59.76570  -23.44460   14.28890
 9650.00000    8.59890    8.59890   19.78310   20.12530   49.68860   55.11750   55.11750   29.77290   29.77290   49.68860    9.71280   45.40540  -45.34140   -9.02030   45.40540
 9700.00000    8.60350    8.60350   25.73200   23.94790   41.75730   57.45710   57.45710   38.21640   38.21640   41.75730    9.06740   43.53240  -48.61450  -12.29340   43.53240
 9750.00000    8.37250    8.37250   11.67070   10.01140   99.88630   55.01960   55.01960   24.44810   24.44810   99.88630    9.03150   75.65390  -59.38790  -23.06680   75.65390
 9800.00000    8.44950    8.44950   35.20200   34.95090   28.61160   58.00230   58.00230   45.04140   45.04140   28.61160    8.85350   33.34000  -52.56830  -16.24720   33.34000
 9850.00000    8.75900    8.75900   85.17130   81.04450   12.33890   65.65460   65.65460   77.86690   77.86690   12.33890    8.78350   16.95940  -55.76120  -19.44010   16.95940
 9900.00000    8.58610    8.58610    1.84040    3.90360  256.17450   53.48600   53.48600   47.59820   47.59820  256.17450    9.36320  109.48430  -63.50780  -27.18670  109.48430
 9950.00000    8.27050    8.27050    1.87710    1.73830  575.29060   51.60120   51.60120   24.99250   24.99250  575.29060    9.93320  204.82330  -86.16720  -49.84610  204.82330
 10000.00000    7.06430    7.06430   76.50100   69.92660   14.30070   64.71790   64.71790   49.64770   49.64770   14.30070    8.21310   33.75670 -142.32930 -106.00820   33.75670
 10050.00000    7.67290    7.67290  477.35520  640.53290    1.56120   61.40070   61.40070   58.68370   58.68370    1.56120    7.09920   17.53560 -158.00740 -121.68630   17.53560
