~Version ---------------------------------------------------
VERS.      2.0 : CWLS log ASCII Standard -VERSION 2.0
WRAP.       NO : One line per depth step
CREA. 09/16/14 : LAS Creation Date
~Well ------------------------------------------------------
STRT.FT                      1000.0 : START DEPTH
STOP.FT                      9200.0 : STOP DEPTH
STEP.FT                    50.00000 : STEP LENGTH
NULL.                       -999.25 : NULL VALUE
COMP. AMOCO CANADA PETROLEUM CO LTD : COMPANY
WELL.    AMOCO HB SAKWA 11-26-62-14 : WELL
FLD .                               : FIELD
LOC .                               : LOCATION
CTRY.                        CANADA : COUNTRY
SRVC.                       Unknown : SERVICE COMPANY
DATE.                   15-Jan-1977 : LOGDATE
PROV.                       Alberta : PROVINCE
UWI .              100112606214W500 : UNIQUE WELL ID
SLAT.WGS84                 54.39502 : SURFACE LATITUDE
SLON.WGS84                 -115.993 : SURFACE LONGITUDE
~Curve Information -----------------------------------------
DEPT   .FT    : Depth Curve
CALD   .IN    : CALIPER FROM DENSITY LOG
CALS   .IN    : CALIPER FROM SONIC LOG
DPHI_LS.DEC   : DENSITY POROSITY LIMESTONE [M=2.71,F=1.0] FROM DENSITY LOG
DPHI_SS.DEC   : DENSITY POROSITY SANDSTONE [M=2.65,F=1.0] FROM DENSITY LOG
DRHO   .G/C3  : DENSITY CORRECTION FROM DENSITY LOG
DT     .US/F  : DELTA-T FROM SONIC LOG
GRD    .GAPI  : GAMMA RAY FROM DENSITY LOG
GRS    .GAPI  : GAMMA RAY FROM SONIC LOG
ILD    .OHMM  : DEEP INDUCTION RESISTIVITY FROM RESISTIVITY LOG
ILM    .OHMM  : MEDIUM INDUCTION RESISTIVITY FROM RESISTIVITY LOG
LL8    .OHMM  : LATEROLOG 8 FROM RESISTIVITY LOG
NPHI_LS.DEC   : NEUTRON POROSITY LIMESTONE FROM DENSITY LOG
NPHI_SS.DEC   : NEUTRON POROSITY SANDSTONE FROM DENSITY LOG
RHOB   .G/C3  : BULK DENSITY FROM DENSITY LOG
SPR    .MV    : SPONTANEOUS POTENTIAL FROM RESISTIVITY LOG
~Params ----------------------------------------------------
PD  .                     GL : PERMANENT DATUM
EPD .FT                 2835 : ELEVATION PERMANENT DATUM
LMF .                     KB : LOG MEASURED FROM
DAPD.FT                 14.6 : FEET ABOVE PERMANENT DATUM
EKB .FT               2849.6 : KELLY BUSHING
EGL .FT               2835.0 : GROUND LEVEL
DATE.               01/15/77 : RUN DATE
RUN .                      1 : RUN NUMBER
DD  .FT                 9200 : DEPTH DRILLER
DL  .FT                 9205 : DEPTH LOGGER
BLI .FT                 9204 : BOTTOM LOG INTERVAL
TLI .FT                 1012 : TOP LOG INTERVAL
CBD .FT                 1015 : CASING BOTTOM DRILLER
CBL .FT                 1012 : CASING BOTTOM LOGGER
BS  .IN                 8.25 : BIT SIZE
BSD .FT                 9200 : BIT SIZE AT DEPTH
DFT .                    GEL : DRILLING FLUID TYPE
DFD .                    9.1 : DRILLING FLUID DENSITY
DFV .                    105 : DRILLING FLUID VISCOSITY
DFPH.                    9.5 : DRILLING FLUID PH
RMS .OHMM               3.85 : RESISTIVITY MUD SAMPLE
MST .DEGF                 48 : MUD SAMPLE TEMPERATURE
RMF .OHMM               3.25 : RESISTIVITY MUD FILTRATE SAMPLE
MFST.DEGF                 62 : MUD FILTRATE SAMPLE TEMPERATURE
TCS .HRS                   8 : TIME CIRCULATED STOPPED
LUN .                   7802 : LOGGING UNIT NUMBER
LUL .                    EDM : LOGGING UNIT LOCATION
ENGI.                   PIHM : RECORDING ENGINEER
WITN.            PHILLIPCHUK : WITNESSED BY
CLNT.                A2DTECH : CLIENT CODE
ORIG.            2" 5" PRINT : ORIGIN OF DATA
UWI .       100112606214W500 : UNIQUE WELL ID
DICO. A2D Technologies, Inc. : DIGITIZING COMPANY
~Other -----------------------------------------------------
~ASCII -----------------------------------------------------
# ...
 5600.00000    -999.25   10.43010    0.33980    0.21910    0.21940   82.48250   89.58410   90.58560    3.38230    3.24460    4.72960    0.41720    0.46040    2.35610  -25.26200
 5650.00000    9.09170    9.78850    0.08130    0.05480    0.01870   63.74780   68.75890   82.49120 1567.23000  339.71060  415.32780    0.08800    0.11990    2.57570  -20.08630
 5700.00000    9.53590    9.70180    0.05970    -999.25    0.05170   52.86160   37.92980   40.72780    6.64820    9.10520   27.19760    0.18120    -999.25    2.60840  -84.47050
 5750.00000    9.74210   10.33560    0.02980    -999.25    0.00680   60.16540   30.64170   73.94830   14.25470   17.83270   30.03410    0.10530    -999.25    2.66180  -58.69270
 5800.00000   10.83700   10.17700    0.04550    -999.25    0.02080   49.63640   10.15470   19.97380 1561.54980  243.19620  473.22910    0.00220    -999.25    2.62810  -75.77700
 5850.00000   11.07760   10.32230    0.03510    -999.25    0.01250   49.33840   14.43910   15.44600  613.72310  113.69620  166.05600   -0.00010    -999.25    2.64330  -97.05410
 5900.00000   10.42900   10.49790    0.05330    -999.25    0.05260   51.19100   17.79030   20.07050   91.80700   80.95920  406.20220    0.01280    -999.25    2.61950 -105.75270
 5950.00000   10.98260   10.50910    0.06840    -999.25    0.02240   73.10580   58.66310   83.93780    2.44550    2.44210    3.32610    0.21520    -999.25    2.58990  -58.76210
 6000.00000    9.97610    9.93260    0.07600    -999.25    0.01290   65.00510   54.92390  104.04740    5.62000    6.98890    9.41010    0.17580    -999.25    2.59160  -43.03250
 6050.00000    9.86050   10.15080    0.01910    -999.25    0.00350   54.03990   27.45250   18.45860   12.02360   12.91230   18.34090    0.02210    -999.25    2.67630  -40.28610
 6100.00000    9.52760    9.72330    0.01940    -999.25    0.02100   51.06590   21.60310   18.36380  102.06780   79.07410  497.02310    0.00970    -999.25    2.66770  -69.67480
 6150.00000    9.44380    9.97450    0.04430    -999.25    0.03230   61.43730   12.80970   18.93610   52.23840   74.93560  355.14740    0.01750    -999.25    2.63690  -74.50250
 6200.00000    9.27480    9.69460    0.01620    -999.25   -0.00030   55.27200   25.65840   30.34220   36.69770   34.34800   56.30690    0.02480    -999.25    2.68460  -48.71510
 6250.00000    9.24060    9.70850   -0.02190    -999.25    0.05430   54.59720   31.38390   31.78920   43.38440   36.22930   56.28620    0.02490    -999.25    2.73860  -29.72700
 6300.00000    9.31700    9.72060    0.04020    -999.25   -0.00860   55.57350   32.26850   43.12690   42.94730   36.96890   45.46800    0.02830    -999.25    2.64750  -19.72780
 6350.00000    9.30200    9.71510    0.02530    -999.25    0.00350   53.20130   35.08560   48.42780   46.68840   38.61640   44.79220    0.03390    -999.25    2.66630  -13.21270
 6400.00000    9.09470    9.73930    0.02870    -999.25    0.01720   56.78340   40.71450   45.69380   44.50600   34.94200   39.06650    0.04710    -999.25    2.66110   -9.21230
 6450.00000    9.80720   10.21590    0.04310    -999.25    0.02560   66.50870  109.69520  101.12680   15.86170   13.48000   17.75180    0.16410    -999.25    2.63800   -0.29750
 6500.00000    9.59150   10.15800    0.02260    -999.25    0.02650   59.90290   81.58720   77.79100   13.38000   12.62620   17.75670    0.08090    -999.25    2.65150  -21.68890
 6550.00000    9.68000   10.06990    0.00850    -999.25    0.00260   51.50280   25.12960   32.96140 1485.29600  245.97480  324.82330    0.00560    -999.25    2.69510  -13.84390
 6600.00000    9.78050   10.04900    0.03390    -999.25    0.00610   50.37770   15.87420   14.23440 1576.30300  291.24270  335.68800    0.00380    -999.25    2.64550  -61.85160
 6650.00000    9.82830   10.24780    0.02730    -999.25    0.01000   50.29550   12.82420   17.10710 1510.68920  217.94130  254.79390    0.00110    -999.25    2.66560  -65.67840
 6700.00000   10.99540   10.23910    0.02600    -999.25    0.00990   51.11840   11.10820   16.84270  310.65860  130.48440  147.58460    0.00330    -999.25    2.66610  -86.75420
 6750.00000    9.79890    9.82700   -0.02020    -999.25    0.05070   49.16450   11.51410   13.21670  217.44460  101.91750  131.52610    0.00540    -999.25    2.73390  -81.71770
 6800.00000    9.73650    9.86230    0.09150    -999.25    0.03360   49.05150    9.67380   10.40570  136.80400   94.83540  159.64900    0.00630    -999.25    2.55390 -102.20680
 6850.00000    8.40720    9.14250    0.05660    -999.25    0.11140   54.58280   10.75190   11.21100   12.99910   20.63660  147.77400    0.05270    -999.25    2.61760 -149.15080
 6900.00000   10.32850    9.92170    0.02700    -999.25    0.02340   50.71960   12.44600   11.55520 1537.38900  283.37530  957.16770   -0.00100    -999.25    2.66080  -87.71600
 6950.00000   10.31200   10.25420    0.04640    -999.25    0.04960   50.19760   13.08510   12.95230  103.89260   74.90090  387.11610    0.00480    -999.25    2.65450  -99.10670
 7000.00000   10.00050    9.77560    0.03100    -999.25    0.01050   49.02000   12.17190   15.73860 1589.09530  361.28740  428.52900    0.00070    -999.25    2.65490  -84.04730
 7050.00000    9.87130    9.75550    0.00680    -999.25    0.03000   49.38100   13.49440    9.31470 1535.99040  246.03370  258.80500    0.00180    -999.25    2.69990  -87.32510
 7100.00000    9.89870    9.28730    0.07070    -999.25    0.08640   54.54270   11.70040   14.24960   42.04890   46.06330  109.50760    0.01810    -999.25    2.62350 -115.53910
 7150.00000    9.68580    9.73250    0.03920    -999.25    0.03360   49.90450   10.04260   10.75250   64.48720   69.85310  258.27820    0.01430    -999.25    2.65140 -111.54400
 7200.00000    8.68600    9.74260    0.07410    -999.25    0.11050   51.03590   12.77300   19.47950   42.80120   56.79530  263.69800    0.05120    -999.25    2.59000 -125.90020
 7250.00000    9.54200    9.77130   -0.04180    -999.25    0.04510   48.08840   17.27040   13.19360  177.31030  125.18320  960.02940    0.02400    -999.25    2.80620  -64.13320
 7300.00000    9.79050    9.71810   -0.00460    -999.25    0.03470   58.42360   21.28490   46.70350   11.51460   11.17930   24.15530    0.07880    -999.25    2.68990  -54.93880
 7350.00000    9.07690    9.76850   -0.01650    -999.25    0.01710   47.80760   31.89160   26.41470   43.44680   48.12360   80.79550    0.09120    -999.25    2.74530 -167.09150
 7400.00000    9.33210    9.43950   -0.02020    -999.25    0.02930   51.41590   27.99900   21.93880   42.06700   34.38380   68.40020    0.08000    -999.25    2.74070 -154.28040
 7450.00000    9.09290    9.83240   -0.00260    -999.25    0.03230   49.79510   27.71910   33.37150   22.08740   18.64460   28.20810    0.07910    -999.25    2.71130 -149.31550
 7500.00000    9.27760    9.85360   -0.00200    -999.25    0.01230   52.48220   40.91910   36.34410   70.81910   48.54460   57.31790    0.04170    -999.25    2.70000  -96.57500
 7550.00000    9.26730    9.86060    0.02400    -999.25   -0.00160   53.91320   37.27360   40.27200  205.43490  109.67410  160.54360    0.01650    -999.25    2.66960  -92.29660
 7600.00000    9.24920    9.83880    0.00460    -999.25    0.01550   54.20370   33.51940   43.58870   91.05390   65.64910   76.07610    0.01940    -999.25    2.68530  -94.74500
 7650.00000    9.29900    9.86100    0.02480    -999.25    0.02050   57.12860   35.98750   48.22820   40.62570   35.41340   44.77660    0.02910    -999.25    2.66980  -89.70870
 7700.00000    9.45980    9.89760    0.04080    -999.25    0.00430   61.22750   52.54220   54.70000   16.47730   15.74650   19.73790    0.06120    -999.25    2.63550  -88.27990
 7750.00000    9.98790   10.19440    0.04130    -999.25    0.01060   70.33880   63.69320   78.58780    8.81400    8.64430   10.12480    0.10920    -999.25    2.63140  -84.45910
 7800.00000    9.76740    9.95800    0.10090    -999.25    0.07750   62.55300   72.31670   65.56720    6.36520    6.02770    7.45300    0.15390    -999.25    2.53700  -88.56200
 7850.00000    9.70020   10.26170    0.02770    -999.25    0.01080   70.05190   60.72860   76.68060   11.12890   10.39650   13.80380    0.10080    -999.25    2.64910  -83.91730
