~Version ---------------------------------------------------
VERS.      2.0 : CWLS log ASCII Standard -VERSION 2.0
WRAP.       NO : One line per depth step
CREA. 09/02/13 : LAS Creation Date
~Well ------------------------------------------------------
STRT.M                         400.0 : START DEPTH
STOP.M                        2900.0 : STOP DEPTH
STEP.M                      50.00000 : STEP LENGTH
NULL.                        -999.25 : NULL VALUE
COMP.      PEMBINA RESOURCES LIMITED : COMPANY
WELL. PEMBINA ET AL VIRGHILLS 2-32-6 : WELL
FLD .                 VIRGINIA HILLS : FIELD
LOC .                                : LOCATION
CTRY.                         CANADA : COUNTRY
SRVC.                   Schlumberger : SERVICE COMPANY
DATE.                    09-Feb-1985 : LOGDATE
PROV.                        Alberta : PROVINCE
UWI .               100023206413W500 : UNIQUE WELL ID
SLAT.WGS84                  54.57594 : SURFACE LATITUDE
SLON.WGS84                  -115.925 : SURFACE LONGITUDE
~Curve Information -----------------------------------------
DEPT   .M      : DEPTH METER
CALD   .MM     : CALIPER FROM DENSITY LOG
CALS   .MM     : CALIPER FROM SONIC LOG
DPHI_LS.DEC    : DENSITY POROSITY LIMESTONE [M=2710, F=1000] FROM DENSITY LOG
DPHI_SS.DEC    : DENSITY POROSITY SANDSTONE [M=2650, F=1000] FROM DENSITY LOG
DRHO   .KG/M3  : BULK DENSITY CORRECTION FROM DENSITY LOG
DT     .US/M   : DELTA T FROM SONIC LOG
GRS    .GAPI   : GAMMA RAY FROM SONIC LOG
ILD    .OHMM   : DEEP INDUCTION RESISTIVITY FROM RESISTIVITY LOG
ILM    .OHMM   : MEDIUM INDUCTION RESISTIVITY FROM RESISTIVITY LOG
LA     .MM     : LONG AXIS CALIPER FROM DENSITY LOG
NPHI_LS.DEC    : NEUTRON POROSITY LIMESTONE FROM DENSITY LOG
NPHI_SS.DEC    : NEUTRON POROSITY SANDSTONE FROM DENSITY LOG
RHOB   .KG/M3  : BULK DENSITY FROM DENSITY LOG
SFLU   .OHMM   : SHALLOW FOCUS FROM RESISTIVITY LOG
SGRDD  .GAPI   : GAMMA RAY FROM DENSITY LOG
SPR    .MV     : SPONTANEOUS POTENTIAL FROM RESISTIVITY LOG
~Params ----------------------------------------------------
PD  .                         GL : PERMANENT DATUM
EPD .M                    1160.5 : ELEVATION PERMANENT DATUM
LMF .                         KB : LOG MEASURED FROM
DAPD.M                       6.4 : FEET ABOVE PERMANENT DATUM
DMF .                         KB : DRILLING MEASURED FROM
EKB .M                    1166.5 : KELLY BUSHING
EDF .M                    1166.6 : DRILLING FLOOR
EGL .M                    1160.5 : GROUND LEVEL
DATE.                   02/09/85 : RUN DATE
RUN .                          1 : RUN NUMBER
DD  .M                      2920 : DEPTH DRILLER
DL  .M                    2922.5 : DEPTH LOGGER
BLI .M                    2920.5 : BOTTOM LOG INTERVAL
TLI .M                       428 : TOP LOG INTERVAL
CS  .MM                      244 : CASING SIZE
CBD .M                       428 : CASING BOTTOM DRILLER
CBL .M                       428 : CASING BOTTOM LOGGER
BS  .MM                      222 : BIT SIZE
BSD .M                      2920 : BIT SIZE AT DEPTH
DFT .                   GEL CHEM : DRILLING FLUID TYPE
DFD .                       1120 : DRILLING FLUID DENSITY
DFV .                         75 : DRILLING FLUID VISCOSITY
DFPH.                       11.5 : DRILLING FLUID PH
DFL .                        7.5 : DRILLING FLUID LOSS
MSS .                   FLOWLINE : MUD SAMPLE SOURCE
RMS .OHMM                  2.729 : RESISTIVITY MUD SAMPLE
MST .DEGC                     17 : MUD SAMPLE TEMPERATURE
RMF .OHMM                   2.36 : RESISTIVITY MUD FILTRATE SAMPLE
MFST.DEGC                     12 : MUD FILTRATE SAMPLE TEMPERATURE
RMC .OHMM                   1.05 : RESISTIVITY MUD CAKE
MCST.DEGC                     54 : MUD CAKE SAMPLE TEMPERATURE
MFSS.                       MEAS : MUD FILTRATE SAMPLE SOURCE
RMB .OHMM                  1.389 : RESISTIVITY MUD AT BHT
TCS .HRS                    1930 : TIME CIRCULATED STOPPED
TLAB.HRS                     603 : TIME LOGGER AT BOTTOM
LUN .                       8163 : LOGGING UNIT NUMBER
LUL .                        EDM : LOGGING UNIT LOCATION
ENGI.                     EVERLY : RECORDING ENGINEER
WITN.                     TURNER : WITNESSED BY
CLNT.                    A2DTECH : CLIENT CODE
ORIG. 6.5"/100M 16.5"/100M PRINT : ORIGIN OF DATA
UWI .           100023206413W500 : UNIQUE WELL ID
DICO.     A2D Technologies, Inc. : DIGITIZING COMPANY
~Other -----------------------------------------------------
~ASCII -----------------------------------------------------
  400.00000    -999.25    -999.25    -999.25    -999.25    -999.25    -999.25   37.71950    -999.25    -999.25    -999.25    -999.25    -999.25    -999.25    -999.25    -999.25    -999.25
  450.00000  312.19400  242.69390    -999.25    0.25740  146.86520  374.25540   79.88940    4.11530    3.60090  305.69270    -999.25    0.40520 2240.57080    3.72450   83.19070 -106.53780
  500.00000  230.75650  246.79740    -999.25    0.22800   33.54040  384.49150   76.92890    3.43770    3.07950  280.53260    -999.25    0.43670 2262.11250    2.64060   73.33410 -107.83100
  550.00000  236.15790  238.97890    -999.25    0.26930   92.57480  339.85040   69.72130    5.29350    5.04300  238.67570    -999.25    0.38600 2209.23440    6.87830   67.93010 -107.52140
  600.00000  254.10130  248.15250    -999.25    0.48970   91.25900  348.97210   69.93630    4.31140    4.07640  266.99240    -999.25    0.41430 1927.59010    4.77420   70.22740 -104.64750
  650.00000  229.38020  244.44200    -999.25    0.03690    5.00790  272.05010   61.89300    5.66250    5.38770  284.31770    -999.25    0.39310 2615.21700    6.09570   63.08410 -101.62040
  700.00000  260.00850  252.79370    -999.25    0.50970  103.48780  394.30430   69.90630    2.93250    2.68610  268.90180    -999.25    0.48120 1818.24980    2.63510   78.78270 -100.86890
  750.00000  237.52170  239.95430    -999.25    0.43880   90.05200  415.85500   77.26990    2.69980    2.52720  252.68750    -999.25    0.47480 2043.75120    2.36400   75.48500  -99.28420
  800.00000  277.58450  233.11170    -999.25    0.32790  216.50250  339.27580   62.95540    4.44480    4.17100  242.13680    -999.25    0.39570 2147.49190    3.99640   72.35720 -101.32570
  850.00000  224.86160  220.74740    -999.25    0.19870   58.52900  341.97690   56.75370    7.16750    6.51130  240.41840    -999.25    0.36200 2305.51340    8.33620   57.93300 -111.42770
  900.00000  254.58180  228.13510    -999.25    0.05830   -2.65570  241.23310   49.79830    7.84530    7.01560  220.99580    -999.25    0.20590 2574.02560    8.22750   47.89300 -101.65760
  950.00000  232.50100  234.71630    -999.25    0.21800   83.33100  334.99360   54.45930    3.45660    3.23430  263.58220    -999.25    0.40290 2307.49980    3.66370   55.44900  -95.59380
 1000.00000  270.19920  239.61540    -999.25    0.29210   44.27290  410.19920   51.66040    3.18710    2.77460  232.86090    -999.25    0.45090 2169.68190    2.49390   57.47070  -94.37380
 1050.00000  264.44770  245.52590    -999.25    0.16140   47.89610  333.95540   66.75870    3.80120    3.63360  255.13040    -999.25    0.41130 2387.59940    4.15490   63.96550  -93.97730
 1100.00000  369.16090  259.44050    -999.25    0.24960  237.22560  323.35960   88.95880    6.02810    5.35560  227.71040    -999.25    0.36710 2234.34990    5.06450   89.68530 -100.74770
 1150.00000  246.75940  235.25680    -999.25    0.25070   17.18210  328.30870   96.65390    5.70620    5.43490  244.33650    -999.25    0.39310 2240.17110    5.91210  101.49320  -95.68600
 1200.00000  243.57220  258.89180    -999.25    0.21990   22.43830  265.53630   89.02170    7.50560    7.13950  317.88560    -999.25    0.32210 2286.09080    7.77640   84.16580  -95.80900
 1250.00000  233.11060  256.76650    -999.25    0.23510   13.30790  319.50690   98.42020    6.36020    6.12090  316.33090    -999.25    0.40950 2266.15010    5.85650   96.52740  -93.46900
 1300.00000  230.09050  247.23190    -999.25    0.22290   43.19270  316.41770  105.03210    6.11510    5.60060  306.04910    -999.25    0.40880 2279.46730    5.66860  105.82650  -89.14650
 1350.00000  238.52830  251.76430    -999.25    0.09870  107.46820  332.68420  111.23920    5.92560    5.70020  294.74020    -999.25    0.41870 2481.65110    6.63640  119.06070  -81.22670
 1400.00000  245.67520  238.36160    -999.25    0.07960   75.55990  273.72440   76.86600    6.42670    6.13230  248.68130    -999.25    0.26840 2535.00510    7.91030   89.45460  -81.05910
 1450.00000  257.05380  244.62820    -999.25    0.10880   40.77540  305.99040  107.90970    4.11390    4.25570  258.14690    -999.25    0.34210 2468.21410    4.95530  105.47990  -73.23120
 1500.00000  276.32750  268.94540    -999.25    0.06740   14.25580  310.26120  107.39340    4.94240    4.74280  265.96140    -999.25    0.36600 2536.91260    4.55070  104.92420  -69.73570
 1550.00000  278.29410  256.11870    -999.25    0.02960   67.18990  280.21210   83.62930    3.03980    3.42870  244.36770    -999.25    0.36270 2599.48170    3.49020   83.01150  -65.68630
 1600.00000  241.11810  214.63690    -999.25    0.09660  113.90750  268.73530   79.77570    7.62790    8.75370  222.26630    -999.25    0.27770 2493.26420   10.03550   79.79700 -101.53900
 1650.00000  250.33630  240.73030    -999.25    0.40560   53.03380  374.20240   86.40580    5.06110    5.55000  267.55200    -999.25    0.54980 2079.45850    6.09910   85.00150  -72.42210
 1700.00000  246.78370  228.11490    -999.25    0.06550   50.35780  256.88010   61.41370    5.30040    7.22980  233.80170    -999.25    0.31090 2538.03640    9.69150   60.31880  -92.34250
 1750.00000  269.77470  266.92620    -999.25    0.07000   -8.84130  257.01940   61.10220    4.69940    5.06280  276.39200    -999.25    0.26410 2536.22880    5.96760   61.57710  -77.31540
 1800.00000  300.21200  294.16930    -999.25    0.05310   31.25700  259.46010   64.00180    4.73260    5.01960  312.75050    -999.25    0.27700 2542.68190    5.00510   68.65600  -58.70120
 1850.00000  334.06550  328.85470    0.15100    0.15320  152.36640  296.68570   83.59000    3.71950    3.41050  351.65220    0.42170    0.43620 2419.71700    3.82270   86.67980  -62.63440
 1900.00000  264.94290  266.06590    0.01730    -999.25   -2.95930  185.33330   50.71960   14.80070   16.95880  272.25860    0.04960    -999.25 2673.07060   26.04580   48.48780  -77.08090
 1950.00000  238.41180  256.13860    0.03580    -999.25   26.32950  174.46140   13.41470   60.06850   74.93030  294.11430    0.02390    -999.25 2650.77930  298.06870   14.40650 -163.95530
 2000.00000  253.62600  241.85250    0.07070    -999.25  107.95000  225.43460   43.00180    2.08080    3.19930  255.95360    0.19810    -999.25 2589.75630   10.04970   43.37060 -152.60540
 2050.00000  282.24080  282.35480    0.00270    -999.25    8.07050  175.60800   21.47480   31.07780   32.30070  284.23540    0.02900    -999.25 2698.26150   46.49400   18.30320  -91.46040
 2100.00000  236.08780  230.41800   -0.00260    -999.25   -0.22510  187.31930   39.69500   27.14540   27.94220  244.45090    0.02950    -999.25 2715.41410   32.41030   43.16510  -53.95700
 2150.00000  249.72790  243.69580   -0.01230    -999.25  -14.92020  170.00230   30.21670   56.31440   84.21860  256.60290    0.00380    -999.25 2730.37480  166.00910   28.84860  -67.59830
 2200.00000  248.29460  244.37680   -0.02540    -999.25    1.13050  163.46400   18.03930  380.47660  229.10140  259.50910    0.00160    -999.25 2751.31400  331.28970   19.46250  -68.48640
 2250.00000  239.62320  231.30300   -0.02220    -999.25    2.04270  158.06760   12.39590   69.35380  102.97520  237.66930    0.00350    -999.25 2751.08350  577.75320   14.44140 -148.70960
 2300.00000  248.67690  241.91790    0.01070    -999.25    1.07700  172.33460   14.12680   24.35560   31.45620  243.94870    0.01660    -999.25 2694.46440  165.32710   14.31090 -148.37420
 2350.00000  235.42320  220.91730   -0.00420    -999.25    2.86120  159.94990    9.33580   27.14280   51.98700  234.06620    0.00500    -999.25 2724.72000  195.02200   13.77200 -156.19920
 2400.00000  233.79490  233.43740   -0.08830    -999.25   11.64240  170.12220   34.73730   50.02750   74.78750  260.43750    0.02070    -999.25 2870.62770  189.60050   26.68310  -65.41510
 2450.00000  265.29140  240.75810   -0.05420    -999.25   13.42460  162.00980   24.60460   11.52590   13.57840  239.56690    0.05790    -999.25 2783.12080   21.05160   29.44760  -83.56150
 2500.00000  256.11270  248.16100   -0.01500    -999.25   -2.01850  193.61160   55.62710   14.89620   15.43160  252.73400    0.05990    -999.25 2734.58670   18.02250   59.19300  -20.45820
