~Version ---------------------------------------------------
VERS.      2.0 : CWLS log ASCII Standard -VERSION 2.0
WRAP.       NO : One line per depth step
CREA. 11/10/17 : LAS Creation Date
~Well ------------------------------------------------------
STRT.FT                        1050.0 : START DEPTH
STOP.FT                       11950.0 : STOP DEPTH
STEP.FT                      50.00000 : STEP LENGTH
NULL.                         -999.25 : NULL VALUE
COMP.        CHEVRON STANDARD LIMITED : COMPANY
WELL. SOBC AMERADA N SIMON 11-6-67-26 : WELL
FLD .                                 : FIELD
LOC .                                 : LOCATION
CTRY.                          CANADA : COUNTRY
SRVC.          Schlumberger of Canada : SERVICE COMPANY
DATE.                     28-Mar-1967 : LOGDATE
PROV.                         Alberta : PROVINCE
UWI .                100110606726W500 : UNIQUE WELL ID
SLAT.WGS84                   54.77215 : SURFACE LATITUDE
SLON.WGS84                  -117.9555 : SURFACE LONGITUDE
~Curve Information -----------------------------------------
DEPT  .FT    : Depth Curve
CALSED.IN    : CALIPER FROM BHC LOG [DEPTH ADJ. TO LL8ED]
CALWS .IN    : CALIPER [TOP MCALED 8838' CALSED TD]
CONDWS.MMHO  : CONDUCTIVITY [1000/DRESWS]
DRESWS.OHMM  : DEEP RESISTIVITY [ILDED]
DTED  .US/F  : DELTA TIME FROM BHC LOG  [DEPTH ADJ. TO LL8ED]
DTWS  .US/F  : DELTA TIME [DTED]
GRSED .GAPI  : GAMMA RAY FROM BHC LOG [DEPTH ADJ. TO LL8ED]
GRWS  .GAPI  : GAMMA RAY [GRSED]
ILDED .OHMM  : INDUCTION LOG DEEP RESISTIVITY FROM DIL LOG
ILMED .OHMM  : INDUCTION LOG MEDIUM RESISTIVITY FROM DIL LOG
LL8ED .OHMM  : LATEROLOG 8 RESISTIVITY FROM DIL LOG
MCALED.IN    : CALIPER MICROLOG FROM MLC LOG [DEPTH ADJ. TO CALSED]
MRESWS.OHMM  : MEDIUM RESISTIVITY [ILMED]
SPRED .MV    : SPONTANEOUS POTENTIAL FROM DIL LOG
SRESWS.OHMM  : SHALLOW RESISTIVITY [LL8ED]
~Params ----------------------------------------------------
PD  .                     GL : PERMANENT DATUM
EPD .FT               2588.1 : ELEVATION PERMANENT DATUM
LMF .                     KB : LOG MEASURED FROM
DAPD.FT                 15.9 : FEET ABOVE PERMANENT DATUM
DMF .                     KB : DRILLING MEASURED FROM
EKB .FT               2604.0 : KELLY BUSHING
EGL .FT               2588.1 : GROUND LEVEL
DATE.               03/28/67 : RUN DATE
RUN .                      2 : RUN NUMBER
DD  .FT                11983 : DEPTH DRILLER
DL  .FT                11980 : DEPTH LOGGER
BLI .FT                11976 : BOTTOM LOG INTERVAL
TLI .FT                 8850 : TOP LOG INTERVAL
CBD .FT                 8849 : CASING BOTTOM DRILLER
CBL .FT                 8850 : CASING BOTTOM LOGGER
BS  .IN                  8.5 : BIT SIZE
BSD .FT                11983 : BIT SIZE AT DEPTH
DFT .               GEL CHEM : DRILLING FLUID TYPE
DFD .                   11.6 : DRILLING FLUID DENSITY
DFV .                     70 : DRILLING FLUID VISCOSITY
DFPH.                   11.0 : DRILLING FLUID PH
MSS .                   CIRC : MUD SAMPLE SOURCE
RMS .OHMM               0.78 : RESISTIVITY MUD SAMPLE
MST .DEGF                 58 : MUD SAMPLE TEMPERATURE
RMF .OHMM               0.47 : RESISTIVITY MUD FILTRATE SAMPLE
MFST.DEGF                 66 : MUD FILTRATE SAMPLE TEMPERATURE
RMC .OHMM               0.63 : RESISTIVITY MUD CAKE
MCST.DEGF                 62 : MUD CAKE SAMPLE TEMPERATURE
RMB .OHMM               0.25 : RESISTIVITY MUD AT BHT
TCS .HRS                 2.5 : TIME CIRCULATED STOPPED
LUN .                   2547 : LOGGING UNIT NUMBER
LUL .                    EDM : LOGGING UNIT LOCATION
ENGI.                   BIGG : RECORDING ENGINEER
WITN.                HOVDEBO : WITNESSED BY
CLNT.                A2DTECH : CLIENT CODE
ORIG.            2" 5" PRINT : ORIGIN OF DATA
UWI .       100110606726W500 : UNIQUE WELL ID
DICO. A2D Technologies, Inc. : DIGITIZING COMPANY
~Other -----------------------------------------------------
~ASCII -----------------------------------------------------
 1050.00000    -999.25   15.77390  303.64680    3.29330    -999.25    -999.25    -999.25    -999.25    3.29330    3.56970    4.25410   15.77390    3.56970  -54.55420    4.25410
 1100.00000    -999.25   12.60050  339.08650    2.94910    -999.25    -999.25    -999.25    -999.25    2.94910    3.46760    4.09340   12.60050    3.46760  -54.90620    4.09340
 1150.00000    -999.25   13.19070  388.59100    2.57340    -999.25    -999.25    -999.25    -999.25    2.57340    3.22930    3.91130   13.19070    3.22930  -53.72490    3.91130
 1200.00000    -999.25   14.69840  330.20740    3.02840    -999.25    -999.25    -999.25    -999.25    3.02840    3.37120    3.94130   14.69840    3.37120  -56.71580    3.94130
 1250.00000    -999.25   15.35250  365.91170    2.73290    -999.25    -999.25    -999.25    -999.25    2.73290    3.20190    3.91710   15.35250    3.20190  -55.22490    3.91710
 1300.00000    -999.25   16.49270  319.31540    3.13170    -999.25    -999.25    -999.25    -999.25    3.13170    3.55230    4.08580   16.49270    3.55230  -55.14000    4.08580
 1350.00000    -999.25   16.22780  109.35420    9.14460    -999.25    -999.25    -999.25    -999.25    9.14460    9.93070   11.84580   16.22780    9.93070  -59.67050   11.84580
 1400.00000    -999.25   15.28230  380.82180    2.62590    -999.25    -999.25    -999.25    -999.25    2.62590    2.85210    3.41010   15.28230    2.85210  -53.80490    3.41010
 1450.00000    -999.25   15.00480  341.58260    2.92760    -999.25    -999.25    -999.25    -999.25    2.92760    3.60890    4.00830   15.00480    3.60890  -51.40310    4.00830
 1500.00000    -999.25   14.93780  256.50890    3.89850    -999.25    -999.25    -999.25    -999.25    3.89850    4.28380    5.07460   14.93780    4.28380  -53.22730    5.07460
 1550.00000    -999.25   12.86970  329.51100    3.03480    -999.25    -999.25    -999.25    -999.25    3.03480    3.29870    4.28670   12.86970    3.29870  -52.94750    4.28670
 1600.00000    -999.25   12.73360  332.31420    3.00920    -999.25    -999.25    -999.25    -999.25    3.00920    3.37130    3.91510   12.73360    3.37130  -52.01080    3.91510
 1650.00000    -999.25   11.69060  178.73420    5.59490    -999.25    -999.25    -999.25    -999.25    5.59490    6.51620    8.43700   11.69060    6.51620  -58.46680    8.43700
 1700.00000    -999.25   13.99410  314.98050    3.17480    -999.25    -999.25    -999.25    -999.25    3.17480    4.08770    4.76600   13.99410    4.08770  -52.32620    4.76600
 1750.00000    -999.25   15.82280  537.77900    1.85950    -999.25    -999.25    -999.25    -999.25    1.85950    2.07370    2.26120   15.82280    2.07370  -51.51140    2.26120
 1800.00000    -999.25   14.13620  140.52440    7.11620    -999.25    -999.25    -999.25    -999.25    7.11620    8.59890   11.08310   14.13620    8.59890  -53.81130   11.08310
 1850.00000    -999.25   17.98520  375.13600    2.66570    -999.25    -999.25    -999.25    -999.25    2.66570    3.12140    3.44000   17.98520    3.12140  -48.52640    3.44000
 1900.00000    -999.25   12.26530  405.58080    2.46560    -999.25    -999.25    -999.25    -999.25    2.46560    2.74290    3.18620   12.26530    2.74290  -49.83700    3.18620
 1950.00000    -999.25   14.13930  270.16800    3.70140    -999.25    -999.25    -999.25    -999.25    3.70140    4.00140    4.48930   14.13930    4.00140  -49.56510    4.48930
 2000.00000    -999.25   15.24850  274.60460    3.64160    -999.25    -999.25    -999.25    -999.25    3.64160    4.01710    4.40800   15.24850    4.01710  -50.45070    4.40800
 2050.00000    -999.25   11.47930   61.50400   16.25910    -999.25    -999.25    -999.25    -999.25   16.25910   10.88350   12.54500   11.47930   10.88350  -54.26860   12.54500
 2100.00000    -999.25   13.75680  317.15830    3.15300    -999.25    -999.25    -999.25    -999.25    3.15300    3.47820    3.96380   13.75680    3.47820  -50.28660    3.96380
 2150.00000    -999.25   13.15000  270.80460    3.69270    -999.25    -999.25    -999.25    -999.25    3.69270    4.05370    4.92920   13.15000    4.05370  -51.30100    4.92920
 2200.00000    -999.25   12.57440  294.02250    3.40110    -999.25    -999.25    -999.25    -999.25    3.40110    3.71150    4.20370   12.57440    3.71150  -51.74670    4.20370
 2250.00000    -999.25   12.86990  311.66240    3.20860    -999.25    -999.25    -999.25    -999.25    3.20860    3.55160    4.02910   12.86990    3.55160  -51.05090    4.02910
 2300.00000    -999.25   13.00800  162.08770    6.16950    -999.25    -999.25    -999.25    -999.25    6.16950    6.97670    7.90560   13.00800    6.97670  -51.43630    7.90560
 2350.00000    -999.25   15.01260  413.25730    2.41980    -999.25    -999.25    -999.25    -999.25    2.41980    2.62830    2.93460   15.01260    2.62830  -49.57190    2.93460
 2400.00000    -999.25   15.37550  285.18470    3.50650    -999.25    -999.25    -999.25    -999.25    3.50650    4.10950    4.92800   15.37550    4.10950  -49.66400    4.92800
 2450.00000    -999.25   13.27160  319.63180    3.12860    -999.25    -999.25    -999.25    -999.25    3.12860    3.54010    4.11480   13.27160    3.54010  -48.19840    4.11480
 2500.00000    -999.25   13.54550   93.40290   10.70630    -999.25    -999.25    -999.25    -999.25   10.70630   14.21930   12.47390   13.54550   14.21930  -53.22050   12.47390
 2550.00000    -999.25   14.77800  300.12000    3.33200    -999.25    -999.25    -999.25    -999.25    3.33200    3.66180    4.19570   14.77800    3.66180  -48.95060    4.19570
 2600.00000    -999.25   14.85830  276.79360    3.61280    -999.25    -999.25    -999.25    -999.25    3.61280    4.08070    4.61240   14.85830    4.08070  -48.64050    4.61240
 2650.00000    -999.25   13.24100  171.29450    5.83790    -999.25    -999.25    -999.25    -999.25    5.83790    7.59860    7.21040   13.24100    7.59860  -53.04520    7.21040
 2700.00000    -999.25   13.89980  151.93760    6.58170    -999.25    -999.25    -999.25    -999.25    6.58170    7.15510    8.46570   13.89980    7.15510  -53.02730    8.46570
 2750.00000    -999.25   13.93850  301.77750    3.31370    -999.25    -999.25    -999.25    -999.25    3.31370    3.65230    4.22190   13.93850    3.65230  -46.97490    4.22190
 2800.00000    -999.25   14.78290  257.75850    3.87960    -999.25    -999.25    -999.25    -999.25    3.87960    4.22150    4.68300   14.78290    4.22150  -48.50420    4.68300
 2850.00000    -999.25   14.68580  241.44670    4.14170    -999.25    -999.25    -999.25    -999.25    4.14170    4.54440    5.23040   14.68580    4.54440  -48.91200    5.23040
 2900.00000    -999.25   14.04380  177.15110    5.64490    -999.25    -999.25    -999.25    -999.25    5.64490    6.14650    7.20630   14.04380    6.14650  -45.41750    7.20630
 2950.00000    -999.25   14.51070  195.12200    5.12500    -999.25    -999.25    -999.25    -999.25    5.12500    5.58420    6.58740   14.51070    5.58420  -46.68870    6.58740
 3000.00000    -999.25   14.87500  126.60790    7.89840    -999.25    -999.25    -999.25    -999.25    7.89840    8.60610    9.86110   14.87500    8.60610  -46.79710    9.86110
 3050.00000    -999.25   14.58490  130.09990    7.68640    -999.25    -999.25    -999.25    -999.25    7.68640    8.89920   10.20180   14.58490    8.89920  -47.10850   10.20180
 3100.00000    -999.25   14.91790  135.07130    7.40350    -999.25    -999.25    -999.25    -999.25    7.40350    8.04100    8.78180   14.91790    8.04100  -45.40220    8.78180
 3150.00000    -999.25   13.99380  166.31190    6.01280    -999.25    -999.25    -999.25    -999.25    6.01280    6.53160    7.48240   13.99380    6.53160  -45.30530    7.48240
 3200.00000    -999.25   14.95940  190.74510    5.24260    -999.25    -999.25    -999.25    -999.25    5.24260    5.69460    6.69100   14.95940    5.69460  -44.33370    6.69100
 3250.00000    -999.25   14.53750  154.54520    6.47060    -999.25    -999.25    -999.25    -999.25    6.47060    7.22220    8.48160   14.53750    7.22220  -45.33930    8.48160
 3300.00000    -999.25   14.90690  167.89230    5.95620    -999.25    -999.25   89.48960   89.48960    5.95620    6.61250    7.45920   14.90690    6.61250  -47.58810    7.45920
