~Version ---------------------------------------------------
VERS.      2.0 : CWLS log ASCII Standard -VERSION 2.0
WRAP.       NO : One line per depth step
CREA. 12/01/17 : LAS Creation Date
~Well ------------------------------------------------------
STRT.FT                        300.0 : START DEPTH
STOP.FT                      17800.0 : STOP DEPTH
STEP.FT                     50.00000 : STEP LENGTH
NULL.                        -999.25 : NULL VALUE
COMP.           BPOG OPERATIONS LTD. : COMPANY
WELL. BP MOBIL CREE ROUGH 4-21-38-12 : WELL
FLD .                                : FIELD
LOC .                                : LOCATION
CTRY.                         CANADA : COUNTRY
SRVC.                   Schlumberger : SERVICE COMPANY
DATE.                    26-Oct-1973 : LOGDATE
PROV.                        Alberta : PROVINCE
UWI .               100042103812W500 : UNIQUE WELL ID
SLAT.WGS84                  52.27739 : SURFACE LATITUDE
SLON.WGS84                 -115.6641 : SURFACE LONGITUDE
~Curve Information -----------------------------------------
DEPT  .FT    : Depth Curve
CALSED.IN    : CALIPER FROM SONIC LOG [ADJ. TO RESISTIVITY LOG]
CALWS .IN    : CALIPER [CALSED]
CILDED.MMHO  : CONDUCTIVITY FROM RESISTIVITY LOG
CONDWS.MMHO  : CONDUCTIVITY [1000/DRESWS]
DRESWS.OHMM  : DEEP RESISTIVITY [ILDED]
DTED  .US/F  : DELTA-T FROM SONIC LOG [ADJ. TO RESISTIVITY LOG]
DTWS  .US/F  : COMPRESSIONAL SONIC [DTED]
GRNED .CU    : GAMMA RAY FROM GRN LOG [ADJ. TO RESISTIVITY LOG]
GRSED .CU    : GAMMA RAY FROM SONIC LOG [ADJ. TO RESISTIVITY LOG]
GRWS  .GAPI  : GAMMA RAY [GRSED] GRWS IN CSG. @ 13195'-13297' @ 10API ADDED
ILDED .OHMM  : DEEP INDUCTION RESISTIVITY FROM RESISTIVITY LOG
ILMED .OHMM  : MEDIUM INDUCTION RESISTIVITY FROM RESISTIVITY LOG
LL8ED .OHMM  : LATEROLOG 8 FROM RESISTIVITY LOG
MRESWS.OHMM  : MEDIUM RESISTIVITY [ILMED]
NEUTED.CU    : NEUTRON FROM GRN LOG [ADJ. TO RESISTIVITY LOG]
NEUTWS.CU    : NEUTRON [NEUTED]
SNED  .OHMM  : SHORT NORMAL RESISTIVITY 16" FROM RESISTIVITY LOG
SPRED .MV    : SPONTANEOUS POTENTIAL FROM RESISTIVITY LOG
SPWS  .MV    : SPONTANEOUS POTENTIAL [BASELINE 0 MV,SPRED]
SRESWS.OHMM  : SHALLOW RESISTIVITY [LL8ED SPL. TO SNED @ 2008']
~Params ----------------------------------------------------
PD  .                     GL : PERMANENT DATUM
EPD .FT                 5371 : ELEVATION PERMANENT DATUM
LMF .                     KB : LOG MEASURED FROM
DAPD.FT                   24 : FEET ABOVE PERMANENT DATUM
EKB .FT                 5395 : KELLY BUSHING
EGL .FT                 5371 : GROUND LEVEL
DATE.               10/26/73 : RUN DATE
RUN .                      2 : RUN NUMBER
DD  .FT                17815 : DEPTH DRILLER
DL  .FT                17792 : DEPTH LOGGER
BLI .FT                17791 : BOTTOM LOG INTERVAL
TLI .FT                13299 : TOP LOG INTERVAL
CBD .FT                13265 : CASING BOTTOM DRILLER
CBL .FT                13299 : CASING BOTTOM LOGGER
BS  .IN                 8.25 : BIT SIZE
BSD .FT                17815 : BIT SIZE AT DEPTH
DFT .               GEL CHEM : DRILLING FLUID TYPE
DFD .                    8.9 : DRILLING FLUID DENSITY
DFV .                     41 : DRILLING FLUID VISCOSITY
DFPH.                    9.5 : DRILLING FLUID PH
DFL .                   11.9 : DRILLING FLUID LOSS
RMS .OHMM               1.05 : RESISTIVITY MUD SAMPLE
MST .DEGF                 72 : MUD SAMPLE TEMPERATURE
RMF .OHMM               0.76 : RESISTIVITY MUD FILTRATE SAMPLE
MFST.DEGF                 70 : MUD FILTRATE SAMPLE TEMPERATURE
RMB .OHMM               0.31 : RESISTIVITY MUD AT BHT
TCS .HRS                   5 : TIME CIRCULATED STOPPED
LUN .                   7640 : LOGGING UNIT NUMBER
LUL .                     RD : LOGGING UNIT LOCATION
ENGI.           NIXON KOVACS : RECORDING ENGINEER
WITN.      WILLIAMS COSTELLO : WITNESSED BY
CLNT.                A2DTECH : CLIENT CODE
ORIG.            2" 5" PRINT : ORIGIN OF DATA
UWI .       100042103812W500 : UNIQUE WELL ID
DICO. A2D Technologies, Inc. : DIGITIZING COMPANY
~Other -----------------------------------------------------
DIL-IEL-BHC-GRN LOG RUN.
SNED MISSING IN SEVERAL DEPTH AS PER PRINT.
~ASCII -----------------------------------------------------
# ...
 12550.00000   12.33460   12.33460  135.17180  140.56000    7.11440   84.49260   84.49260    -999.25   96.21180   96.21180    7.11440    -999.25    -999.25    -999.25    -999.25    -999.25    -999.25    -999.25    -999.25    -999.25
 12600.00000   12.16220   12.16220  132.69260  141.85810    7.04930   84.21540   84.21540    -999.25   98.28600   98.28600    7.04930    -999.25    -999.25    -999.25    -999.25    -999.25    -999.25    -999.25    -999.25    -999.25
 12650.00000   12.19680   12.19680  158.39810  167.06760    5.98560   86.70930   86.70930    -999.25  128.94560  128.94560    5.98560    -999.25    -999.25    -999.25    -999.25    -999.25    -999.25    -999.25    -999.25    -999.25
 12700.00000   12.16970   12.16970  206.96330  218.68550    4.57290   82.55580   82.55580   55.79660   78.26240   78.26240    4.57290    -999.25    -999.25    -999.25  318.69340  318.69340    -999.25    -999.25    -999.25    -999.25
 12750.00000   12.29750   12.29750   41.19730   41.19400   24.27540   60.23510   60.23510   20.24410   31.05920   31.05920   24.27540    -999.25    -999.25    -999.25  491.45430  491.45430    -999.25    -999.25    -999.25    -999.25
 12800.00000   12.13440   12.13440  145.88230  154.88990    6.45620   76.66790   76.66790   46.20100   64.89810   64.89810    6.45620    -999.25    -999.25    -999.25  300.35030  300.35030    -999.25    -999.25    -999.25    -999.25
 12850.00000   12.09300   12.09300   81.48500   83.61060   11.96020   65.33580   65.33580   43.01640   55.43200   55.43200   11.96020    -999.25    -999.25    -999.25  381.55380  381.55380    -999.25    -999.25    -999.25    -999.25
 12900.00000   12.07780   12.07780   74.51480   75.57320   13.23220   67.28180   67.28180    -999.25   39.07810   39.07810   13.23220    -999.25    -999.25    -999.25    -999.25    -999.25    -999.25    -999.25    -999.25    -999.25
 12950.00000   12.06040   12.06040   95.29790  100.94610    9.92810   73.37010   73.37010    -999.25   74.19160   74.19160    9.92810    -999.25    -999.25    -999.25    -999.25    -999.25    -999.25    -999.25    -999.25    -999.25
 13000.00000   12.50520   12.50520   76.34560   77.59340   12.88770   70.16630   70.16630    -999.25   50.68400   50.68400   12.88770    -999.25    -999.25    -999.25    -999.25    -999.25    -999.25    -999.25    -999.25    -999.25
 13050.00000   12.40230   12.40230   94.23770   94.39660   10.59360   68.82790   68.82790    -999.25   62.74440   62.74440   10.59360    -999.25    -999.25    -999.25    -999.25    -999.25    -999.25    -999.25    -999.25    -999.25
 13100.00000   12.18770   12.18770   66.05450   67.44450   14.82700   64.18650   64.18650    -999.25   59.85200   59.85200   14.82700    -999.25    -999.25    -999.25    -999.25    -999.25    -999.25    -999.25    -999.25    -999.25
 13150.00000   12.15290   12.15290   62.76230   62.74790   15.93680   68.27870   68.27870    -999.25   58.31210   58.31210   15.93680    -999.25    -999.25    -999.25    -999.25    -999.25    -999.25    -999.25    -999.25    -999.25
 13200.00000   12.20700   12.20700   73.40840   75.30600   13.27930    -999.25    -999.25    -999.25   27.74990   37.74990   13.27930    -999.25    -999.25    -999.25    -999.25    -999.25    -999.25    -999.25    -999.25    -999.25
 13250.00000    -999.25    -999.25    -999.25    -999.25    -999.25    -999.25    -999.25    -999.25   31.03690   41.03690    -999.25    -999.25    -999.25    -999.25    -999.25    -999.25    -999.25    -999.25    -999.25    -999.25
 13300.00000    9.13060    9.13060    -999.25    -999.25    -999.25   73.91620   73.91620    -999.25    -999.25    -999.25    -999.25    -999.25    -999.25    -999.25    -999.25    -999.25    -999.25    -999.25    -999.25    -999.25
 13350.00000   10.40180   10.40180   84.74490   77.45750   12.91030  109.15060  109.15060    -999.25   74.64680   74.64680   12.91030    -999.25    -999.25    -999.25    -999.25    -999.25    7.81360  -34.88500   -7.87430    7.81360
 13400.00000    9.83800    9.83800   55.72570   54.75490   18.26320   73.56430   73.56430    -999.25   37.90460   37.90460   18.26320    -999.25    -999.25    -999.25    -999.25    -999.25   17.26430  -33.60670   -6.65420   17.26430
 13450.00000    9.58270    9.58270   44.14700   41.29980   24.24690   68.25820   68.25820    -999.25   57.70670   57.70670   24.24690    -999.25    -999.25    -999.25    -999.25    -999.25   20.30090  -35.41710   -8.45190   20.30090
 13500.00000    9.87870    9.87870   56.62280   57.26200   17.46360   60.68470   60.68470    -999.25   66.03620   66.03620   17.46360    -999.25    -999.25    -999.25    -999.25    -999.25   15.88610  -38.04240  -11.06470   15.88610
 13550.00000    -999.25    -999.25  200.76820  221.70490    4.51050  132.86830  132.86830    -999.25   29.34780   29.34780    4.51050    -999.25    -999.25    -999.25    -999.25    -999.25    3.46290  -35.37070   -8.38040    3.46290
 13600.00000   10.60140   10.60140   31.59260   29.27610   34.15760  103.08310  103.08310    -999.25   65.13030   65.13030   34.15760    -999.25    -999.25    -999.25    -999.25    -999.25   12.80070  -38.66490  -11.66200   12.80070
 13650.00000   10.57470   10.57470  117.92820  121.19740    8.25100   96.96450   96.96450   37.68410   72.95150   72.95150    8.25100    -999.25    -999.25    -999.25  108.30440  108.30440   10.62550  -37.52700  -10.51150   10.62550
 13700.00000    9.35640    9.35640   22.75370   21.93710   45.58780   59.65660   59.65660   30.86960   52.79960   52.79960   45.58780    -999.25    -999.25    -999.25  522.98720  522.98720   38.08480  -40.18860  -13.16040   38.08480
 13750.00000    9.63180    9.63180    7.11500    2.30540  433.76990   79.15540   79.15540   31.88840   39.41760   39.41760  433.76990    -999.25    -999.25    -999.25  503.84330  503.84330   42.56560  -38.84110  -11.80050   42.56560
 13800.00000    9.57870    9.57870   76.69680   80.15650   12.47560   74.49320   74.49320   51.06240   78.65900   78.65900   12.47560    -999.25    -999.25    -999.25  289.15030  289.15030   14.30150  -38.46110  -11.40790   14.30150
 13850.00000    9.16610    9.16610   40.61950   40.42170   24.73920   57.72440   57.72440   45.71610   80.16150   80.16150   24.73920    -999.25    -999.25    -999.25  306.18560  306.18560   19.40710  -38.81320  -11.74740   19.40710
 13900.00000    9.28360    9.28360   91.99450   95.02090   10.52400   80.60130   80.60130   35.93270   61.83820   61.83820   10.52400    -999.25    -999.25    -999.25  442.38700  442.38700   11.75340  -33.73710   -6.65870   11.75340
 13950.00000    9.09220    9.09220   73.36890   79.74180   12.54990   69.06410   69.06410   45.46110   68.07930   68.07930   12.54990    -999.25    -999.25    -999.25  311.83750  311.83750   13.74670  -34.36350   -7.27250   13.74670
 14000.00000   10.07290   10.07290  189.44390  204.21920    4.89670   88.85190   88.85190   53.12120   85.54450   85.54450    4.89670    -999.25    -999.25    -999.25  172.69300  172.69300    5.96080  -34.46150   -7.35790    5.96080
 14050.00000    9.04360    9.04360   84.59440   84.52870   11.83030   78.67160   78.67160   38.89900   52.50920   52.50920   11.83030    -999.25    -999.25    -999.25  344.55870  344.55870   15.13000  -34.45250   -7.33640   15.13000
 14100.00000    9.23380    9.23380  129.84700  132.58560    7.54230   84.10280   84.10280   49.68530   79.69040   79.69040    7.54230    -999.25    -999.25    -999.25  190.07010  190.07010    8.31770  -34.10700   -6.97830    8.31770
 14150.00000    8.52490    8.52490    0.81140    0.90610 1103.63680   56.41450   56.41450   12.25060    9.58820    9.58820 1103.63680    -999.25    -999.25    -999.25  766.12000  766.12000  194.94290  -36.33050   -9.09470  194.94290
 14200.00000    8.56510    8.56510    1.18010    0.91780 1089.56210   54.77810   54.77810   17.43280   26.37870   26.37870 1089.56210    -999.25    -999.25    -999.25  527.34320  527.34320  148.74700  -47.16500  -19.67710  148.74700
 14250.00000    9.18570    9.18570    7.82250    4.59870  217.45240   46.38890   46.38890   14.22430    9.90320    9.90320  217.45240    -999.25    -999.25    -999.25  434.42750  434.42750  120.80610  -65.33970  -37.59710  120.80610
