~Version ---------------------------------------------------
VERS.      2.0 : CWLS log ASCII Standard -VERSION 2.0
WRAP.       NO : One line per depth step
CREA. 10/26/17 : LAS Creation Date
~Well ------------------------------------------------------
STRT.FT                     850.0 : START DEPTH
STOP.FT                    9900.0 : STOP DEPTH
STEP.FT                  50.00000 : STEP LENGTH
NULL.                     -999.25 : NULL VALUE
COMP. SHELL CANADA RESOURCES LTD. : COMPANY
WELL.   SHELL MAHASKA 11-33-56-13 : WELL
FLD .                             : FIELD
LOC .                             : LOCATION
CTRY.                      CANADA : COUNTRY
SRVC.                Schlumberger : SERVICE COMPANY
DATE.                 12-May-1977 : LOGDATE
PROV.                     Alberta : PROVINCE
UWI .            100113305613W500 : UNIQUE WELL ID
SLAT.WGS84               53.88568 : SURFACE LATITUDE
SLON.WGS84              -115.8759 : SURFACE LONGITUDE
~Curve Information -----------------------------------------
DEPT    .FT    : Depth Curve
CALSED  .IN    : CALIPER FROM SONIC LOG
CALWS   .IN    : CALIPER [CALSED]
CONDWS  .MMHO  : CONDUCTIVITY [1000/DRESWS]
DCORWS  .G/C3  : DENSITY CORRECTION [DRHOED]
DENWS   .G/C3  : BULK DENSITY [M=2.71, F=1.00] [RHOBED]
DPHILSED.V/V   : DENSITY POROSITY [M=2.71, F=1.00] FROM DENSITY LOG [DEP. ADJ. TO GRSED]
DPHISSED.V/V   : DENSITY POROSITY [M=2.65, F=1.00] FROM DENSITY LOG [DEP. ADJ. TO GRSED]
DPOLSWS .V/V   : DENSITY POROSITY [M=2.71, F=1.00] [CAL. FROM DENWS]
DRESWS  .OHMM  : DEEP RESISTIVITY [LLDED]
DRHOED  .G/C3  : DENSITY CORRECTION FROM DENSITY LOG [DEP. ADJ. TO GRSED]
DTED    .US/F  : DELTA TIME FROM SONIC LOG
DTWS    .US/F  : DELTA TIME [DTED]
GRDED   .GAPI  : GAMMA RAY FROM DENSITY LOG [DEP. ADJ. TO GRSED]
GRSED   .GAPI  : GAMMA RAY FROM SONIC LOG
GRWS    .GAPI  : GAMMA RAY [GRSED]
LLDED   .OHMM  : LATEROLOG DEEP RESISTIVITY  [READINGS >2000 ARE REDUCED TO 2000 OHMM]
LLSED   .OHMM  : LATEROLOG SHALLOW RESISTIVITY [READINGS >2000 ARE REDUCED TO 2000 OHMM]
NPHILSED.V/V   : NEUTRON POROSITY LIMESTONE FROM DENSITY LOG [DEP. ADJ. TO GRSED]
NPHISSED.V/V   : NEUTRON POROSITY SANDSTONE FROM DENSITY LOG [DEP. ADJ. TO GRSED]
NPOLSWS .V/V   : NEUTRON POROSITY LIMESTONE [1007' NPOLSCAL [CONV. FROM NPHISSED] 6161' NPHILSED]
RHOBED  .G/C3  : BULK DENSITY FROM DENSITY LOG [DEP. ADJ. TO GRSED]
SRESWS  .OHMM  : SHALLOW RESISTIVITY [LLSED]
~Params ----------------------------------------------------
PD  .                     GL : PERMANENT DATUM
EPD .FT                 2626 : ELEVATION PERMANENT DATUM
LMF .                     KB : LOG MEASURED FROM
DAPD.FT                 21.2 : FEET ABOVE PERMANENT DATUM
EKB .FT               2647.2 : KELLY BUSHING
EGL .FT                 2626 : GROUND LEVEL
DATE.               05/12/77 : RUN DATE
RUN .                      2 : RUN NUMBER
DD  .FT                 9950 : DEPTH DRILLER
DL  .FT                 9947 : DEPTH LOGGER
BLI .FT                 9931 : BOTTOM LOG INTERVAL
TLI .FT                 8800 : TOP LOG INTERVAL
CBD .FT                 1026 : CASING BOTTOM DRILLER
BS  .IN                 8.75 : BIT SIZE
BSD .FT                 9950 : BIT SIZE AT DEPTH
DFT .                    KCL : DRILLING FLUID TYPE
DFD .                    8.9 : DRILLING FLUID DENSITY
DFV .                     65 : DRILLING FLUID VISCOSITY
DFPH.                   10.5 : DRILLING FLUID PH
MSS .             CIRCULATED : MUD SAMPLE SOURCE
RMS .OHMM               0.28 : RESISTIVITY MUD SAMPLE
MST .DEGF                 76 : MUD SAMPLE TEMPERATURE
RMF .OHMM               0.12 : RESISTIVITY MUD FILTRATE SAMPLE
MFST.DEGF                186 : MUD FILTRATE SAMPLE TEMPERATURE
RMB .OHMM               0.19 : RESISTIVITY MUD AT BHT
TCS .HRS                   1 : TIME CIRCULATED STOPPED
LUN .              OSU C 308 : LOGGING UNIT NUMBER
LUL .                    EDM : LOGGING UNIT LOCATION
ENGI.                   BIGG : RECORDING ENGINEER
WITN.                   WEBB : WITNESSED BY
CLNT.                A2DTECH : CLIENT CODE
ORIG.            2" 5" PRINT : ORIGIN OF DATA
UWI .       100113305613W500 : UNIQUE WELL ID
DICO. A2D Technologies, Inc. : DIGITIZING COMPANY
~Other -----------------------------------------------------
~ASCII -----------------------------------------------------
# ...
 4050.00000    9.31250    9.31250  106.42710    0.03650    2.52450    -999.25    0.07920    0.10850    9.39610    0.03650   81.93680   81.93680  109.33500  115.91080  115.91080    9.39610    8.80780    -999.25    0.27090    0.22690    2.52450    8.80780
 4100.00000    9.88540    9.88540  131.70890    0.13430    2.43930    -999.25    0.13130    0.15830    7.59250    0.13430   88.66370   88.66370  118.72500  125.15790  125.15790    7.59250    7.39980    -999.25    0.32560    0.28170    2.43930    7.39980
 4150.00000   10.00330   10.00330  141.12730    0.06920    2.37550    -999.25    0.16670    0.19560    7.08580    0.06920   89.34020   89.34020  120.97500  126.69700  126.69700    7.08580    6.55560    -999.25    0.32840    0.28460    2.37550    6.55560
 4200.00000   10.13300   10.13300  126.45480    0.09620    2.50580    -999.25    0.09120    0.11940    7.91930    0.09620   85.04750   85.04750  114.51750  121.03830  121.03830    7.91930    7.21710    -999.25    0.32910    0.28530    2.50580    7.21710
 4250.00000    9.64090    9.64090  122.67380    0.02450    2.34020    -999.25    0.19000    0.21630    8.15170    0.02450   88.16090   88.16090  111.96000  121.18290  121.18290    8.15170    7.63700    -999.25    0.31740    0.27350    2.34020    7.63700
 4300.00000    9.16940    9.16940   77.23860    0.02860    2.59030    -999.25    0.02770    0.07000   12.94690    0.02860   76.93870   76.93870  105.49500  112.97540  112.97540   12.94690   12.39320    -999.25    0.22900    0.18520    2.59030   12.39320
 4350.00000    9.17720    9.17720  101.08160    0.01380    2.55700    -999.25    0.05570    0.08950    9.89300    0.01380   80.27570   80.27570  116.89500  125.54110  125.54110    9.89300   10.36020    -999.25    0.26830    0.22430    2.55700   10.36020
 4400.00000    9.26010    9.26010   94.17530    0.20960    2.57460    -999.25    0.04950    0.07920   10.61850    0.20960   80.46500   80.46500  120.42000  122.70060  122.70060   10.61850   11.31220    -999.25    0.25570    0.21180    2.57460   11.31220
 4450.00000    9.69230    9.69230  124.53690    0.25030    2.24980    -999.25    0.24890    0.26910    8.02990    0.25020   85.60440   85.60440  116.28000  125.26930  125.26930    8.02990    7.72620    -999.25    0.32150    0.27760    2.24980    7.72620
 4500.00000    9.51290    9.51290  101.55070    -999.25    2.48330    -999.25    0.11150    0.13260    9.84730    -999.25   81.89920   81.89920  116.37000  126.61760  126.61760    9.84730   10.15670    -999.25    0.26570    0.22170    2.48330   10.15670
 4550.00000    9.37370    9.37370  113.63640    0.06980    2.50030    -999.25    0.09360    0.12260    8.80000    0.06980   89.99130   89.99130  128.70000  139.63910  139.63910    8.80000    9.20490    -999.25    0.34390    0.30020    2.50030    9.20490
 4600.00000    8.84290    8.84290   96.27140   -0.00420    2.49870    -999.25    0.09360    0.12360   10.38730   -0.00420   89.36090   89.36090  129.00000  117.57150  117.57150   10.38730   11.45130    -999.25    0.35580    0.31220    2.49870   11.45130
 4650.00000    9.00510    9.00510  106.55190    0.00250    2.52390    -999.25    0.06930    0.10880    9.38510    0.00250   91.22090   91.22090  132.06000  118.28020  118.28020    9.38510   10.21040    -999.25    0.37840    0.33510    2.52390   10.21040
 4700.00000    8.97920    8.97920   91.86770    0.01100    2.51240    -999.25    0.08510    0.11560   10.89710    0.01100   90.80630   90.80630  138.92250  135.63130  135.63130   10.89710   12.28750    -999.25    0.37880    0.33550    2.51240   12.28750
 4750.00000    8.92050    8.92050   67.14880    0.00210    2.49250    -999.25    0.09790    0.12720   14.89230    0.00210   89.30970   89.30970  139.06500  141.20280  141.20280   14.89230   16.54270    -999.25    0.36070    0.31720    2.49250   16.54270
 4800.00000    9.02600    9.02600   74.91980   -0.01390    2.49940    -999.25    0.09560    0.12320   13.34760   -0.01390   88.14760   88.14760  126.42000  127.84890  127.84890   13.34760   15.22270    -999.25    0.34830    0.30460    2.49940   15.22270
 4850.00000    9.02070    9.02070   89.97340    0.00970    2.48910    -999.25    0.09900    0.12920   11.11440    0.00970   98.07930   98.07930  142.24500  143.33170  143.33170   11.11440   13.02570    -999.25    0.41000    0.36730    2.48910   13.02570
 4900.00000    9.38340    9.38340   94.92800    0.02180    2.56680    -999.25    0.05190    0.08370   10.53430    0.02180   81.13420   81.13420  113.56500  111.63530  111.63530   10.53430   10.85040    -999.25    0.27510    0.23110    2.56680   10.85040
 4950.00000   10.04320   10.04320  156.71760    0.00640    2.56480    -999.25    0.05710    0.08490    6.38170    0.00640   89.36450   89.36450  127.62750  124.16290  124.16290    6.38170    7.11700    -999.25    0.34830    0.30460    2.56480    7.11700
 5000.00000    9.68780    9.68780  125.02190    0.00700    2.55960    -999.25    0.05710    0.08800    7.99860    0.00700   80.76000   80.76000  112.53000  112.74900  112.74900    7.99860    8.76130    -999.25    0.28470    0.24070    2.55960    8.76130
 5050.00000   10.01830   10.01830  160.31290    0.02580    2.55390    -999.25    0.05370    0.09130    6.23780    0.02580   88.48370   88.48370  123.72000  120.60990  120.60990    6.23780    6.68090    -999.25    0.32110    0.27720    2.55390    6.68090
 5100.00000   10.01730   10.01730  142.19090    0.01150    2.65450    -999.25   -0.00330    0.03250    7.03280    0.01150   85.91750   85.91750  123.87000  124.98210  124.98210    7.03280    7.72620    -999.25    0.30660    0.26260    2.65450    7.72620
 5150.00000    8.86790    8.86790  124.88600    0.02330    2.46240    -999.25    0.10940    0.14480    8.00730    0.02330   88.77570   88.77570  151.74000  164.10300  164.10300    8.00730    9.92410    -999.25    0.41910    0.37660    2.46240    9.92410
 5200.00000   10.73980   10.73980  331.41360    0.10190    2.51490    -999.25    0.08910    0.11410    3.01750    0.10190   97.05910   97.05910  101.92500  104.20890  104.20890    3.01750    3.16130    -999.25    0.38170    0.33850    2.51490    3.16130
 5250.00000   10.90160   10.90160  230.35110    0.16120    2.57060    -999.25    0.05610    0.08150    4.34120    0.16120   91.15240   91.15240  108.91500  108.93730  108.93730    4.34120    4.50540    -999.25    0.36810    0.32470    2.57060    4.50540
 5300.00000   10.21310   10.21310  224.12480    0.07630    2.57500    -999.25    0.04750    0.07890    4.46180    0.07630   91.37480   91.37480  114.75000  114.78470  114.78470    4.46180    4.63490    -999.25    0.34540    0.30170    2.57500    4.63490
 5350.00000    8.38670    8.38670   72.62960    0.13360    2.52810    -999.25    0.07940    0.10640   13.76850    0.13360   71.51430   71.51430   48.82500   47.23800   47.23800   13.76850   13.33400    -999.25    0.19040    0.14710    2.52810   13.33400
 5400.00000    9.79680    9.79680  125.29920    0.17750    2.41190    -999.25    0.15730    0.17430    7.98090    0.17750   80.78260   80.78260   95.86500   97.97240   97.97240    7.98090    7.52260    -999.25    0.24890    0.20500    2.41190    7.52260
 5450.00000    9.23110    9.23110  132.97190    0.16620    2.49240    -999.25    0.09920    0.12730    7.52370    0.16610   83.16220   83.16220  113.31000  110.58990  110.58990    7.52370    8.14630    -999.25    0.31950    0.27570    2.49240    8.14630
 5500.00000    9.63500    9.63500   78.59230    0.02380    2.43950    -999.25    0.13230    0.15820   12.72390    0.02380   78.46800   78.46800   52.77000   58.44400   58.44400   12.72390    9.50860    -999.25    0.25830    0.21440    2.43950    9.50860
 5550.00000    9.29840    9.29840   71.58550   -0.00680    2.56240    -999.25    0.05550    0.08630   13.96930   -0.00680   73.77720   73.77720   90.13500   93.06540   93.06540   13.96930   12.81380    -999.25    0.26340    0.21940    2.56240   12.81380
 5600.00000    9.47570    9.47570   43.26140    0.02050    2.71830    -999.25   -0.03690   -0.00490   23.11530    0.02050   66.38400   66.38400   89.23500   84.84110   84.84110   23.11530   18.61370    -999.25    0.21910    0.17540    2.71830   18.61370
