~Version ---------------------------------------------------
VERS.      2.0 : CWLS log ASCII Standard -VERSION 2.0
WRAP.       NO : ONE LINE PER DEPTH STEP
CREA. 12/18/14 : LAS CREATION DATE
~Well ------------------------------------------------------
STRT.M                           300.0 : START DEPTH
STOP.M                          2700.0 : STOP DEPTH
STEP.M                        50.00000 : STEP LENGTH
NULL.                          -999.25 : NULL VALUE
COMP.                SABINE CANADA LTD : COMPANY
WELL. SABINE ET AL VIRGHILLS 3-9-65-12 : WELL
FLD .                                  : FIELD
LOC .                                  : LOCATION
CTRY.                           CANADA : COUNTRY
SRVC.                     Schlumberger : SERVICE COMPANY
DATE.                      18-Nov-1978 : LOGDATE
LOC1.                                  : LOCATION 1
SECT.                                  : SECTION
TOWN.                                  : TOWNSHIP
RNGE.                                  : RANGE
PDAT.                                  : PERM DATUM
EPD .                           997.18 : ELEVATION
LMF .                               KB : LOG MEASURED FROM
DMF .                               KB : DRILL MEASURED FROM
APD .                                  : ABOVE PERM DATUM
EKB .                             1001 : ELEV-KELLY BUSHING.
EDF .                                  : ELEV-DRILL FLOOR
EGL .                           997.18 : ELEV-GROUND LEVEL
PROV.                          Alberta : PROVINCE
UWI .                 100030906512W500 : UNIQUE WELL ID
SLAT.WGS84                    54.60666 : SURFACE LATITUDE
SLON.WGS84                   -115.7567 : SURFACE LONGITUDE
~Curve Information -----------------------------------------
DEPT  .M     : DEPTH METERS
CALSED.MM    : CALIPER FROM SONIC LOG, DEPTH ADJUSTED WITH [SPRED]
CALWS .MM    : CALIPER [CALSED]
CILDED.MMHO  : CONDUCTIVITY FROM RESISTIVITY LOG
CONDWS.MMHO  : CONDUCTIVITY [1000/DRESWS]
DRESWS.OHMM  : DEEP RESISTIVITY [ILDED], [ILDED] IF DRESWS<1;1000/CONDWS [TOP-907, 1200-1330]
DTED  .US/M  : DELTA TIME FROM SONIC LOG, DEPTH ADJUSTED WITH [SPRED]
DTWS  .US/M  : DELTA TIME [DTED]
GRSED .GAPI  : GAMMA RAY FROM SONIC LOG, DEPTH ADJUSTED WITH [SPRED]
GRWS  .GAPI  : GAMMA RAY [GRSED]
ILDED .OHMM  : INDUCTION LOG DEEP RESISTIVITY
ILMED .OHMM  : INDUCTION LOG MEDIUM RESISTIVITY
MRESWS.OHMM  : MEDIUM RESISTIVITY [ILMED]
SFLED .OHMM  : SPHERICALLY FOCUSED LOG RESISTIVITY
SPRED .MV    : SPONTANEOUS POTENTIAL FROM RESISTIVITY LOG
SPWS  .MV    : SPONTANEOUS POTENTIAL [BASELINE 0 MV] [SPRED]
SRESWS.OHMM  : SHALLOW RESISTIVITY [SFLED]
~Params ----------------------------------------------------
RUN .        1 : RUN #
DATE.          : DATE LOG WAS RUN
TDD .     2734 : DEPTH - DRILLER
TDL .   2734.5 : DEPTH - LOGGER
BLI .   2733.5 : BOTTOM LOG INTERVAL
TLI .    187.0 : TOP LOG INTERVAL
CBD .      187 : CASING - DRILLER
CBL .      187 : CASING - LOGGER
BS  .      222 : BIT SIZE
DFT .      GEL : TYPE OF FLUID IN HOLE
DFD .     1120 : DRILLING FLUID DENSITY
DFV .      102 : DRILLING FLUID VISCOSITY
DFPH.      9.5 : DRILLING FLUID PH
DFL .      8.8 : DRILLING FLUID LOSS
MSS . FLOWLINE : SOURCE OF SAMPLE
RMS .     2.01 : MUD RESITIVITY
RMFS.     1.92 : MUD FILTRATE RESISTIVITY
RMCS.          : MUD CAKE RESITIVITY
MFSS.     CIRC : SOURCE OF RMF
MCSS.          : SOURCE OF RMC
RMBH.          : RM AT BHT
MRT .       80 : MAX RECORDED TEMPERATURE
CLNT.  A2DTECH : CLIENT CODE
~Other -----------------------------------------------------
~ASCII -----------------------------------------------------
  300.00000    -999.25    -999.25  338.54020  360.91960    2.77070    -999.25    -999.25    -999.25    -999.25    2.77070    -999.25    -999.25    2.46950  -36.94060   -4.39810    2.46950
  350.00000    -999.25    -999.25  111.35280  106.08390    9.42650    -999.25    -999.25    -999.25    -999.25    9.42650    -999.25    -999.25    7.60200  -46.59670  -13.82850    7.60200
  400.00000    -999.25    -999.25  113.22520  111.98460    8.92980    -999.25    -999.25    -999.25    -999.25    8.92980    -999.25    -999.25    6.90820  -44.48080  -11.48690    6.90820
  450.00000    -999.25    -999.25  304.48500  304.68300    3.28210    -999.25    -999.25    -999.25    -999.25    3.28210    -999.25    -999.25    2.70380  -37.34790   -4.12830    2.70380
  500.00000    -999.25    -999.25  285.06170  284.69750    3.51250    -999.25    -999.25    -999.25    -999.25    3.51250    -999.25    -999.25    3.13490  -37.80100   -4.35570    3.13490
  550.00000    -999.25    -999.25  265.15660  265.19570    3.77080    -999.25    -999.25    -999.25    -999.25    3.77080    -999.25    -999.25    3.27040  -38.63400   -4.96300    3.27040
  600.00000    -999.25    -999.25  237.21730  237.25920    4.21480    -999.25    -999.25    -999.25    -999.25    4.21480    -999.25    -999.25    3.53500  -38.33200   -4.43530    3.53500
  650.00000    -999.25    -999.25  201.26050  174.42270    5.73320    -999.25    -999.25    -999.25    -999.25    5.73320    -999.25    -999.25    5.16720  -39.34270   -5.22030    5.16720
  700.00000    -999.25    -999.25  276.70850  278.51270    3.59050    -999.25    -999.25    -999.25    -999.25    3.59050    -999.25    -999.25    3.41500  -36.70790   -2.35980    3.41500
  750.00000    -999.25    -999.25  181.54090  181.58050    5.50720    -999.25    -999.25    -999.25    -999.25    5.50720    -999.25    -999.25    5.10610  -58.72900  -24.15520    5.10610
  800.00000    -999.25    -999.25  228.57740  233.36680    4.28510    -999.25    -999.25    -999.25    -999.25    4.28510    -999.25    -999.25    3.87700  -61.99300  -27.19350    3.87700
  850.00000    -999.25    -999.25  303.83400  316.04560    3.16410    -999.25    -999.25    -999.25    -999.25    3.16410    -999.25    -999.25    2.93680  -39.28320   -4.84260    2.93680
  900.00000    -999.25    -999.25  220.67060  220.62880    4.53250    -999.25    -999.25    -999.25    -999.25    4.53250    -999.25    -999.25    4.21970  -47.00030  -13.07210    4.21970
  950.00000  310.50230  310.50230    -999.25  157.17830    6.36220  303.91020  303.91020  103.78160  103.78160    5.99780    6.36220    6.36220    6.34660  -46.55900  -13.14320    6.34660
 1000.00000  337.21310  337.21310    -999.25  194.54870    5.14010  356.24000  356.24000  100.49940  100.49940    5.70900    5.14010    5.14010    4.84990  -48.60590  -15.70250    4.84990
 1050.00000  374.59710  374.59710    -999.25  234.14820    4.27080  456.98440  456.98440   88.96970   88.96970    5.09120    4.27080    4.27080    4.54840  -46.79920  -14.40820    4.54840
 1100.00000    -999.25    -999.25    -999.25  221.89680    4.50660    -999.25    -999.25    -999.25    -999.25    4.74730    4.50660    4.50660    5.28730  -41.98840  -10.10980    5.28730
 1150.00000    -999.25    -999.25    -999.25  153.70660    6.50590    -999.25    -999.25    -999.25    -999.25    6.24940    6.50590    6.50590    8.64600  -38.63850   -7.27230    8.64600
 1200.00000    -999.25    -999.25  159.17360  160.89590    6.21520    -999.25    -999.25    -999.25    -999.25    6.21520    -999.25    -999.25    6.73620  -42.64000  -11.78620    6.73620
 1250.00000    -999.25    -999.25  279.11720  299.00730    3.34440    -999.25    -999.25    -999.25    -999.25    3.34440    -999.25    -999.25    3.67810  -35.57920   -5.23780    3.67810
 1300.00000    -999.25    -999.25  554.67720  554.67720    1.80290    -999.25    -999.25    -999.25    -999.25    0.55570    -999.25    -999.25    1.06490  -30.79330   -0.96430    1.06490
 1350.00000  254.74670  254.74670    -999.25  182.81540    5.47000  271.68060  271.68060   57.55620   57.55620    5.12970    5.47000    5.47000    6.41540  -41.93520  -12.82670    6.41540
 1400.00000  259.34530  259.34530    -999.25  150.51400    6.64390  277.38820  277.38820   71.88440   71.88440    6.09640    6.64390    6.64390    9.58390  -51.39460  -23.01050    9.58390
 1450.00000  285.68320  285.68320    -999.25   83.44250   11.98430  396.14590  396.14590   56.12440   56.12440   11.17480   11.98430   11.98430   15.29940  -48.31570  -20.65590   15.29940
 1500.00000  285.07640  285.07640    -999.25  250.65800    3.98950  282.98890  282.98890   55.51090   55.51090    2.55110    3.98950    3.98950    8.65050  -97.43940  -70.50400    8.65050
 1550.00000  290.03880  290.03880    -999.25  200.41690    4.98960  257.47000  257.47000   81.21560   81.21560    4.69800    4.98960    4.98960    5.97390  -34.16110   -7.95000    5.97390
 1600.00000  288.18420  288.18420    -999.25  117.44670    8.51450  248.17060  248.17060   94.61500   94.61500    7.56470    8.51450    8.51450    9.44490  -38.46300  -12.97630    9.44490
 1650.00000  268.96440  268.96440    -999.25  308.86120    3.23770  232.61350  232.61350   33.32450   33.32450    1.92480    3.23770    3.23770   11.35230 -139.73230 -114.96990   11.35230
 1700.00000  275.77310  275.77310    -999.25    6.16100  162.31120  163.28640  163.28640   14.31680   14.31680  116.05840  162.31120  162.31120 1103.22850 -159.24510 -135.20710 1103.22850
 1750.00000  265.59810  265.59810    -999.25    5.62210  177.87010  158.37690  158.37690   13.02170   13.02170  131.29170  177.87010  177.87010  379.78940  -78.38860  -55.07490  379.78940
 1800.00000  233.68350  233.68350    -999.25   69.26790   14.43670  189.82430  189.82430   27.56880   27.56880   13.32620   14.43670   14.43670   24.29990  -57.72220  -35.13290   24.29990
 1850.00000  275.95460  275.95460    -999.25   96.72770   10.33830  221.02210  221.02210   73.41450   73.41450    9.67960   10.33830   10.33830   13.29110  -22.55260   -0.68760   13.29110
 1900.00000  238.79890  238.79890    -999.25   12.02520   83.15900  279.07300  279.07300  297.98930  297.98930   91.67930   83.15900   83.15900  159.30710  -64.66760  -43.52700  159.30710
 1950.00000  255.52960  255.52960    -999.25    2.54990  392.17970  162.54410  162.54410   17.56920   17.56920 1503.72730  392.17970  392.17970  494.13760  -98.30270  -68.74980  494.13760
 2000.00000  240.47450  240.47450    -999.25   19.84760   50.38380  173.32210  173.32210   10.71470   10.71470   28.25060   50.38380   50.38380  323.45780 -172.13270 -132.40130  323.45780
 2050.00000  245.77340  245.77340    -999.25    1.96180  509.74430  159.47870  159.47870   16.92950   16.92950  960.19540  509.74430  509.74430  541.67160 -109.86660  -59.95670  541.67160
 2100.00000  257.66620  257.66620    -999.25   12.28310   81.41260  158.71370  158.71370   11.91580   11.91580   39.76450   81.41260   81.41260  341.55520 -189.45850 -129.37020  341.55520
 2150.00000  239.34610  239.34610    -999.25   57.87710   17.27800  170.01140  170.01140   36.28910   36.28910   15.78640   17.27800   17.27800   33.65180 -185.65120 -115.38440   33.65180
 2200.00000  248.15320  248.15320    -999.25  104.75040    9.54650  182.32450  182.32450   38.38880   38.38880   10.58280    9.54650    9.54650   11.95460 -136.21780  -55.77250   11.95460
 2250.00000  364.17330  364.17330    -999.25  215.99670    4.62970  258.79380  258.79380   78.06930   78.06930    4.92530    4.62970    4.62970    5.92750 -112.27450  -27.55040    5.92750
 2300.00000  302.43420  302.43420    -999.25  208.88160    4.78740  243.63500  243.63500   78.39530   78.39530    4.40500    4.78740    4.78740    5.58480 -109.91670  -29.12830    5.58480
 2350.00000  297.45060  297.45060    -999.25  177.15110    5.64490  234.89250  234.89250   71.57570   71.57570    5.48450    5.64490    5.64490    7.28900 -120.03110  -43.17830    7.28900
 2400.00000  248.66710  248.66710    -999.25   93.40640   10.70590  208.19700  208.19700   64.17400   64.17400    9.38170   10.70590   10.70590   13.77740  -87.13790  -14.22080   13.77740
