~Version ---------------------------------------------------
VERS.      2.0 : CWLS log ASCII Standard -VERSION 2.0
WRAP.       NO : One line per depth step
CREA. 12/20/17 : LAS Creation Date
~Well ------------------------------------------------------
STRT.FT                              650.0 : START DEPTH
STOP.FT                             9600.0 : STOP DEPTH
STEP.FT                           50.00000 : STEP LENGTH
NULL.                              -999.25 : NULL VALUE
COMP.    CANADIAN OCCIDENTAL PETROLEUM LTD : COMPANY
WELL. CAN OXY ET AL VIRG HILLS 10-12-64-13 : WELL
FLD .                                      : FIELD
LOC .                                      : LOCATION
CTRY.                               CANADA : COUNTRY
SRVC.                         Schlumberger : SERVICE COMPANY
DATE.                          02-Apr-1975 : LOGDATE
PROV.                              Alberta : PROVINCE
UWI .                     100101206413W500 : UNIQUE WELL ID
SLAT.WGS84                        54.52636 : SURFACE LATITUDE
SLON.WGS84                       -115.8216 : SURFACE LONGITUDE
~Curve Information -----------------------------------------
DEPT  .FT    : Depth Curve
CALSED.IN    : CALIPER FROM SONIC LOG [ADJ. TO RESISTIVITY LOG]
CALWS .IN    : CALIPER [CALSED]
CILDED.MMHO  : CONDUCTIVITY FROM RESISTIVITY LOG
CONDWS.MMHO  : CONDUCTIVITY [1000/DRESWS]
DRESWS.OHMM  : DEEP RESISTIVITY [1000/CILDED IF ILDED <=5, ILDED]
DTED  .US/F  : DELTA-T FROM SONIC LOG [ADJ. TO RESISTIVITY LOG]
DTWS  .US/F  : COMPRESSIONAL SONIC [DTED]
GRSED .GAPI  : GAMMA RAY FROM SONIC LOG [ADJ. TO RESISTIVITY LOG]
GRWS  .GAPI  : GAMMA RAY [GRSED]
ILDED .OHMM  : DEEP INDUCTION RESISTIVITY FROM RESISTIVITY LOG
ILMED .OHMM  : MEDIUM INDUCTION RESISTIVITY FROM RESISTIVITY LOG
LL8ED .OHMM  : LATEROLOG 8 FROM RESISTIVITY LOG
MRESWS.OHMM  : MEDIUM RESISTIVITY [ILMED]
SPRED .MV    : SPONTANEOUS POTENTIAL FROM RESISTIVITY LOG
SPWS  .MV    : SPONTANEOUS POTENTIAL [BASELINE 0 MV, SPRED]
SRESWS.OHMM  : SHALLOW RESISTIVITY [LL8ED]
~Params ----------------------------------------------------
PD  .                     GL : PERMANENT DATUM
EPD .FT                 3713 : ELEVATION PERMANENT DATUM
LMF .                     KB : LOG MEASURED FROM
DAPD.FT                   14 : FEET ABOVE PERMANENT DATUM
EKB .FT                 3727 : KELLY BUSHING
EGL .FT                 3713 : GROUND LEVEL
DATE.               04/02/75 : RUN DATE
RUN .                      1 : RUN NUMBER
DD  .FT                 9629 : DEPTH DRILLER
DL  .FT                 9627 : DEPTH LOGGER
BLI .FT                 9621 : BOTTOM LOG INTERVAL
TLI .FT                  650 : TOP LOG INTERVAL
CBD .FT                  650 : CASING BOTTOM DRILLER
CBL .FT                  650 : CASING BOTTOM LOGGER
BS  .IN                7.875 : BIT SIZE
BSD .FT                 9629 : BIT SIZE AT DEPTH
DFT .               GEL CHEM : DRILLING FLUID TYPE
DFD .                    9.3 : DRILLING FLUID DENSITY
DFV .                     84 : DRILLING FLUID VISCOSITY
DFPH.                    9.5 : DRILLING FLUID PH
DFL .                   10.5 : DRILLING FLUID LOSS
MSS .               FLOWLINE : MUD SAMPLE SOURCE
RMS .OHMM               2.78 : RESISTIVITY MUD SAMPLE
MST .DEGF                 68 : MUD SAMPLE TEMPERATURE
RMF .OHMM               2.49 : RESISTIVITY MUD FILTRATE SAMPLE
MFST.DEGF                 62 : MUD FILTRATE SAMPLE TEMPERATURE
RMB .OHMM               0.76 : RESISTIVITY MUD AT BHT
TCS .HRS                   3 : TIME CIRCULATED STOPPED
LUN .                   7691 : LOGGING UNIT NUMBER
LUL .                    EDM : LOGGING UNIT LOCATION
ENGI.                  KOLLA : RECORDING ENGINEER
WITN.                   COTE : WITNESSED BY
CLNT.                A2DTECH : CLIENT CODE
ORIG.            2" 5" PRINT : ORIGIN OF DATA
UWI .       100101206413W500 : UNIQUE WELL ID
DICO. A2D Technologies, Inc. : DIGITIZING COMPANY
~Other -----------------------------------------------------
~ASCII -----------------------------------------------------
# ...
 2800.00000    8.30410    8.30410  290.63640  290.63640    3.44070  112.27220  112.27220   54.06920   54.06920    3.27880    -999.25    4.23660    -999.25  -50.70490   -2.33850    4.23660
 2850.00000    7.74320    7.74320  152.39410  152.39410    6.56190   97.31620   97.31620   51.23340   51.23340    7.56550    -999.25    6.19940    -999.25  -58.90460  -10.81610    6.19940
 2900.00000    9.07880    9.07880  287.30110  287.30110    3.48070  105.75590  105.75590   57.27420   57.27420    3.48230    -999.25    4.37030    -999.25  -47.42280    0.38960    4.37030
 2950.00000    8.31510    8.31510  213.32760  213.32760    4.68770  108.27540  108.27540   63.34310   63.34310    4.45600    -999.25    5.38170    -999.25  -51.28150   -3.74710    5.38170
 3000.00000    8.44480    8.44480  252.72200  252.72200    3.95690  122.44080  122.44080   48.15390   48.15390    3.95870    -999.25    4.87950    -999.25  -55.02160   -7.76320    4.87950
 3050.00000    7.69670    7.69670  117.41870  117.41870    8.51650  106.00460  106.00460   47.45520   47.45520    9.38150    -999.25   10.54280    -999.25  -78.82980  -31.84750   10.54280
 3100.00000    9.02640    9.02640  245.16800  245.16800    4.07880  110.84670  110.84670   54.59430   54.59430    4.05080    -999.25    5.00010    -999.25  -48.00000   -1.29570    5.00010
 3150.00000    8.77910    8.77910  273.22690  273.22690    3.66000   99.66930   99.66930   62.67390   62.67390    3.66250    -999.25    4.64900    -999.25  -48.55230   -2.12410    4.64900
 3200.00000    8.36410    8.36410  282.38420  282.38420    3.54400  103.06430  103.06430   56.97860   56.97860    3.53600    -999.25    4.53200    -999.25  -54.12340   -7.97310    4.53200
 3250.00000    8.12240    8.12240  257.72190  257.72190    3.88020  101.67200  101.67200   55.76400   55.76400    3.87890    -999.25    4.86480    -999.25  -51.41830   -5.54410    4.86480
 3300.00000    9.24140    9.24140  287.75470  287.75470    3.47520  101.07570  101.07570   61.54500   61.54500    3.47470    -999.25    4.41880    -999.25  -47.92830   -2.33020    4.41880
 3350.00000    8.43400    8.43400  311.41740  311.41740    3.21110  106.73900  106.73900   64.57260   64.57260    3.20800    -999.25    4.20520    -999.25  -46.18190   -0.86170    4.20520
 3400.00000    9.00230    9.00230  281.41150  281.41150    3.55350  105.27120  105.27120   71.47770   71.47770    3.55320    -999.25    4.60590    -999.25  -48.26420   -3.22010    4.60590
 3450.00000   12.32060   12.32060  176.98520  176.98520    5.65020   92.63860   92.63860   69.66000   69.66000    5.14240    -999.25    6.45170    -999.25  -55.74710  -10.98090    6.45170
 3500.00000   12.46260   12.46260  174.65090  174.65090    5.72570  112.68220  112.68220   67.52910   67.52910    5.68720    -999.25    6.59620    -999.25  -57.76830  -13.27820    6.59620
 3550.00000   14.22590   14.22590  203.44620  203.44620    4.91530  112.25400  112.25400   80.13450   80.13450    4.97720    -999.25    5.72880    -999.25  -55.10470  -10.89070    5.72880
 3600.00000    9.22220    9.22220  196.25110  196.25110    5.09550  114.21790  114.21790  134.86730  134.86730    5.80560    -999.25    6.55430    -999.25  -49.45600   -5.51990    6.55430
 3650.00000    8.71770    8.71770  159.58740  159.58740    6.26620  102.87090  102.87090  120.45460  120.45460    6.94970    -999.25    8.07770    -999.25  -48.45990   -4.79990    8.07770
 3700.00000   11.23070   11.23070  158.86840  158.86840    6.29500   91.45980   91.45980   89.21870   89.21870    6.43130    -999.25    7.51510    -999.25  -53.71450  -10.33240    7.51510
 3750.00000   10.58490   10.58490  167.53470  167.53470    5.96890  104.52290  104.52290   80.04090   80.04090    5.84510    -999.25    6.76130    -999.25  -54.52340  -11.41740    6.76130
 3800.00000   13.11860   13.11860  171.50450  171.50450    5.83080   95.07300   95.07300   86.42880   86.42880    5.53120    -999.25    6.60490    -999.25  -55.77330  -12.94340    6.60490
 3850.00000   10.36200   10.36200  170.21210  170.21210    5.87500   99.79690   99.79690   93.22680   93.22680    5.86950    -999.25    6.54180    -999.25  -54.03860  -11.48660    6.54180
 3900.00000   11.69120   11.69120  185.32150  185.32150    5.39600   99.81930   99.81930   89.04920   89.04920    5.15220    -999.25    6.29920    -999.25  -54.14550  -11.86960    6.29920
 3950.00000   10.89090   10.89090  171.42390  171.42390    5.83350   95.10360   95.10360   82.77270   82.77270    5.31070    -999.25    6.63220    -999.25  -55.02610  -13.02810    6.63220
 4000.00000   10.51190   10.51190  175.76660  175.76660    5.68940   98.55260   98.55260   93.59450   93.59450    5.24730    -999.25    6.37520    -999.25  -55.34630  -13.62440    6.37520
 4050.00000   10.75660   10.75660  204.48230  204.48230    4.89040  107.52850  107.52850   92.48260   92.48260    4.83890    -999.25    5.78020    -999.25  -53.78540  -12.33960    5.78020
 4100.00000   11.16990   11.16990  135.88890  135.88890    7.35900   93.76500   93.76500   84.01340   84.01340    7.22920    -999.25    8.57810    -999.25  -54.38620  -13.21830    8.57810
 4150.00000   11.40610   11.40610  170.08340  170.08340    5.87950   95.71290   95.71290   89.75230   89.75230    5.87330    -999.25    6.62850    -999.25  -53.24780  -12.35600    6.62850
 4200.00000   11.22470   11.22470  177.38140  177.38140    5.63950   92.66090   92.66090   84.43910   84.43910    6.15840    -999.25    6.72800    -999.25  -50.87790  -10.26400    6.72800
 4250.00000    9.63590    9.63590  196.44920  196.44920    5.09040  100.28340  100.28340  106.76060  106.76060    5.63390    -999.25    6.48010    -999.25  -47.83060   -7.49280    6.48010
 4300.00000    8.93050    8.93050  183.99760  183.99760    5.43490  106.13380  106.13380  105.12370  105.12370    6.15680    -999.25    6.45080    -999.25  -45.15600   -5.09430    6.45080
 4350.00000    8.43210    8.43210  173.85270  173.85270    5.75200  101.13380  101.13380  119.94140  119.94140    6.50760    -999.25    7.31290    -999.25  -44.15280   -4.36900    7.31290
 4400.00000    8.24160    8.24160  183.22430  183.22430    5.45780  103.23860  103.23860  119.90490  119.90490    6.21380    -999.25    7.25760    -999.25  -43.38630   -3.87860    7.25760
 4450.00000    7.81000    7.81000  123.36420  123.36420    8.10880   97.88000   97.88000  154.10680  154.10680    8.90520    -999.25   13.09270    -999.25  -46.69340   -7.46360   13.09270
 4500.00000    8.10410    8.10410  149.71110  149.71110    6.67950   86.07870   86.07870   78.68430   78.68430    7.37030    -999.25    8.37560    -999.25  -50.75400  -11.80030    8.37560
 4550.00000    8.12870    8.12870  155.49570  150.73860    6.63400   84.22480   84.22480   93.50660   93.50660    6.63400    7.05340    8.12520    7.05340  -49.64630  -10.96870    8.12520
 4600.00000    8.77620    8.77620    -999.25  179.00940    5.58630   87.31750   87.31750  104.69980  104.69980    5.58630    6.01740    7.16380    6.01740  -45.83340   -7.66930    7.16380
 4650.00000    9.75960    9.75960    -999.25  247.15160    4.04610   95.78530   95.78530  102.91120  102.91120    4.04610    4.33980    5.24840    4.33980  -40.84420   -3.24260    5.24840
 4700.00000   10.83240   10.83240    -999.25  284.78290    3.51140   97.78980   97.78980  103.69360  103.69360    3.51140    3.76020    4.64980    3.76020  -40.87060   -3.83510    4.64980
 4750.00000    9.69860    9.69860    -999.25  257.74520    3.87980   98.85360   98.85360  112.09730  112.09730    3.87980    4.17100    5.07310    4.17100  -40.99640   -4.52340    5.07310
 4800.00000    9.42150    9.42150    -999.25  205.75280    4.86020   84.29780   84.29780  119.12030  119.12030    4.86020    5.26780    8.10330    5.26780  -38.58640   -2.67590    8.10330
 4850.00000    9.98360    9.98360    -999.25  440.87820    2.26820  107.94380  107.94380  128.73320  128.73320    2.26820    2.46920    3.47860    2.46920  -36.06180   -0.71750    3.47860
 4900.00000    9.38390    9.38390    -999.25  535.41790    1.86770  111.42970  111.42970  102.15810  102.15810    1.86770    2.06060    2.69940    2.06060  -36.73380   -1.95200    2.69940
