~Version ---------------------------------------------------
VERS.      2.0 : CWLS log ASCII Standard -VERSION 2.0
WRAP.       NO : One line per depth step
CREA. 08/04/17 : LAS Creation Date
~Well ------------------------------------------------------
STRT.FT                          1000.0 : START DEPTH
STOP.FT                          9750.0 : STOP DEPTH
STEP.FT                        50.00000 : STEP LENGTH
NULL.                           -999.25 : NULL VALUE
COMP.       BRITISH AMERICAN OIL CO LTD : COMPANY
WELL. B. A. ET AL SAKWATAMAU 2-32-64-14 : WELL
FLD .                                   : FIELD
LOC .                                   : LOCATION
CTRY.                            CANADA : COUNTRY
SRVC.                        Lane Wells : SERVICE COMPANY
DATE.                       03-Apr-1966 : LOGDATE
PROV.                           Alberta : PROVINCE
UWI .                  100023206414W500 : UNIQUE WELL ID
SLAT.WGS84                     54.57622 : SURFACE LATITUDE
SLON.WGS84                    -116.0764 : SURFACE LONGITUDE
~Curve Information -----------------------------------------
DEPT  .FT    : Depth Curve
AC1ED .US/F  : DELTA T 1' SPACING FROM SONIC LOG
ACED  .US/F  : DELTA T 3' SPACING FROM SONIC LOG
CALWS .IN    : CALIPER [MCALED]
CILDED.MMHO  : CONDUCTIVITY FROM RESISTIVITY LOG
CONDWS.MMHO  : CONDUCTIVITY [1000/DRESWS]
DRESWS.OHMM  : DEEP RESISTIVITY [ILDED]
DTWS  .US/F  : COMPRESSIONAL SONIC [ACED SPL. TO AC1ED @4950.772'
GRSED .GAPI  : GAMMA RAY FROM SONIC LOG
GRWS  .GAPI  : GAMMA RAY [GRSED]
ILDED .OHMM  : DEEP INDUCTION FROM RESISTIVITY LOG
MCALED.IN    : MLT  CALIPER FROM ML LOG
SNED  .OHMM  : SHORT NORMAL FROM RESISTIVITY LOG
SPRED .MV    : SPONTANEOUS POTENTIAL FROM RESISTIVITY LOG
SPWS  .MV    : SPONTANEOUS POTENTIAL [BASELINE 0 MV, SPRED]
SRESWS.OHMM  : SHALLOW RESISTIVITY [SNED]
~Params ----------------------------------------------------
PD  .                     GL : PERMANENT DATUM
EPD .FT               3517.7 : ELEVATION PERMANENT DATUM
LMF .                     KB : LOG MEASURED FROM
DAPD.FT                 13.6 : FEET ABOVE PERMANENT DATUM
DMF .                     KB : DRILLING MEASURED FROM
EKB .FT               3531.3 : KELLY BUSHING
EGL .FT               3517.7 : GROUND LEVEL
DATE.               04/03/66 : RUN DATE
RUN .                      1 : RUN NUMBER
DD  .FT                 9767 : DEPTH DRILLER
DL  .FT                 9765 : DEPTH LOGGER
BLI .FT                 9761 : BOTTOM LOG INTERVAL
TLI .FT                  993 : TOP LOG INTERVAL
CS  .IN                9.625 : CASING SIZE
CBD .FT                  991 : CASING BOTTOM DRILLER
CBL .FT                  993 : CASING BOTTOM LOGGER
BS  .IN                 8.75 : BIT SIZE
BSD .FT                 9767 : BIT SIZE AT DEPTH
DFT .           MUD GEL CHEM : DRILLING FLUID TYPE
DFD .                   10.1 : DRILLING FLUID DENSITY
DFV .                    130 : DRILLING FLUID VISCOSITY
DFPH.                    9.5 : DRILLING FLUID PH
DFL .                      9 : DRILLING FLUID LOSS
MSS .                   CIRC : MUD SAMPLE SOURCE
RMS .OHMM                  2 : RESISTIVITY MUD SAMPLE
MST .DEGF                 60 : MUD SAMPLE TEMPERATURE
RMF .OHMM                1.6 : RESISTIVITY MUD FILTRATE SAMPLE
MFST.DEGF                 70 : MUD FILTRATE SAMPLE TEMPERATURE
RMC .OHMM                2.2 : RESISTIVITY MUD CAKE
MCST.DEGF                 70 : MUD CAKE SAMPLE TEMPERATURE
MFSS.                   MEAS : MUD FILTRATE SAMPLE SOURCE
MCSS.                   MEAS : MUD CAKE SAMPLE SOURCE
RMB .OHMM               0.71 : RESISTIVITY MUD AT BHT
TCS .HRS                   4 : TIME CIRCULATED STOPPED
LUN .                   8038 : LOGGING UNIT NUMBER
LUL .                     SL : LOGGING UNIT LOCATION
ENGI.                   COLE : RECORDING ENGINEER
WITN.              DAAE LOCK : WITNESSED BY
CLNT.                A2DTECH : CLIENT CODE
ORIG.            2" 5" PRINT : ORIGIN OF DATA
UWI .       100023206414W500 : UNIQUE WELL ID
DICO. A2D Technologies, Inc. : DIGITIZING COMPANY
~Other -----------------------------------------------------
~ASCII -----------------------------------------------------
 1000.00000    -999.25  157.91940   15.35010  222.38480  179.57840    5.56860  157.91940   38.14760   38.14760    5.56860   15.35010    6.12700  -23.48370   -4.48860    6.12700
 1050.00000    -999.25  121.26810    9.59420  177.24570  151.66990    6.59410  121.26810   50.60010   50.60010    6.59410    9.59420    5.97850  -35.80870   -5.06540    5.97850
 1100.00000    -999.25  123.38980   11.97170  212.03340  168.50340    5.93460  123.38980   57.93690   57.93690    5.93460   11.97170    5.82360  -38.05080   -3.06330    5.82360
 1150.00000    -999.25  124.07860   14.00600  216.29500  173.10610    5.77760  124.07860   48.21960   48.21960    5.77760   14.00600    6.80480  -42.92970   -3.68870    6.80480
 1200.00000    -999.25  113.30670   10.03180  207.14150  175.65740    5.69290  113.30670   58.30550   58.30550    5.69290   10.03180    6.17040  -50.99840   -6.32370    6.17040
 1250.00000    -999.25  111.99460    9.43930  153.15650  130.28810    7.67530  111.99460   52.08490   52.08490    7.67530    9.43930    9.43140  -52.54680   -7.20200    9.43140
 1300.00000    -999.25  151.52020   15.23070  325.13510  250.16790    3.99740  151.52020   44.66530   44.66530    3.99740   15.23070    4.36000  -47.60820   -1.59330    4.36000
 1350.00000    -999.25  153.32900   14.06410  391.94410  283.27810    3.53010  153.32900   58.03030   58.03030    3.53010   14.06410    4.01110  -50.58830   -3.89880    4.01110
 1400.00000    -999.25  136.24490   15.27560  343.27730  263.03400    3.80190  136.24490   47.97070   47.97070    3.80190   15.27560    4.09510  -49.40520   -2.04560    4.09510
 1450.00000    -999.25  108.05030   10.29890  118.81520  105.30640    9.49610  108.05030   36.10190   36.10190    9.49610   10.29890   11.20050  -66.69510  -18.66100   11.20050
 1500.00000    -999.25  109.91450   13.43130  227.03240  186.18510    5.37100  109.91450   44.70280   44.70280    5.37100   13.43130    6.03340  -52.02820   -3.32400    6.03340
 1550.00000    -999.25  137.21100   11.60170  388.75540  287.40350    3.48000  137.21100   49.10390   49.10390    3.48000   11.60170    4.12140  -48.39420   -0.61540    4.12140
 1600.00000    -999.25  144.26080   12.02860  335.59480  237.64260    4.20800  144.26080   43.56330   43.56330    4.20800   12.02860    4.80720  -53.85100   -7.16190    4.80720
 1650.00000    -999.25  119.40600   14.79810  297.35200  247.40660    4.04190  119.40600   51.51570   51.51570    4.04190   14.79810    4.53780  -50.92880   -4.00670    4.53780
 1700.00000    -999.25  133.51940   15.13830  286.51470  221.98050    4.50490  133.51940   51.51350   51.51350    4.50490   15.13830    4.79370  -50.95330   -3.79680    4.79370
 1750.00000    -999.25  111.33120   11.27100  257.61870  208.82490    4.78870  111.33120   46.83050   46.83050    4.78870   11.27100    5.45340  -51.72440   -4.33490    5.45340
 1800.00000    -999.25  130.80240   12.50300  257.64080  210.59340    4.74850  130.80240   45.36470   45.36470    4.74850   12.50300    5.26730  -52.15620   -4.53380    5.26730
 1850.00000    -999.25  129.68330   13.08480  254.80050  207.23240    4.82550  129.68330   47.12590   47.12590    4.82550   13.08480    7.08450  -52.59220   -4.73530    7.08450
 1900.00000    -999.25  110.48410   11.76090  239.48320  198.68320    5.03320  110.48410   58.13620   58.13620    5.03320   11.76090    5.74790  -53.32780   -5.23800    5.74790
 1950.00000    -999.25  120.71680   11.73890  353.67990  268.83890    3.71970  120.71680   65.24960   65.24960    3.71970   11.73890    4.17660  -51.49970   -3.17540    4.17660
 2000.00000    -999.25  128.71880   11.57170  384.12110  283.20590    3.53100  128.71880   72.85800   72.85800    3.53100   11.57170    3.99610  -52.34050   -3.78330    3.99610
 2050.00000    -999.25  110.33190   12.10430  378.14830  305.26800    3.27590  110.33190   61.12970   61.12970    3.27590   12.10430    3.69740  -51.35460   -2.56450    3.69740
 2100.00000    -999.25  111.80970   10.50360  228.30410  188.32390    5.31000  111.80970   57.17220   57.17220    5.31000   10.50360    5.47980  -54.95520   -5.93060    5.47980
 2150.00000    -999.25  132.70900   14.11270  578.15800  341.73490    2.92620  132.70900   71.80960   71.80960    2.92620   14.11270    2.47980  -52.26510   -3.00750    2.47980
 2200.00000    -999.25  118.74920    8.72040  329.00930  228.72300    4.37210  118.74920   60.44070   60.44070    4.37210    8.72040    4.32230  -54.43460   -4.94260    4.32230
 2250.00000    -999.25  117.60540   11.56400  344.12880  277.84720    3.59910  117.60540   48.87580   48.87580    3.59910   11.56400    3.85260  -53.54020   -3.81520    3.85260
 2300.00000    -999.25  104.02240   12.84460  259.43300  204.32430    4.89560  104.02240   58.69760   58.69760    4.89560   12.84460    4.38050  -54.24720   -4.28930    4.38050
 2350.00000    -999.25  111.54060    9.47070  213.00470  172.24160    5.80580  111.54060   43.41460   43.41460    5.80580    9.47070    6.61310  -66.93210  -16.73970    6.61310
 2400.00000    -999.25  111.09730    9.58480  122.20200  107.54420    9.30390  111.09730   45.39220   45.39220    9.30390    9.58480   11.59070  -73.81810  -23.39280   11.59070
 2450.00000    -999.25  127.38110   11.55930  212.06350  169.75330    5.89090  127.38110   43.67040   43.67040    5.89090   11.55930    6.25830  -56.00770   -5.44000    6.25830
 2500.00000    -999.25  119.32280   10.94880  324.31280  252.41690    3.96170  119.32280   54.16160   54.16160    3.96170   10.94880    4.12230  -55.80350   -5.13010    4.12230
 2550.00000    -999.25  131.36360   10.71020  322.88980  218.97560    4.58520  131.36360   31.75590   31.75590    4.58520   10.71020    4.37610  -68.91130  -18.13230    4.37610
 2600.00000    -999.25  129.81850   12.33030  326.89390  241.41180    4.14230  129.81850   52.38840   52.38840    4.14230   12.33030    3.68610  -53.50730   -2.62190    3.68610
 2650.00000    -999.25  122.06530   14.20090  369.11090  253.01310    3.95260  122.06530   42.86950   42.86950    3.95260   14.20090    3.58710  -53.54060   -2.54950    3.58710
 2700.00000    -999.25  122.11920   12.07830  309.25840  213.78940    4.67750  122.11920   45.13900   45.13900    4.67750   12.07830    4.23360  -54.48500   -3.38750    4.23360
 2750.00000    -999.25   96.21760    9.36670   80.91260   76.02420   13.15370   96.21760   35.74400   35.74400   13.15370    9.36670   17.74390  -69.91970  -18.71660   17.74390
 2800.00000    -999.25  109.12560   10.73950  245.19890  216.92440    4.61020  109.12560   51.27930   51.27930    4.61020   10.73950    5.04000  -55.57290   -4.10940    5.04000
 2850.00000    -999.25  105.78300   11.77800  278.70100  227.75930    4.39060  105.78300   38.44290   38.44290    4.39060   11.77800    4.87430  -55.60640   -3.63530    4.87430
 2900.00000    -999.25  105.93050    9.76540  161.06010  140.28360    7.12970  105.93050   39.87350   39.87350    7.12970    9.76540    9.21120  -79.50690  -27.03150    9.21120
 2950.00000    -999.25   97.31370   11.52800  190.57400  163.91020    6.10090   97.31370   37.44490   37.44490    6.10090   11.52800    6.92840  -58.68030   -5.69730    6.92840
 3000.00000    -999.25  106.77860   11.38150  286.56700  230.19730    4.34410  106.77860   49.83490   49.83490    4.34410   11.38150    5.34380  -56.24090   -2.75370    5.34380
 3050.00000    -999.25  106.93350   10.38330  310.31250  248.04680    4.03150  106.93350   46.12570   46.12570    4.03150   10.38330    4.95540  -56.97980   -2.98830    4.95540
 3100.00000    -999.25  100.37190    9.23980  173.33060  147.90270    6.76120  100.37190   35.48570   35.48570    6.76120    9.23980    8.64220  -71.99560  -17.49650    8.64220
 3150.00000    -999.25  115.05350   11.21230  338.71390  275.14500    3.63470  115.05350   39.31690   39.31690    3.63470   11.21230    4.14910  -57.76680   -2.76350    4.14910
 3200.00000    -999.25   99.04620   10.52890  217.08370  185.96690    5.37730   99.04620   42.52440   42.52440    5.37730   10.52890    6.03340  -59.68230   -4.17140    6.03340
 3250.00000    -999.25   96.80350   12.27440  201.05210  169.75330    5.89090   96.80350   37.33120   37.33120    5.89090   12.27440    6.86270  -59.91050   -3.89530    6.86270
