~Version ---------------------------------------------------
VERS.      2.0 : CWLS log ASCII Standard -VERSION 2.0
WRAP.       NO : One line per depth step
CREA. 11/16/17 : LAS Creation Date
~Well ------------------------------------------------------
STRT.FT                        1250.0 : START DEPTH
STOP.FT                       12550.0 : STOP DEPTH
STEP.FT                      50.00000 : STEP LENGTH
NULL.                         -999.25 : NULL VALUE
COMP.     ANADARKO CANADA CORPORATION : COMPANY
WELL. GPD NOEL AMOCO GOLD CK 5-8-69-5 : WELL
FLD .                              WC : FIELD
LOC .                                 : LOCATION
CTRY.                          CANADA : COUNTRY
SRVC.                    Schlumberger : SERVICE COMPANY
DATE.                     03-Nov-1970 : LOGDATE
PROV.                         Alberta : PROVINCE
UWI .                100050806905W600 : UNIQUE WELL ID
SLAT.WGS84                    54.9586 : SURFACE LATITUDE
SLON.WGS84                  -118.7315 : SURFACE LONGITUDE
~Curve Information -----------------------------------------
DEPT  .FT    : Depth Curve
CALSED.IN    : CALIPER FROM SONIC LOG
CALWS .IN    : CALIPER [CALSED]
CILDED.MMHO  : DEEP CONDUCTIVITY INDUCTION FROM RESISTIVITY LOG
CONDWS.MMHO  : CONDUCTIVITY [1000/DRESWS]
DRESWS.OHMM  : DEEP RESISTIVITY [1000/CILDED, IF ILDED <1, ILDED]
DTED  .US/F  : ACOUSTIC TRANSIT TIME SLOWNESS, DELTA T FROM SONIC LOG [ADJ. TO RESISTIVITY LOG]
DTWS  .US/F  : COMPRESSIONAL SONIC [ DTED]
GRSED .GAPI  : GAMMA RAY FROM SONIC LOG [ADJ. TO RESISTIVITY LOG]
GRWS  .GAPI  : GAMMA RAY [GRSED]
ILDED .OHMM  : DEEP INDUCTION RESISTIVITY FROM RESISTIVITY LOG
ILMED .OHMM  : MEDIUM INDUCTION RESISTIVITY FROM RESISTIVITY LOG
LL8ED .OHMM  : LATEROLOG-8 RESISTIVITY FROM RESISTIVITY LOG
MCALED.IN    : MLT [MICROLOG] CALIPER FROM MINILOG
MRESWS.OHMM  : MEDIUM RESISTIVITY [ILMED]
SPRED .MV    : SPONTANEOUS POTENTIAL FROM RESISTIVITY LOG
SPWS  .MV    : SPONTANEOUS POTENTIAL [BASELINE 0 MV, SPRED]
SRESWS.OHMM  : SHALLOW RESISTIVITY [LL8ED]
~Params ----------------------------------------------------
PD  .                     GL : PERMANENT DATUM
EPD .FT                 2152 : ELEVATION PERMANENT DATUM
LMF .                     KB : LOG MEASURED FROM
DAPD.FT                   14 : FEET ABOVE PERMANENT DATUM
EKB .FT                 2166 : KELLY BUSHING
EGL .FT                 2152 : GROUND LEVEL
DATE.               11/04/70 : RUN DATE
RUN .                      1 : RUN NUMBER
DD  .FT                 1319 : DEPTH DRILLER
DL  .FT                 1318 : DEPTH LOGGER
BLI .FT                12587 : BOTTOM LOG INTERVAL
TLI .FT                 1318 : TOP LOG INTERVAL
CBD .FT                12601 : CASING BOTTOM DRILLER
CBL .FT                12594 : CASING BOTTOM LOGGER
BS  .IN                 8.75 : BIT SIZE
BSD .FT                 1319 : BIT SIZE AT DEPTH
DFT .            MAGOBAR GEL : DRILLING FLUID TYPE
DFD .                   11.1 : DRILLING FLUID DENSITY
DFV .                    435 : DRILLING FLUID VISCOSITY
DFPH.                     11 : DRILLING FLUID PH
DFL .                    6.6 : DRILLING FLUID LOSS
MSS .               FLOWLINE : MUD SAMPLE SOURCE
TCS .HRS                 4.5 : TIME CIRCULATED STOPPED
LUN .                   3702 : LOGGING UNIT NUMBER
LUL .                     DC : LOGGING UNIT LOCATION
ENGI.                 SEAMAN : RECORDING ENGINEER
WITN.               SIMMONDS : WITNESSED BY
CLNT.                A2DTECH : CLIENT CODE
ORIG.            2" 5" PRINT : ORIGIN OF DATA
UWI .       100050806905W600 : UNIQUE WELL ID
DICO. A2D Technologies, Inc. : DIGITIZING COMPANY
~Other -----------------------------------------------------
~ASCII -----------------------------------------------------
 1250.00000    -999.25    -999.25    -999.25    -999.25    -999.25    -999.25    -999.25   29.76260   29.76260    -999.25    -999.25    -999.25    -999.25    -999.25    -999.25    -999.25    -999.25
 1300.00000    -999.25    -999.25    -999.25    -999.25    -999.25    -999.25    -999.25   26.26100   26.26100    -999.25    -999.25    -999.25    -999.25    -999.25    -999.25    -999.25    -999.25
 1350.00000   13.67320   13.67320   48.10710   59.72540   16.74330   86.93110   86.93110   37.88330   37.88330   16.74330    -999.25   13.31900    -999.25    -999.25 -228.56590   -6.41440   13.31900
 1400.00000   13.12650   13.12650   98.92120  120.89270    8.27180   85.81920   85.81920   39.46310   39.46310    8.27180    -999.25    6.81290    -999.25    -999.25 -229.38840   -7.34660    6.81290
 1450.00000   12.81720   12.81720   70.10800   82.80410   12.07670   90.80870   90.80870   30.21050   30.21050   12.07670    -999.25    9.58390    -999.25    -999.25 -234.16180  -12.22960    9.58390
 1500.00000   12.65320   12.65320  124.43790  173.01940    5.77970   89.54900   89.54900   40.40180   40.40180    5.77970    -999.25    5.14420    -999.25    -999.25 -230.60940   -8.78680    5.14420
 1550.00000   14.06480   14.06480  100.23550  119.86240    8.34290  111.18830  111.18830   38.32260   38.32260    8.34290    -999.25    6.74460    -999.25    -999.25 -230.44090   -8.72800    6.74460
 1600.00000   13.55840   13.55840   54.11920   64.89170   15.41030   78.24370   78.24370   34.74530   34.74530   15.41030    -999.25   14.18730    -999.25    -999.25 -231.49550   -9.89220   14.18730
 1650.00000   13.89140   13.89140  125.36040  164.72290    6.07080   92.80900   92.80900   35.35700   35.35700    6.07080    -999.25    5.65630    -999.25    -999.25 -229.02510   -7.53140    5.65630
 1700.00000   13.76110   13.76110  192.01040  257.94470    3.87680  110.55100  110.55100   40.22640   40.22640    3.87680    -999.25    3.65050    -999.25    -999.25 -231.09750   -9.71350    3.65050
 1750.00000   12.57530   12.57530  191.60900  274.11530    3.64810  106.09190  106.09190   49.67830   49.67830    3.64810    -999.25    3.35840    -999.25    -999.25 -230.67450   -9.40010    3.35840
 1800.00000   11.37100   11.37100   39.23240   47.88310   20.88420   84.54880   84.54880   34.79750   34.79750   20.88420    -999.25   27.06550    -999.25    -999.25 -236.41490  -15.25010   27.06550
 1850.00000   11.41220   11.41220   51.53600   64.54070   15.49410   89.62490   89.62490   32.75590   32.75590   15.49410    -999.25   12.02920    -999.25    -999.25 -234.48360  -13.42850   12.02920
 1900.00000   12.53870   12.53870  124.98850  170.45360    5.86670   87.56620   87.56620   51.03520   51.03520    5.86670    -999.25    5.57260    -999.25    -999.25 -230.54770   -9.60220    5.57260
 1950.00000   11.78490   11.78490   63.61250   75.29840   13.28050   84.26870   84.26870   36.79270   36.79270   13.28050    -999.25   12.69200    -999.25    -999.25 -235.05230  -14.21640   12.69200
 2000.00000   11.24720   11.24720   78.65310  100.23960    9.97610   89.40440   89.40440   45.61890   45.61890    9.97610    -999.25    9.22640    -999.25    -999.25 -230.81700  -10.09080    9.22640
 2050.00000   10.13510   10.13510  185.89020  252.34680    3.96280  103.29080  103.29080   54.17360   54.17360    3.96280    -999.25    3.51780    -999.25    -999.25 -230.60400   -9.98740    3.51780
 2100.00000   11.28050   11.28050   81.54730   99.78940   10.02110   85.95650   85.95650   69.19910   69.19910   10.02110    -999.25    8.79240    -999.25    -999.25 -232.43040  -11.92350    8.79240
 2150.00000   11.31200   11.31200  106.34960  135.55090    7.37730   90.36920   90.36920   78.83200   78.83200    7.37730    -999.25    5.90480    -999.25    -999.25 -231.25610  -10.85880    5.90480
 2200.00000   11.29270   11.29270  109.67040  133.83840    7.47170   97.73590   97.73590   87.34540   87.34540    7.47170    -999.25    7.26720    -999.25    -999.25 -231.63900  -11.35130    7.26720
 2250.00000   11.35360   11.35360  111.22470  141.32280    7.07600   96.07460   96.07460   81.62580   81.62580    7.07600    -999.25    8.08820    -999.25    -999.25 -232.51660  -12.33860    8.08820
 2300.00000   11.85890   11.85890   83.73110  102.94000    9.71440   90.44800   90.44800   74.61330   74.61330    9.71440    -999.25   11.06450    -999.25    -999.25 -231.21000  -11.14160   11.06450
 2350.00000   12.31620   12.31620   93.81350  119.56430    8.36370   89.65650   89.65650   72.71560   72.71560    8.36370    -999.25    9.30140    -999.25    -999.25 -230.98190  -11.02310    9.30140
 2400.00000   12.96460   12.96460  130.66670  187.65950    5.32880   94.77420   94.77420   78.69000   78.69000    5.32880    -999.25    1.24380    -999.25    -999.25 -229.40970   -9.56060    1.24380
 2450.00000   13.97600   13.97600  127.38810  127.46490    7.84530   96.41500   96.41500   70.82380   70.82380    7.84530    6.65720    7.22470    -999.25    6.65720 -231.32780  -11.58830    7.22470
 2500.00000   13.67650   13.67650    -999.25  103.62370    9.65030   90.16060   90.16060   72.78100   72.78100    9.65030    8.67220    8.07280    -999.25    8.67220 -230.78790  -11.15800    8.07280
 2550.00000   11.76070   11.76070    -999.25   60.54590   16.51640   77.87140   77.87140   46.88920   46.88920   16.51640   16.17990   14.50560    -999.25   16.17990 -233.92560  -14.40540   14.50560
 2600.00000   13.94520   13.94520    -999.25  112.22840    8.91040  103.73470  103.73470   56.24650   56.24650    8.91040    7.66340    8.17550    -999.25    7.66340 -231.00760  -11.59700    8.17550
 2650.00000   12.68830   12.68830    -999.25  132.23670    7.56220   98.46920   98.46920   63.98580   63.98580    7.56220    6.08190    6.92100    -999.25    6.08190 -233.07610  -13.77510    6.92100
 2700.00000   13.08630   13.08630    -999.25   92.13700   10.85340   90.03170   90.03170   74.51550   74.51550   10.85340    9.64710   10.31480    -999.25    9.64710 -232.89560  -13.70430   10.31480
 2750.00000   11.71510   11.71510    -999.25   49.53780   20.18660   75.95200   75.95200   29.30060   29.30060   20.18660   17.33730   17.85130    -999.25   17.33730 -245.71360  -26.63190   17.85130
 2800.00000   11.77590   11.77590    -999.25   61.09590   16.36770   83.39320   83.39320   60.71880   60.71880   16.36770   13.69370   13.93360    -999.25   13.69370 -232.20840  -13.23640   13.93360
 2850.00000   12.26110   12.26110    -999.25   79.96480   12.50550   85.50880   85.50880   71.35030   71.35030   12.50550   10.85550   11.31370    -999.25   10.85550 -229.36310  -10.50070   11.31370
 2900.00000   12.69040   12.69040    -999.25   90.86370   11.00550   84.47950   84.47950   74.70370   74.70370   11.00550    9.73330   10.28650    -999.25    9.73330 -229.70130  -10.94850   10.28650
 2950.00000   12.79830   12.79830    -999.25  100.32710    9.96740   88.30170   88.30170   74.06770   74.06770    9.96740    8.72150    9.43770    -999.25    8.72150 -230.14830  -11.50520    9.43770
 3000.00000   12.79930   12.79930    -999.25   90.68070   11.02770   84.41120   84.41120   67.31070   67.31070   11.02770    9.49700   10.11340    -999.25    9.49700 -229.16200  -10.62850   10.11340
 3050.00000   12.47740   12.47740    -999.25  114.09660    8.76450   90.42110   90.42110   73.37180   73.37180    8.76450    8.20980    9.44270    -999.25    8.20980 -228.12280   -9.69890    9.44270
 3100.00000   12.37780   12.37780    -999.25  112.26120    8.90780   91.47070   91.47070   75.89900   75.89900    8.90780    8.54050    9.36790    -999.25    8.54050 -227.73970   -9.42550    9.36790
 3150.00000   12.17850   12.17850    -999.25  104.42010    9.57670   91.77160   91.77160   76.40250   76.40250    9.57670    8.35370   10.02320    -999.25    8.35370 -227.44030   -9.23570   10.02320
 3200.00000   12.04430   12.04430    -999.25  102.99830    9.70890   90.62550   90.62550   76.12570   76.12570    9.70890    9.06850   10.47350    -999.25    9.06850 -226.75030   -8.65530   10.47350
 3250.00000   11.92270   11.92270    -999.25  105.85820    9.44660   93.34940   93.34940   77.03540   77.03540    9.44660    8.79240   10.47350    -999.25    8.79240 -226.69130   -8.70600   10.47350
