~Version ---------------------------------------------------
VERS. 2.0 : CWLS log ASCII Standard -VERSION 2.0
WRAP.  NO : One line per depth step
~Well ------------------------------------------------------
STRT.m                           300.0 : START DEPTH
STOP.m                          3450.0 : STOP DEPTH
STEP.m                        50.00000 : STEP LENGTH
NULL.                          -999.25 : NULL VALUE
COMP. AMOCO CANADA PETROLEUM CO., LTD. : COMPANY
WELL.   AMOCO ET AL PEMBINA 14-20-47-9 : WELL
FLD .                                  : FIELD
LOC .                                  : Location
CTRY.                           CANADA : COUNTRY
SRVC.                     Schlumberger : SERVICE COMPANY
DATE.                      14-Mar-1979 : LOGDATE
LOC1.                                  : Location 1
SECT.                                  : Section
TOWN.                                  : Township
RNGE.                                  : Range
PDAT.                                  : Perm Datum
EPD .                           950.23 : Elevation
LMF .                               KB : Log Measured From
DMF .                               KB : Drill Measured From
APD .                                  : Above Perm Datum
EKB .                           956.33 : Elev-Kelly Bushing.
EDF .                                  : Elev-Drill Floor
EGL .                           950.23 : Elev-Ground Level
PROV.                          Alberta : PROVINCE
UWI .                 102142004709W500 : UNIQUE WELL ID
SLAT.WGS84                    53.07231 : SURFACE LATITUDE
SLON.WGS84                   -115.2847 : SURFACE LONGITUDE
~Curve Information -----------------------------------------
DEPT    .m      : Depth Curve
CALDED  .MM     : CALIPER FROM DENSITY LOG [ADJ. TO GRSED]
CALSED  .MM     : CALIPER FROM SONIC LOG
CALWS   .MM     : CALIPER [CALSED]
CONDWS  .MMHO   : CONDUCTIVITY [1000/DRESWS]
DCORED  .KG/M3  : DENSITY CORRECTION FROM DENSITY LOG [ADJ. TO GRSED]
DCORWS  .KG/M3  : DENSITY CORRECTION [DCORED]
DENWS   .KG/M3  : FORMATION BULK DENSITY [RHOBED]
DPHILSED.V/V    : DENSITY POROSITY LIMESTONE [M=2710,F=1000, ADJ. TO GRSED] FROM DENSITY LOG
DPHISSED.V/V    : DENSITY POROSITY SANDSTONE [M=2650,F=1000, ADJ. TO GRSED] FROM DENSITY LOG
DPOLSWS .V/V    : DENSITY POROSITY LIMESTONE [CALC FROM DENWS, M=2710,F=1000]
DRESWS  .OHMM   : DEEP RESISTIVITY [ILDED]
DTED    .US/M   : DELTA TIME FROM SONIC LOG
DTWS    .US/M   : COMPRESSIONAL SONIC [DTED]
GRDED   .GAPI   : GAMMA RAY FROM DENSITY LOG [ADJ. TO GRSED]
GRSED   .GAPI   : GAMMA RAY FROM SONIC LOG
GRWS    .GAPI   : GAMMA RAY [GRSED]
ILDED   .OHMM   : DEEP INDUCTION RESISTIVITY FROM RESISTIVITY LOG
ILMED   .OHMM   : MEDIUM NDUCTION RESISTIVITY FROM RESISTIVITY LOG
MLLED   .OHMM   : MICRO-LATEROLOG RESISTIVITY FROM MICRO LOG
MRESWS  .OHMM   : MEDIUM RESISTIVITY [ILMED]
NPHILSED.V/V    : NEUTRON POROSITY LIMESTONE FROM DENSITY LOG [ADJ. TO GRSED]
NPHISSED.V/V    : NEUTRON POROSITY SANDSTONE FROM DENSITY LOG [ADJ. TO GRSED]
NPOLSWS .V/V    : NEUTRON POROSITY LIMESTONE [NPHISSED MATRIX CONVERSION FOR LIMESTONE, SPL. TO NPHILSED @ 2302.2M]
RHOBED  .KG/M3  : BULK DENSITY FROM DENSITY LOG [ADJ. TO DPHISSED/DPHILSED/GRSED]
SFLED   .OHMM   : SPHERICALLY FOCUSED LOG FROM RESISTIVITY LOG [ADJ. TO ILDED]
SPRED   .MV     : SPONTANEOUS POTENTIAL FROM RESISTIVITY LOG
SPWS    .MV     : SPONTANEOUS POTENTIAL [BASELINE 0 MV, SPRED]
SRESWS  .OHMM   : SHALLOW RESISTIVITY [SFLED]
~Params ----------------------------------------------------
RUN .           2 : Run #
DATE.             : Date log was run
TDD .        3454 : Depth - Driller
TDL .        3453 : Depth - Logger
BLI .      3451.2 : Bottom Log Interval
TLI .      2555.5 : Top Log Interval
CBD .        2756 : Casing - Driller
CBL .      2555.5 : Casing - Logger
BS  .       215.9 : Bit Size
DFT .         GEL : Type of Fluid In Hole
DFD .        1310 : Drilling Fluid Density
DFV .          60 : Drilling Fluid Viscosity
DFPH.          11 : Drilling Fluid pH
DFL .         5.2 : Drilling Fluid Loss
MSS . CIRCULATION : Source of Sample
RMS .       0.933 : Mud Resitivity
RMFS.       0.687 : Mud Filtrate Resistivity
RMCS.             : Mud Cake Resitivity
MFSS.       PRESS : Source of Rmf
MCSS.             : Source of Rmc
RMBH.             : Rm at BHT
MRT .        87.8 : Max Recorded Temperature
CLNT.     A2DTECH : CLIENT CODE
~Other -----------------------------------------------------
DIL-SFL & CNL-LDT & SONIC LOG RUN
~ASCII -----------------------------------------------------
# ...
 1550.00000  378.18590  322.85380  322.85380  121.67820  213.77950  213.77950 2309.95920    -999.25    0.20460    0.23390    8.21840  284.05940  284.05940  113.60930  110.42430  110.42430    8.21840    8.76430    -999.25    8.76430    -999.25    0.41110    0.36850 2309.95920    9.86490  -24.73970   -5.80580    9.86490
 1600.00000  350.28880  330.89170  330.89170  104.77350   60.98810   60.98810 2552.50070    -999.25    0.04230    0.09210    9.54440  272.12750  272.12750  114.05860  108.90880  108.90880    9.54440   10.41890    -999.25   10.41890    -999.25    0.37200    0.32860 2552.50070   11.52270  -27.22100   -6.13590   11.52270
 1650.00000  387.28820  330.23700  330.23700  137.05010   67.59110   67.59110 2528.23120    -999.25    0.07290    0.10630    7.29660  258.28080  258.28080  109.96610  104.75260  104.75260    7.29660    7.84590    -999.25    7.84590    -999.25    0.33040    0.28660 2528.23120    8.60430  -28.50640   -5.84460    8.60430
 1700.00000  391.38970  333.35000  333.35000  107.69480  180.27330  180.27330 2324.15380    -999.25    0.19640    0.22560    9.28550  255.53440  255.53440  105.22000   95.44210   95.44210    9.28550    9.55490    -999.25    9.55490    -999.25    0.31790    0.27400 2324.15380   10.10610  -27.87200   -4.66530   10.10610
 1750.00000  424.65640  343.32180  343.32180  138.69430  208.14430  208.14430 1923.11890    -999.25    0.41140    0.46020    7.21010  282.77020  282.77020   95.95220  100.81070  100.81070    7.21010    7.77810    -999.25    7.77810    -999.25    0.44580    0.40400 1923.11890    8.27780  -25.23760   -1.87510    8.27780
 1800.00000  333.91540  318.55130  318.55130  103.62590  112.31060  112.31060 2468.63160    -999.25    0.10280    0.14120    9.65010  254.22070  254.22070   99.95600  100.29290  100.29290    9.65010    9.92920    -999.25    9.92920    -999.25    0.36020    0.31670 2468.63160   10.56810  -27.57170   -2.69460   10.56810
 1850.00000  356.67370  333.93360  333.93360  110.88200   30.39500   30.39500 2610.26780    -999.25    0.02120    0.05830    9.01860  267.23910  267.23910  115.32420  109.38980  109.38980    9.01860    9.73350    -999.25    9.73350    -999.25    0.29730    0.25330 2610.26780   10.84540  -25.19300   -2.95600   10.84540
 1900.00000  379.20060  334.74640  334.74640   99.54900   40.44470   40.44470 2559.69260    -999.25    0.08340    0.08790   10.04530  283.97240  283.97240  126.90740  120.15320  120.15320   10.04530   10.34990    -999.25   10.34990    -999.25    0.33840    0.29460 2559.69260   13.13190  -25.21320   -4.01350   13.13190
 1950.00000  386.05690  339.17590  339.17590  147.33620  175.02390  175.02390 2381.01000    -999.25    0.16760    0.19240    6.78720  288.48720  288.48720  109.72540  117.07590  117.07590    6.78720    7.32110    -999.25    7.32110    -999.25    0.41010    0.36740 2381.01000    8.23730  -21.25250   -1.70680    8.23730
 2000.00000  416.15200  340.59460  340.59460  137.54970   55.84910   55.84910 2515.65550    -999.25    0.08460    0.11370    7.27010  299.12670  299.12670  135.75140  125.66370  125.66370    7.27010    7.83080    -999.25    7.83080    -999.25    0.43070    0.38850 2515.65550    9.20370  -19.42430   -1.53250    9.20370
 2050.00000  425.10030  341.51960  341.51960  248.76860  182.08870  182.08870 2266.66240    -999.25    0.23410    0.25930    4.01980  295.49670  295.49670   98.39310   97.07050   97.07050    4.01980    4.29510    -999.25    4.29510    -999.25    0.47530    0.43450 2266.66240    4.75950  -16.33000   -2.78530    4.75950
 2100.00000  338.26800  319.30810  319.30810   49.72680   15.05390   15.05390 2551.84860    -999.25    0.05640    0.09250   20.10990  248.06230  248.06230   53.58740   55.27780   55.27780   20.10990   21.48180    -999.25   21.48180    -999.25    0.22470    0.18100 2551.84860   27.83930  -28.83530  -15.40330   27.83930
 2150.00000  367.81600  339.43680  339.43680   91.92440    3.79650    3.79650 2548.81590    -999.25    0.06100    0.09430   10.87850  232.54140  232.54140   65.67520   62.09850   62.09850   10.87850   11.19450    -999.25   11.19450    -999.25    0.17000    0.12700 2548.81590   12.17860  -29.47700  -17.15770   12.17860
 2200.00000  351.54510  329.62750  329.62750   61.94600   67.03030   67.03030 2562.25950    -999.25    0.05290    0.08640   16.14310  240.45190  240.45190   63.60500   62.16910   62.16910   16.14310   17.38380    -999.25   17.38380    -999.25    0.17940    0.13630 2562.25950   19.25040  -41.62150  -30.41490   19.25040
 2250.00000  332.69690  321.10180  321.10180   51.35870   32.74510   32.74510 2471.72290    -999.25    0.11000    0.13930   19.47090  229.85870  229.85870   39.73900   40.88810   40.88810   19.47090   20.61020    -999.25   20.61020    -999.25    0.12730    0.08500 2471.72290   24.44670  -41.64910  -31.55520   24.44670
 2300.00000  425.70330  336.84400  336.84400   56.25210  249.25480  249.25480 2369.97610    -999.25    0.17830    0.19880   17.77710  204.06380  204.06380   61.25880   62.49610   62.49610   17.77710   19.02460    -999.25   19.02460    -999.25    0.08470    0.04470 2369.97610   22.08100  -11.80780   -1.89140   22.08100
 2350.00000  334.51220  319.61840  319.61840   27.62290   17.64920   17.64920 2645.22920    0.04900    -999.25    0.03790   36.20180  185.01860  185.01860   90.82010   97.05090   97.05090   36.20180   37.60270    -999.25   37.60270    0.06800    -999.25    0.06800 2645.22920   42.95800  -37.84170  -26.03250   42.95800
 2400.00000  390.84750  328.40110  328.40110  160.72780  126.15330  126.15330 2468.65010    0.13140    -999.25    0.14110    6.22170  211.30050  211.30050   72.87070   74.45290   74.45290    6.22170    7.08160    -999.25    7.08160    0.17780    -999.25    0.17780 2468.65010    8.34850  -34.36210  -20.66020    8.34850
 2450.00000  347.39190  324.39060  324.39060   18.71680    3.98280    3.98280 2708.20410    0.00000    -999.25    0.00110   53.42780  173.90850  173.90850   26.04740   28.86820   28.86820   53.42780   42.40050    -999.25   42.40050    0.00380    -999.25    0.00380 2708.20410   68.32950  -46.88620  -31.29150   68.32950
 2500.00000  332.32510  320.50830  320.50830   13.23130   -2.79080   -2.79080 2684.06690    0.01470    -999.25    0.01520   75.57830  173.89160  173.89160   25.99260   31.83180   31.83180   75.57830   65.81440    -999.25   65.81440    0.01650    -999.25    0.01650 2684.06690  128.17470  -34.88330  -17.39580  128.17470
 2550.00000  328.36520  319.37930  319.37930   15.22490   23.51740   23.51740 2643.46090    0.03570    -999.25    0.03890   65.68200  180.65310  180.65310   38.55140   43.92530   43.92530   65.68200   61.35010    -999.25   61.35010    0.01640    -999.25    0.01640 2643.46090  101.91450  -36.54550  -17.61250  101.91450
 2600.00000  425.00000  335.17770  335.17770  134.11660  159.11400  159.11400 2311.55180    0.22730    -999.25    0.23300    7.45620  191.20540  191.20540   24.71390   31.01230   31.01230    7.45620    6.95030    -999.25    6.95030    0.15190    -999.25    0.15190 2311.55180   10.35820  -57.21270  -37.97280   10.35820
 2650.00000  425.00000  336.70930  336.70930   10.21680  223.11100  223.11100 1887.78130    0.45020    -999.25    0.48080   97.87780  175.85910  175.85910   16.03380   21.37170   21.37170   97.87780   36.93530    -999.25   36.93530    0.21140    -999.25    0.21140 1887.78130  123.74210  -96.22910  -76.68240  123.74210
 2700.00000  371.76790  317.75620  317.75620    5.42640  151.46670  151.46670 2503.06370    0.14360    -999.25    0.12100  184.28530  160.46220  160.46220   14.84670   19.64790   19.64790  184.28530 1403.33920    -999.25 1403.33920    0.00270    -999.25    0.00270 2503.06370  188.75950  -55.56340  -34.91080  188.75950
 2750.00000  314.65270  315.17290  315.17290  120.08980  172.47820  172.47820 2610.15890    0.05700    -999.25    0.05840    8.32710  183.21930  183.21930    -999.25   23.31480   23.31480    8.32710   11.62420    -999.25   11.62420    0.14480    -999.25    0.14480 2610.15890   40.43520  -87.58830  -64.35900   40.43520
