~Version ---------------------------------------------------
VERS.      2.0 : CWLS log ASCII Standard -VERSION 2.0
WRAP.       NO : One line per depth step
CREA. 08/31/17 : LAS Creation Date
~Well ------------------------------------------------------
STRT.FT                        1200.0 : START DEPTH
STOP.FT                       12200.0 : STOP DEPTH
STEP.FT                      50.00000 : STEP LENGTH
NULL.                         -999.25 : NULL VALUE
COMP.                SULPETRO LIMITED : COMPANY
WELL. CAN DELHI ET AL WOLF 6-10-52-16 : WELL
FLD .                                 : FIELD
LOC .                                 : LOCATION
CTRY.                          CANADA : COUNTRY
SRVC.                    Schlumberger : SERVICE COMPANY
DATE.                     19-Apr-1969 : LOGDATE
PROV.                         Alberta : PROVINCE
UWI .                100061005216W500 : UNIQUE WELL ID
SLAT.WGS84              53.4730048794 : SURFACE LATITUDE
SLON.WGS84            -116.2792429971 : SURFACE LONGITUDE
~Curve Information -----------------------------------------
DEPT  .FT    : Depth Curve
CALSED.IN    : CALIPER FROM SLC-GR LOG
CALWS .IN    : CALIPER [CALSED]
CONDWS.MMHO  : CONDUCTIVITY [1000/DRESWS]
DRESWS.OHMM  : DEEP RESISTIVITY [ILDED]
DTED  .US/F  : DELTA-T (INTERVAL TRANSIT TIME) FROM SLC-GR LOG
DTWS  .US/F  : COMPRESSIONAL  SONIC [DTED]
GRSED .GAPI  : GAMMA RAY FROM SLC-GR LOG
GRWS  .GAPI  : GAMMA RAY [GRSED]
ILDED .OHMM  : DEEP INDUCTION RESISTIVITY FROM DIL LOG
ILMED .OHMM  : MEDIUM INDUCTION RESISTIVITY FROM DIL LOG
LL8ED .OHMM  : LATEROLOG 8 FROM DIL LOG
MRESWS.OHMM  : MEDIUM RESISTIVITY [ILMED]
SPRED .MV    : SPONTANEOUS POTENTIAL FROM DIL LOG
SPWS  .MV    : SPONTANEOUS POTENTIAL [BASELINE 0 MV, SPRED]
SRESWS.OHMM  : SHALLOW RESISTIVITY [LL8ED]
~Params ----------------------------------------------------
PD  .                     GL : PERMANENT DATUM
EPD .FT                 3113 : ELEVATION PERMANENT DATUM
LMF .                     KB : LOG MEASURED FROM
DAPD.FT                   14 : FEET ABOVE PERMANENT DATUM
EKB .FT                 3127 : KELLY BUSHING
EGL .FT                 3113 : GROUND LEVEL
DATE.               04/19/69 : RUN DATE
RUN .                      1 : RUN NUMBER
DD  .FT                12226 : DEPTH DRILLER
DL  .FT                12210 : DEPTH LOGGER
BLI .FT                12206 : BOTTOM LOG INTERVAL
TLI .FT                 1240 : TOP LOG INTERVAL
CBD .FT                 1240 : CASING BOTTOM DRILLER
CBL .FT                 1240 : CASING BOTTOM LOGGER
BS  .IN                 8.75 : BIT SIZE
BSD .FT                12226 : BIT SIZE AT DEPTH
DFT .                    GEL : DRILLING FLUID TYPE
DFD .                    9.3 : DRILLING FLUID DENSITY
DFV .                    118 : DRILLING FLUID VISCOSITY
DFPH.                     11 : DRILLING FLUID PH
DFL .                    6.2 : DRILLING FLUID LOSS
MSS .    CIRCULATED FLOWLINE : MUD SAMPLE SOURCE
RMS .OHMM               1.35 : RESISTIVITY MUD SAMPLE
MST .DEGF                 59 : MUD SAMPLE TEMPERATURE
RMF .OHMM               0.95 : RESISTIVITY MUD FILTRATE SAMPLE
MFST.DEGF                 61 : MUD FILTRATE SAMPLE TEMPERATURE
RMC .OHMM               1.16 : RESISTIVITY MUD CAKE
MCST.DEGF                 61 : MUD CAKE SAMPLE TEMPERATURE
TCS .HRS                 330 : TIME CIRCULATED STOPPED
LUN .                   7501 : LOGGING UNIT NUMBER
LUL .                    EDM : LOGGING UNIT LOCATION
ENGI.               CHADDOCK : RECORDING ENGINEER
WITN.                   HALL : WITNESSED BY
CLNT.                A2DTECH : CLIENT CODE
ORIG.            2" 5" PRINT : ORIGIN OF DATA
UWI .       100061005216W500 : UNIQUE WELL ID
DICO. A2D Technologies, Inc. : DIGITIZING COMPANY
~Other -----------------------------------------------------
~ASCII -----------------------------------------------------
# ...
 3500.00000   11.72910   11.72910  131.99400    7.57610   84.49050   84.49050   80.34300   80.34300    7.57610    7.95630    5.62280    7.95630 -103.78840   -2.50010    5.62280
 3550.00000   11.42640   11.42640   38.28420   26.13480   77.76650   77.76650   32.36300   32.36300   26.13480   26.44610   22.29430   26.44610 -120.13070  -18.94910   22.29430
 3600.00000   12.04930   12.04930   87.98710   11.36530   77.42500   77.42500   65.84740   65.84740   11.36530   11.74270   11.55990   11.74270 -104.98030   -3.90620   11.55990
 3650.00000   11.76020   11.76020   91.09560   10.97890   78.11610   78.11610   78.31760   78.31760   10.97890   11.38930   12.10500   11.38930 -105.74010   -4.77270   12.10500
 3700.00000   11.86460   11.86460   64.05860   15.61070   78.18910   78.18910   48.48900   48.48900   15.61070   16.91500   15.36110   16.91500 -107.36490   -6.50490   15.36110
 3750.00000   10.95710   10.95710  108.59770    9.20830   84.26420   84.26420   76.28850   76.28850    9.20830   11.85560   16.97380   11.85560 -103.59750   -2.84420   16.97380
 3800.00000   10.56030   10.56030  141.95030    7.04500   81.69230   81.69230   77.90450   77.90450    7.04500    7.50480    7.93700    7.50480 -103.75880   -3.11230    7.93700
 3850.00000   10.94190   10.94190  136.25460    7.33920   79.62630   79.62630   80.31550   80.31550    7.33920    8.29030    9.70880    8.29030 -103.04590   -2.50680    9.70880
 3900.00000   10.12410   10.12410   23.65710   42.34100   83.27510   83.27510   50.51900   50.51900   42.34100   75.52420  104.37290   75.52420 -110.78580  -10.35340  104.37290
 3950.00000   10.63710   10.63710  102.91670    9.71660   82.04170   82.04170   60.88180   60.88180    9.71660   10.93150    7.12000   10.93150 -102.68760   -2.36260    7.12000
 4000.00000   10.30690   10.30690  141.24490    7.07990   89.27740   89.27740   78.12680   78.12680    7.07990    7.25860    6.60650    7.25860 -101.60120   -1.38290    6.60650
 4050.00000   10.26300   10.26300  169.94530    5.89270   83.66960   83.66960   88.61140   88.61140    5.89270    6.44410    5.56370    6.44410 -101.69810   -1.58660    5.56370
 4100.00000   10.80910   10.80910  133.49170    7.49110   84.04750   84.04750   85.81580   85.81580    7.49110    8.09000    6.01900    8.09000 -102.77030   -2.76620    6.01900
 4150.00000   10.91230   10.91230   62.37050   16.03630   73.59170   73.59170   55.06220   55.06220   16.03630   18.64720   18.02310   18.64720 -103.49040   -3.59300   18.02310
 4200.00000   10.49760   10.49760   58.97200   16.95720   74.50470   74.50470   48.08550   48.08550   16.95720   20.51300   17.73180   20.51300 -106.81680   -7.02680   17.73180
 4250.00000   10.36780   10.36780   59.72500   16.74340   73.65540   73.65540   64.21430   64.21430   16.74340   17.06480   15.30450   17.06480 -103.24620   -3.56300   15.30450
 4300.00000    9.84180    9.84180  149.60700    6.68690  109.84410  109.84410   72.03130   72.03130    6.68690    5.71690    4.87020    5.71690  -98.67120    0.90530    4.87020
 4350.00000    9.86150    9.86150   81.63870   12.24910   80.47260   80.47260   72.05100   72.05100   12.24910   11.29600    8.99670   11.29600 -102.14530   -2.67620    8.99670
 4400.00000   10.01650   10.01650  147.49870    6.77970   99.75130   99.75130   72.02580   72.02580    6.77970    6.42650    5.42760    6.42650 -101.86680   -2.50440    5.42760
 4450.00000   10.24510   10.24510   85.42630   11.70600   77.29420   77.29420   51.45320   51.45320   11.70600   12.37730   11.55510   12.37730 -100.92480   -1.66990   11.55510
 4500.00000   10.25700   10.25700   66.15590   15.11580   79.34800   79.34800   67.47940   67.47940   15.11580   15.54990   14.17350   15.54990 -100.62330   -1.47510   14.17350
 4550.00000   10.11880   10.11880   94.54530   10.58350   88.66640   88.66640   63.76920   63.76920   10.58350    8.89770    6.39870    8.89770 -100.96690   -1.92540    6.39870
 4600.00000   10.00730   10.00730   24.54230   40.74590   70.25250   70.25250   33.46470   33.46470   40.74590   42.41230   47.62140   42.41230 -110.14610  -11.21200   47.62140
 4650.00000   10.41950   10.41950   72.61130   13.83060   76.24250   76.24250   62.82550   62.82550   13.83060   11.82770   18.09900   11.82770 -100.87870   -2.05140   18.09900
 4700.00000   11.23040   11.23040  100.25460    9.97460   81.29140   81.29140   69.29620   69.29620    9.97460    9.51960    8.43470    9.51960 -100.88890   -2.16900    8.43470
 4750.00000    9.87870    9.87870   70.52830   14.17870   88.13900   88.13900   53.70050   53.70050   14.17870   13.66130    9.81270   13.66130 -100.23390   -1.62070    9.81270
 4800.00000   10.37550   10.37550   56.97770   17.55260   98.63870   98.63870   59.55130   59.55130   17.55260   14.78640   13.40820   14.78640  -99.28930   -0.78280   13.40820
 4850.00000    9.35750    9.35750  110.51190    9.04880   83.80730   83.80730   60.38310   60.38310    9.04880    9.76440    9.49180    9.76440 -100.54890   -2.14990    9.49180
 4900.00000    9.61870    9.61870   69.73280   14.37290   85.26590   85.26590   56.24840   56.24840   14.37290    9.48670    8.57450    9.48670 -104.19110   -5.95820    8.57450
 4950.00000    9.93660    9.93660   49.97200   20.01120   73.28950   73.28950   49.50920   49.50920   20.01120   20.53730   19.21440   20.53730 -102.15550   -4.09840   19.21440
 5000.00000    9.78550    9.78550   59.09920   16.92070   74.48770   74.48770   55.58320   55.58320   16.92070   15.80310   13.24880   15.80310 -103.57180   -5.68930   13.24880
 5050.00000   11.16280   11.16280  111.52610    8.97020   88.94290   88.94290   50.02690   50.02690    8.97020    6.60590    6.28450    6.60590  -98.34400   -0.63610    6.28450
 5100.00000    9.81250    9.81250  105.22770    9.50320  126.49690  126.49690   59.22040   59.22040    9.50320    8.63310    6.20160    8.63310  -98.81940   -1.28730    6.20160
 5150.00000   10.00510   10.00510  107.64010    9.31280  102.10070  102.10070   57.58700   57.58700    9.31280    5.94450    7.81980    5.94450 -100.72710   -3.36960    7.81980
 5200.00000    9.75430    9.75430   72.19330   13.85170   72.68320   72.68320   59.05280   59.05280   13.85170   17.67400   15.70260   17.67400 -101.98570   -4.80400   15.70260
 5250.00000   10.32290   10.32290   50.93720   19.63200   66.60210   66.60210   59.51660   59.51660   19.63200   22.80410   42.21780   22.80410 -102.86550   -5.85840   42.21780
 5300.00000   10.62310   10.62310   73.87930   13.53600   75.13590   75.13590   64.37020   64.37020   13.53600   14.23980   17.46360   14.23980 -102.49670   -5.66430   17.46360
 5350.00000   11.77940   11.77940   93.00080   10.75260   83.28670   83.28670  102.33250  102.33250   10.75260   11.11630   12.03030   11.11630 -103.15930   -6.50260   12.03030
 5400.00000   11.37880   11.37880   86.36510   11.58000   76.94440   76.94440   86.96430   86.96430   11.58000   11.91550   12.33220   11.91550 -103.76540   -7.28340   12.33220
 5450.00000   11.13960   11.13960   67.63020   14.78630   73.11730   73.11730   86.11990   86.11990   14.78630   15.17600   15.38000   15.17600 -103.08930   -6.78300   15.38000
 5500.00000   10.86260   10.86260   60.34680   16.57090   91.01160   91.01160   89.25150   89.25150   16.57090   17.15360   17.91840   17.15360 -103.81670   -7.68510   17.91840
 5550.00000   10.62340   10.62340   74.78110   13.37270   78.43880   78.43880   98.44090   98.44090   13.37270   13.71090   15.32350   13.71090 -102.34950   -6.39250   15.32350
 5600.00000   10.39470   10.39470   69.01600   14.48940   81.24920   81.24920  103.40770  103.40770   14.48940   14.88540   16.23150   14.88540 -101.71780   -5.93660   16.23150
 5650.00000    9.97800    9.97800   73.63310   13.58250   82.73200   82.73200  100.75090  100.75090   13.58250   14.30440   15.42290   14.30440 -101.96820   -6.36160   15.42290
 5700.00000   10.56490   10.56490   59.34120   16.85170   80.97070   80.97070   98.98660   98.98660   16.85170   17.86030   20.62470   17.86030 -101.35880   -5.92800   20.62470
 5750.00000    9.58580    9.58580   76.87220   13.00860   79.07070   79.07070   86.60120   86.60120   13.00860   13.54810   14.62390   13.54810 -101.45330   -6.19710   14.62390
