~Version ---------------------------------------------------
VERS.      2.0 : CWLS log ASCII Standard -VERSION 2.0
WRAP.       NO : One line per depth step
CREA. 11/10/17 : LAS Creation Date
~Well ------------------------------------------------------
STRT.FT                          1150.0 : START DEPTH
STOP.FT                         11400.0 : STOP DEPTH
STEP.FT                        50.00000 : STEP LENGTH
NULL.                           -999.25 : NULL VALUE
COMP.              PETROFINA CANADA LTD : COMPANY
WELL. FINA AMOCO HB KAYBOBS 11-33-60-20 : WELL
FLD .                                   : FIELD
LOC .                                   : LOCATION
CTRY.                            CANADA : COUNTRY
SRVC.                      Schlumberger : SERVICE COMPANY
DATE.                       07-Apr-1977 : LOGDATE
PROV.                           Alberta : PROVINCE
UWI .                  100113306020W500 : UNIQUE WELL ID
SLAT.WGS84                     54.23446 : SURFACE LATITUDE
SLON.WGS84                    -116.9427 : SURFACE LONGITUDE
~Curve Information -----------------------------------------
DEPT    .FT    : Depth Curve
CALDED  .IN    : CALIPER CNFD LOG
CALSED  .IN    : CALIPER FROM BCS LOG [ADJ. TO GRDED]
CALWS   .IN    : CALIPER [CALSED]
CONDWS  .MMHO  : CONDUCTIVITY [1000/DRESWS]
DCORWS  .G/C3  : DENSITY CORRECTION [DRHOED]
DENWS   .G/C3  : FORMATION BULK DENSITY [RHOBED]
DPHILSED.V/V   : DENSITY POROSITY LIMESTONE [M=2.71, F=1.00] FROM CNFD LOG [ADJ. TO RHOBED]
DPHISSED.V/V   : DENSITY POROSITY SANDSTONE [M=2.65, F=1.00] FROM CNFD LOG [ADJ. TO RHOBED]
DPOLSWS .V/V   : DENSITY POROSITY LIMESTONE [CALCULATED FROM DENWS, M=2.71, F=1.00]
DRESWS  .OHMM  : DEEP RESISTIVITY [ILDED]
DRHOED  .G/C3  : DENSITY CORRECTION FROM CNFD LOG
DTED    .US/F  : INTERVAL TRANSIT TIME FROM BCS LOG [ADJ. TO GRDED]
DTWS    .US/F  : COMPRESSIONAL SONIC [DTWS]
GRDED   .GAPI  : GAMMA RAY FROM CNFD LOG
GRSED   .GAPI  : GAMMA RAY FROM BCS LOG [ADJ. TO GRDED]
GRWS    .GAPI  : GAMMA RAY [GRSED]
ILDED   .OHMM  : DEEP INDUCTION FROM DILL LOG
ILMED   .OHMM  : MEDIUM INDUCTION FROM DILL LOG
LL8ED   .OHMM  : LATEROLOG FROM DILL LOG
MRESWS  .OHMM  : MEDIUM RESISTIVITY [ILMED]
NPHILSED.V/V   : NEUTRON POROSITY LIMESTONE FROM CNFD LOG [ADJ. TO RHOBED]
NPHISSED.V/V   : NEUTRON POROSITY SANDSTONE FROM CNFD LOG [ADJ. TO RHOBED]
NPOLSWS .V/V   : NEUTRON POROSITY LIMESTONE [NPHISSED MATRIX CONVERSION FOR LIMESTONE, SPL. TO NPHILSED @ 7450']
RHOBED  .G/C3  : BULK DENSITY FROM CNFD LOG
SPRED   .MV    : SPONTANEOUS POTENTIAL FROM DILL LOG
SPWS    .MV    : SPONTANEOUS POTENTIAL [BASELINE 0 MV, SPRED]
SRESWS  .OHMM  : SHALLOW RESISTIVITY [LL8ED]
~Params ----------------------------------------------------
PD  .                     GL : PERMANENT DATUM
EPD .FT                 2961 : ELEVATION PERMANENT DATUM
LMF .                     KB : LOG MEASURED FROM
DAPD.FT                   18 : FEET ABOVE PERMANENT DATUM
EKB .FT                 2979 : KELLY BUSHING
EGL .FT                 2961 : GROUND LEVEL
DATE.               04/07/77 : RUN DATE
RUN .                      1 : RUN NUMBER
DD  .FT                11429 : DEPTH DRILLER
DL  .FT                11423 : DEPTH LOGGER
BLI .FT                11417 : BOTTOM LOG INTERVAL
TLI .FT                 1195 : TOP LOG INTERVAL
CBD .FT                 1195 : CASING BOTTOM DRILLER
CBL .FT                 1195 : CASING BOTTOM LOGGER
BS  .IN                 8.75 : BIT SIZE
BSD .FT                11429 : BIT SIZE AT DEPTH
DFT .               GEL CHEM : DRILLING FLUID TYPE
DFD .                      9 : DRILLING FLUID DENSITY
DFV .                     98 : DRILLING FLUID VISCOSITY
DFPH.                    9.5 : DRILLING FLUID PH
MSS .               FLOWLINE : MUD SAMPLE SOURCE
RMS .OHMM               1.54 : RESISTIVITY MUD SAMPLE
MST .DEGF                 65 : MUD SAMPLE TEMPERATURE
RMB .OHMM               0.51 : RESISTIVITY MUD AT BHT
TCS .HRS                   4 : TIME CIRCULATED STOPPED
LUN .             OSU C 3704 : LOGGING UNIT NUMBER
LUL .                    EDM : LOGGING UNIT LOCATION
ENGI.               MCDONALD : RECORDING ENGINEER
WITN.               BOLEANTU : WITNESSED BY
CLNT.                A2DTECH : CLIENT CODE
ORIG.            2" 5" PRINT : ORIGIN OF DATA
UWI .       100113306020W500 : UNIQUE WELL ID
DICO. A2D Technologies, Inc. : DIGITIZING COMPANY
~Other -----------------------------------------------------
~ASCII -----------------------------------------------------
# ...
 7650.00000    8.62480    9.32360    9.32360   34.05530    0.03070    2.71990    0.13100    -999.25   -0.00580   29.36400    0.03070   73.71440   73.71440  119.42650   93.47710   93.47710   29.36400   32.29660   34.01160   32.29660    0.26120    -999.25    0.26120    2.71990 -248.14160  -32.27220   34.01160
 7700.00000    8.59780    9.51840    9.51840   22.71020    0.23850    2.57320    0.22380    -999.25    0.08000   44.03310    0.23850   52.23030   52.23030   29.58040   23.91490   24.44940   44.03310   49.86260   69.74800   49.86260    0.27550    -999.25    0.27550    2.57320 -275.59020  -61.10810   69.74800
 7750.00000    8.59200   10.23020   10.23020   20.77070    0.12280    2.84960    0.05430    -999.25   -0.08160   48.14480    0.12280   55.58290   55.58290   28.62200   20.80440   22.01210   48.14480   89.89940  105.34140   89.89940    0.28710    -999.25    0.28710    2.84960 -317.57970 -104.48490  105.34140
 7800.00000    8.58600    9.16620    9.16620   14.71320    0.08430    2.84420    0.06690    -999.25   -0.07850   67.96830    0.08430   54.56670   54.56670   24.82580   23.08250   23.19400   67.96830  104.59740  228.46680  104.59740    0.22520    -999.25    0.22520    2.84420 -289.34840  -77.63400  228.46680
 7850.00000    8.59450    9.26270    9.26270   19.81380    0.03850    2.76200    0.10800    -999.25   -0.03040   50.46980    0.03850   66.02150   66.02150   95.00550   78.11450   80.70220   50.46980   58.11920   83.13830   58.11920    0.20970    -999.25    0.20970    2.76200 -239.07430  -28.75410   83.13830
 7900.00000    8.57160    9.55310    9.55310   10.08360    0.23940    2.34620    0.35960    -999.25    0.21270   99.17100    0.23940   55.23070   55.23070   35.26050   34.79170   34.79170   99.17100  195.62010  204.90010  195.62010    0.22540    -999.25    0.22540    2.34620 -285.13180  -76.19890  204.90010
 7950.00000    8.62790    9.52130    9.52130   26.52400    0.24240    2.54910    0.26200    -999.25    0.09410   37.70170    0.24240   59.50420   59.50420   34.65900   29.25780   27.80840   37.70170   96.22230  188.21730   96.22230    0.22970    -999.25    0.22970    2.54910 -267.59500  -60.04940  188.21730
 8000.00000    8.55800    9.43980    9.43980   26.89810    0.08740    2.81220    0.08030    -999.25   -0.05980   37.17740    0.08740   53.67880   53.67880   55.94090   40.13060   44.19530   37.17740   41.83690   79.95550   41.83690    0.21170    -999.25    0.21170    2.81220 -250.18970  -44.03140   79.95550
 8050.00000    8.54000    9.75410    9.75410    9.71000    0.05990    2.85980    0.04950    -999.25   -0.08770  103.05070    0.05990   57.24160   57.24160   64.21790   45.60420   51.36260  103.05070  144.82870  188.39980  144.82870    0.18030    -999.25    0.18030    2.85980 -240.89450  -36.11660  188.39980
 8100.00000    8.58720    9.21570    9.21570   23.39450    0.17290    2.93100    0.01650    -999.25   -0.12920   42.74510    0.17290   55.76760   55.76760   23.68800   15.79670   15.79670   42.74510   68.53750   94.29630   68.53750    0.21880    -999.25    0.21880    2.93100 -286.12240  -82.73870   94.29630
 8150.00000    8.54200    9.45380    9.45380   35.08770    0.10910    2.79690    0.08300    -999.25   -0.05080   28.50000    0.10910   54.77540   54.77540   11.77620   12.32070   12.32070   28.50000   36.21910  150.95730   36.21910    0.20240    -999.25    0.20240    2.79690 -306.44410 -104.44770  150.95730
 8200.00000    8.54800    9.29590    9.29590   50.08360    0.00980    2.75350    0.11360    -999.25   -0.02540   19.96660    0.00980   74.69980   74.69980  116.83990   97.61270   97.61270   19.96660   22.53540   29.58110   22.53540    0.28250    -999.25    0.28250    2.75350 -211.98350  -11.37440   29.58110
 8250.00000    8.64390    9.02810    9.02810  143.86420    0.03420    2.80490    0.08810    -999.25   -0.05550    6.95100    0.03420   65.94070   65.94070   67.98100   56.60990   56.60990    6.95100    7.55470    9.08690    7.55470    0.28960    -999.25    0.28960    2.80490 -258.19660  -58.97480    9.08690
 8300.00000    8.62940    9.25760    9.25760  125.81210    0.06500    2.80980    0.07070    -999.25   -0.05830    7.95330    0.06500   67.25650   67.25650   60.30630   51.14740   48.64580    7.95330    8.41720   10.58250    8.41720    0.27990    -999.25    0.27990    2.80980 -232.17290  -34.33140   10.58250
 8350.00000    9.03520    9.13380    9.13380   82.91050    0.00850    2.72270    0.12320    -999.25   -0.00740   12.06120    0.00850   63.07050   63.07050   90.94990   63.33500   74.50790   12.06120   12.87670   15.41030   12.87670    0.26870    -999.25    0.26870    2.72270 -208.92180  -12.47460   15.41030
 8400.00000    9.02740    9.39480    9.39480   16.53660    0.06190    2.75540    0.11770    -999.25   -0.02650   60.47190    0.06190   59.74860   59.74860   22.63120   24.73960   21.08980   60.47190   89.19190   98.88890   89.19190    0.21740    -999.25    0.21740    2.75540 -219.74250  -24.78980   98.88890
 8450.00000    9.08610    9.63080    9.63080   16.43540    0.09420    2.77630    0.10100    -999.25   -0.03880   60.84420    0.09420   58.08480   58.08480   17.24970   15.94750   15.58860   60.84420   75.00190  113.62580   75.00190    0.22170    -999.25    0.22170    2.77630 -256.91170  -63.52790  113.62580
 8500.00000    9.14230    9.38590    9.38590   11.78450    0.10440    2.73810    0.11950    -999.25   -0.01640   84.85740    0.10440   59.03670   59.03670   36.58360   29.68850   27.28510   84.85740  132.47220  197.78610  132.47220    0.18810    -999.25    0.18810    2.73810 -239.03830  -47.22340  197.78610
 8550.00000    9.08680    9.14310    9.14310   26.43340    0.03550    2.77560    0.09740    -999.25   -0.03830   37.83100    0.03550   63.83190   63.83190   58.48430   44.95470   44.95470   37.83100   43.95790   59.12250   43.95790    0.20920    -999.25    0.20920    2.77560 -217.57490  -27.32110   59.12250
 8600.00000    9.07430    9.03390    9.03390   10.90870    0.01370    2.77290    0.10460    -999.25   -0.03680   91.66990    0.01370   58.74060   58.74060   34.41900   30.12300   28.46820   91.66990  129.45780  135.98170  129.45780    0.17260    -999.25    0.17260    2.77290 -230.05660  -41.37960  135.98170
 8650.00000    9.17130    9.52140    9.52140    8.29580    0.22820    2.61710    0.19250    -999.25    0.05430  120.54320    0.22820   57.34050   57.34050   32.14730   27.24920   27.24920  120.54320  152.14730  228.32530  152.14730    0.19000    -999.25    0.19000    2.61710 -240.41540  -53.30730  228.32530
 8700.00000    9.09580    9.04490    9.04490   19.66690    0.03050    2.75710    0.11580    -999.25   -0.02750   50.84680    0.03050   60.58910   60.58910   45.95780   39.14050   39.14050   50.84680   53.57900   75.64330   53.57900    0.18560    -999.25    0.18560    2.75710 -215.95310  -30.41390   75.64330
 8750.00000    9.00120    8.99450    8.99450   22.87150    0.02470    2.67630    0.15110    -999.25    0.01970   43.72260    0.02470   73.48260   73.48260   99.11410   81.70350   80.42370   43.72260   48.79450   63.04290   48.79450    0.24130    -999.25    0.24130    2.67630 -213.82120  -29.85100   63.04290
 8800.00000    9.01730    9.09230    9.09230   55.50930    0.00630    2.67780    0.16230    -999.25    0.01890   18.02090    0.00630   72.47860   72.47860  119.42990  109.45990  104.59760   18.02090   19.53340   25.95640   19.53340    0.25380    -999.25    0.25380    2.67780 -230.13490  -47.72570   25.95640
 8850.00000    9.06150    9.36060    9.36060    3.92270    0.22740    2.59810    0.20980    -999.25    0.06540  254.92660    0.22740   52.25530   52.25530   17.47510   15.40120   15.40120  254.92660  106.82700  109.57470  106.82700    0.18760    -999.25    0.18760    2.59810 -271.05170  -90.36780  109.57470
 8900.00000    9.04200    9.35300    9.35300    4.22180    0.21560    2.53180    0.23020    -999.25    0.10420  236.86750    0.21560   52.75580   52.75580   16.62980   15.06830   15.06830  236.86750  266.02360  551.06440  266.02360    0.19700    -999.25    0.19700    2.53180 -277.54630  -98.75400  551.06440
