~Version ---------------------------------------------------
VERS.      2.0 : CWLS log ASCII Standard -VERSION 2.0
WRAP.       NO : One line per depth step
CREA. 11/20/17 : LAS Creation Date
~Well ------------------------------------------------------
STRT.FT                            1200.0 : START DEPTH
STOP.FT                           11350.0 : STOP DEPTH
STEP.FT                          50.00000 : STEP LENGTH
NULL.                             -999.25 : NULL VALUE
COMP.       AMOCO CANADA PETROLEUM CO LTD : COMPANY
WELL. AMOCO MOBIL L-2 WAHIGAN 10-16-64-23 : WELL
FLD .                                     : FIELD
LOC .                                     : LOCATION
CTRY.                              CANADA : COUNTRY
SRVC.                             Unknown : SERVICE COMPANY
DATE.                         06-Feb-1976 : LOGDATE
PROV.                             Alberta : PROVINCE
UWI .                    100101606423W500 : UNIQUE WELL ID
SLAT.WGS84                       54.53986 : SURFACE LATITUDE
SLON.WGS84                      -117.4124 : SURFACE LONGITUDE
~Curve Information -----------------------------------------
DEPT    .FT    : Depth Curve
ACED    .US/F  : ACOUSTIC TIME FROM SONIC LOG [ADJ. TO RESISTIVITY LOG]
CALDED  .IN    : CALIPER FROM DENSITY LOG
CALSED  .IN    : CALIPER FROM SONIC LOG [ADJ. TO RESISTIVITY LOG]
CALWS   .IN    : CALIPER [CALDED]
CONDWS  .MMHO  : CONDUCTIVITY [1000/DRESWS]
CORRED  .G/C3  : DENSITY CORRECTION FROM DENSITY LOG [ADJ. TO RESISTIVITY LOG]
DCORWS  .G/C3  : DENSITY CORRECTION [CORRED]
DENWS   .G/C3  : FORMATION BULK DENSITY [RHOBED]
DPHILSED.V/V   : DENSITY POROSITY LIMESTONE [M=2.71, F=1.00] FROM DENSITY LOG [ADJ. TO RESISTIVITY LOG]
DPHISSED.V/V   : DENSITY POROSITY SANDSTONE [M=2.65, F=1.00]FROM DENSITY LOG [ADJ. TO RESISTIVITY LOG]
DPOLSWS .V/V   : DENSITY POROSITY LIMESTONE [CALC. FROM DENWS, M=2.71, F=1.00]
DRESWS  .OHMM  : DEEP RESISTIVITY [ILDED]
DTWS    .US/F  : COMPRESSIONAL SONIC [ACED]
GRDED   .GAPI  : GAMMA RAY FROM DENSITY LOG
GRSED   .GAPI  : GAMMA RAY FROM SONIC LOG [ADJ. TO RESISTIVITY LOG]
GRWS    .GAPI  : GAMMA RAY [GRSED SPL. TO GRDED @ 11348']
ILDED   .OHMM  : DEEP INDUCTION LOG RESISTIVITY FROM RESISTIVITY LOG
ILMED   .OHMM  : MEDIUM INDUCTION LOG RESISTIVITY FROM RESISTIVITY LOG
MRESWS  .OHMM  : MEDIUM RESISTIVITY [ILMED]
NPHILSED.V/V   : NEUTRON POROSITY LIMESTONE FROM DENSITY LOG [ADJ. TO RESISTIVITY LOG]
NPHISSED.V/V   : NEUTRON POROSITY SANDSTONE FROM DENSITY LOG [ADJ. TO RESISTIVITY LOG]
NPOLSWS .V/V   : NEUTRON POROSITY LIMESTONE [NPHISSED MATRIX CONVERSION FOR LIMESTONE & SPL. TO NPHILSED @ 6845']
RHOBED  .G/C3  : BULK DENSITY FROM DENSITY LOG [ADJ. TO RESISTIVITY LOG]
SFLED   .OHMM  : SPHERICALLY FOCUSED RESISTIVITY FROM RESISTIVITY LOG
SPRED   .MV    : SPONTANEOUS POTENTIAL FROM RESISTIVITY LOG
SPWS    .MV    : SPONTANEOUS POTENTIAL [BASELINE 0 MV, SPRED]
SRESWS  .OHMM  : SHALLOW RESISTIVITY [SFLED]
~Params ----------------------------------------------------
PD  .                     GL : PERMANENT DATUM
EPD .FT               2628.5 : ELEVATION PERMANENT DATUM
LMF .                     KB : LOG MEASURED FROM
DAPD.FT                 13.5 : FEET ABOVE PERMANENT DATUM
DMF .                     KB : DRILLING MEASURED FROM
EKB .FT                 2642 : KELLY BUSHING
EGL .FT               2628.5 : GROUND LEVEL
DATE.               02/06/76 : RUN DATE
RUN .                      1 : RUN NUMBER
DD  .FT                11378 : DEPTH DRILLER
DL  .FT                11410 : DEPTH LOGGER
BLI .FT                11408 : BOTTOM LOG INTERVAL
TLI .FT                 1219 : TOP LOG INTERVAL
CS  .IN                9.625 : CASING SIZE
CBD .FT                 1208 : CASING BOTTOM DRILLER
CBL .FT                 1219 : CASING BOTTOM LOGGER
BS  .IN                 8.75 : BIT SIZE
BSD .FT                11378 : BIT SIZE AT DEPTH
DFT .           MUD GEL CHEM : DRILLING FLUID TYPE
DFD .                    9.3 : DRILLING FLUID DENSITY
DFV .                    135 : DRILLING FLUID VISCOSITY
DFPH.                     10 : DRILLING FLUID PH
DFL .                    8.1 : DRILLING FLUID LOSS
MSS .                   CIRC : MUD SAMPLE SOURCE
RMS .OHMM                3.5 : RESISTIVITY MUD SAMPLE
MST .DEGF                 67 : MUD SAMPLE TEMPERATURE
RMF .OHMM                3.5 : RESISTIVITY MUD FILTRATE SAMPLE
MFST.DEGF                 62 : MUD FILTRATE SAMPLE TEMPERATURE
RMC .OHMM                2.8 : RESISTIVITY MUD CAKE
MCST.DEGF                 67 : MUD CAKE SAMPLE TEMPERATURE
MFSS.                   MEAS : MUD FILTRATE SAMPLE SOURCE
MCSS.                   MEAS : MUD CAKE SAMPLE SOURCE
RMB .OHMM               1.21 : RESISTIVITY MUD AT BHT
TCS .HRS                   7 : TIME CIRCULATED STOPPED
LUN .                   6155 : LOGGING UNIT NUMBER
LUL .                    EDM : LOGGING UNIT LOCATION
ENGI.                    GAU : RECORDING ENGINEER
WITN.                  KAREL : WITNESSED BY
CLNT.                A2DTECH : CLIENT CODE
ORIG.            2" 5" PRINT : ORIGIN OF DATA
UWI .       100101606423W500 : UNIQUE WELL ID
DICO. A2D Technologies, Inc. : DIGITIZING COMPANY
~Other -----------------------------------------------------
~ASCII -----------------------------------------------------
 1200.00000    -999.25    -999.25    -999.25    -999.25    -999.25    -999.25    -999.25    -999.25    -999.25    -999.25    -999.25    -999.25    -999.25   79.60370   68.46420   68.46420    -999.25    -999.25    -999.25    -999.25    0.40430    0.36430    -999.25    -999.25  -76.38280   -8.59440    -999.25
 1250.00000   96.96450   10.84800    9.65710   10.84800  215.53120    0.09450    0.09450    2.38260    -999.25    0.16560    0.19150    4.63970   96.96450  109.09420   78.17480   78.17480    4.63970    4.94890    4.94890    -999.25    0.32550    0.28550    2.38260    5.20810  -78.53530  -10.74690    5.20810
 1300.00000  114.57840   10.97440   10.40730   10.97440  230.76040    0.12220    0.12220    2.25470    -999.25    0.24210    0.26630    4.33350  114.57840  142.15460  111.41590  111.41590    4.33350    4.66720    4.66720    -999.25    0.48840    0.44900    2.25470    5.29680  -73.22530   -5.43690    5.29680
 1350.00000  102.68640   11.00590    9.51100   11.00590  115.19680    0.15030    0.15030    2.42870    -999.25    0.13190    0.16450    8.68080  102.68640   96.12800   62.21150   62.21150    8.68080    9.52970    9.52970    -999.25    0.33380    0.29380    2.42870   12.75690  -70.59250   -2.80410   12.75690
 1400.00000  132.94660   13.51430    9.74040   13.51430  629.20780    0.13320    0.13320    2.13300    -999.25    0.29800    0.33740    1.58930  132.94660  127.40970   90.12470   90.12470    1.58930    1.81810    1.81810    -999.25    0.40390    0.36390    2.13300    3.52060  -70.84760   -3.05920    3.52060
 1450.00000  129.24030   13.69770   10.66010   13.69770  296.48210    0.12630    0.12630    2.04090    -999.25    0.37020    0.39130    3.37660  129.24030  131.83250   96.21150   96.21150    3.37660    3.55940    3.55940    -999.25    0.37450    0.33450    2.04090    4.14320  -70.17480   -2.38640    4.14320
 1500.00000  108.27410   13.13300   10.13530   13.13300  344.79190    0.14100    0.14100    2.08090    -999.25    0.34400    0.36790    2.90030  108.27410  116.72140   82.53770   82.53770    2.90030    3.23830    3.23830    -999.25    0.34720    0.30720    2.08090    3.65050  -70.05650   -2.26810    3.65050
 1550.00000  112.92310   14.03540    9.98690   14.03540  392.48010    0.17670    0.17670    2.30960    -999.25    0.20170    0.23420    2.54790  112.92310  126.23250   96.39520   96.39520    2.54790    2.77650    2.77650    -999.25    0.41010    0.37010    2.30960    3.82630  -69.39450   -1.60610    3.82630
 1600.00000  121.24320   13.96880   10.24750   13.96880  224.86560    0.08480    0.08480    1.99610    -999.25    0.41130    0.41750    4.44710  121.24320  117.70610   98.86470   98.86470    4.44710    4.67820    4.67820    -999.25    0.41810    0.37810    1.99610    8.80630  -75.36480   -7.57640    8.80630
 1650.00000  122.64810   13.30890   10.96500   13.30890  461.12700    0.07370    0.07370    1.83710    -999.25    0.51070    0.51050    2.16860  122.64810  130.89270  112.13170  112.13170    2.16860    2.31270    2.31270    -999.25    0.45570    0.41580    1.83710    3.93760  -79.02500  -11.23660    3.93760
 1700.00000  106.95400   14.14030   11.05580   14.14030  291.55780    0.11030    0.11030    2.18390    -999.25    0.27670    0.30770    3.42990  106.95400  122.10740   87.09790   87.09790    3.42990    3.73360    3.73360    -999.25    0.41120    0.37120    2.18390    4.03800  -79.89180  -12.10340    4.03800
 1750.00000  102.16390   14.29130    9.79020   14.29130  366.05900    0.14880    0.14880    2.33860    -999.25    0.19220    0.21720    2.73180  102.16390  142.87390   93.61580   93.61580    2.73180    2.98320    2.98320    -999.25    0.42350    0.38360    2.33860    4.73850  -78.56450  -10.77610    4.73850
 1800.00000   99.14240   14.14190    9.79870   14.14190  282.45400    0.19480    0.19480    2.35960    -999.25    0.17280    0.20490    3.54040   99.14240  129.76000   89.37420   89.37420    3.54040    3.85040    3.85040    -999.25    0.34540    0.30540    2.35960    5.38480  -79.15890  -11.37050    5.38480
 1850.00000  114.43820   14.19620    9.74020   14.19620  328.14860    0.19860    0.19860    2.37990    -999.25    0.16700    0.19300    3.04740  114.43820  138.45640  102.21110  102.21110    3.04740    3.25340    3.25340    -999.25    0.36900    0.32900    2.37990    3.75850  -77.59240   -9.80400    3.75850
 1900.00000  104.26890   14.22350    9.64420   14.22350  348.78450    0.17980    0.17980    2.38430    -999.25    0.15820    0.19050    2.86710  104.26890  133.22670   90.15060   90.15060    2.86710    3.14180    3.14180    -999.25    0.40000    0.36000    2.38430    3.38780  -79.67780  -11.88940    3.38780
 1950.00000   74.63730   14.48120    9.90670   14.48120   85.26520    0.13210    0.13210    2.59820    -999.25    0.03020    0.06540   11.81320   74.63730  103.60450   68.89860   68.89860   11.81320   13.24120   13.24120    -999.25    0.21890    0.17890    2.59820   20.10800  -79.88540  -12.09700   20.10800
 2000.00000  108.20300   14.05810    9.53190   14.05810  462.42770    0.16550    0.16550    2.24630    -999.25    0.28000    0.27120    2.16250  108.20300  137.36230  100.47020  100.47020    2.16250    2.45460    2.45460    -999.25    0.44960    0.40960    2.24630    3.32370  -77.24410   -9.45570    3.32370
 2050.00000   93.80320   12.47650    9.79270   12.47650  164.03930    0.07600    0.07600    2.35920    -999.25    0.17750    0.20520    6.09610   93.80320  106.83980   77.57000   77.57000    6.09610    6.77690    6.77690    -999.25    0.30840    0.26840    2.35920    8.49490  -77.32490   -9.53650    8.49490
 2100.00000   99.81750   12.31260    9.51180   12.31260  141.27890    0.17040    0.17040    2.38060    -999.25    0.17460    0.19260    7.07820   99.81750  103.32530   81.76430   81.76430    7.07820    7.71920    7.71920    -999.25    0.30990    0.26990    2.38060    7.46240  -79.80770  -12.01930    7.46240
 2150.00000   99.61200   12.30950    9.39090   12.30950  128.68850    0.13240    0.13240    2.27840    -999.25    0.22630    0.25240    7.77070   99.61200   87.67880   69.17920   69.17920    7.77070    8.35380    8.35380    -999.25    0.35640    0.31640    2.27840    8.04200  -75.51200   -7.72360    8.04200
 2200.00000  102.96560   13.87820    9.81770   13.87820  318.95910    0.13260    0.13260    2.29480    -999.25    0.21770    0.24280    3.13530  102.96560  118.93200   90.38930   90.38930    3.13530    3.25530    3.25530    -999.25    0.37650    0.33650    2.29480    3.47430  -75.93600   -8.14760    3.47430
 2250.00000   97.69440    9.51020    8.92570    9.51020  163.05500    0.13150    0.13150    2.37050    -999.25    0.17140    0.19850    6.13290   97.69440   80.05390   68.69860   68.69860    6.13290    6.50630    6.50630    -999.25    0.34500    0.30500    2.37050    6.96310  -77.75620   -9.96780    6.96310
 2300.00000   97.81630   12.19970   10.40180   12.19970  218.64610    0.00030    0.00030    1.69950    -999.25    0.59480    0.59090    4.57360   97.81630   91.49690   73.27720   73.27720    4.57360    5.69760    5.69760    -999.25    0.31920    0.27920    1.69950    6.23450  -78.32500  -10.53660    6.23450
 2350.00000  143.20000   13.91270   11.93830   13.91270  397.81990    0.06330    0.06330    2.17460    -999.25    0.30010    0.31310    2.51370  143.20000  110.02140   86.30120   86.30120    2.51370    2.66540    2.66540    -999.25    0.44560    0.40560    2.17460    3.12960  -76.59120   -8.80280    3.12960
 2400.00000   96.21110   14.34130    8.65490   14.34130  103.42010    0.08290    0.08290    2.43270    -999.25    0.13530    0.16220    9.66930   96.21110  103.37340   79.30610   79.30610    9.66930   10.22040   10.22040    -999.25    0.33540    0.29540    2.43270    8.50660  -76.10370   -8.31530    8.50660
 2450.00000  111.49400   13.92100   12.02460   13.92100  292.95470    0.13450    0.13450    2.21830    -999.25    0.22240    0.28750    3.41480  111.49400  106.75900   71.13350   71.13350    3.41480    3.69690    3.69690    -999.25    0.38980    0.34980    2.21830    4.21200  -76.08210   -8.29370    4.21200
