~Version ---------------------------------------------------
VERS.      2.0 : CWLS log ASCII Standard -VERSION 2.0
WRAP.       NO : One line per depth step
CREA. 08/24/13 : LAS Creation Date
~Well ------------------------------------------------------
STRT.M                         400.0 : START DEPTH
STOP.M                        2400.0 : STOP DEPTH
STEP.M                      50.00000 : STEP LENGTH
NULL.                        -999.25 : NULL VALUE
COMP.      GULF CANADA RESOURCES INC : COMPANY
WELL. GULF POC AEC IROQUOIS 7-9-76-1 : WELL
FLD .                                : FIELD
LOC .                                : LOCATION
CTRY.                         CANADA : COUNTRY
SRVC.                        Unknown : SERVICE COMPANY
DATE.                    12-Mar-1982 : LOGDATE
PROV.                        Alberta : PROVINCE
UWI .               100070907618W500 : UNIQUE WELL ID
SLAT.WGS84                  55.56693 : SURFACE LATITUDE
SLON.WGS84                 -116.7249 : SURFACE LONGITUDE
~Curve Information -----------------------------------------
DEPT    .M      : DEPTH METER
CALDED  .MM     : CALIPER FROM DENSITY LOG
CALSED  .MM     : CALIPER FROM SONIC LOG [ADJ. TO RESISTIVITY LOG]
CALWS   .MM     : CALIPER [CALDED]
CONDWS  .MMHO   : CONDUCTIVITY [1000/DRESWS]
DCORWS  .KG/M3  : DENSITY CORRECTION [DRHOED]
DENWS   .KG/M3  : FORMATION BULK DENSITY [CALC FROM DPOLSWS,M=2710,F=1000]
DPHILSED.V/V    : DENSITY POROSITY LIMESTONE [M=2710,F=1000] FROM DENSITY LOG [ADJ. TO RESISTIVITY LOG]
DPHISSED.V/V    : DENSITY POROSITY SANDSTONE [M=2650,F=1000] FROM DENSITY LOG [ADJ. TO RESISTIVITY LOG]
DPOLSWS .V/V    : DENSITY POROSITY LIMESTONE [DPHISSED CONVERTED TO LIMESTONE MATRIX,M=2710,F=1000,SPL. TO DPHILSED @950M]
DRESWS  .OHMM   : DEEP RESISTIVITY [ILDED]
DRHOED  .KG/M3  : BULK DENSITY CORRECTION FROM DENSITY LOG
DTED    .US/M   : DELTA-T FROM SONIC LOG [ADJ. TO RESISTIVITY LOG]
DTWS    .US/M   : COMPRESSIONAL SONIC [DTED]
GRDED   .GAPI   : GAMMA RAY FROM DENSITY LOG
GRSED   .GAPI   : GAMMA RAY FROM SONIC LOG [ADJ. TO RESISTIVITY LOG]
GRWS    .GAPI   : GAMM RAY [GRSED SPL. TO GRDED @367M-2390M]
ILDED   .OHMM   : DEEP INDUCTION RESISTIVITY FROM RESISTIVITY LOG
ILMED   .OHMM   : MEDIUM INDUCTION RESISTIVITY FROM RESISTIVITY LOG
MRESWS  .OHMM   : MEDIUM RESISTIVITY [ILMED]
NPHILSED.V/V    : NEUTRON POROSITY LIMESTONE FROM DENSITY LOG [ADJ. TO RESISTIVITY LOG]
NPHISSED.V/V    : NEUTRON POROSITY SANDSTONE FROM DENSITY LOG [ADJ. TO RESISTIVITY LOG]
NPOLSWS .V/V    : NEUTRON POROSITY LIMESTONE [NPHISSED CONVERTED TO LIMESTONE MATRIX,SPL. TO NPHILSED @950M]
RHOBED  .KG/M3  : BULK DENSITY FROM DENSITY LOG [ADJ. TO RESISTIVITY LOG]
SFLUED  .OHMM   : SHALLOW FOCUSED RESISTIVITY FROM RESISTIVITY LOG
SPRED   .MV     : SPONTANEOUS POTENTIAL FROM RESISTIVITY LOG
SPWS    .MV     : SPONTANEOUS POTENTIAL [BASELINE 0 MV,SPRED]
SRESWS  .OHMM   : SHALLOW RESISTIVITY [SFLUED]
~Params ----------------------------------------------------
PD  .                         GL : PERMANENT DATUM
EPD .M                    620.75 : ELEVATION PERMANENT DATUM
LMF .                         KB : LOG MEASURED FROM
DAPD.M                       6.6 : FEET ABOVE PERMANENT DATUM
DMF .                         KB : DRILLING MEASURED FROM
EKB .M                    627.41 : KELLY BUSHING
EGL .M                    620.75 : GROUND LEVEL
DATE.                   03/12/82 : RUN DATE
RUN .                          1 : RUN NUMBER
DD  .M                      2407 : DEPTH DRILLER
DL  .M                      2408 : DEPTH LOGGER
BLI .M                      2407 : BOTTOM LOG INTERVAL
TLI .M                       372 : TOP LOG INTERVAL
CS  .MM                      244 : CASING SIZE
CBD .M                       372 : CASING BOTTOM DRILLER
CBL .M                       372 : CASING BOTTOM LOGGER
BS  .MM                      200 : BIT SIZE
BSD .M                      2407 : BIT SIZE AT DEPTH
DFT .                   GEL CHEM : DRILLING FLUID TYPE
DFD .                       1200 : DRILLING FLUID DENSITY
DFV .                         62 : DRILLING FLUID VISCOSITY
DFPH.                         11 : DRILLING FLUID PH
DFL .                          9 : DRILLING FLUID LOSS
MSS .                CIRCULATION : MUD SAMPLE SOURCE
RMS .OHMM                   2.01 : RESISTIVITY MUD SAMPLE
MST .DEGC                   25.5 : MUD SAMPLE TEMPERATURE
RMF .OHMM                   1.84 : RESISTIVITY MUD FILTRATE SAMPLE
MFST.DEGC                   17.2 : MUD FILTRATE SAMPLE TEMPERATURE
RMB .OHMM                  1.102 : RESISTIVITY MUD AT BHT
TCS .HRS                    1300 : TIME CIRCULATED STOPPED
TLAB.HRS                    1900 : TIME LOGGER AT BOTTOM
LUN .                       8330 : LOGGING UNIT NUMBER
LUL .                        EDM : LOGGING UNIT LOCATION
ENGI.                 BRANDSTROM : RECORDING ENGINEER
WITN.                 TADDINGTON : WITNESSED BY
CLNT.                    A2DTECH : CLIENT CODE
ORIG. 6.5"/100M 16.5"/100M PRINT : ORIGIN OF DATA
UWI .           100070907618W500 : UNIQUE WELL ID
DICO.     A2D Technologies, Inc. : DIGITIZING COMPANY
~Other -----------------------------------------------------
DIL-SFL/CNFD/BCS LOG RAN
RHOBED & DRHOED FROM SMALL SCALE
~ASCII -----------------------------------------------------
# ...
 1700.00000  287.61190  235.45310  235.45310    9.74080    8.85760 2674.09000    0.02100    -999.25    0.02100  102.66130    8.85760  163.45800  163.45800   11.90310   15.18480   11.90310  102.66130  107.96940  107.96940   -0.00140    -999.25   -0.00140 2680.88430  150.49200 -162.75180  -75.74800  150.49200
 1750.00000  285.46950  227.43900  227.43900    6.14070   -2.89410 2661.94900    0.02810    -999.25    0.02810  162.84730   -2.89410  166.11030  166.11030   15.48000   16.56880   15.48000  162.84730  199.31070  199.31070    0.00070    -999.25    0.00070 2665.02980  174.88990 -182.73500 -100.47240  174.88990
 1800.00000  235.90890  210.74030  210.74030  100.19840   63.62530 2545.84000    0.09600    -999.25    0.09600    9.98020   63.62530  192.75290  192.75290   14.97190   14.22620   14.97190    9.98020   12.84720   12.84720    0.08880    -999.25    0.08880 2540.04590   44.20620 -228.99980 -151.47850   44.20620
 1850.00000  276.30440  222.01730  222.01730   17.18490    6.25970 2776.51900   -0.03890    -999.25   -0.03890   58.19070    6.25970  157.33820  157.33820   22.36950   22.13960   22.36950   58.19070   76.64520   76.64520    0.05440    -999.25    0.05440 2776.62230   90.11360 -156.26940  -83.48930   90.11360
 1900.00000  260.49200  212.38720  212.38720   46.82920   -0.15780 2657.84500    0.03050    -999.25    0.03050   21.35420   -0.15780  181.66090  181.66090   27.38960   30.61390   27.38960   21.35420   23.23470   23.23470    0.03420    -999.25    0.03420 2658.89650   24.85800  -99.52060  -31.48180   24.85800
 1950.00000  404.35810  260.25510  260.25510  257.51960   34.13220 2490.09400    0.12860    -999.25    0.12860    3.88320   34.13220  289.55700  289.55700  106.63410   92.07770  106.63410    3.88320    3.58850    3.58850    0.28020    -999.25    0.28020 2488.04960    3.94430 -127.77300  -16.15040    3.94430
 2000.00000  560.22740  259.26560  259.26560  295.13330  184.36940 2571.83200    0.08080    -999.25    0.08080    3.38830  184.36940  284.61450  284.61450  117.45860  102.15450  117.45860    3.38830    2.88300    2.88300    0.28830    -999.25    0.28830 2579.02420    3.53490 -111.87100  -14.93660    3.53490
 2050.00000  450.22990  257.41050  257.41050  248.06510   76.28960 2565.33400    0.08460    -999.25    0.08460    4.03120   76.28960  268.72270  268.72270   88.96470   67.97040   88.96470    4.03120    3.63660    3.63660    0.27010    -999.25    0.27010 2562.40380    4.37840  -98.19920  -23.96080    4.37840
 2100.00000  388.15350  245.53370  245.53370  237.06790  149.37240 2515.74400    0.11360    -999.25    0.11360    4.21820  149.37240  268.96920  268.96920   98.41380   90.47530   98.41380    4.21820    4.05210    4.05210    0.30450    -999.25    0.30450 2502.50420    4.70360  -63.95770  -27.77510    4.70360
 2150.00000  281.85410  198.27530  198.27530  127.41610  130.94710 2719.91800   -0.00580    -999.25   -0.00580    7.84830  130.94710  243.90200  243.90200   84.29740   84.13370   84.29740    7.84830    8.38800    8.38800    0.17720    -999.25    0.17720 2721.21040   10.57710  -90.47310  -82.87090   10.57710
 2200.00000  345.82910  237.52480  237.52480  241.27200  135.05780 2535.06700    0.10230    -999.25    0.10230    4.14470  135.05780  246.31470  246.31470   97.87640   86.38570   97.87640    4.14470    4.39970    4.39970    0.25560    -999.25    0.25560 2560.80810    5.70810  -51.18020  -49.27920    5.70810
 2250.00000  244.43510  207.13070  207.13070   20.31750   -2.05000 2681.44300    0.01670    -999.25    0.01670   49.21870   -2.05000  181.80030  181.80030   33.37260   32.12980   33.37260   49.21870   52.94390   52.94390    0.02620    -999.25    0.02620 2681.17630   47.08400  -26.49520  -30.29540   47.08400
 2300.00000  234.68270  207.06940  207.06940    5.93700    9.71200 2647.58500    0.03650    -999.25    0.03650  168.43500    9.71200  180.87310  180.87310   34.87690   34.25200   34.87690  168.43500  216.47670  216.47670    0.03730    -999.25    0.03730 2648.55960  409.39430  -22.46050  -30.53870  409.39430
 2350.00000  229.15490  206.42360  206.42360    0.52180   18.25460 2749.15900   -0.02290    -999.25   -0.02290 1916.56850   18.25460  164.63420  164.63420  109.32430   99.49870  109.32430 1916.56850 2077.62940 2077.62940    0.00730    -999.25    0.00730 2743.91280 1969.40870 -140.02730 -138.24360 1969.40870
 2400.00000    -999.25  207.92050  207.92050    -999.25    -999.25    -999.25    -999.25    -999.25    -999.25    -999.25    -999.25  168.35700  168.35700    -999.25    -999.25    -999.25    -999.25    -999.25    -999.25    -999.25    -999.25    -999.25    -999.25 1930.58260 -255.26840 -253.48470 1930.58260
