~Version ---------------------------------------------------
VERS.      2.0 : CWLS log ASCII Standard -VERSION 2.0
WRAP.       NO : One line per depth step
CREA. 09/17/14 : LAS Creation Date
~Well ------------------------------------------------------
STRT.M                   450.0 : START DEPTH
STOP.M                  4200.0 : STOP DEPTH
STEP.M                50.00000 : STEP LENGTH
NULL.                  -999.25 : NULL VALUE
COMP.     CHEVRON STANDARD LTD : COMPANY
WELL. CHEVRON WEALD 3-22-52-19 : WELL
FLD .                          : FIELD
LOC .                          : LOCATION
CTRY.                   CANADA : COUNTRY
SRVC.   Schlumberger of Canada : SERVICE COMPANY
DATE.              29-Nov-1978 : LOGDATE
PROV.                  Alberta : PROVINCE
UWI .         100032205219W500 : UNIQUE WELL ID
SLAT.WGS84            53.50026 : SURFACE LATITUDE
SLON.WGS84           -116.7206 : SURFACE LONGITUDE
~Curve Information -----------------------------------------
DEPT   .M                  : DEPTH METER
CALD   .MM    45 280 60 00 : CALIPER FROM DENSITY LOG
CALS   .MM    60 280 50 00 : CALIPER FROM SONIC LOG
DPHI_LS.DEC   45 890 10 00 : DENSITY POROSITY LIMESTONE
DPHI_SS.DEC   45 890 12 00 : DENSITY POROSITY SANDSTONE
DRHO   .KG/M3 45 356 01 00 : BULK DENSITY CORRECTION
DT     .US/M  60 500 00 00 : DELTA-T (INTERVAL TRANSIT TIME)
GRD    .GAPI  45 310 01 00 : GAMMA RAY FROM DENSITY LOG
GRN    .GAPI  35 310 01 00 : GAMMA RAY FROM GRN LOG
GRR    .GAPI  07 310 01 00 : GAMMA RAY FROM RESISTIVITY LOG
GRS    .GAPI  60 310 01 00 : GAMMA RAY FROM SONIC LOG
ILD    .OHMM  07 120 46 00 : INDUCTION DEEP RESISTIVITY
ILM    .OHMM  07 120 44 00 : INDUCTION MEDIUM RESISTIVITY
NEUT   .NAPI  35 330 01 00 : NEUTRON
NPHI_LS.DEC   42 890 01 00 : NEUTRON POROSITY LIMESTONE
NPHI_SS.DEC   42 890 03 00 : NEUTRON POROSITY SANDSTONE
RHOB   .KG/M3 45 350 01 00 : BULK DENSITY
SFL    .OHMM  07 220 01 00 : SPHERICALLY FOCUSED LOG
SPR    .MV    07 010 01 00 : SPONTANEOUS POTENTIAL FROM RESISTIVITY LOG
TEND   .N     45 635 00 00 : TENSION FROM DENSITY LOG
TENS   .N     60 635 00 00 : TENSION FROM SONIC LOG
~Params ----------------------------------------------------
PD  .                           GL : PERMANENT DATUM
EPD .FT                      981.3 : ELEVATION PERMANENT DATUM
LMF .                           KB : LOG MEASURED FROM
DAPD.FT                        7.5 : FEET ABOVE PERMANENT DATUM
DMF .                           KB : DRILLING MEASURED FROM
EKB .FT                      988.8 : KELLY BUSHING
EGL .FT                      981.3 : GROUND LEVEL
DATE.                     11/29/78 : RUN DATE
RUN .                            2 : RUN NUMBER
DD  .FT                       4238 : DEPTH DRILLER
DL  .FT                     4235.5 : DEPTH LOGGER
BLI .FT                     4231.7 : BOTTOM LOG INTERVAL
TLI .FT                       3354 : TOP LOG INTERVAL
DFT .                          GEL : DRILLING FLUID TYPE
DFD .                         1065 : DRILLING FLUID DENSITY
DFV .                           82 : DRILLING FLUID VISCOSITY
DFPH.                         10.5 : DRILLING FLUID PH
DFL .                          8.6 : DRILLING FLUID LOSS
MSS .                         CIRC : MUD SAMPLE SOURCE
TLAB.HRS                       500 : TIME LOGGER AT BOTTOM
LUN .                         7802 : LOGGING UNIT NUMBER
LUL .                          EDM : LOGGING UNIT LOCATION
ENGI.                      ROVELLI : RECORDING ENGINEER
WITN.              SPRAGUE BARROWS : WITNESSED BY
CLNT.                      A2DTECH : CLIENT CODE
ORIG. 6.5IN/100M 16.5IN/100M PRINT : ORIGIN OF DATA
UWI .             100032205219W500 : UNIQUE WELL ID
DICO.       A2D Technologies, Inc. : DIGITIZING COMPANY
~Other -----------------------------------------------------
~ASCII -----------------------------------------------------
  450.00000    -999.25    -999.25    -999.25    -999.25    -999.25    -999.25    -999.25    -999.25    -999.25   31.18270    -999.25    -999.25    -999.25    -999.25    -999.25    -999.25    -999.25    -999.25    -999.25    -999.25
  500.00000  321.41550  301.50070    -999.25    0.06060   73.65090  264.23000   82.45140    -999.25   76.80570   74.47980    9.09430    9.55750    -999.25    -999.25    0.30470 2524.66160    -999.25    -999.25 3242.31250 2549.88330
  550.00000  284.61230  286.03430    -999.25    0.07230   -5.64020  277.43640   97.66420    -999.25   75.48420   89.70110   10.99410   11.38880    -999.25    -999.25    0.34510 2501.02830    -999.25    -999.25 1807.69120 3374.67070
  600.00000  381.27010  312.40520    -999.25    0.35820   10.19680  342.44400   97.86380    -999.25   86.40150   90.48510    6.73690    7.31240    -999.25    -999.25    0.54710 2044.91220    -999.25    -999.25 2231.48170  653.74570
  650.00000  318.15960  283.52480    -999.25    0.09120   -3.03810  264.34620   95.48070    -999.25   89.77330   79.80840    9.02120    9.48650    -999.25    -999.25    0.30380 2492.23320    -999.25    -999.25 3431.38400 1512.88010
  700.00000  301.90230  275.69200    -999.25    0.12710    4.65490  268.96820   55.03810    -999.25   55.16450   55.98760   14.14670   15.92660    -999.25    -999.25    0.23880 2442.59110    -999.25    -999.25 1219.74450 2146.72340
  750.00000  290.67050  274.68490    -999.25    0.07570  -12.43440  261.64770  105.28050    -999.25   99.12650   97.93320   10.08480   10.95250    -999.25    -999.25    0.29200 2533.18290    -999.25    -999.25 2142.27590 2823.21170
  800.00000  294.02480  278.09660    -999.25    0.06320   -6.28820  268.83940   98.87370    -999.25   85.19490  105.57650    9.05330    9.94210    -999.25    -999.25    0.31470 2533.61250    -999.25    -999.25 2873.35620 3337.21580
  850.00000  309.39410  291.14480    -999.25    0.08150   -2.80450  159.36760   85.75070    -999.25   87.03150   74.02600   10.27120   10.78930    -999.25    -999.25    0.27060 2520.91310    -999.25    -999.25 1170.91320 1058.17800
  900.00000  318.61140  308.32710    -999.25    0.09840   -2.49810  260.43470   79.81690    -999.25   76.71420   69.92870   13.54250   14.38970    -999.25    -999.25    0.25540 2505.84230    -999.25    -999.25 2244.34110 2392.71660
  950.00000  319.51470  287.45210    -999.25    0.10120   -8.08440  270.47830  103.84380    -999.25   96.87700   96.24690    6.39220    6.78090    -999.25    -999.25    0.34480 2503.72630    -999.25    -999.25 1457.58190 2280.75610
 1000.00000  305.36360  275.31810    -999.25    0.07520   -9.84170  283.95020  124.23030    -999.25  118.44700  116.32190    5.54150    5.86810    -999.25    -999.25    0.34380 2500.59110    -999.25    -999.25 2374.55440 1959.14370
 1050.00000  291.92320  284.16790    -999.25    0.08800   -8.71340  266.11460  117.20920    -999.25  108.83520  102.70920    6.23360    6.95570    -999.25    -999.25    0.34520 2513.05640    -999.25    -999.25 1369.05030  966.77330
 1100.00000  298.05980  286.57310    -999.25    0.09310   -4.52020  280.75490   89.42470    -999.25   87.79520   83.40370    7.26990    7.70340    -999.25    -999.25    0.36430 2495.61110    -999.25    -999.25 2303.39430 1411.03050
 1150.00000  293.85760  289.17030    -999.25    0.11510   24.07770  298.09180  106.76860    -999.25   93.64370  103.24080    4.94050    5.07950    -999.25    -999.25    0.38520 2455.63530    -999.25    -999.25 3154.37740 2231.94090
 1200.00000  267.78180  267.49610    -999.25    0.12200  -10.55600  280.95740  130.40510    -999.25  123.76290  120.98370    5.92780    6.20130    -999.25    -999.25    0.37980 2451.18160    -999.25    -999.25 1834.17190 3135.58720
 1250.00000  270.97040  261.88890    -999.25    0.04830    7.44010  234.80840   88.24290    -999.25   94.47090   64.64060   11.87210   13.37070    -999.25    -999.25    0.23740 2487.13720    -999.25    -999.25 1962.86570 3764.74240
 1300.00000  268.67900  255.17840    -999.25    0.10890   68.74140  233.53040   75.39930    -999.25   74.15840  101.99260   16.81590   18.31930    -999.25    -999.25    0.23630 2574.83330    -999.25    -999.25 2831.56300 1048.22630
 1350.00000  255.28470  249.27880    -999.25    0.08770   -5.40840  233.50260  104.10070    -999.25   97.63080   75.08070   18.52440   18.84850    -999.25    -999.25    0.23970 2529.23750    -999.25    -999.25  261.96610 1781.54870
 1400.00000  261.65980  241.84570    -999.25    0.12350   17.87730  230.03090   98.10440    -999.25   90.61820   93.87450   13.60650   14.86800    -999.25    -999.25    0.27460 2446.04100    -999.25    -999.25 1104.28970 2296.90670
 1450.00000  292.01570  244.45620    -999.25    0.13200  197.87970  248.13450   98.35140    -999.25   87.48230   88.92880   12.27550   13.48480    -999.25    -999.25    0.32540 2478.41360    -999.25    -999.25 2490.65040 1413.16710
 1500.00000  298.98370  247.88370    -999.25    0.11540  126.99340  275.17310   90.85420    -999.25   86.72060   89.26720    8.50480    9.29520    -999.25    -999.25    0.34750 2494.94630    -999.25    -999.25 3070.35280 1784.52540
 1550.00000  319.07490  251.33990    -999.25    0.11100  189.97340  281.90640   93.16750    -999.25   84.64460   84.86000   11.72290   12.16380    -999.25    -999.25    0.38730 2456.13280    -999.25    -999.25 1247.66940 2832.30760
 1600.00000  301.10220  250.62900    -999.25    0.16080  185.74240  252.36230   81.53720    -999.25   74.82260   92.15790   12.46520   13.62280    -999.25    -999.25    0.40060 2406.80740    -999.25    -999.25 2342.94920 3277.57980
 1650.00000  253.18410  249.62320    -999.25    0.07980   -0.90210  248.67370   92.17440    -999.25   84.02980   60.39580   11.24240   12.84070    -999.25    -999.25    0.26130 2548.35400    -999.25    -999.25  925.79380 2897.71920
 1700.00000  295.94570  247.68570    -999.25    0.07040  186.67930  252.76680   83.97470    -999.25   84.02660   90.48310   17.64630   20.48020    -999.25    -999.25    0.31600 2525.41850    -999.25    -999.25 2320.04610  644.97600
 1750.00000  279.92070  249.41780    -999.25    0.06650  246.74920  208.67220   39.67990    -999.25   39.23800   40.70170   48.82260   65.64910    -999.25    -999.25    0.16910 2467.76290    -999.25    -999.25 3511.47050 2017.27770
 1800.00000  247.51990  253.46860    -999.25    0.02740   -4.14100  256.75240   84.59840    -999.25   79.44400   75.46070   12.61300   13.90660    -999.25    -999.25    0.35020 2587.72680    -999.25    -999.25  -53.99480 2147.26100
 1850.00000  262.96670  263.92470    -999.25   -0.00560  -15.34100  237.98390  114.48690    -999.25  110.12490  108.60510   16.00970   17.78450    -999.25    -999.25    0.26820 2618.82100    -999.25    -999.25  554.46480 2803.88790
 1900.00000  257.27370  260.13750    -999.25    0.00750   -9.13030  254.25090  131.06740    -999.25  122.81600  120.21140   10.77950   11.28420    -999.25    -999.25    0.31970 2640.25120    -999.25    -999.25 1562.72580  103.66100
 1950.00000  252.99860  257.22470    -999.25    0.01960   -5.08050  274.14190  140.25110    -999.25    -999.25  129.12050    9.39320   10.02930    -999.25    -999.25    0.35010 2623.82690    -999.25    -999.25 2566.25980  754.42190
 2000.00000  280.38460  255.31580    -999.25   -0.00330    3.76070  267.25300  143.20680    -999.25  125.57240  133.67150    9.27330   10.22890    -999.25    -999.25    0.32130 2637.36010    -999.25    -999.25 3180.80220 1686.84670
 2050.00000  261.14180  245.82960    -999.25    0.00470   -4.20540  265.86050  133.16170    -999.25    -999.25  126.94590    7.57360    8.41020    -999.25    -999.25    0.31640 2616.62600    -999.25    -999.25   99.62760 2490.66410
 2100.00000  250.91110  243.08930    -999.25    0.01690   -0.14250  245.78310  122.62940    -999.25  118.48910  114.83460    9.27110   10.47570    -999.25    -999.25    0.24750 2633.30760    -999.25    -999.25 1451.06710 3010.58370
 2150.00000  260.57100  250.94500    -999.25    0.01450  -13.24350  268.51300  134.61180    -999.25  125.44560  126.91410    7.11770    7.86320    -999.25    -999.25    0.30380 2600.35450    -999.25    -999.25 1975.84220  104.04420
