~Version ---------------------------------------------------
VERS. 2.0 : CWLS log ASCII Standard -VERSION 2.0
WRAP.  NO : ONE LINE PER DEPTH STEP
~Well ------------------------------------------------------
STRT.M                          300.0 : START DEPTH
STOP.M                         1700.0 : STOP DEPTH
STEP.M                       50.00000 : STEP LENGTH
NULL.                         -999.25 : NULL VALUE
COMP.        VERMILION RESOURCES LTD. : COMPANY
WELL. VERMILION RES NIPISI 10-30-80-9 : WELL
FLD .                          NIPISI : FIELD
LOC .                                 : LOCATION
CTRY.                          CANADA : COUNTRY
SRVC.                    Schlumberger : SERVICE COMPANY
DATE.                     12-Jan-1992 : LOGDATE
PROV.                         Alberta : PROVINCE
UWI .                100103008009W500 : UNIQUE WELL ID
SLAT.WGS84              55.9656944275 : SURFACE LATITUDE
SLON.WGS84            -115.3931655884 : SURFACE LONGITUDE
~Curve Information -----------------------------------------
DEPT  .M      : DEPTH METERS
C1    .MM     : CALIPER 1 FROM DENSITY LOG
DPHISS.V/V    : DENSITY POROSITY SANDSTONE FROM DENSITY LOG
DRHO  .KG/M3  : DENSITY CORRECTION FROM DENSITY LOG
GRR   .GAPI   : GAMMA RAY FROM RESISTIVITY LOG
ILD   .OHMM   : INDUCTION LOG DEEP RESISTIVITY
ILM   .OHMM   : INDUCTION LOG MEDIUM RESISTIVITY
NPORSS.V/V    : NEUTRON POROSITY SANDSTONE FROM DENSITY LOG
PEF   .B/E    : PHOTOELECTRIC FACTOR FROM DENSITY LOG
RHOB  .KG/M3  : BULK DENSITY FROM DENSITY LOG
SFLU  .OHMM   : SPHERICALLY FOCUSED LOG RESISTIVITY
SPR   .MV     : SPONTANEOUS POTENTIAL FROM RESISTIVITY LOG
~Params ----------------------------------------------------
PD  .                          GL : PERMANENT DATUM
EPD .M                      647.1 : ELEVATION PERMANENT DATUM
LMF .                          KB : LOG MEASURED FROM
DAPD.M                        4.3 : FEET ABOVE PERMANENT DATUM
DMF .                          KB : DRILLING MEASURED FROM
EKB .M                      651.4 : KELLY BUSHING
EDF .M                      651.1 : DRILLING FLOOR
EGL .M                      647.1 : GROUND LEVEL
DATE.                   1/12/1982 : RUN DATE
RUN .                           1 : RUN NUMBER
DD  .M                       1720 : DEPTH DRILLER
DL  .M                     1716.2 : DEPTH LOGGER
BLI .M                     1713.3 : BOTTOM LOG INTERVAL
TLI .M                      206.8 : TOP LOG INTERVAL
CS  .MM                     219.1 : CASING SIZE
CBD .M                        207 : CASING BOTTOM DRILLER
CBL .M                      206.8 : CASING BOTTOM LOGGER
BS  .MM                       200 : BIT SIZE
BSD .M                       1720 : BIT SIZE AT DEPTH
DFT .                    GEL CHEM : DRILLING FLUID TYPE
DFD .                        1140 : DRILLING FLUID DENSITY
DFV .                         140 : DRILLING FLUID VISCOSITY
DFPH.                         9.5 : DRILLING FLUID PH
DFL .                         8.5 : DRILLING FLUID LOSS
MSS .                    FLOWLINE : MUD SAMPLE SOURCE
RMS .OHMM                    2.39 : RESISTIVITY MUD SAMPLE
MST .DEGC                      19 : MUD SAMPLE TEMPERATURE
RMF .OHMM                    1.26 : RESISTIVITY MUD FILTRATE SAMPLE
MFST.DEGC                      20 : MUD FILTRATE SAMPLE TEMPERATURE
MFSS.                    MEASURED : MUD FILTRATE SAMPLE SOURCE
RMB .OHMM                   1.551 : RESISTIVITY MUD AT BHT
TCS .HRS                      730 : TIME CIRCULATED STOPPED
TLAB.HRS                     1246 : TIME LOGGER AT BOTTOM
LUN .                        8416 : LOGGING UNIT NUMBER
LUL .                    EDMONTON : LOGGING UNIT LOCATION
ENGI.                        HOLT : RECORDING ENGINEER
WITN.                    GOODYEAR : WITNESSED BY
CLNT.                     A2DTECH : CLIENT CODE
ORIG. 6.5"/100M 16.5"/100M  PRINT : ORIGIN OF DATA
UWI .            100103008009W500 : UNIQUE WELL ID
DICO.      A2D Technologies, Inc. : DIGITIZING COMPANY
~Other -----------------------------------------------------
~ASCII -----------------------------------------------------
  300.00000  333.90570    -999.25    -999.25  101.13320    3.86280    3.55430    -999.25    -999.25    -999.25    3.64260  -18.14360
  350.00000  198.05450    -999.25    -999.25   47.46980    7.77750    8.14050    -999.25    -999.25    -999.25    8.12880  -37.58840
  400.00000  333.33320    -999.25    -999.25   70.49030    2.64390    2.53540    -999.25    -999.25    -999.25    2.37080  -17.72020
  450.00000  226.79190    -999.25    -999.25   59.30240    4.76450    5.12350    -999.25    -999.25    -999.25    6.19570  -25.48270
  500.00000  240.97280    -999.25    -999.25   48.52290   14.58560   19.62470    -999.25    -999.25    -999.25   97.53390  -21.12910
  550.00000  327.15300    -999.25    -999.25   74.66710    4.27540    3.92190    -999.25    -999.25    -999.25    3.96780  -14.41980
  600.00000  273.70470    -999.25    -999.25   42.17550    5.38310    6.25700    -999.25    -999.25    -999.25    7.37970  -10.07160
  650.00000  255.36100    -999.25    -999.25   43.05680    8.04470    8.17850    -999.25    -999.25    -999.25   12.35360  -34.87750
  700.00000  283.94900    -999.25    -999.25   44.80860    6.34020    5.32960    -999.25    -999.25    -999.25    4.47490  -43.00660
  750.00000  229.26340    -999.25    -999.25   26.03270   14.78610   15.06180    -999.25    -999.25    -999.25   16.60940  -32.15820
  800.00000  224.84230    -999.25    -999.25   17.38740   21.16180   21.65840    -999.25    -999.25    -999.25   23.22950  -31.84260
  850.00000  233.81840    -999.25    -999.25   33.66780   10.04180   10.31460    -999.25    -999.25    -999.25   11.47180  -22.02530
  900.00000  227.36540    -999.25    -999.25   13.00600   23.68710   27.15470    -999.25    -999.25    -999.25   71.20940  -68.73000
  950.00000  223.54780    -999.25    -999.25   15.36350   26.79010   43.31900    -999.25    -999.25    -999.25  125.08480  -82.73330
 1000.00000  229.76230    -999.25    -999.25   14.90100   24.51570   43.88060    -999.25    -999.25    -999.25  111.19980  -87.24780
 1050.00000  231.83080    -999.25    -999.25   14.80790   66.05640   72.41060    -999.25    -999.25    -999.25   87.81700  -61.11510
 1100.00000  229.29960    -999.25    -999.25   11.16210   22.34530   28.43530    -999.25    -999.25    -999.25   90.72620  -75.22440
 1150.00000  214.33200    -999.25    -999.25   25.28990   14.98290   24.04370    -999.25    -999.25    -999.25   52.30620  -74.91080
 1200.00000  228.35220    -999.25    -999.25   29.88980    5.58970    6.52590    -999.25    -999.25    -999.25   19.97680  -58.74830
 1250.00000  209.53240    -999.25    -999.25   48.16300   13.85310   14.10800    -999.25    -999.25    -999.25   15.10600  -29.49270
 1300.00000  377.90580    -999.25    -999.25   83.59930    2.71230    2.44900    -999.25    -999.25    -999.25    2.75330  -29.45050
 1350.00000  388.56060    -999.25    -999.25   66.76960    3.30580    3.13920    -999.25    -999.25    -999.25    3.36350  -28.61830
 1400.00000  413.37000    0.60410   19.77230   74.74060    2.98690    2.77010    0.43820    2.71730 1648.05470    3.04570  -30.62200
 1450.00000  224.13100   -0.02240   -2.17010   35.55030   13.62850   14.10000    0.13520    4.71300 2690.35570   15.73560   -8.48510
 1500.00000  224.47130    0.03280   42.55840   57.35760    8.01330    8.21210    0.19240    4.36610 2593.11330    9.99840   -9.57330
 1550.00000  248.58680    0.17710   53.19570   81.98050    5.33260    4.85710    0.40190    3.42520 2202.96390    4.98840  -15.05840
 1600.00000  236.74930   -0.02020    2.34340   39.18400   12.84130   13.89430    0.16940    4.40830 2687.43970   15.53920    0.64660
 1650.00000  240.28360   -0.01660    3.32940   57.53410   10.42710   10.54030    0.18750    4.70970 2674.16580   12.06010   12.41360
 1700.00000  206.19550   -0.04670   51.26210   53.96360   10.79340    8.30990    0.21610    3.68820 2726.12600    6.97640   -8.28890
