~Version ---------------------------------------------------
VERS.      2.0 : CWLS log ASCII Standard -VERSION 2.0
WRAP.       NO : One line per depth step
CREA. 08/22/14 : LAS Creation Date
~Well ------------------------------------------------------
STRT.FT                 1143.82546 : START DEPTH
STOP.FT                11159.82546 : STOP DEPTH
STEP.FT                    0.50000 : STEP LENGTH
NULL.                      -999.25 : NULL VALUE
COMP.            TRIAD OIL CO. LTD : COMPANY
WELL. TRIAD PAN AM ANTE 2-27-66-25 : WELL
FLD .                              : FIELD
LOC .                              : LOCATION
CTRY.                       CANADA : COUNTRY
SRVC.                   Lane Wells : SERVICE COMPANY
DATE.                  15-Aug-1967 : LOGDATE
PROV.                      Alberta : PROVINCE
UWI .             100022706625W500 : UNIQUE WELL ID
SLAT.WGS84                54.73614 : SURFACE LATITUDE
SLON.WGS84                 -117.69 : SURFACE LONGITUDE
~Curve Information -----------------------------------------
DEPT.FT    : DEPTH FEET
CALS.IN    : CALIPER FROM SONIC LOG
DT  .US/F  : DELTA TIME FROM SONIC LOG
GRS .GAPI  : GAMMA RAY FROM SONIC LOG
ILD .OHMM  : INDUCTION LOG DEEP RESISTIVITY
SN  .OHMM  : 16 INCH SHORT NORMAL RESISTIVITY FROM IEL
SPR .MV    : SPONTANEOUS POTENTIAL FROM RESISTIVITY LOG
~Params ----------------------------------------------------
PD  .                     GL : PERMANENT DATUM
EPD .FT               2399.7 : ELEVATION PERMANENT DATUM
LMF .                     KB : LOG MEASURED FROM
DAPD.FT                   15 : FEET ABOVE PERMANENT DATUM
DMF .                     KB : DRILLING MEASURED FROM
EKB .FT               2414.7 : KELLY BUSHING
EGL .FT               2399.7 : GROUND LEVEL
DATE.               08/15/67 : RUN DATE
RUN .                      1 : RUN NUMBER
DD  .FT                11172 : DEPTH DRILLER
DL  .FT                11160 : DEPTH LOGGER
BLI .FT                11156 : BOTTOM LOG INTERVAL
TLI .FT                 1144 : TOP LOG INTERVAL
CS  .IN                9.625 : CASING SIZE
CBD .FT                 1145 : CASING BOTTOM DRILLER
CBL .FT                 1144 : CASING BOTTOM LOGGER
BS  .IN                7.625 : BIT SIZE
BSD .FT                11172 : BIT SIZE AT DEPTH
DFT .                MUD GEL : DRILLING FLUID TYPE
DFD .                    9.9 : DRILLING FLUID DENSITY
DFV .                     89 : DRILLING FLUID VISCOSITY
DFPH.                      9 : DRILLING FLUID PH
DFL .                    7.2 : DRILLING FLUID LOSS
MSS .                   CIRC : MUD SAMPLE SOURCE
RMS .OHMM                3.0 : RESISTIVITY MUD SAMPLE
MST .DEGF                 86 : MUD SAMPLE TEMPERATURE
RMF .OHMM                2.4 : RESISTIVITY MUD FILTRATE SAMPLE
MFST.DEGF                 86 : MUD FILTRATE SAMPLE TEMPERATURE
RMC .OHMM                3.2 : RESISTIVITY MUD CAKE
MCST.DEGF                 86 : MUD CAKE SAMPLE TEMPERATURE
MFSS.                   MEAS : MUD FILTRATE SAMPLE SOURCE
MCSS.                   MEAS : MUD CAKE SAMPLE SOURCE
RMB .OHMM                1.2 : RESISTIVITY MUD AT BHT
TCS .HRS                   6 : TIME CIRCULATED STOPPED
LUN .                   1256 : LOGGING UNIT NUMBER
LUL .                    EDM : LOGGING UNIT LOCATION
ENGI.      KOWALCHUK DOMSTAD : RECORDING ENGINEER
WITN.            DANIELEWICZ : WITNESSED BY
CLNT.                A2DTECH : CLIENT CODE
ORIG.            2" 5" PRINT : ORIGIN OF DATA
UWI .       100022706625W500 : UNIQUE WELL ID
DICO. A2D Technologies, Inc. : DIGITIZING COMPANY
~Other -----------------------------------------------------
~ASCII -----------------------------------------------------
# ...
 2482.82546   11.07500   90.25000   39.65700    6.29100    6.92300  -81.83000
 2483.32546   11.10500   90.25000   38.62660    6.25570    6.86140  -82.20790
 2483.82546   11.17680   91.69770   36.24700    6.15970    6.71650  -83.06660
 2484.32546   11.21270   92.75120   36.65780    6.19840    6.62090  -82.64550
 2484.82546   11.28410   94.68970   39.43870    6.26760    6.57970  -80.88050
 2485.32546   11.31530   96.79060   38.81530    6.28810    6.60600  -80.88820
 2485.82546   11.30290  101.62580   36.41090    6.33110    6.65660  -81.81480
 2486.32546   11.27490  103.95010   37.30650    6.35210    6.68180  -82.14850
 2486.82546   11.22260  108.28030   38.72670    6.39640    6.72940  -81.99890
 2487.32546   11.22120  102.45780   38.07390    6.42140    6.69420  -81.68960
 2487.82546   11.26840   91.53610   37.62040    6.46950    6.49310  -81.07790
 2488.32546   11.29980   90.04480   38.30940    6.45140    6.36740  -80.77150
 2488.82546   11.36210   86.73600   38.44700    6.36250    6.11550  -80.16280
 2489.32546   11.39360   86.34650   37.47710    6.32150    5.98950  -79.94420
 2489.82546   11.39730   87.75690   37.86770    6.24150    5.73690  -79.95780
 2490.32546   11.30500   88.95000   40.59800    6.16000    5.47600  -80.26800
 2490.82546   11.25290   86.91200   41.89250    6.12170    5.43400  -80.41110
 2491.32546   11.14600   84.75000   44.12700    6.03800    5.35700  -80.73400
 2491.82546   11.09590   87.00430   42.91010    6.00160    5.32600  -81.03490
 2492.32546   10.98700   91.78200   43.33100    5.91600    5.25400  -82.81500
 2492.82546   11.01350   93.28770   44.48960    5.88210    5.22470  -82.24110
 2493.32546   11.12300   94.63200   47.15800    5.79500    5.15000  -80.96200
 2493.82546   11.25300   94.69650   46.51700    5.76250    5.12280  -81.15270
 2494.32546   11.54450   94.83500   43.59720    5.68240    5.05510  -81.61240
 2494.82546   11.67720   95.29110   41.91990    5.64890    5.02090  -81.54870
 2495.32546   11.90960   96.32960   38.64390    5.59980    4.95350  -81.16190
 2495.82546   12.02970   96.74080   37.43870    5.57900    4.91960  -80.94220
 2496.32546   12.16780   95.78320   38.94940    5.53780    4.85130  -80.50200
 2496.82546   12.13680   95.62640   40.78290    5.51700    4.81720  -80.29840
 2497.32546   12.02920   96.74590   43.66450    5.47570    4.75050  -80.23990
 2497.82546   11.98010   97.16260   43.08290    5.45660    4.78440  -80.33790
 2498.32546   11.94290  100.54780   39.94170    5.46300    4.94550  -80.53590
 2498.82546   11.96100  103.15420   38.73140    5.52680    5.03040  -80.63430
 2499.32546   12.02040  100.96870   36.88990    5.71220    5.19970  -80.83120
 2499.82546   12.01850   98.95000   37.09770    5.80310    5.28440  -80.92990
 2500.32546   11.92660  100.92630   39.69930    5.99080    5.45500  -81.12740
 2500.82546   11.92800  104.37400   42.78900    5.92100    5.63200  -81.30700
 2501.32546   11.95170  105.48330   43.59220    5.90410    5.60760  -81.25270
 2501.82546   12.00900  106.15000   42.93600    5.85900    5.54100  -81.13400
 2502.32546   11.99240  104.66620   42.18640    5.83880    5.51080  -81.08360
 2502.82546   11.78700  100.40300   40.53100    5.79100    5.43800  -80.96400
 2503.32546   11.67470   98.58030   39.84740    5.77130    5.40940  -80.91630
 2503.82546   11.39200   94.85000   38.33300    5.72200    5.33600  -80.79500
 2504.32546   11.28590   94.85000   37.75390    5.70400    5.30900  -80.74990
 2504.82546   11.02770   98.70160   37.15250    5.65940    5.24120  -80.63840
 2505.32546   10.89670  102.28540   38.25820    5.65950    5.20760  -80.58210
 2505.82546   10.72220  109.82190   38.55310    5.72420    5.14870  -80.44570
 2506.32546   10.76710  111.05650   37.72310    5.77210    5.18490  -80.36370
 2506.82546   10.94640  105.08690   35.98390    5.86790    5.31220  -80.19520
 2507.32546   11.03540  103.09340   35.11670    5.91580    5.37670  -80.11080
 2507.82546   11.21420  102.22400   33.37250    6.01160    5.50600  -79.94230
 2508.32546   11.26400  101.75290   32.42500    6.05950    5.57060  -79.85750
 2508.82546   11.17570  100.98470   32.00100    6.15530    5.69990  -79.88320
 2509.32546   11.07430  102.06700   32.57140    6.20320    5.76450  -80.06260
 2509.82546   10.87080  105.87630   34.45200    6.29970    5.89310  -80.54740
 2510.32546   10.79060  106.70720   35.80030    6.34860    5.95780  -80.71930
 2510.82546   10.74370  106.75000   38.69820    6.49410    6.08840  -80.64300
 2511.32546   10.77600  104.02000   41.72800    6.49500    6.10600  -80.27100
 2511.82546   10.79090  102.04730   43.23160    6.46200    6.07610  -80.09990
 2512.32546   10.63700   97.67800   43.38600    6.39000    6.00900  -79.72300
 2512.82546   10.52420   95.80480   42.77540    6.35930    5.98010  -79.55880
 2513.32546   10.25900   92.55000   41.46300    6.28600    5.91100  -79.80200
 2513.82546   10.19420   92.81550   40.82970    6.25690    5.88360  -80.21960
 2514.32546   10.14900   93.35000   38.86700    6.18200    5.81400  -80.61500
 2514.82546   10.15010   92.45340   37.93820    6.15460    5.78820  -80.65820
 2515.32546   10.15520   92.82560   35.70530    6.08630    5.72390  -80.76670
 2515.82546   10.15750   94.04220   34.57090    6.05220    5.69170  -80.81770
 2516.32546   10.16220   97.84040   33.46280    5.98400    5.62740  -80.61500
 2516.82546   10.17280  100.26230   34.18090    5.94980    5.59520  -80.07610
 2517.32546   10.22210  105.23590   36.38700    5.88240    5.53090  -79.52570
 2517.82546   10.25510  107.02050   37.49400    5.84850    5.49880  -79.63830
 2518.32546   10.32050   99.67730   39.46780    5.77950    5.43520  -79.98150
 2518.82546   10.35510   96.06730   40.20920    5.74590    5.40330  -80.15460
 2519.32546   10.42870   95.84240   41.46750    5.68030    5.33900  -80.49900
 2519.82546   10.46760   96.59700   42.10450    5.69520    5.30690  -80.67130
 2520.32546   10.54420   98.14680   43.35570    5.73890    5.24260  -81.01510
 2520.82546   10.58260   98.93770   43.98920    5.73360    5.21040  -81.16060
 2521.32546   10.65940   99.96540   45.26520    5.72570    5.14610  -81.14310
 2521.82546   10.74000  100.42500   46.58300    5.72000    5.08000  -80.85900
 2522.32546   10.77590  100.63870   47.14610    5.71690    5.05460  -80.73080
 2522.82546   10.71900  100.60700   46.16200    5.71000    5.03500  -80.44400
 2523.32546   10.66840  100.18480   45.26460    5.70710    5.03210  -80.32170
 2523.82546   10.55100   99.17100   43.27500    5.70100    5.02400  -80.02900
 2524.32546   10.50310   98.76980   42.42910    5.69820    5.02070  -79.91320
 2524.82546   10.38300   99.45000   40.39300    5.69100    5.01300  -79.61400
 2525.32546   10.35830   99.13350   41.33790    5.68840    5.00990  -79.50380
 2525.82546   10.32760   98.34210   43.81470    5.68180    5.00200  -79.43250
 2526.32546   10.33140   97.95090   45.02600    5.67900    4.99850  -79.52730
 2526.82546   10.36120   99.05920   47.48570    5.67300    4.99120  -79.76810
 2527.32546   10.38090  100.19430   47.89490    5.66970    4.98720  -79.88940
 2527.82546   10.41940  102.45480   46.79170    5.66310    4.97940  -80.13140
 2528.32546   10.42340  102.82250   45.81290    5.66030    4.97580  -80.25220
 2528.82546   10.38950  101.64700   43.83750    5.65430    4.96850  -80.49440
 2529.32546   10.34430  101.47230   42.86270    5.65140    4.96460  -80.61540
 2529.82546   10.20020  102.18830   40.88660    5.64620    4.95740  -80.85760
 2530.32546   10.11890  102.52940   39.91190    5.63430    4.95380  -80.97900
 2530.82546   10.03010  107.26910   37.93740    5.51880    4.94660  -81.22450
 2531.32546   10.01860  108.74150   36.99010    5.44480    4.94160  -81.25640
 2531.82546    9.99570  106.50890   37.25120    5.33710    4.87280  -81.11250
 2532.32546   10.00900  113.99100   39.67400    5.22900    4.74300  -80.92900
 2532.82546   10.03610  118.62700   40.69780    5.17970    4.68500  -80.84510
 2533.32546   10.09900  124.65000   43.13200    5.06900    4.55400  -80.65700
 2533.82546   10.12470  118.79820   44.01910    5.02220    4.49840  -80.57740
