~Version ---------------------------------------------------
VERS.      2.0 : CWLS log ASCII Standard -VERSION 2.0
WRAP.       NO : One line per depth step
CREA. 10/27/17 : LAS Creation Date
~Well ------------------------------------------------------
STRT.FT                           900.0 : START DEPTH
STOP.FT                          9800.0 : STOP DEPTH
STEP.FT                        50.00000 : STEP LENGTH
NULL.                           -999.25 : NULL VALUE
COMP.      CANADIAN HOMESTEAD OILS LTD. : COMPANY
WELL. HOMESTEAD SHELL SNIPE 12-29-68-18 : WELL
FLD .                                   : FIELD
LOC .                                   : LOCATION
CTRY.                            CANADA : COUNTRY
SRVC.                      Schlumberger : SERVICE COMPANY
DATE.                       11-Apr-1970 : LOGDATE
PROV.                           Alberta : PROVINCE
UWI .                  100122906818W500 : UNIQUE WELL ID
SLAT.WGS84                     54.91763 : SURFACE LATITUDE
SLON.WGS84                    -116.7151 : SURFACE LONGITUDE
~Curve Information -----------------------------------------
DEPT    .FT    : Depth Curve
CALSED  .IN    : CALIPER FROM SONIC LOG [ADJ. TO RESISTIVITY LOG]
CALWS   .IN    : CALIPER [CALSED]
CONDWS  .MMHO  : CONDUCTIVITY [1000/DRESWS]
DRESWS  .OHMM  : DEEP RESISTIVITY [ILDED]
DTED    .US/F  : DELTA TIME FROM SONIC LOG [ADJ. TO RESISTIVITY LOG]
DTWS    .US/F  : COMPRESSIONAL SONIC [DTED]
GRSED   .GAPI  : GAMMA RAY FROM SONIC LOG [ADJ. TO RESISTIVITY LOG]
GRWS    .GAPI  : GAMMA RAY [GRSED]
ILDED   .OHMM  : DEEP INDUCTION RESISTIVITY FROM RESISTIVITY LOG
ILMED   .OHMM  : MEDIUM INDUCTION RESISTIVITY FROM RESISTIVITY LOG
LL8ED   .OHMM  : LATEROLOG 8 FROM RESISTIVITY LOG
MRESWS  .OHMM  : MEDIUM RESISTIVITY [ILMED]
SPHILSED.V/V   : SONIC POROSITY LIMESTONE [DTM=47.6,DTF=189.0] FROM SONIC LOG [ADJ. TO RESISTIVITY LOG]
SPHISSED.V/V   : SONIC POROSITY SANDSTONE [DTM=55.6,DTF=189.0] FROM SONIC LOG [ADJ. TO RESISTIVITY LOG]
SPOWS   .V/V   : SONIC POROSITY [SPHISSED SPL. TO SPHILSED @ 5500']
SPRED   .MV    : SPONTANEOUS POTENTIAL FROM RESISTIVITY LOG
SPWS    .MV    : SPONTANEOUS POTENTIAL [BASELINE 0 MV, SPRED]
SRESWS  .OHMM  : SHALLOW RESISTIVITY [LL8ED]
~Params ----------------------------------------------------
PD  .                     GL : PERMANENT DATUM
EPD .FT                 2869 : ELEVATION PERMANENT DATUM
LMF .                     KB : LOG MEASURED FROM
DAPD.FT                   14 : FEET ABOVE PERMANENT DATUM
EKB .FT                 2883 : KELLY BUSHING
EGL .FT                 2869 : GROUND LEVEL
DATE.               04/11/70 : RUN DATE
RUN .                      1 : RUN NUMBER
DD  .FT                 9835 : DEPTH DRILLER
DL  .FT                 9820 : DEPTH LOGGER
BLI .FT                 9816 : BOTTOM LOG INTERVAL
TLI .FT                 1012 : TOP LOG INTERVAL
CBD .FT                 1008 : CASING BOTTOM DRILLER
CBL .FT                 1012 : CASING BOTTOM LOGGER
BS  .IN                7.875 : BIT SIZE
BSD .FT                 9835 : BIT SIZE AT DEPTH
DFT .               CHEM GEL : DRILLING FLUID TYPE
DFD .                     93 : DRILLING FLUID DENSITY
DFV .                     75 : DRILLING FLUID VISCOSITY
DFPH.                   10.5 : DRILLING FLUID PH
DFL .                    9.2 : DRILLING FLUID LOSS
MSS .               FLOWLINE : MUD SAMPLE SOURCE
RMS .OHMM               2.03 : RESISTIVITY MUD SAMPLE
MST .DEGF                 73 : MUD SAMPLE TEMPERATURE
RMF .OHMM               1.92 : RESISTIVITY MUD FILTRATE SAMPLE
MFST.DEGF                 71 : MUD FILTRATE SAMPLE TEMPERATURE
RMC .OHMM               2.16 : RESISTIVITY MUD CAKE
MCST.DEGF                 73 : MUD CAKE SAMPLE TEMPERATURE
TCS .HRS                   3 : TIME CIRCULATED STOPPED
LUN .                   5630 : LOGGING UNIT NUMBER
LUL .                    EDM : LOGGING UNIT LOCATION
ENGI.                 SLADEN : RECORDING ENGINEER
WITN.           SLOAN ELFORD : WITNESSED BY
CLNT.                A2DTECH : CLIENT CODE
ORIG.            2" 5" PRINT : ORIGIN OF DATA
UWI .       100122906818W500 : UNIQUE WELL ID
DICO. A2D Technologies, Inc. : DIGITIZING COMPANY
~Other -----------------------------------------------------
DIL-BCS TOOL RUN
~ASCII -----------------------------------------------------
  900.00000    -999.25    -999.25    -999.25    -999.25    -999.25    -999.25   55.00050   55.00050    -999.25    -999.25    -999.25    -999.25    -999.25    -999.25    -999.25    -999.25    -999.25    -999.25
  950.00000    -999.25    -999.25    -999.25    -999.25    -999.25    -999.25   51.53690   51.53690    -999.25    -999.25    -999.25    -999.25    -999.25    -999.25    -999.25    -999.25    -999.25    -999.25
 1000.00000    -999.25    -999.25    -999.25    -999.25    -999.25    -999.25   35.36410   35.36410    -999.25    -999.25    -999.25    -999.25    -999.25    -999.25    -999.25    -999.25    -999.25    -999.25
 1050.00000   12.10420   12.10420  341.79640    2.92690  126.90010  126.90010   66.19780   66.19780    2.92690    2.68890    3.14410    2.68890    -999.25    0.44840    0.44840  -91.54840   -6.94740    3.14410
 1100.00000   10.22090   10.22090  183.10320    5.46140  118.94460  118.94460   53.64670   53.64670    5.46140    4.73070    5.31380    4.73070    -999.25    0.44950    0.44950  -99.45490  -13.65650    5.31380
 1150.00000   12.28010   12.28010  431.65090    2.31680  154.78390  154.78390   63.85100   63.85100    2.31680    1.95720    2.62660    1.95720    -999.25    0.45000    0.45000  -92.66820   -5.68030    2.62660
 1200.00000   11.35100   11.35100  323.14350    3.09460  132.15380  132.15380   50.63440   50.63440    3.09460    2.75900    3.57140    2.75900    -999.25    0.45000    0.45000  -90.24460   -4.28850    3.57140
 1250.00000   10.75820   10.75820  160.24360    6.24050  117.79420  117.79420   63.84950   63.84950    6.24050    5.38820    5.25420    5.38820    -999.25    0.42270    0.42270  -91.65800   -7.59270    5.25420
 1300.00000   10.47180   10.47180  249.11320    4.03440  146.48680  146.48680   57.53360   57.53360    4.03440    3.81400    4.28510    3.81400    -999.25    0.44940    0.44940  -88.10390   -5.92930    4.28510
 1350.00000   14.57000   14.57000  253.35060    3.94710  130.98230  130.98230   51.55760   51.55760    3.94710    3.27990    3.76570    3.27990    -999.25    0.45000    0.45000  -85.68400   -5.41260    3.76570
 1400.00000    8.54820    8.54820  100.34040    9.96610  118.80980  118.80980   49.05800   49.05800    9.96610    8.39050    7.78240    8.39050    -999.25    0.45000    0.45000 -100.86060  -20.39390    7.78240
 1450.00000    8.84570    8.84570  217.83170    4.59070  135.92780  135.92780   51.99770   51.99770    4.59070    4.16740    5.01390    4.16740    -999.25    0.45000    0.45000  -89.88040   -9.17490    5.01390
 1500.00000    9.30140    9.30140  254.80300    3.92460  124.49790  124.49790   57.94710   57.94710    3.92460    3.67950    4.24490    3.67950    -999.25    0.45000    0.45000  -86.18720   -5.24440    4.24490
 1550.00000    8.27810    8.27810  101.56590    9.84600  108.78670  108.78670   40.90320   40.90320    9.84600    8.52060    8.27170    8.52060    -999.25    0.38390    0.38390 -101.68920  -20.50910    8.27170
 1600.00000    9.66900    9.66900  273.63520    3.65450  122.36020  122.36020   50.80130   50.80130    3.65450    3.23110    3.77020    3.23110    -999.25    0.44950    0.44950  -86.30210   -4.88310    3.77020
 1650.00000   10.70180   10.70180  261.96660    3.81830  119.47360  119.47360   51.92070   51.92070    3.81830    3.32400    3.72630    3.32400    -999.25    0.45000    0.45000  -85.77480   -4.11860    3.72630
 1700.00000   14.95210   14.95210  315.58680    3.16870  141.21850  141.21850   47.80820   47.80820    3.16870    2.93140    3.34660    2.93140    -999.25    0.45000    0.45000  -87.90990   -6.01480    3.34660
 1750.00000    9.44810    9.44810  201.84490    4.95430   80.25220   80.25220   36.34220   36.34220    4.95430    4.86870   11.30440    4.86870    -999.25    0.17090    0.17090  -88.64490   -6.51250   11.30440
 1800.00000   14.30540   14.30540  311.25010    3.21310  137.67200  137.67200   44.03570   44.03570    3.21310    2.82300    3.46910    2.82300    -999.25    0.45000    0.45000  -86.68990   -4.32030    3.46910
 1850.00000    9.70680    9.70680  280.38690    3.56650  115.56860  115.56860   56.79240   56.79240    3.56650    3.35260    4.05140    3.35260    -999.25    0.43250    0.43250  -84.95800   -2.34950    4.05140
 1900.00000    9.63910    9.63910  316.35930    3.16120  128.14980  128.14980   48.84480   48.84480    3.16120    2.85800    3.27570    2.85800    -999.25    0.45000    0.45000  -87.74450   -4.89870    3.27570
 1950.00000    9.11080    9.11080  193.03160    5.18050  120.18010  120.18010   46.48980   46.48980    5.18050    4.82530    4.62180    4.82530    -999.25    0.45000    0.45000  -90.09190   -7.00730    4.62180
 2000.00000   11.46370   11.46370  308.64200    3.24000  132.19830  132.19830   49.58180   49.58180    3.24000    2.90240    3.70220    2.90240    -999.25    0.45000    0.45000  -86.95640   -3.63450    3.70220
 2050.00000    9.08900    9.08900  297.81580    3.35860  114.31660  114.31660   49.86770   49.86770    3.35860    3.18680    4.01990    3.18680    -999.25    0.42270    0.42270  -91.88380   -8.32460    4.01990
 2100.00000    9.44620    9.44620  319.32560    3.13160  118.31930  118.31930   51.99300   51.99300    3.13160    2.92340    3.49860    2.92340    -999.25    0.44960    0.44960  -88.10580   -4.27310    3.49860
 2150.00000    8.98530    8.98530  228.16130    4.38300  119.80380  119.80380   51.46090   51.46090    4.38300    4.03220    3.95870    4.03220    -999.25    0.44960    0.44960  -89.55730   -5.04880    3.95870
 2200.00000    9.19760    9.19760  330.30550    3.02750  121.39740  121.39740   53.66900   53.66900    3.02750    2.80540    3.53600    2.80540    -999.25    0.45000    0.45000  -91.86480   -6.67600    3.53600
 2250.00000    9.51410    9.51410  280.15130    3.56950  117.05530  117.05530   55.28610   55.28610    3.56950    3.33440    4.18920    3.33440    -999.25    0.44520    0.44520  -89.53370   -3.66910    4.18920
 2300.00000   10.03550   10.03550  216.70180    4.61490  124.25570  124.25570   82.72460   82.72460    4.61490    4.12430    4.86460    4.12430    -999.25    0.44940    0.44940  -92.39630   -5.85590    4.86460
 2350.00000   11.04840   11.04840  137.72780    7.26070   97.05930   97.05930   76.68370   76.68370    7.26070    6.12940    6.65490    6.12940    -999.25    0.31070    0.31070  -98.08290  -10.86220    6.65490
 2400.00000   11.62550   11.62550  192.20370    5.20350  116.49420  116.49420   89.22020   89.22020    5.20350    4.22310    4.93260    4.22310    -999.25    0.43940    0.43940  -95.46590   -7.56940    4.93260
 2450.00000   11.98280   11.98280  187.53990    5.33220  116.07590  116.07590  111.19120  111.19120    5.33220    4.86380    6.16000    4.86380    -999.25    0.43660    0.43660  -92.70180   -4.12500    6.16000
 2500.00000   11.88860   11.88860  173.68950    5.75740  107.45280  107.45280   84.86770   84.86770    5.75740    5.13010    5.92660    5.13010    -999.25    0.37410    0.37410  -93.53480   -4.21660    5.92660
 2550.00000   13.69770   13.69770  170.63490    5.86060  107.63340  107.63340   81.16610   81.16610    5.86060    5.15890    6.33310    5.15890    -999.25    0.37690    0.37690  -99.84210   -9.56340    6.33310
 2600.00000   13.15160   13.15160  137.56100    7.26950  103.73750  103.73750   77.41870   77.41870    7.26950    6.04220    6.32440    6.04220    -999.25    0.34940    0.34940 -101.91030  -10.66470    6.32440
 2650.00000    9.88610    9.88610  153.95070    6.49630  111.05330  111.05330   97.98140   97.98140    6.49630    5.83720    6.79430    5.83720    -999.25    0.40020    0.40020  -95.92090   -3.71480    6.79430
 2700.00000   12.43910   12.43910  156.71770    6.38090  108.86920  108.86920   86.43970   86.43970    6.38090    5.27180    5.74190    5.27180    -999.25    0.38680    0.38680 -100.18150   -7.00850    5.74190
 2750.00000   14.98800   14.98800  140.63120    7.11080  105.59230  105.59230   86.86820   86.86820    7.11080    5.70600    5.95510    5.70600    -999.25    0.36490    0.36490 -101.43080   -7.29730    5.95510
 2800.00000   12.93770   12.93770  161.83490    6.17910  123.11110  123.11110   73.18930   73.18930    6.17910    5.00380    5.71290    5.00380    -999.25    0.44830    0.44830 -101.64150   -6.54740    5.71290
