~Version ---------------------------------------------------
VERS. 2.0 : CWLS log ASCII Standard -VERSION 2.0
WRAP.  NO : ONE LINE PER DEPTH STEP
~Well ------------------------------------------------------
STRT.F                  1200.0 : START DEPTH
STOP.F                 12350.0 : STOP DEPTH
STEP.F                50.00000 : STEP LENGTH
NULL.                  -999.25 : NULL VALUE
COMP.     CHEVRON STANDARD LTD : COMPANY
WELL. CHEVRON EDSON 7-28-52-17 : WELL
FLD .                          : FIELD
LOC .                          : LOCATION
CTRY.                   CANADA : COUNTRY
SRVC.             Schlumberger : SERVICE COMPANY
DATE.              18-Oct-1968 : LOGDATE
PROV.                  Alberta : PROVINCE
UWI .         100072805217W500 : UNIQUE WELL ID
SLAT.WGS84             53.5164 : SURFACE LATITUDE
SLON.WGS84           -116.4412 : SURFACE LONGITUDE
~Curve Information -----------------------------------------
DEPT   .F                 : 
CALD   .IN   70 280 01 00 : CALIPER
GRD    .GAPI              : GAMMA RAY
CALN   .IN   00 000 00 01 : 7 CALIPER FROM NEUTRON
GRN    .GAPI              : GAMMA RAY NEUTRON
DCOR   .G/C3 45 356 01 00 : DENSITY CORRECTION
RHOB   .G/C3 45 350 01 00 : BULK DENSITY
DPHI_LS.DEC  45 890 10 00 : DENSITY POROSITY LIMESTONE
CILD   .MMHO 07 110 00 00 : CONDUCTIVITY INDUCTION LOG
ILD    .OHMM 06 121 12 00 : INDUCTION LOG RESISTIVITY
SN     .OHMM 01 041 16 00 : SHORT NORMAL 16"
SPR    .MV                : SPONTANEOUS POTENTIAL FROM RESISTIVITY
GRS    .GAPI              : GAMMA RAY FROM SONIC LOG
DT     .US/F 60 520 00 00 : DELTA TIME FROM SONIC LOG
CALS   .IN                : CALIPER FROM SONIC LOG
SNP_LS .DEC               : SIDEWALL NEUTRON POROSITY LIMESONTE
~Params ----------------------------------------------------
PD  .                     GL : PERMANENT DATUM
EPD .FT                 3060 : ELEVATION PERMANENT DATUM
LMF .                     KB : LOG MEASURED FROM
DAPD.FT                   13 : FEET ABOVE PERMANENT DATUM
EKB .FT                 3073 : KELLY BUSHING
EGL .FT                 3060 : GROUND LEVEL
DATE.               10/18/68 : RUN DATE
RUN .                      1 : RUN NUMBER
DD  .FT                12360 : DEPTH DRILLER
DL  .FT                12367 : DEPTH LOGGER
BLI .FT                12366 : BOTTOM LOG INTERVAL
TLI .FT                 1258 : TOP LOG INTERVAL
CBD .FT                 1258 : CASING BOTTOM DRILLER
CBL .FT                 1258 : CASING BOTTOM LOGGER
BS  .IN                 8.75 : BIT SIZE
BSD .FT                12360 : BIT SIZE AT DEPTH
DFT .                    GEL : DRILLING FLUID TYPE
DFD .                    9.8 : DRILLING FLUID DENSITY
DFV .                     69 : DRILLING FLUID VISCOSITY
DFPH.                   10.5 : DRILLING FLUID PH
DFL .                    6.3 : DRILLING FLUID LOSS
RMF .OHMM               0.93 : RESISTIVITY MUD FILTRATE SAMPLE
MFST.DEGF                 63 : MUD FILTRATE SAMPLE TEMPERATURE
RMC .OHMM               1.94 : RESISTIVITY MUD CAKE
MCST.DEGF                 67 : MUD CAKE SAMPLE TEMPERATURE
TCS .HRS                   4 : TIME CIRCULATED STOPPED
LUN .                   7501 : LOGGING UNIT NUMBER
LUL .                    EDM : LOGGING UNIT LOCATION
ENGI.               CHADDOCK : RECORDING ENGINEER
WITN.                HOVDEBO : WITNESSED BY
CLNT.                A2DTECH : CLIENT CODE
ORIG.            2" 5" PRINT : ORIGIN OF DATA
UWI .       100072805217W500 : UNIQUE WELL ID
DICO. A2D Technologies, Inc. : DIGITIZING COMPANY
~Other -----------------------------------------------------
~ASCII -----------------------------------------------------
# ...
 10400.00000    -999.25  158.76770   12.55000  158.51720    -999.25    -999.25    -999.25    4.02320  319.64010  126.08570 -176.71470    9.07540   50.02050   10.52370    0.06910
 10450.00000   12.61740  158.51710   12.36590  161.41560    0.20010    2.47840    0.17350    2.60770  448.34260   85.29530 -184.08800    9.81390   49.98350   11.01800    0.10890
 10500.00000   11.81560  157.59070   11.84190  160.06950    0.09060    2.58420    0.05990   24.17610   40.14270  110.35250 -176.39310   10.83470   52.66760   11.54840    0.04890
 10550.00000   11.72530  177.80480   11.46520  184.09720    0.22030    2.63900    0.00550   36.14310   28.71660  101.23590 -191.89530   12.12540   49.57160   10.43570    0.08870
 10600.00000    8.68190  212.46740    9.06670  199.88220    0.00530    2.82770   -0.09550   30.02290   32.55890  130.26010 -147.84850   20.51880   49.76080    9.67790    0.02140
 10650.00000   11.96710  177.82620   12.18750  173.66950    0.14190    2.58080    0.09070    2.04200  481.79200   85.63800 -140.95010   13.87870   54.62350   10.99390    0.09880
 10700.00000   13.10510  187.56990   12.63410  185.60190    0.19790    2.47070    0.11090    9.27040  108.90650   56.96030 -143.43210   17.57990   50.51150   11.78560    0.10830
 10750.00000    8.44370  190.33710    8.84860  184.43920   -0.01030    2.75320   -0.02370    6.95030  161.47770   70.53810 -145.31260   20.03010   52.89740   10.63070    0.01960
 10800.00000    8.53440  205.39730    8.99320  207.54890   -0.00370    2.72450   -0.01380   18.07920   51.07520   47.92230  -73.68370   34.04670   56.16500   10.10030    0.03010
 10850.00000    -999.25    -999.25    -999.25    -999.25    -999.25    -999.25    -999.25   29.11290   33.56860   35.91250 -108.97520   39.36900   56.20960   10.08340    -999.25
 10900.00000    -999.25    -999.25    -999.25    -999.25    -999.25    -999.25    -999.25   84.97830   10.93820   15.89610 -126.62060   53.43880   64.28660   10.86980    -999.25
 10950.00000    -999.25    -999.25    -999.25    -999.25    -999.25    -999.25    -999.25   42.00830   22.50280   26.59720  -53.57390   34.03170   56.63470   10.36030    -999.25
 11000.00000    -999.25    -999.25    -999.25    -999.25    -999.25    -999.25    -999.25   51.35060   17.96630    7.59560  -64.84990   71.54280   76.63850   13.45590    -999.25
 11050.00000    -999.25    -999.25    -999.25    -999.25    -999.25    -999.25    -999.25  118.62060    7.74000   11.55840  -60.39170   63.95880   70.96320   12.75990    -999.25
 11100.00000    -999.25    -999.25    -999.25    -999.25    -999.25    -999.25    -999.25   35.52920   26.73640   33.00230  -79.48270   69.63480   66.42460   10.33740    -999.25
 11150.00000    -999.25    -999.25    -999.25    -999.25    -999.25    -999.25    -999.25   48.85620   18.96790   26.78860  -97.43470   49.75810   64.98160   10.62900    -999.25
 11200.00000    -999.25    -999.25    -999.25    -999.25    -999.25    -999.25    -999.25  150.14660    6.36970    9.38580  -52.09090   68.56000   76.06040   14.33270    -999.25
 11250.00000    -999.25    -999.25    -999.25    -999.25    -999.25    -999.25    -999.25   84.12260   11.03640   16.75860  -42.09710   59.33260   65.84850   11.54340    -999.25
 11300.00000    -999.25    -999.25    -999.25    -999.25    -999.25    -999.25    -999.25   93.63590   10.06650   14.30440  -93.41370   73.32110   66.72900   10.48190    -999.25
 11350.00000    -999.25    -999.25    -999.25    -999.25    -999.25    -999.25    -999.25   77.05540   12.04560   16.95420  -94.70010   61.03720   65.16530   10.28650    -999.25
 11400.00000    -999.25    -999.25    -999.25    -999.25    -999.25    -999.25    -999.25  114.39740    8.37000   12.10190  -98.40880   93.02980   72.15610   11.50110    -999.25
 11450.00000    -999.25    -999.25    -999.25    -999.25    -999.25    -999.25    -999.25  113.51040    8.16860   12.70050  -94.50210   87.80270   70.77470   10.68710    -999.25
 11500.00000    -999.25    -999.25    -999.25    -999.25    -999.25    -999.25    -999.25  129.48770    7.10770   11.55470  -94.43870   77.29460   70.24790   10.55720    -999.25
 11550.00000    -999.25    -999.25    -999.25    -999.25    -999.25    -999.25    -999.25  101.48160    9.01920   14.11790  -91.87740   75.40640   67.78860   10.02370    -999.25
 11600.00000    -999.25    -999.25    -999.25    -999.25    -999.25    -999.25    -999.25   95.47340    9.49680   14.72010 -102.48120   69.47040   67.14740   10.11220    -999.25
 11650.00000    -999.25    -999.25    -999.25    -999.25    -999.25    -999.25    -999.25  120.35380    7.69970   12.00140 -101.09980   80.68710   73.17790   10.93160    -999.25
 11700.00000    -999.25    -999.25    -999.25    -999.25    -999.25    -999.25    -999.25  106.83700    8.68400   14.02350  -95.90880   78.44390   70.19370    9.82030    -999.25
 11750.00000    -999.25    -999.25    -999.25    -999.25    -999.25    -999.25    -999.25   39.66390   24.38250   31.89380  -99.98240   50.75940   61.26580    9.33310    -999.25
 11800.00000    8.74060  222.89790    -999.25    -999.25    0.06620    2.73410   -0.00570  107.92760    8.65410   14.03380  -94.41440   68.14220   68.93790    9.31450    -999.25
 11850.00000    8.45920  260.67710    8.88080  197.61830    0.00740    2.56810    0.07990    9.66110  106.64650   94.13080  -79.03150  105.24850   73.55020    9.04690    0.08400
 11900.00000    8.75290  279.98400    8.86180  198.27790   -0.01280    2.51650    0.14130   25.76010   35.16130   50.30830  -73.19010  125.02030   79.86510    9.17590    0.07980
 11950.00000   11.14280   68.55730   11.12420   54.31320    0.19410    2.48930    0.13460    3.75160  361.15770  162.76430  -31.15540    9.67190   50.77800   10.54640    0.04190
 12000.00000    8.69540   62.97010    8.93750   43.61080    0.06240    2.72300   -0.02390    0.83020  550.79810  176.69320  -50.11750    9.36580   49.71910    9.02750    0.01010
 12050.00000    9.46540   47.34830    9.69160   33.36500    0.14270    2.68430   -0.00910    2.40050  486.39400  163.92940  -72.38730   10.81320   50.23500    9.60750    0.00930
 12100.00000   10.06970   56.81200    9.68020   34.78970    0.19070    2.69740    0.01090    1.12820  480.98260  112.29360  -67.26740   34.27970   51.80250    9.69740    0.01310
 12150.00000    9.95400   32.92010    9.74940   26.83380    0.24790    2.72120   -0.02520    1.38090  553.96470  177.67150  -42.45780   11.63580   49.05140    9.97640    0.01340
 12200.00000   10.43260   20.43930   10.50540   17.50610    0.23290    2.62860    0.03260    3.31390  553.53560  162.39740  -71.20290   10.09240   50.18440   10.20880    0.02370
 12250.00000   10.28970   25.52180   10.55150   18.95030    -999.25    2.59250    0.05290    0.57590  551.67190  125.21370  -97.94060   17.15090   49.35070    9.65250    0.05850
 12300.00000   10.49530   19.20820   10.18820   14.00600    0.17700    2.73970   -0.01170    2.02550  551.62470  118.46150 -115.20200   13.78320   49.16670    9.65240    0.05040
 12350.00000    8.25000    1.87010    8.58810    7.57230    0.01310    2.80390   -0.05760   12.26250   77.96210   63.83150  -79.09400    -999.25   55.75990    8.41430    0.01720
