~Version ---------------------------------------------------
VERS.      2.0 : CWLS log ASCII Standard -VERSION 2.0
WRAP.       NO : One line per depth step
CREA. 07/24/13 : LAS Creation Date
~Well ------------------------------------------------------
STRT.FT                        300.0 : START DEPTH
STOP.FT                      12850.0 : STOP DEPTH
STEP.FT                     50.00000 : STEP LENGTH
NULL.                        -999.25 : NULL VALUE
COMP.  WESTERN DECALTA PETROLEUM LTD : COMPANY
WELL. DECALTA ET AL BRAZR 6-31-47-13 : WELL
FLD .                  BRAZEAU RIVER : FIELD
LOC .                                : LOCATION
CTRY.                         CANADA : COUNTRY
SRVC.                   Schlumberger : SERVICE COMPANY
DATE.                    15-Mar-1978 : LOGDATE
PROV.                        Alberta : PROVINCE
UWI .               100063104713W500 : UNIQUE WELL ID
SLAT.WGS84                  53.09535 : SURFACE LATITUDE
SLON.WGS84                 -115.8946 : SURFACE LONGITUDE
~Curve Information -----------------------------------------
DEPT   .FT    : DEPTH FEET
CALD   .IN    : CALIPER FROM DENSITY LOG
CALS   .IN    : DENSITY POROSITY LIMESTONE [M=2.71, F=1.0] FROM DENSITY LOG
DPHI_LS.DEC   : DENSITY POROSITY LIMESTONE [M=2.71, F=1.0] FROM DENSITY LOG
DPHI_SS.DEC   : DENSITY POROSITY SANDSTONE [M=2.65, F=1.0] FROM DENSITY LOG
DRHO   .G/C3  : DENSITY CORRECTION FROM DENSITY LOG
DT     .US/F  : DELTA TIME FROM SONIC LOG
GRD    .GAPI  : GAMMA RAY FROM DENSITY LOG
GRS    .GAPI  : GAMMA RAY FROM SONIC LOG
ILD    .OHMM  : DEEP INDUCTION RESISTIVITY FROM RESISTIVITY LOG
ILM    .OHMM  : MEDIUM INDUCTION RESISTIVITY FROM RESISTIVITY LOG
LL8    .OHMM  : 8 INCH LATEROLOG RESISTIVITY FROM RESISTIVITY LOG
NPHI_LS.DEC   : NEUTRON POROSITY LIMESTONE FROM DENSITY LOG
NPHI_SS.DEC   : NEUTRON POROSITY SANDSTONE FROM DENSITY LOG
RHOB   .G/C3  : BULK DENSITY FROM DENSITY LOG
SPR    .MV    : SPONTANEOUS POTENTIAL FROM RESISTIVITY LOG
~Params ----------------------------------------------------
PD  .                     GL : PERMANENT DATUM
EPD .FT                 3420 : ELEVATION PERMANENT DATUM
LMF .                     KB : LOG MEASURED FROM
DAPD.FT                   27 : FEET ABOVE PERMANENT DATUM
DMF .                     KB : DRILLING MEASURED FROM
EGL .FT                 3420 : GROUND LEVEL
DATE.               03/15/78 : RUN DATE
RUN .                      2 : RUN NUMBER
DD  .FT                12857 : DEPTH DRILLER
DL  .FT                12856 : DEPTH LOGGER
BLI .FT                12850 : BOTTOM LOG INTERVAL
TLI .FT                10390 : TOP LOG INTERVAL
CS  .IN                9.625 : CASING SIZE
CBD .FT                10395 : CASING BOTTOM DRILLER
CBL .FT                10390 : CASING BOTTOM LOGGER
BS  .IN                6.125 : BIT SIZE
BSD .FT                12857 : BIT SIZE AT DEPTH
DFT .                    GEL : DRILLING FLUID TYPE
DFD .                   10.3 : DRILLING FLUID DENSITY
DFV .                     44 : DRILLING FLUID VISCOSITY
DFPH.                   11.5 : DRILLING FLUID PH
DFL .                    8.8 : DRILLING FLUID LOSS
MSS .               FLOWLINE : MUD SAMPLE SOURCE
RMS .OHMM               0.89 : RESISTIVITY MUD SAMPLE
MST .DEGF                 62 : MUD SAMPLE TEMPERATURE
TCS .HRS                 2.5 : TIME CIRCULATED STOPPED
LUN .                   7687 : LOGGING UNIT NUMBER
LUL .                    EDA : LOGGING UNIT LOCATION
ENGI.               BERNISKY : RECORDING ENGINEER
WITN.                  COWAN : WITNESSED BY
CLNT.                A2DTECH : CLIENT CODE
ORIG.            2" 5" PRINT : ORIGIN OF DATA
UWI .       100063104713W500 : UNIQUE WELL ID
DICO. A2D Technologies, Inc. : DIGITIZING COMPANY
~Other -----------------------------------------------------
~ASCII -----------------------------------------------------
# ...
 4900.00000    9.76840    9.32420    -999.25    0.17570    0.24890   78.38450   69.20500   69.67020   10.09150   10.43380   11.87520    -999.25    0.24790    2.47570  -54.10680
 4950.00000    9.54220    9.23210    -999.25    0.14790    0.24890   74.68510   70.11550   71.78760   12.29100   12.93170   13.15420    -999.25    0.28930    2.52150  -56.52270
 5000.00000   10.56760    9.44950    -999.25    0.21330    0.24970   77.78950   83.69090   83.60560   11.46740   10.69540   12.60350    -999.25    0.29750    2.37220  -52.34400
 5050.00000    9.94020    9.60360    -999.25    0.19210    0.26360   70.39570   72.13780   69.54130   14.99530   15.21540   18.30720    -999.25    0.25750    2.43020  -51.26600
 5100.00000   10.09050    9.34280    -999.25    0.12820    0.25080   76.03260   72.42020   46.18780   13.47380   15.09050   12.06520    -999.25    0.28700    2.38270  -51.58120
 5150.00000   10.75810    9.28630    -999.25    0.25140    0.24670   75.37220   75.11390   59.71850   14.42470   13.88790   12.88300    -999.25    0.35480    2.26650  -49.42470
 5200.00000    9.94990    8.95880    -999.25    0.10220    0.22230   68.73160   63.80580   39.85430   16.93530   23.26370   19.30890    -999.25    0.20140    2.35890  -48.17080
 5250.00000    8.99790    8.92480    -999.25    0.19540    0.08720   77.56100   84.18040   85.19040    8.51410   10.14220    9.01370    -999.25    0.33650    2.34830  -46.72550
 5300.00000    9.99130    9.02210    -999.25    0.20200    0.20130   77.53730   79.65100   80.64770   10.60630   11.01040   10.15650    -999.25    0.34890    2.29880  -46.49790
 5350.00000    8.72570    8.92580    -999.25    0.05600    0.00250   66.23790   42.51480   35.94040   49.98460   44.01970   64.77440    -999.25    0.19130    2.57090  -51.60390
 5400.00000   10.39850    8.96870    -999.25    0.21670    0.24400   80.93460   66.72800   72.13960   10.99580   12.61670   11.54260    -999.25    0.34820    2.29640  -47.91870
 5450.00000    8.91520    8.89980    -999.25    0.02780    0.08330   61.01420   37.13690   38.90620   39.40430   40.47490   46.04660    -999.25    0.19220    2.61060  -45.24440
 5500.00000    9.12140    9.20730    -999.25    0.13470    0.17200   79.87210   87.19980   71.96540    9.36460   10.49230    8.91920    -999.25    0.39920    2.40970  -45.12350
 5550.00000    9.28030    9.41030    -999.25    0.22460    0.12490   96.03470   80.20940   76.70350    7.47040    8.67870    9.01200    -999.25    0.45640    2.29840  -44.88820
 5600.00000    9.53430    8.71090    -999.25    0.13360    0.11020   82.50170   75.14400   71.09440   10.46560   10.94680   11.03590    -999.25    0.34560    2.39470  -45.12050
 5650.00000    8.66410    9.41730    -999.25    0.03070    0.00800   76.99330   68.17760   73.59910   11.60790   12.88280   12.84500    -999.25    0.37090    2.60230  -44.35710
 5700.00000    7.72430    8.43660    -999.25    0.05870    0.10930   68.10110   31.64630   26.50830   51.12960   48.72140   58.62740    -999.25    0.19730    2.55430  -59.41160
 5750.00000    8.70950    8.99200    -999.25    0.02160    0.02390   65.12650   56.52300   46.25960   36.10900   32.88560   34.47590    -999.25    0.18950    2.62340  -43.77750
 5800.00000    9.21010    8.82510    -999.25    0.01040    -999.25   62.89520   60.14990   43.55030   17.07510   23.49220   18.31800    -999.25    0.22330    2.51310  -43.04430
 5850.00000    9.96710    9.49880    -999.25    0.16050    0.23680   79.14830   81.60040   72.82050    9.68330   10.26800   11.18160    -999.25    0.36040    2.34910  -43.15760
 5900.00000   10.85000    9.33760    -999.25    0.13350    0.25050   80.43260    -999.25   81.48330    9.94010   10.37100   12.11820    -999.25    0.33520    2.38400  -41.97690
 5950.00000    -999.25    9.45380    -999.25    -999.25    -999.25   77.41060    -999.25  102.56600   11.45130   11.90450   12.45790    -999.25    -999.25    -999.25  -41.21260
 6000.00000    -999.25    9.38370    -999.25    -999.25    -999.25   75.25650    -999.25  104.22300   12.60400   13.37310   13.74420    -999.25    -999.25    -999.25  -39.44510
 6050.00000    -999.25    9.59330    -999.25    -999.25    -999.25   73.67400    -999.25   93.47530   14.59660   14.97220   16.26090    -999.25    -999.25    -999.25  -39.99970
 6100.00000    -999.25    9.71350    -999.25    -999.25    -999.25   76.38350    -999.25  108.62590   11.01370   11.84460   12.67310    -999.25    -999.25    -999.25  -39.57410
 6150.00000    -999.25    9.55080    -999.25    -999.25    -999.25   73.78250    -999.25  103.95730   12.90990   13.66540   14.89230    -999.25    -999.25    -999.25  -39.53940
 6200.00000    -999.25    9.36870    -999.25    -999.25    -999.25   80.82030    -999.25  117.46120    9.65310   10.29450   11.03400    -999.25    -999.25    -999.25  -38.03910
 6250.00000    -999.25    9.31190    -999.25    -999.25    -999.25   80.65260    -999.25  116.73010   12.20560   12.79500   15.08030    -999.25    -999.25    -999.25  -39.02370
 6300.00000    -999.25    9.33230    -999.25    -999.25    -999.25   79.09490    -999.25  109.74210   12.53180   13.21700   15.59490    -999.25    -999.25    -999.25  -40.90210
 6350.00000    -999.25    9.24370    -999.25    -999.25    -999.25   84.68830    -999.25  140.08370   11.10510   11.37530   14.45760    -999.25    -999.25    -999.25  -37.46800
 6400.00000    -999.25    9.46280    -999.25    -999.25    -999.25   81.73070    -999.25  102.12530   10.16190   10.40990   12.19880    -999.25    -999.25    -999.25  -36.47070
 6450.00000    -999.25    9.86540    -999.25    -999.25    -999.25   83.89660    -999.25  110.77230    7.62940    8.49650    9.36380    -999.25    -999.25    -999.25  -35.57730
 6500.00000    -999.25    9.44040    -999.25    -999.25    -999.25   82.66070    -999.25  113.44250    6.14770    6.44240    7.19520    -999.25    -999.25    -999.25  -37.75610
 6550.00000    -999.25    9.65390    -999.25    -999.25    -999.25   76.52760    -999.25   96.39240    7.35250    7.53070    8.26040    -999.25    -999.25    -999.25  -35.52130
 6600.00000    -999.25    9.63840    -999.25    -999.25    -999.25   79.04210    -999.25  110.52010    6.90540    7.07260    7.51460    -999.25    -999.25    -999.25  -35.12690
 6650.00000    -999.25    9.50170    -999.25    -999.25    -999.25   81.54260    -999.25   98.44850    6.69600    6.85650    7.47050    -999.25    -999.25    -999.25  -34.95970
 6700.00000    -999.25    9.10350    -999.25    -999.25    -999.25   76.67110    -999.25   94.49690    9.00040    9.21720    9.82290    -999.25    -999.25    -999.25  -33.95390
 6750.00000    -999.25    9.28710    -999.25    -999.25    -999.25   77.05070    -999.25   95.10110    7.81420    8.32650    8.65960    -999.25    -999.25    -999.25  -34.64560
 6800.00000    -999.25    9.07990    -999.25    -999.25    -999.25   78.86310    -999.25   96.56020    8.34680    9.08870   10.67260    -999.25    -999.25    -999.25  -32.09390
 6850.00000    -999.25    9.15100    -999.25    -999.25    -999.25   80.40280    -999.25  105.37440    5.98590    6.15300    7.43690    -999.25    -999.25    -999.25  -33.21690
 6900.00000    -999.25    9.41130    -999.25    -999.25    -999.25   83.37830    -999.25  113.95800    5.56170    5.87970    6.29570    -999.25    -999.25    -999.25  -31.48780
 6950.00000    -999.25   11.24380    -999.25    -999.25    -999.25   85.83320    -999.25  106.65930    5.45080    5.72410    6.23450    -999.25    -999.25    -999.25  -34.18010
 7000.00000    -999.25   10.31640    -999.25    -999.25    -999.25   79.08480    -999.25  113.63780    7.12540    7.45670    7.80050    -999.25    -999.25    -999.25  -32.69090
 7050.00000    -999.25   10.63720    -999.25    -999.25    -999.25   83.94190    -999.25  122.37940    7.20500    7.85770    8.65450    -999.25    -999.25    -999.25  -32.18930
 7100.00000   10.33790   10.10480    -999.25    0.22000    0.20650   83.09830  116.50350  121.80440    5.73770    6.02440    6.59290    -999.25    0.37610    2.28290  -32.38190
 7150.00000   10.10880    9.55780    -999.25    0.19300    0.22800   79.66540  110.66470  112.89990    6.82530    7.00650    7.97300    -999.25    0.32290    2.34010  -33.30040
