~Version ---------------------------------------------------
VERS.      2.0 : CWLS log ASCII Standard -VERSION 2.0
WRAP.       NO : One line per depth step
CREA. 08/01/17 : LAS Creation Date
~Well ------------------------------------------------------
STRT.FT                      1100.0 : START DEPTH
STOP.FT                     10300.0 : STOP DEPTH
STEP.FT                    50.00000 : STEP LENGTH
NULL.                       -999.25 : NULL VALUE
COMP.        DOME PETROLEUM LIMITED : COMPANY
WELL. DOME ET AL EAGLE T10-18-63-16 : WELL
FLD .                            WC : FIELD
LOC .                               : LOCATION
CTRY.                        CANADA : COUNTRY
SRVC.                  Schlumberger : SERVICE COMPANY
DATE.                   02-Apr-1968 : LOGDATE
PROV.                       Alberta : PROVINCE
UWI .              100101806316W500 : UNIQUE WELL ID
SLAT.WGS84                 54.45347 : SURFACE LATITUDE
SLON.WGS84                -116.4023 : SURFACE LONGITUDE
~Curve Information -----------------------------------------
DEPT  .FT    : Depth Curve
CALSED.IN    : CALIPER FROM BCS LOG [ADJ. TO ILDED]
CALWS .IN    : CALIPER [CALSED]
CILDED.MMHO  : DEEP INDUCTION CONDUCTIVITY FROM IEL LOG
CONDWS.MMHO  : CONDUCTIVITY [CILDED]
DRESWS.OHMM  : DEEP RESISTIVITY [1000/CILDED IF ILDED <1, ILDED]
DTED  .US/F  : ACOUSTIC TRANSIT TIME SLOWNESS, DELTA T FROM BCS LOG [ADJ. TO ILDED]
DTWS  .US/F  : COMPRESSIONAL SONIC [DTED]
GRSED .GAPI  : GAMMA RAY FROM BCS LOG [ADJ. TO ILDED]
GRWS  .GAPI  : GAMMA RAY [GRSED]
ILDED .OHMM  : DEEP INDUCTION RESISTIVITY FROM IEL LOG
SNED  .OHMM  : SHORT NORMAL FROM IEL LOG
SPRED .MV    : SPONTANEOUS POTENTIAL FROM IEL LOG
SPWS  .MV    : SPONTANEOUS POTENTIAL [BASELINED 0 MV, SPRED]
SRESWS.OHMM  : SHALLOW RESISTIVITY [SNED]
~Params ----------------------------------------------------
PD  .                     GL : PERMANENT DATUM
EPD .FT                 3417 : ELEVATION PERMANENT DATUM
LMF .                     KB : LOG MEASURED FROM
DAPD.FT                   13 : FEET ABOVE PERMANENT DATUM
DMF .                     KB : DRILLING MEASURED FROM
EKB .FT                 3430 : KELLY BUSHING
EGL .FT                 3417 : GROUND LEVEL
DATE.               04/02/68 : RUN DATE
RUN .                      1 : RUN NUMBER
DD  .FT                10343 : DEPTH DRILLER
DL  .FT                10341 : DEPTH LOGGER
BLI .FT                10340 : BOTTOM LOG INTERVAL
TLI .FT                 1104 : TOP LOG INTERVAL
CBD .FT                 1103 : CASING BOTTOM DRILLER
CBL .FT                 1104 : CASING BOTTOM LOGGER
BS  .IN                7.875 : BIT SIZE
BSD .FT                10343 : BIT SIZE AT DEPTH
DFT .               GEL CHEM : DRILLING FLUID TYPE
DFD .                   10.8 : DRILLING FLUID DENSITY
DFV .                    110 : DRILLING FLUID VISCOSITY
DFPH.                   10.5 : DRILLING FLUID PH
DFL .                    6.6 : DRILLING FLUID LOSS
RMS .OHMM               3.34 : RESISTIVITY MUD SAMPLE
MST .DEGF                 60 : MUD SAMPLE TEMPERATURE
RMF .OHMM                2.7 : RESISTIVITY MUD FILTRATE SAMPLE
MFST.DEGF                 61 : MUD FILTRATE SAMPLE TEMPERATURE
RMB .OHMM               1.07 : RESISTIVITY MUD AT BHT
TCS .HRS                 4.5 : TIME CIRCULATED STOPPED
LUN .                   3816 : LOGGING UNIT NUMBER
LUL .                    S L : LOGGING UNIT LOCATION
ENGI.                  MOORE : RECORDING ENGINEER
WITN.                  FOOTE : WITNESSED BY
CLNT.                A2DTECH : CLIENT CODE
ORIG.            2" 5" PRINT : ORIGIN OF DATA
UWI .       100101806316W500 : UNIQUE WELL ID
DICO. A2D Technologies, Inc. : DIGITIZING COMPANY
~Other -----------------------------------------------------
~ASCII -----------------------------------------------------
# ...
 8450.00000    8.56240    8.56240   16.54610   16.54610   44.87270   49.76260   49.76260   20.74920   20.74920   44.87270   89.53550 -243.16670 -212.03500   89.53550
 8500.00000    8.49990    8.49990    0.79200    0.79200  199.14760   47.49650   47.49650   18.28080   18.28080  199.14760  247.72990 -205.36070 -174.81090  247.72990
 8550.00000    7.72080    7.72080   13.17870   13.17870   55.02470   48.64840   48.64840   20.34680   20.34680   55.02470  138.65400 -279.86070 -249.89280  138.65400
 8600.00000    8.51590    8.51590   34.89300   34.89300   23.61890   52.00280   52.00280   23.66770   23.66770   23.61890   35.46520 -224.35890 -194.97670   35.46520
 8650.00000    8.23600    8.23600    3.39680    3.39680  114.93840   50.60650   50.60650   22.88160   22.88160  114.93840  127.41790 -175.17830 -146.37800  127.41790
 8700.00000    8.26220    8.26220    5.15860    5.15860  137.05240   50.58400   50.58400   24.84830   24.84830  137.05240  116.23940 -180.39830 -152.18370  116.23940
 8750.00000    8.56620    8.56620   15.58080   15.58080   47.35030   53.52110   53.52110   42.32480   42.32480   47.35030   55.08330 -152.38950 -124.75680   55.08330
 8800.00000    8.06550    8.06550   10.22830   10.22830   68.97310   53.82830   53.82830   46.20770   46.20770   68.97310   76.80040 -190.83870 -163.78790   76.80040
 8850.00000    8.25830    8.25830   18.94670   18.94670   39.02130   55.24850   55.24850   32.99150   32.99150   39.02130   50.00880 -184.40130 -157.93620   50.00880
 8900.00000    8.27720    8.27720   33.60550   33.60550   23.85960   56.07470   56.07470   37.84660   37.84660   23.85960   34.43960 -178.41600 -152.53280   34.43960
 8950.00000    8.31310    8.31310   61.42440   61.42440   13.73840   59.92090   59.92090   49.55110   49.55110   13.73840   23.35590 -162.16480 -136.86730   23.35590
 9000.00000   10.41000   10.41000  155.55550  155.55550    5.14450   71.29720   71.29720   57.35510   57.35510    5.14450    9.63110 -192.98690 -168.27130    9.63110
 9050.00000   10.14680   10.14680  129.90570  129.90570    5.96910   70.12000   70.12000   59.79690   59.79690    5.96910   10.03360 -217.71380 -193.58010   10.03360
 9100.00000    8.92060    8.92060   57.12440   57.12440   14.65940   72.23850   72.23850   68.31100   68.31100   14.65940   24.35670 -237.26720 -213.71920   24.35670
 9150.00000    8.38730    8.38730   72.79580   72.79580   11.35490   64.05140   64.05140   50.83450   50.83450   11.35490   18.99950 -172.83260 -149.86650   18.99950
 9200.00000   10.88740   10.88740  202.34870  202.34870    4.05650   77.11070   77.11070   72.51040   72.51040    4.05650    7.29490 -164.59340 -142.21300    7.29490
 9250.00000   10.89130   10.89130  192.34140  192.34140    4.21480   78.05520   78.05520   77.43270   77.43270    4.21480    6.76290 -153.55660 -131.75810    6.76290
 9300.00000   11.55880   11.55880  167.86630  167.86630    4.78160   74.60210   74.60210   62.82600   62.82600    4.78160    7.72610 -148.78270 -127.56600    7.72610
 9350.00000    9.27000    9.27000   96.60180   96.60180    8.76990   68.33450   68.33450   55.99870   55.99870    8.76990   15.47390 -182.39600 -161.76510   15.47390
 9400.00000    8.91500    8.91500   81.87750   81.87750   10.43670   65.45750   65.45750   64.71490   64.71490   10.43670   16.77270 -213.46700 -193.41790   16.77270
 9450.00000    8.51050    8.51050  100.94400  100.94400    8.41640   67.34760   67.34760   67.64490   67.64490    8.41640   14.48740 -221.93100 -202.46770   14.48740
 9500.00000    8.34460    8.34460   86.47140   86.47140   10.14910   65.00310   65.00310   63.66820   63.66820   10.14910   16.95410 -232.64970 -213.76820   16.95410
 9550.00000    9.06550    9.06550  128.38190  128.38190    6.54460   73.65220   73.65220   85.84480   85.84480    6.54460   11.55030 -218.84310 -200.54350   11.55030
 9600.00000    9.32860    9.32860  124.31890  124.31890    6.69710   73.02640   73.02640   84.68250   84.68250    6.69710   11.81840 -227.42000 -209.70610   11.81840
 9650.00000    9.35730    9.35730  172.72230  172.72230    5.21860   74.34730   74.34730   78.65940   78.65940    5.21860    9.32900 -203.65200 -186.52000    9.32900
 9700.00000    8.49680    8.49680  139.59410  139.59410    6.25560   74.16110   74.16110   72.87710   72.87710    6.25560   11.77890 -225.15690 -208.61060   11.77890
 9750.00000    8.08630    8.08630    4.45160    4.45160  123.36320   66.55170   66.55170   77.91930   77.91930  123.36320  141.69930 -200.16940 -184.20500  141.69930
 9800.00000    8.00020    8.00020    7.98220    7.98220   78.00590   67.63800   67.63800   76.12970   76.12970   78.00590  115.84820 -213.00760 -197.62510  115.84820
 9850.00000    8.03390    8.03390    7.34830    7.34830   73.68850   53.49620   53.49620   28.09740   28.09740   73.68850   95.03910 -236.19570 -221.39890   95.03910
 9900.00000   10.64010   10.64010   99.88260   99.88260    8.03050   84.95760   84.95760  110.01990  110.01990    8.03050   19.12980 -213.06920 -198.85430   19.12980
 9950.00000    8.02940    8.02940   28.29900   28.29900   28.20620   56.83310   56.83310   44.44110   44.44110   28.20620   38.86380 -175.22860 -161.59940   38.86380
 10000.00000    7.98140    7.98140   25.06550   25.06550   30.39490   55.35220   55.35220   37.38210   37.38210   30.39490   48.80300 -148.37350 -135.32620   48.80300
 10050.00000    8.06340    8.06340   14.45400   14.45400   46.14760   54.56370   54.56370   34.27770   34.27770   46.14760   65.00510 -150.18230 -137.71690   65.00510
 10100.00000    8.18590    8.18590   20.74560   20.74560   35.43780   53.48850   53.48850   33.97250   33.97250   35.43780   55.60680 -131.65470 -119.77500   55.60680
 10150.00000    7.98880    7.98880    1.91700    1.91700  195.73010   51.25500   51.25500   21.40930   21.40930  195.73010  143.32370  -84.73140  -73.33790  143.32370
 10200.00000    7.92890    7.92890    1.74120    1.74120  240.98630   50.38780   50.38780   17.05520   17.05520  240.98630  194.70430  -57.35160  -45.95810  194.70430
 10250.00000    7.95990    7.95990    2.36750    2.36750  365.51670   49.29090   49.29090   14.20440   14.20440  365.51670  316.70830 -173.90600 -162.51250  316.70830
 10300.00000    7.82450    7.82450    6.54180    6.54180  103.02400   50.12030   50.12030    9.64780    9.64780  103.02400  107.96610 -174.38900 -162.99550  107.96610
