~Version ---------------------------------------------------
VERS.      2.0 : CWLS log ASCII Standard -VERSION 2.0
WRAP.       NO : One line per depth step
CREA. 01/03/18 : LAS Creation Date
~Well ------------------------------------------------------
STRT.FT                               900.0 : START DEPTH
STOP.FT                              8300.0 : STOP DEPTH
STEP.FT                            50.00000 : STEP LENGTH
NULL.                               -999.25 : NULL VALUE
COMP.                      HOME OIL COMPANY : COMPANY
WELL. HOME FPC ET AL MORSE RIVER 10-30-65-9 : WELL
FLD .                                       : FIELD
LOC .                                       : LOCATION
CTRY.                                CANADA : COUNTRY
SRVC.                Schlumberger of Canada : SERVICE COMPANY
DATE.                           16-Feb-1961 : LOGDATE
PROV.                               Alberta : PROVINCE
UWI .                      100103006509W500 : UNIQUE WELL ID
SLAT.WGS84                         54.65619 : SURFACE LATITUDE
SLON.WGS84                         -115.345 : SURFACE LONGITUDE
~Curve Information -----------------------------------------
DEPT  .FT         : Depth Curve
CALWS .IN         : CALIPER [MCALED]
CILDED.MMHO       : INDUCTION DEEP CONDUCTIVITY
CONDWS.MMHO       : DEEP CONDUCTIVITY [1000/DRESWS]
DRESWS.OHMM       : DEEP RESISTIVITY [ILDED]
DTED  .US/F       : DELTA-T (INTERVAL TRANSIT TIME)  [DSH TO RES]
DTWS  .US/F       : DELTA-TIME COMPRESSIONAL [DTED]
GRSED .UgRa-Eq/T  : GAMMA RAY FROM SONIC LOG [DSH TO RES]
GRWS  .GAPI       : GAMMA RAY [GRSED*16.5 FOR API UNIT]
ILDED .OHMM       : INDUCTION DEEP RESISTIVITY
MCALED.IN         : MLT (MICROLOG) CALIPER
SNED  .OHMM       : SHORT NORMAL RESISTIVITY
SPRED .MV         : SPONTANEOUS POTENTIAL FROM RESISTIVITY LOG
SPWS  .MV         : SPONTANEOUS POTENTIAL [SPRED 0 MV BASELINE]
SRESWS.OHMM       : SHALLOW RESISTIVITY [SNED]
~Params ----------------------------------------------------
LMF .                     KB : LOG MEASURED FROM
DMF .                     KB : DRILLING MEASURED FROM
EKB .FT                 3357 : KELLY BUSHING
EGL .FT               3344.1 : GROUND LEVEL
DATE.               02/16/61 : RUN DATE
RUN .                      1 : RUN NUMBER
DD  .FT                 8361 : DEPTH DRILLER
DL  .FT                 8351 : DEPTH LOGGER
BLI .FT                 8350 : BOTTOM LOG INTERVAL
TLI .FT                  857 : TOP LOG INTERVAL
CBD .FT                  857 : CASING BOTTOM DRILLER
CBL .FT                  857 : CASING BOTTOM LOGGER
BS  .IN                 8.75 : BIT SIZE
BSD .FT                 8361 : BIT SIZE AT DEPTH
DFT .                    GEL : DRILLING FLUID TYPE
DFD .                    9.9 : DRILLING FLUID DENSITY
DFV .                    135 : DRILLING FLUID VISCOSITY
DFPH.                     10 : DRILLING FLUID PH
DFL .                      7 : DRILLING FLUID LOSS
RMS .OHMM               2.45 : RESISTIVITY MUD SAMPLE
MST .DEGF                 71 : MUD SAMPLE TEMPERATURE
TCS .HRS                   4 : TIME CIRCULATED STOPPED
LUN .                   1571 : LOGGING UNIT NUMBER
LUL .                     SH : LOGGING UNIT LOCATION
ENGI.               WILLIAMS : RECORDING ENGINEER
WITN.                  BEARD : WITNESSED BY
CLNT.                A2DTECH : CLIENT CODE
ORIG.            2" 5" PRINT : ORIGIN OF DATA
UWI .       100103006509W500 : UNIQUE WELL ID
DICO. A2D Technologies, Inc. : DIGITIZING COMPANY
~Other -----------------------------------------------------
SUSPECTED SP POSITIVE FROM 6594' TO TD (RW CHANGE?) AS SP GOES THE SAME DIRECTION WITH RESSITIVITY - HENCE BASELINE
SP AS POSITIVE FROM 6594' TO TD FOR SPWS, IF ANY DOUBTS PLEASE REFER TO ORIGINAL SPRED.
~ASCII -----------------------------------------------------
# ...
 3350.00000   14.60560  232.04040  237.84040    4.20450    -999.25    -999.25    -999.25    -999.25    4.20450   14.60560    4.72890  -99.79130   -6.34490    4.72890
 3400.00000   14.17670  191.62880  198.26710    5.04370    -999.25    -999.25    -999.25    -999.25    5.04370   14.17670    6.10460 -100.38390   -7.29820    6.10460
 3450.00000   14.16040  191.19360  193.20310    5.17590    -999.25    -999.25    -999.25    -999.25    5.17590   14.16040    6.47340  -97.78370   -5.06110    6.47340
 3500.00000   10.51220  165.67090  169.89760    5.88590    -999.25    -999.25    -999.25    -999.25    5.88590   10.51220    8.69030  -95.47820   -3.11630    8.69030
 3550.00000   12.26900  180.05580  189.17540    5.28610    -999.25    -999.25    -999.25    -999.25    5.28610   12.26900    6.06810 -100.61370   -8.61250    6.06810
 3600.00000   12.95180  252.51740  249.39520    4.00970    -999.25    -999.25    -999.25    -999.25    4.00970   12.95180    4.72270  -96.38010   -4.74190    4.72270
 3650.00000   13.22790  228.01610  227.02510    4.40480    -999.25    -999.25    -999.25    -999.25    4.40480   13.22790    5.03700  -96.16640   -4.88890    5.03700
 3700.00000   14.62980  228.85000  224.08960    4.46250    -999.25    -999.25    -999.25    -999.25    4.46250   14.62980    4.96690  -99.27890   -8.36450    4.96690
 3750.00000   14.61950  273.03270  267.02270    3.74500    -999.25    -999.25    -999.25    -999.25    3.74500   14.61950    4.30520  -95.29540   -4.74170    4.30520
 3800.00000   14.61190  278.28110  279.18920    3.58180    -999.25    -999.25    -999.25    -999.25    3.58180   14.61190    4.20760  -96.74330   -6.55030    4.20760
 3850.00000   14.63000  732.96200  615.27100    1.62530    -999.25    -999.25    -999.25    -999.25    1.62530   14.63000    1.87110  -91.41430   -1.58440    1.87110
 3900.00000   14.62920  519.91390  544.78100    1.83560    -999.25    -999.25    -999.25    -999.25    1.83560   14.62920    2.15920  -94.61440   -4.06080    2.15920
 3950.00000   14.64870  301.26130  308.24240    3.24420    -999.25    -999.25    -999.25    -999.25    3.24420   14.64870    3.70080  -95.08930   -3.66980    3.70080
 4000.00000   11.69690  189.57360  199.08020    5.02310    -999.25    -999.25    -999.25    -999.25    5.02310   11.69690    6.28010  -99.22680   -6.94700    6.28010
 4050.00000    8.75370  204.31930  211.30030    4.73260    -999.25    -999.25    -999.25    -999.25    4.73260    8.75370    7.52760 -119.02850  -25.88850    7.52760
 4100.00000   10.23460  163.82150  173.25920    5.77170    -999.25    -999.25    -999.25    -999.25    5.77170   10.23460    7.15190  -99.98580   -5.97990    7.15190
 4150.00000    8.99770  212.19210  220.71640    4.53070    -999.25    -999.25    -999.25    -999.25    4.53070    8.99770    8.69180 -131.60920  -36.74300    8.69180
 4200.00000    8.26520  270.29440  275.09560    3.63510    -999.25    -999.25    -999.25    -999.25    3.63510    8.26520    6.01230 -124.39490  -28.94530    6.01230
 4250.00000    8.18120  224.53340  233.40490    4.28440    -999.25    -999.25    -999.25    -999.25    4.28440    8.18120   14.29830 -182.48160  -86.95230   14.29830
 4300.00000   11.05650  193.33430  199.73240    5.00670    -999.25    -999.25    -999.25    -999.25    5.00670   11.05650    5.37990 -104.20260   -8.59350    5.37990
 4350.00000   10.35950  195.56700  202.22040    4.94510    -999.25    -999.25    -999.25    -999.25    4.94510   10.35950    6.96900 -113.25960  -17.57030    6.96900
 4400.00000   10.93360  195.12840  205.49070    4.86640    -999.25    -999.25    -999.25    -999.25    4.86640   10.93360    7.98380 -109.87600  -14.10700    7.98380
 4450.00000    9.22610  152.54810  156.65390    6.38350    -999.25    -999.25    -999.25    -999.25    6.38350    9.22610   19.02270 -178.31960  -82.47040   19.02270
 4500.00000   11.10020  198.32170  213.24230    4.68950    -999.25    -999.25    -999.25    -999.25    4.68950   11.10020    6.08310 -100.73740   -4.80850    6.08310
 4550.00000    8.79400  174.99220  180.42730    5.54240    -999.25    -999.25    -999.25    -999.25    5.54240    8.79400   16.62290 -167.90350  -71.89490   16.62290
 4600.00000    8.95700  181.94640  185.38090    5.39430    -999.25    -999.25    -999.25    -999.25    5.39430    8.95700   14.05880 -167.72560  -71.63670   14.05880
 4650.00000   11.47470  225.45340  234.89620    4.25720    -999.25    -999.25    -999.25    -999.25    4.25720   11.47470    5.50840 -103.57760   -7.40900    5.50840
 4700.00000   13.17390  393.60960  424.95330    2.35320    -999.25    -999.25    -999.25    -999.25    2.35320   13.17390    2.91700 -103.47910   -7.41890    2.91700
 4750.00000   12.35730  238.03670  244.06910    4.09720    -999.25    -999.25    -999.25    -999.25    4.09720   12.35730    5.16230 -101.11190   -5.60920    5.16230
 4800.00000   10.72490  211.07130  222.22720    4.49990    -999.25    -999.25    -999.25    -999.25    4.49990   10.72490    5.99300 -101.56950   -6.62430    5.99300
 4850.00000   11.02650  155.27030  149.54390    6.68700    -999.25    -999.25    -999.25    -999.25    6.68700   11.02650    8.68610 -102.25690   -7.87290    8.68610
 4900.00000   10.49050   67.02960   61.49490   16.26150    -999.25    -999.25    -999.25    -999.25   16.26150   10.49050   25.85830 -135.26560  -41.43910   25.85830
 4950.00000   10.89960  117.84390  114.23220    8.75410    -999.25    -999.25    -999.25    -999.25    8.75410   10.89960   15.44990 -133.10820  -39.84280   15.44990
 5000.00000    9.61490  435.82680  422.83300    2.36500    -999.25    -999.25    -999.25    -999.25    2.36500    9.61490    6.05390 -185.84180  -93.13390    6.05390
 5050.00000    7.98000  255.59490  249.93750    4.00100    -999.25    -999.25    -999.25    -999.25    4.00100    7.98000   16.62270 -182.69250  -90.54210   16.62270
 5100.00000    9.25100   44.24040   33.58970   29.77100    -999.25    -999.25    -999.25    -999.25   29.77100    9.25100  128.67240 -230.50670 -138.91750  128.67240
 5150.00000    9.78660   22.99500   10.86050   92.07640    -999.25    -999.25    -999.25    -999.25   92.07640    9.78660   86.91930 -123.58820  -32.55650   86.91930
 5200.00000    9.37050  145.28910  149.30050    6.69790    -999.25    -999.25    -999.25    -999.25    6.69790    9.37050   11.23250 -119.02540  -28.55480   11.23250
 5250.00000    9.70000  184.74960  186.75180    5.35470    -999.25    -999.25    -999.25    -999.25    5.35470    9.70000    7.20920 -116.16320  -26.25010    7.20920
 5300.00000    9.80400  187.32130  191.99750    5.20840    -999.25    -999.25    -999.25    -999.25    5.20840    9.80400    7.41570 -115.23680  -25.88120    7.41570
 5350.00000   10.36200  167.30910  172.56550    5.79490    -999.25    -999.25    -999.25    -999.25    5.79490   10.36200    8.01530 -104.97650  -16.18210    8.01530
 5400.00000   11.62510  178.70940  183.59400    5.44680    -999.25    -999.25    -999.25    -999.25    5.44680   11.62510    7.52030  -96.58360   -8.34670    7.52030
 5450.00000   10.55760  164.76730  162.82670    6.14150    -999.25    -999.25    -999.25    -999.25    6.14150   10.55760    8.32020  -95.07610   -7.40030    8.32020
 5500.00000   10.12900   80.53660   74.38760   13.44310    -999.25    -999.25    -999.25    -999.25   13.44310   10.12900   17.30110 -111.21030  -24.09200   17.30110
 5550.00000   10.83300  114.65750  113.00330    8.84930    -999.25    -999.25    -999.25    -999.25    8.84930   10.83300   11.42280  -94.88110   -8.29550   11.42280
 5600.00000   10.95360   27.99470   14.46400   69.13730    -999.25    -999.25    -999.25    -999.25   69.13730   10.95360   81.25080 -100.67310  -13.38360   81.25080
 5650.00000   10.42900   22.64020    9.77830  102.26720    -999.25    -999.25    -999.25    -999.25  102.26720   10.42900   92.72030 -135.29380  -47.30510   92.72030
 5700.00000   10.36090   16.47790    6.26550  159.60510    -999.25    -999.25    -999.25    -999.25  159.60510   10.36090  165.05180 -170.42450  -81.73190  165.05180
 5750.00000   10.30790   21.43100   10.26540   97.41470    -999.25    -999.25    -999.25    -999.25   97.41470   10.30790  150.45850 -199.97500 -110.58320  150.45850
