~Version ---------------------------------------------------
VERS.      2.0 : CWLS log ASCII Standard -VERSION 2.0
WRAP.       NO : One line per depth step
CREA. 08/31/17 : LAS Creation Date
~Well ------------------------------------------------------
STRT.FT                        1000.0 : START DEPTH
STOP.FT                       11500.0 : STOP DEPTH
STEP.FT                      50.00000 : STEP LENGTH
NULL.                         -999.25 : NULL VALUE
COMP.       ATLANTIC REFINING COMPANY : COMPANY
WELL. ATLANTIC ANTE CREEK 10-29-64-23 : WELL
FLD .                                 : FIELD
LOC .                                 : LOCATION
CTRY.                          CANADA : COUNTRY
SRVC.                    Schlumberger : SERVICE COMPANY
DATE.                     16-Jul-1964 : LOGDATE
PROV.                         Alberta : PROVINCE
UWI .                100102906423W500 : UNIQUE WELL ID
SLAT.WGS84                    54.5688 : SURFACE LATITUDE
SLON.WGS84                   -117.438 : SURFACE LONGITUDE
~Curve Information -----------------------------------------
DEPT  .FT    : Depth Curve
CALSED.IN    : CALIPER FROM BCS LOG
CALWS .IN    : CALIPER [CALSED]
CILDED.MMHO  : DEEP INDUCTION CONDUCTIVITY LOG FROM IEL LOG
CONDWS.MMHO  : CONDUCTIVITY [CILDED]
DRESWS.OHMM  : DEEP RESISTIVITY [1000/CONDWS IF ILDED <= 4, ILDED]
DT1ED .US/F  : ACOUSTIC TRANSIT TIME SLOWNESS, DELTA T FROM BCS LOG
DTED  .US/F  : ACOUSTIC TRANSIT TIME SLOWNESS, DELTA T FROM BCS LOG
DTWS  .US/F  : COMPRESSIONAL SONIC [DTED]
GRSED .GAPI  : GAMMA RAY FROM BCS LOG
GRWS  .GAPI  : GAMMA RAY [GRSED]
ILDED .OHMM  : DEEP INDUCTION FROM IEL LOG
SNED  .OHMM  : SHORT NORMAL FROM IEL LOG
SPRED .MV    : SPONTANEOUS POTENTIAL FROM IEL LOG
SPWS  .MV    : SPONTANEOUS POTENTIAL [BASELINE 0 MV, SPRED]
SRESWS.OHMM  : SHALLOW RESISTIVITY [SNED]
~Params ----------------------------------------------------
PD  .                     GL : PERMANENT DATUM
LMF .                     KB : LOG MEASURED FROM
EKB .FT               2850.5 : KELLY BUSHING
DATE.               07/16/64 : RUN DATE
RUN .                      1 : RUN NUMBER
DD  .FT                11510 : DEPTH DRILLER
DL  .FT                11517 : DEPTH LOGGER
BLI .FT                11516 : BOTTOM LOG INTERVAL
TLI .FT                 1173 : TOP LOG INTERVAL
CBD .FT                 1175 : CASING BOTTOM DRILLER
CBL .FT                 1173 : CASING BOTTOM LOGGER
BS  .IN                7.875 : BIT SIZE
BSD .FT                11510 : BIT SIZE AT DEPTH
DFT .                    GEL : DRILLING FLUID TYPE
DFD .                    9.4 : DRILLING FLUID DENSITY
DFV .                    110 : DRILLING FLUID VISCOSITY
DFPH.                      9 : DRILLING FLUID PH
DFL .                    8.7 : DRILLING FLUID LOSS
RMS .OHMM               3.06 : RESISTIVITY MUD SAMPLE
MST .DEGF                 62 : MUD SAMPLE TEMPERATURE
RMF .OHMM               2.13 : RESISTIVITY MUD FILTRATE SAMPLE
MFST.DEGF                 62 : MUD FILTRATE SAMPLE TEMPERATURE
RMC .OHMM               2.09 : RESISTIVITY MUD CAKE
MCST.DEGF                 62 : MUD CAKE SAMPLE TEMPERATURE
RMB .OHMM               0.99 : RESISTIVITY MUD AT BHT
TCS .HRS                   3 : TIME CIRCULATED STOPPED
LUN .                   3532 : LOGGING UNIT NUMBER
ENGI.               CROCKETT : RECORDING ENGINEER
WITN.                 RUSSIN : WITNESSED BY
CLNT.                A2DTECH : CLIENT CODE
ORIG.            2" 5" PRINT : ORIGIN OF DATA
UWI .       100102906423W500 : UNIQUE WELL ID
DICO. A2D Technologies, Inc. : DIGITIZING COMPANY
~Other -----------------------------------------------------
~ASCII -----------------------------------------------------
# ...
 3300.00000   11.19370   11.19370  169.13580  170.32580    5.87110    -999.25  101.23690  101.23690   62.93510   62.93510    5.87110    5.62270  -65.69650   -2.03240    5.62270
 3350.00000   10.53220   10.53220  169.31520  164.10120    6.09380    -999.25   99.17890   99.17890   72.26930   72.26930    6.09380    6.24110  -65.95530   -2.29120    6.24110
 3400.00000   11.94750   11.94750  175.63150  171.04540    5.84640    -999.25   95.72920   95.72920   58.58650   58.58650    5.84640    5.96080  -65.52530   -1.86120    5.96080
 3450.00000   14.14710   14.14710  118.99530  116.06040    8.61620    -999.25   99.24730   99.24730   77.46050   77.46050    8.61620    7.72650  -67.10630   -3.44220    7.72650
 3500.00000   13.73340   13.73340  125.27150  123.86360    8.07340    -999.25   92.91000   92.91000   83.21930   83.21930    8.07340    7.68720  -67.58910   -3.92500    7.68720
 3550.00000   12.25370   12.25370  129.25020  126.55990    7.90140    -999.25   97.66270   97.66270   87.31810   87.31810    7.90140    8.76050  -66.30560   -2.64150    8.76050
 3600.00000   11.97450   11.97450   89.89810   88.86120   11.25350    -999.25   97.04790   97.04790  102.01880  102.01880   11.25350   12.87360  -66.34340   -2.67930   12.87360
 3650.00000   11.49170   11.49170   98.23190   95.40440   10.48170    -999.25  108.76980  108.76980   79.00670   79.00670   10.48170   11.02640  -66.51530   -2.85120   11.02640
 3700.00000   10.69040   10.69040  112.88370  113.75530    8.79080    -999.25  102.31100  102.31100   81.61320   81.61320    8.79080    9.47800  -63.70670   -0.04260    9.47800
 3750.00000   11.61230   11.61230  139.41630  138.38150    7.22640    -999.25   93.92640   93.92640   77.67680   77.67680    7.22640    7.47570  -66.19930   -2.53520    7.47570
 3800.00000   11.33170   11.33170  135.26660  135.92870    7.35680    -999.25   95.41920   95.41920   90.14780   90.14780    7.35680    7.74230  -66.63490   -2.97080    7.74230
 3850.00000    9.40840    9.40840   61.64980   61.52100   16.25460    -999.25   90.79690   90.79690   63.77140   63.77140   16.25460   15.48660  -69.94410   -6.28000   15.48660
 3900.00000   11.25150   11.25150  125.11620  122.39300    8.17040    -999.25   95.13450   95.13450   77.25360   77.25360    8.17040    8.40270  -66.00930   -2.34520    8.40270
 3950.00000   10.78030   10.78030  119.36970  119.56000    8.36400    -999.25   98.85630   98.85630   85.52330   85.52330    8.36400    9.09170  -65.48210   -1.81800    9.09170
 4000.00000   11.76940   11.76940  122.42480  121.93340    8.20120    -999.25   94.30500   94.30500   80.18030   80.18030    8.20120    7.99710  -65.79430   -2.13020    7.99710
 4050.00000    9.35810    9.35810   97.05360   89.98790   11.11260    -999.25  106.95860  106.95860   71.26480   71.26480   11.11260   10.14790  -65.23490   -1.80820   10.14790
 4100.00000    8.80940    8.80940   74.87570   74.57570   13.40920   57.82740   72.99800   72.99800   72.04560   72.04560   13.40920   14.98570  -81.57020  -18.55150   14.98570
 4150.00000   11.94870   11.94870   95.90200   94.63070   10.56740   59.87780   81.10150   81.10150   75.65380   75.65380   10.56740   10.36000  -65.36450   -2.75120   10.36000
 4200.00000   10.80070   10.80070   90.28560   89.81180   11.13440    -999.25   81.94900   81.94900   78.62560   78.62560   11.13440   12.17920  -64.81710   -2.61190   12.17920
 4250.00000   13.40840   13.40840   99.33070   99.08450   10.09240    -999.25   82.13030   82.13030   78.47360   78.47360   10.09240    9.89290  -63.88630   -2.08650    9.89290
 4300.00000   13.19430   13.19430   97.81910   94.67630   10.56230    -999.25   81.99920   81.99920   87.46140   87.46140   10.56230    9.76580  -63.37350   -1.97900    9.76580
 4350.00000   14.02340   14.02340  132.23210  131.80960    7.58670    -999.25   96.17750   96.17750   89.71380   89.71380    7.58670    8.33340  -63.39190   -2.40550    8.33340
 4400.00000   13.57070   13.57070  121.32480  120.21110    8.31870    -999.25   96.09060   96.09060   79.79700   79.79700    8.31870    8.92960  -63.08910   -2.50810    8.92960
 4450.00000   14.31550   14.31550  117.20400  113.58340    8.80410    -999.25  109.88510  109.88510   77.82660   77.82660    8.80410    9.28960  -62.00280   -1.82980    9.28960
 4500.00000   13.42720   13.42720  108.47650  106.77490    9.36550    -999.25   93.17900   93.17900   82.93660   82.93660    9.36550   10.11110  -60.83630   -1.06870   10.11110
 4550.00000   14.07170   14.07170  110.81730  109.17750    9.15940    -999.25  100.58640  100.58640   86.34060   86.34060    9.15940   10.16050  -60.65960   -1.29740   10.16050
 4600.00000   11.33980   11.33980   71.70190   67.23100   14.87410    -999.25   82.10790   82.10790   92.06740   92.06740   14.87410   15.62320  -60.63930   -1.68520   15.62320
 4650.00000   12.05040   12.05040   99.70340  100.01200    9.99880    -999.25   91.42230   91.42230   91.92550   91.92550    9.99880   11.05370  -60.22860   -1.67980   11.05370
 4700.00000   10.00610   10.00610   79.59410   79.13210   12.63710    -999.25   91.88870   91.88870  111.04660  111.04660   12.63710   15.13240  -59.61780   -1.47710   15.13240
 4750.00000   11.01700   11.01700   93.76020   86.79880   11.52090    -999.25   91.76220   91.76220   95.55630   95.55630   11.52090   13.33160  -58.82230   -1.08700   13.33160
 4800.00000    9.20200    9.20200   87.42360   88.66660   11.27820    -999.25  105.90450  105.90450  115.08830  115.08830   11.27820   16.25880  -58.44690   -1.11700   16.25880
 4850.00000   10.69320   10.69320  101.74490  102.74640    9.73270    -999.25   89.56680   89.56680   94.93040   94.93040    9.73270   10.84580  -60.11740   -3.19550   10.84580
 4900.00000    9.59650    9.59650   90.61590   93.38380   10.70850    -999.25   77.22550   77.22550   83.85640   83.85640   10.70850   10.99400  -60.23300   -3.71650   10.99400
 4950.00000   11.01620   11.01620  136.77390  132.81980    7.52900   56.48770   80.90830   80.90830   87.71540   87.71540    7.52900    8.17100  -58.85260   -2.74420    8.17100
 5000.00000    7.96110    7.96110   18.60200   18.29640   54.65570   54.50490   75.37080   75.37080   39.17650   39.17650   54.65570   50.01990  -84.73320  -29.03010   50.01990
 5050.00000    9.04420    9.04420  105.66630  103.09280    9.70000   62.30120   85.53620   85.53620   79.94240   79.94240    9.70000   11.07410  -58.17480   -2.87710   11.07410
 5100.00000    9.77360    9.77360  231.36470  215.99210    4.62980    -999.25   99.05920   99.05920  100.84950  100.84950    4.62980    5.48040  -57.70130   -2.81170    5.48040
 5150.00000    9.16330    9.16330  105.48720  105.51080    9.47770    -999.25   78.15290   78.15290   82.10190   82.10190    9.47770   10.72850  -59.76100   -5.27680   10.72850
 5200.00000   14.03300   14.03300  159.38200  148.03630    6.75510    -999.25   84.92770   84.92770   86.84470   86.84470    6.75510    6.86010  -59.09480   -5.01860    6.86010
 5250.00000   12.56750   12.56750  169.57260  164.01510    6.09700    -999.25   90.45270   90.45270   78.27100   78.27100    6.09700    6.94090  -58.52430   -4.85350    6.94090
 5300.00000   11.97150   11.97150  295.77950  295.77920    3.38090    -999.25  103.90100  103.90100   99.44150   99.44150    3.88850    4.35780  -57.74170   -4.47710    4.35780
 5350.00000   12.41410   12.41410  263.98040  237.42820    4.21180    -999.25   93.71260   93.71260   75.66220   75.66220    4.21180    4.74810  -58.56620   -5.71140    4.74810
 5400.00000   12.66900   12.66900  317.90950  317.91450    3.14550    -999.25  102.34390  102.34390   81.63450   81.63450    3.56920    3.74440  -63.81490  -11.36730    3.74440
 5450.00000   10.64220   10.64220  178.73450  164.52510    6.07810    -999.25   96.24470   96.24470   87.25530   87.25530    6.07810    6.28260  -72.78350  -20.74570    6.28260
 5500.00000   10.11430   10.11430  121.85340  118.92160    8.40890   52.25210   75.96290   75.96290  104.35050  104.35050    8.40890    9.00400  -73.15990  -21.52930    9.00400
 5550.00000    8.84960    8.84960   73.03040   73.18770   13.66350   52.37610   78.61670   78.61670   96.92450   96.92450   13.66350   16.34760  -80.42490  -29.20140   16.34760
