~Version ---------------------------------------------------
VERS.      2.0 : CWLS log ASCII Standard -VERSION 2.0
WRAP.       NO : One line per depth step
CREA. 11/22/17 : LAS Creation Date
~Well ------------------------------------------------------
STRT.FT                            750.0 : START DEPTH
STOP.FT                           7050.0 : STOP DEPTH
STEP.FT                         50.00000 : STEP LENGTH
NULL.                            -999.25 : NULL VALUE
COMP.            QUINTANA EXPLORATION CO : COMPANY
WELL. QUINTANA ET AL FOLEY LAKE 6-3-65-6 : WELL
FLD .                                    : FIELD
LOC .                                    : LOCATION
CTRY.                             CANADA : COUNTRY
SRVC.                       Schlumberger : SERVICE COMPANY
DATE.                        02-Feb-1973 : LOGDATE
PROV.                            Alberta : PROVINCE
UWI .                   100060306506W500 : UNIQUE WELL ID
SLAT.WGS84                      54.59282 : SURFACE LATITUDE
SLON.WGS84                     -114.8253 : SURFACE LONGITUDE
~Curve Information -----------------------------------------
DEPT  .FT    : Depth Curve
CALSED.IN    : CALIPER FROM SONIC LOG
CALWS .IN    : CALIPER [CALSED]
CILDED.MMHO  : CONDUCTIVITY FROM RESISTIVITY LOG
CONDWS.MMHO  : CONDUCTIVITY [1000/DRESWS]
DRESWS.OHMM  : DEEP RESISTIVITY [1000/CILDED, IF ILDED <5, ILDED]
DTED  .US/F  : INTERVAL TRANSIT TIME FROM SONIC LOG
DTWS  .US/F  : COMPRESSIONAL SONIC [DTED]
GRSED .GAPI  : GAMMA RAY FROM SONIC LOG
GRWS  .GAPI  : GAMMA RAY [GRSED]
ILDED .OHMM  : DEEP INDUCTION RESISTIVITY FROM RESISTIVITY LOG
SNED  .OHMM  : SHORT NORMAL FROM RESISTIVITY LOG
SPRED .MV    : SPONTANEOUS POTENTIAL FROM RESISTIVITY LOG
SPWS  .MV    : SPONTANEOUS POTENTIAL [BASELINE 0 MV,SPRED]
SRESWS.OHMM  : SHALLOW RESISTIVITY [SNED]
~Params ----------------------------------------------------
PD  .                     GL : PERMANENT DATUM
EPD .FT                 2548 : ELEVATION PERMANENT DATUM
LMF .                     KB : LOG MEASURED FROM
DAPD.FT                   14 : FEET ABOVE PERMANENT DATUM
EKB .FT                 2562 : KELLY BUSHING
EGL .FT                 2548 : GROUND LEVEL
DATE.               02/02/73 : RUN DATE
RUN .                      1 : RUN NUMBER
DD  .FT                 7095 : DEPTH DRILLER
DL  .FT                 7094 : DEPTH LOGGER
BLI .FT                 7098 : BOTTOM LOG INTERVAL
TLI .FT                  719 : TOP LOG INTERVAL
CBD .FT                  717 : CASING BOTTOM DRILLER
CBL .FT                  717 : CASING BOTTOM LOGGER
BS  .IN                7.875 : BIT SIZE
BSD .FT                 7095 : BIT SIZE AT DEPTH
DFT .               GEL CHEM : DRILLING FLUID TYPE
DFD .                    9.8 : DRILLING FLUID DENSITY
DFV .                    107 : DRILLING FLUID VISCOSITY
DFPH.                    9.5 : DRILLING FLUID PH
DFL .                      8 : DRILLING FLUID LOSS
RMS .OHMM               1.38 : RESISTIVITY MUD SAMPLE
MST .DEGF                104 : MUD SAMPLE TEMPERATURE
RMF .OHMM               0.25 : RESISTIVITY MUD FILTRATE SAMPLE
MFST.DEGF                 75 : MUD FILTRATE SAMPLE TEMPERATURE
RMC .OHMM               2.14 : RESISTIVITY MUD CAKE
MCST.DEGF                 66 : MUD CAKE SAMPLE TEMPERATURE
TCS .HRS                 2.5 : TIME CIRCULATED STOPPED
LUN .                   5628 : LOGGING UNIT NUMBER
LUL .                    EDM : LOGGING UNIT LOCATION
ENGI.                  BOYKO : RECORDING ENGINEER
WITN.            BLAKE SMITH : WITNESSED BY
CLNT.                A2DTECH : CLIENT CODE
ORIG.            2" 5" PRINT : ORIGIN OF DATA
UWI .       100060306506W500 : UNIQUE WELL ID
DICO. A2D Technologies, Inc. : DIGITIZING COMPANY
~Other -----------------------------------------------------
IEL- BHC LOG RUN
BHC LOG FROM 6680' TO 6700' IT LOOKS INVALID
~ASCII -----------------------------------------------------
  750.00000    9.99780    9.99780  167.46910  186.03270    5.37540  124.60490  124.60490   61.23550   61.23550    5.37540    6.87210  -66.98260   -5.61180    6.87210
  800.00000   11.85230   11.85230  234.30920  199.19920    5.02010  144.08380  144.08380   57.44180   57.44180    5.02010    3.86530  -65.37700   -3.47110    3.86530
  850.00000    8.79930    8.79930  124.61670  123.27280    8.20580  120.71720  120.71720   54.12910   54.12910    8.20580    9.92860  -67.09430   -6.52800    9.92860
  900.00000   10.64090   10.64090  233.25420  266.26900    3.75560  126.72490  126.72490   59.81780   59.81780    3.75560    5.30090  -63.26120   -4.02120    5.30090
  950.00000    8.75830    8.75830   70.99930   70.68610   14.16180   86.55800   86.55800   45.42450   45.42450   14.16180   11.10130  -64.69720   -6.83950   11.10130
 1000.00000   10.01000   10.01000  210.73810  252.53800    3.95980  129.06640  129.06640   63.35350   63.35350    3.95980    5.58580  -58.51300   -1.74360    5.58580
 1050.00000    9.84720    9.84720  138.95770  161.18890    6.20390  117.52750  117.52750   50.46140   50.46140    6.20390    7.20570  -60.60660   -4.74650    7.20570
 1100.00000    8.81210    8.81210  164.97500  187.80710    5.32800  117.89010  117.89010   49.78340   49.78340    5.32800    6.17510  -61.55090   -6.60460    6.17510
 1150.00000   10.53730   10.53730  204.77200  204.77200    4.88350  128.64790  128.64790   57.41300   57.41300    4.10320    6.06380  -56.42330   -2.38170    6.06380
 1200.00000    9.15010    9.15010  265.02240  283.40710    3.52860  126.32770  126.32770   53.76660   53.76660    3.52860    5.22160  -54.63170   -1.50390    5.22160
 1250.00000   10.65140   10.65140  171.34070  176.03460    5.68070  122.09120  122.09120   66.76150   66.76150    5.68070    7.18340  -56.10160   -3.87850    7.18340
 1300.00000    9.05420    9.05420  197.66320  227.11790    4.40300  111.26220  111.26220   56.45760   56.45760    4.40300    5.70850  -57.32070   -6.00680    5.70850
 1350.00000    7.69710    7.69710  113.79890  106.66890    9.38570   99.38520   99.38520   44.41640   44.41640    9.38570   11.13470  -72.47680  -20.78600   11.13470
 1400.00000    9.80500    9.80500  237.85830  237.85830    4.20420  122.14160  122.14160   63.95970   63.95970    3.58510    4.67290  -56.10770   -3.49200    4.67290
 1450.00000    8.09220    8.09220  120.62390  120.62390    8.29050  115.73190  115.73190   45.35390   45.35390    8.16550    9.91200  -77.83080  -24.81640    9.91200
 1500.00000    9.43280    9.43280  264.12650  264.12650    3.78610  120.64180  120.64180   60.97480   60.97480    4.52600    3.21610  -56.42610   -3.11570    3.21610
 1550.00000    9.04570    9.04570  271.57260  271.57260    3.68230  115.38690  115.38690   68.43530   68.43530    3.92970    2.75580  -55.21440   -1.41370    2.75580
 1600.00000   10.25690   10.25690  221.56900  221.56900    4.51330  120.60060  120.60060   73.24600   73.24600    3.58410    4.76690  -56.45910   -2.16560    4.76690
 1650.00000   10.43960   10.43960  148.55680  148.55680    6.73140  107.67430  107.67430   74.11850   74.11850    7.50070    5.67700  -60.14110   -3.67620    5.67700
 1700.00000   13.19510   13.19510  181.99280  181.99280    5.49510  117.60920  117.60920   77.49420   77.49420    6.11150    4.64890  -63.01770   -5.26830    4.64890
 1750.00000   14.23410   14.23410  174.39190  174.39190    5.73420  146.21960  146.21960   81.52760   81.52760    5.96970    4.46720  -67.55910   -6.60940    4.46720
 1800.00000   14.59380   14.59380  205.14850  205.14850    4.87450  151.61370  151.61370   80.11430   80.11430    5.18410    4.23230  -65.85540   -4.90480    4.23230
 1850.00000   10.44470   10.44470  144.49840  144.49840    6.92170  115.07940  115.07940  135.60690  135.60690    6.98840    9.28580  -61.35730   -5.23170    9.28580
 1900.00000   12.81610   12.81610  145.68980  145.68980    6.86390  111.12490  111.12490  100.79070  100.79070    7.73990    6.19370  -65.27230   -6.77870    6.19370
 1950.00000   13.22870   13.22870  176.27570  176.27570    5.67330  114.05890  114.05890   88.71890   88.71890    6.17040    5.23590  -66.05170   -6.44100    5.23590
 2000.00000   14.69700   14.69700  197.05830  197.05830    5.07460  136.69010  136.69010   71.40400   71.40400    5.82850    4.76170  -67.25700   -8.50240    4.76170
 2050.00000   10.02080   10.02080  136.19590  136.19590    7.34240  100.27290  100.27290   82.19380   82.19380    8.14890    6.67070  -61.25090   -3.35670    6.67070
 2100.00000   10.23670   10.23670  141.01110  141.01110    7.09190   98.22120   98.22120   88.33510   88.33510    7.32900    5.96380  -67.28450   -3.02800    5.96380
 2150.00000    9.55510    9.55510  156.54630  156.54630    6.38790  104.82440  104.82440   91.57160   91.57160    6.43920    5.58020  -68.72420   -4.68010    5.58020
 2200.00000   12.20550   12.20550  165.69160  165.69160    6.03530  117.44860  117.44860   85.96880   85.96880    6.28240    4.74300  -67.47700   -4.38890    4.74300
 2250.00000   11.15780   11.15780  134.68100  134.68100    7.42500   90.34860   90.34860   88.01850   88.01850    7.57680    5.99330  -68.44560   -6.89300    5.99330
 2300.00000   13.81960   13.81960  181.89720  181.89720    5.49760  110.49390  110.49390   92.58630   92.58630    5.90620    4.68220  -67.44630   -7.95600    4.68220
 2350.00000   13.71380   13.71380  176.63330  176.63330    5.66160  107.62120  107.62120  116.02000  116.02000    6.36720    5.23150  -66.01930   -7.81790    5.23150
 2400.00000   11.80550   11.80550  165.06670  165.06670    6.05820  112.15350  112.15350  114.65590  114.65590    5.82460    7.13010  -60.77100   -3.48310    7.13010
 2450.00000   11.33940   11.33940  173.46080  163.71520    6.10820  112.67670  112.67670  119.17590  119.17590    6.10820    7.30710  -60.37130   -3.92210    7.30710
 2500.00000    9.60870    9.60870  160.74360  163.12150    6.13040  108.69730  108.69730  120.76460  120.76460    6.13040    8.39250  -60.17380   -4.13260    8.39250
 2550.00000    9.99780    9.99780  166.39000  175.20810    5.70750  105.45760  105.45760  114.54610  114.54610    5.70750    7.10840  -58.89540   -3.26410    7.10840
 2600.00000   10.14760   10.14760  220.62000  227.93290    4.38740  108.17610  108.17610   94.03920   94.03920    4.38740    5.55380  -59.19230   -3.97300    5.55380
 2650.00000    9.84870    9.84870  182.89160  200.14410    4.99640   98.16030   98.16030   97.41230   97.41230    4.99640    6.70960  -57.30610   -2.49470    6.70960
 2700.00000    9.86840    9.86840  221.77510  234.87930    4.25750  100.85930  100.85930  103.38280  103.38280    4.25750    5.92170  -55.98400   -1.58450    5.92170
 2750.00000   11.95650   11.95650  222.94120  224.00430    4.46420  104.55280  104.55280  113.27940  113.27940    4.46420    5.49520  -57.74020   -4.66260    5.49520
 2800.00000   11.51130   11.51130  207.44680  213.62960    4.68100  101.81130  101.81130  120.24580  120.24580    4.68100    5.49000  -56.33830   -4.84240    5.49000
 2850.00000   11.17490   11.17490  385.72800  411.82360    2.42830  117.48770  117.48770  157.27830  157.27830    2.42830    3.22760  -52.35760   -2.45130    3.22760
 2900.00000   12.39000   12.39000  412.09620  451.40610    2.21530  102.60410  102.60410   97.19330   97.19330    2.21530    2.97560  -54.18040   -4.81580    2.97560
 2950.00000   12.43970   12.43970  341.21600  366.87150    2.72590  107.90910  107.90910  108.18450  108.18450    2.72590    3.64230  -55.26800   -5.90340    3.64230
 3000.00000   11.58780   11.58780  358.58450  384.60060    2.60010  110.25520  110.25520  106.51230  106.51230    2.60010    3.37060  -53.95650   -4.59200    3.37060
 3050.00000   10.49000   10.49000  241.18840  258.20440    3.87290  110.85580  110.85580  126.63780  126.63780    3.87290    5.34570  -52.94330   -3.57880    5.34570
 3100.00000   14.08070   14.08070  624.62020  715.19690    1.39830  160.53830  160.53830   72.60450   72.60450    1.39830    2.08540  -54.27260   -4.90810    2.08540
 3150.00000    9.35610    9.35610  123.91680  129.72520    7.70860  126.34820  126.34820   59.78350   59.78350    7.70860   15.93700  -79.72440  -29.22390   15.93700
