~Version ---------------------------------------------------
VERS.      2.0 : CWLS log ASCII Standard -VERSION 2.0
WRAP.       NO : One line per depth step
CREA. 12/29/17 : LAS Creation Date
~Well ------------------------------------------------------
STRT.FT                           500.0 : START DEPTH
STOP.FT                         10300.0 : STOP DEPTH
STEP.FT                        50.00000 : STEP LENGTH
NULL.                           -999.25 : NULL VALUE
COMP.             TIDEWATER OIL COMPANY : COMPANY
WELL. TIDEWATER GOOSE RIVER 10-26-66-19 : WELL
FLD .                                WC : FIELD
LOC .                                   : LOCATION
CTRY.                            CANADA : COUNTRY
SRVC.            Schlumberger of Canada : SERVICE COMPANY
DATE.                       04-May-1959 : LOGDATE
PROV.                           Alberta : PROVINCE
UWI .                  100102606619W500 : UNIQUE WELL ID
SLAT.WGS84                     54.74347 : SURFACE LATITUDE
SLON.WGS84                    -116.7568 : SURFACE LONGITUDE
~Curve Information -----------------------------------------
DEPT  .FT         : Depth Curve
CALWS .IN         : CALIPER [MCALED]
CILDED.MMHO       : CONDUCTIVITY FROM RESISTIVITY LOG
CONDWS.MMHO       : CONDUCTIVITY [1000/DRESWS]
DRESWS.OHMM       : DEEP RESISTIVITY [1000/CILDED IF ILDED < 4, ILDED]
GRNED .UgRa-Eq/T  : GAMMA RAY NEUTRON FROM GRN LOG
GRWS  .GAPI       : GAMMA RAY [GRNED * 16.5 TO CONVERTED TO GAPI]
ILDED .OHMM       : INDUCTION DEEP FROM RESISTIVITY LOG
LLED  .OHMM       : LATEROLOG FROM RESISTIVITY LOG
MCALED.IN         : CALIPER FROM MICROLOG
NEUTED.CPS        : NEUTRON FROM GRN LOG
NEUTWS.CPS        : NEUTRON [NEUTED]
SNED  .OHMM       : SHORT NORMAL FROM RESISTIVITY LOG
SPRED .MV         : SPONTANEOUS POTENTIAL FROM RESISTIVITY LOG
SPWS  .MV         : SPONTANEOUS POTENTIAL [BASELINE 0 MV, SPRED]
SRESWS.OHMM       : SHALLOW RESISTIVITY [SNED]
~Params ----------------------------------------------------
LMF .                     KB : LOG MEASURED FROM
DMF .                     KB : DRILLING MEASURED FROM
EKB .FT                 2543 : KELLY BUSHING
DATE.               05/04/59 : RUN DATE
RUN .                      1 : RUN NUMBER
DD  .FT                10334 : DEPTH DRILLER
DL  .FT                10328 : DEPTH LOGGER
BLI .FT                10323 : BOTTOM LOG INTERVAL
TLI .FT                 1012 : TOP LOG INTERVAL
CBD .FT                 1012 : CASING BOTTOM DRILLER
CBL .FT                 1012 : CASING BOTTOM LOGGER
BS  .IN                 8.75 : BIT SIZE
BSD .FT                10334 : BIT SIZE AT DEPTH
DFT .                    GEL : DRILLING FLUID TYPE
DFD .                   10.6 : DRILLING FLUID DENSITY
DFV .                     95 : DRILLING FLUID VISCOSITY
DFPH.                     10 : DRILLING FLUID PH
DFL .                      6 : DRILLING FLUID LOSS
RMS .OHMM                2.1 : RESISTIVITY MUD SAMPLE
MST .DEGF                 67 : MUD SAMPLE TEMPERATURE
RMF .OHMM                1.9 : RESISTIVITY MUD FILTRATE SAMPLE
MFST.DEGF                 60 : MUD FILTRATE SAMPLE TEMPERATURE
RMC .OHMM                3.0 : RESISTIVITY MUD CAKE
MCST.DEGF                 65 : MUD CAKE SAMPLE TEMPERATURE
RMB .OHMM               0.73 : RESISTIVITY MUD AT BHT
TCS .HRS                   4 : TIME CIRCULATED STOPPED
LUN .                   2781 : LOGGING UNIT NUMBER
LUL .                    SKW : LOGGING UNIT LOCATION
ENGI.                SPENCER : RECORDING ENGINEER
WITN.                 RENNIE : WITNESSED BY
CLNT.                A2DTECH : CLIENT CODE
ORIG.            2" 5" PRINT : ORIGIN OF DATA
UWI .       100102606619W500 : UNIQUE WELL ID
DICO. A2D Technologies, Inc. : DIGITIZING COMPANY
~Other -----------------------------------------------------
IEL-GRN-ML-LL LOG RAN
~ASCII -----------------------------------------------------
# ...
 7400.00000    9.83590    3.15040    2.00000  500.00000    0.92020   15.09130  500.00000  728.42110    9.83590  360.38700  360.38700  158.64490 -218.74250 -225.98570  158.64490
 7450.00000    9.25090    4.93180    2.00000  500.00000    1.34840   22.11380  500.00000  117.37050    9.25090  315.12840  315.12840  157.07640 -249.87680 -257.24040  157.07640
 7500.00000    8.87880    5.66730    2.00000  500.00000    1.80230   29.55770  500.00000  158.42650    8.87880  301.95580  301.95580  174.74160 -257.78950 -265.27280  174.74160
 7550.00000    8.88350    5.96370    2.26930  440.67260    1.04410   17.12320  440.67260  129.26800    8.88350  313.41420  313.41420  161.97020 -220.99510 -228.59790  161.97020
 7600.00000    8.90930    8.34160    8.01950  124.69680    1.13830   18.66810  124.69680   39.57570    8.90930  307.17730  307.17730  131.95210 -191.75550 -199.47870  131.95210
 7650.00000    8.95380   14.16700   12.34070   81.03270    0.98880   16.21630   81.03270   28.12540    8.95380  301.78850  301.78850  116.37550 -193.93560 -201.77850  116.37550
 7700.00000    8.03980   20.11960   20.27230   49.32840    1.35560   22.23180   49.32840  267.62140    8.03980  267.40400  267.40400   76.86190 -189.10530 -197.06850   76.86190
 7750.00000    8.77670  100.68100   91.82480   10.89030    1.94140   31.83900   10.89030   36.15700    8.77670  223.91580  223.91580   38.12930 -173.42360 -181.50640   38.12930
 7800.00000    8.98150    6.48440    2.20900  452.68860    1.11420   18.27290  452.68860  835.28870    8.98150  300.87730  300.87730  137.16430  -83.81360  -92.01600  137.16430
 7850.00000    9.36730   11.04330    9.88160  101.19810    1.74380   28.59830  101.19810  198.87580    9.36730  241.63710  241.63710   62.75760  -48.12660  -56.44940   62.75760
 7900.00000    8.82770    8.77990    7.94740  125.82780    2.23590   36.66880  125.82780  230.12890    8.82770  276.68990  276.68990   96.55260   -4.65680  -12.93660   96.55260
 7950.00000    8.83650   21.83320   20.42710   48.95460    2.29890   37.70200   48.95460   76.40340    8.83650  247.56440  247.56440   48.44240   -9.61330  -16.09940   48.44240
 8000.00000    8.92910   15.14840   15.92310   62.80190    1.34940   22.13020   62.80190  130.66550    8.92910  212.49100  212.49100   68.36180  -72.51390  -77.21790   68.36180
 8050.00000    8.86790   11.50270   10.48860   95.34120    1.77050   29.03620   95.34120  105.97930    8.86790  287.71500  287.71500   64.97010  -58.51810  -61.44010   64.97010
 8100.00000    8.87570   61.68490   63.64400   15.71240    3.07700   50.46280   15.71240   21.37560    8.87570  266.44100  266.44100   20.15030  -39.21360  -40.34190   20.15030
 8150.00000    9.07010   67.52420   71.69950   13.94710    3.72070   61.01950   13.94710   17.59070    9.07010  238.62910  238.62910   17.90160   -5.22130   -4.56760   17.90160
 8200.00000   11.65970  136.14640  137.90630    7.25130    4.03040   66.09860    7.25130    8.65350   11.65970  161.16340  161.16340    9.49100  -16.62060  -15.02850    9.49100
 8250.00000   15.39840  172.81590  172.25340    5.80540    4.50520   73.88530    5.80540    8.90550   15.39840  164.12110  164.12110    7.24120  -28.66200  -27.25790    7.24120
 8300.00000   15.46390  282.84350  282.84350    3.53550    4.31670   70.79390    3.21980    7.21510   15.46390  118.37100  118.37100    4.71750  -96.89990  -95.68380    4.71750
 8350.00000   15.45960  278.03770  278.03770    3.59660    4.08650   67.01860    3.33080    6.01650   15.45960  124.41530  124.41530    4.90880 -111.16480 -110.13790    4.90880
 8400.00000   15.44930  281.67830  281.67830    3.55010    4.14100   67.91240    3.31250    5.76980   15.44930  111.13070  111.13070    4.83980  -85.32790  -84.48890    4.83980
 8450.00000   15.44930  260.58020  260.58020    3.83760    3.93520   64.53730    3.42410    6.02240   15.44930  109.42440  109.42440    4.92330  -21.64260  -20.99290    4.92330
 8500.00000   15.45840  327.71730  327.71730    3.05140    4.34570   71.26950    2.71110    5.25540   15.45840  118.59090  118.59090    4.84550   -1.43400   -2.82350    4.84550
 8550.00000   10.29620   64.85570   57.86570   17.28140    4.50170   73.82790   17.28140   22.74410   10.29620  214.88110  214.88110   21.07560  -29.26770  -39.21910   21.07560
 8600.00000   10.35930   87.28450   82.92970   12.05840    3.24420   53.20490   12.05840   13.11820   10.35930  193.20910  193.20910   14.84180   -1.51100   -6.74630   14.84180
 8650.00000    9.24400  103.01230  104.50190    9.56920    3.86080   63.31710    9.56920    9.21570    9.24400  168.63590  168.63590   11.45030  -23.37200  -27.98400   11.45030
 8700.00000    9.20070   95.34770   96.99890   10.30940    3.79450   62.22980   10.30940   11.77410    9.20070  171.66070  171.66070   13.76070 -107.98620 -113.53180   13.76070
 8750.00000    8.92400   68.57050   63.75190   15.68580    3.72650   61.11460   15.68580   20.52900    8.92400  190.84180  190.84180   20.76730  -99.83910 -106.31240   20.76730
 8800.00000   11.43320  172.88360  178.37390    5.60620    3.77200   61.86080    5.60620    7.09000   11.43320  137.42620  137.42620    7.69750 -103.31410 -110.71500    7.69750
 8850.00000   15.42800  201.23360  200.84350    4.97900    3.91970   64.28310    4.97900    6.86100   15.42800  130.14530  130.14530    6.81350  -66.81600  -75.15050    6.81350
 8900.00000    8.74200   77.57640   74.41140   13.43880    3.70390   60.74400   13.43880   17.80500    8.74200  213.81470  213.81470   16.90800  -17.63430  -26.89640   16.90800
 8950.00000   11.34860  133.77360  131.72800    7.59140    3.62370   59.42870    7.59140    9.53240   11.34860  164.11550  164.11550   10.43940    3.68800   -6.83790   10.43940
 9000.00000   13.42840  192.46730  188.12200    5.31570    4.12890   67.71400    5.31570    8.31120   13.42840  140.12020  140.12020    7.52490  -62.88420  -71.48430    7.52490
 9050.00000    8.76130   14.41640   12.03880   83.06500    5.25090   86.11480   83.06500   82.69960    8.76130  176.89750  176.89750   60.31470  -78.26880  -84.94300   60.31470
 9100.00000    9.70500   72.77980   64.71950   15.45130    2.73220   44.80810   15.45130   18.27850    9.70500  150.14890  150.14890   20.05390  -65.12300  -69.85870   20.05390
 9150.00000    8.87330   33.63820   34.43610   29.03930    4.54630   74.55930   29.03930   36.47560    8.87330  174.36430  174.36430   33.25990  -24.41300  -27.22280   33.25990
 9200.00000   10.51420  118.20560  125.05940    7.99620    2.27290   37.27560    7.99620    9.30890   10.51420  161.06170  161.06170   12.30880  -13.48960  -15.13340   12.30880
 9250.00000    9.09700   18.80340   18.48290   54.10420    1.65240   27.09940   54.10420   51.81520    9.09700  250.61140  250.61140   45.43570  -56.35610  -57.88030   45.43570
 9300.00000    9.24550   27.83940   22.82240   43.81660    1.57070   25.75950   43.81660   94.19910    9.24550  222.58710  222.58710   47.52060 -122.11920 -123.52380   47.52060
 9350.00000    9.35560   36.07340   32.89780   30.39720    1.10150   18.06460   30.39720  139.23250    9.35560  295.22410  295.22410   66.00770 -182.47810 -183.76240   66.00770
 9400.00000    8.89880    6.06250    2.00000  500.00000    1.09590   17.97280  500.00000  322.60600    8.89880  321.09160  321.09160  165.32650 -154.80870 -155.97340  165.32650
 9450.00000    8.92360    7.89660    2.29190  436.32390    1.17900   19.33560  436.32390   70.29250    8.92360  304.65440  304.65440  108.88050 -148.52680 -149.57120  108.88050
 9500.00000    8.75600    6.46730    2.00000  500.00000    1.11160   18.23020  500.00000  495.46170    8.75600  346.80800  346.80800  203.53930 -191.92880 -192.85360  203.53930
 9550.00000    8.85290    7.23090    3.47730  287.57970    -999.25    -999.25  287.57970   63.81800    8.85290    -999.25    -999.25   71.45980  -84.69180  -85.49710   71.45980
 9600.00000    7.91530 1066.62510 1066.62510    0.93750    -999.25    -999.25    0.63960    2.84930    7.91530    -999.25    -999.25    2.61680 -205.97650 -206.66150    2.61680
 9650.00000    7.99210  488.22710  488.22710    2.04820    -999.25    -999.25    1.45660    9.84010    7.99210    -999.25    -999.25   15.33150 -184.39590 -184.96120   15.33150
