~Version ---------------------------------------------------
VERS.      2.0 : CWLS log ASCII Standard -VERSION 2.0
WRAP.       NO : One line per depth step
CREA. 10/09/17 : LAS Creation Date
~Well ------------------------------------------------------
STRT.FT                        300.0 : START DEPTH
STOP.FT                       6050.0 : STOP DEPTH
STEP.FT                     50.00000 : STEP LENGTH
NULL.                        -999.25 : NULL VALUE
COMP.               CHEMCELL LIMITED : COMPANY
WELL. CHEMCELL DISP CLOVER IN 10-17- : WELL
FLD .                                : FIELD
LOC .                                : LOCATION
CTRY.                         CANADA : COUNTRY
SRVC.                        Unknown : SERVICE COMPANY
DATE.                    08-Feb-1965 : LOGDATE
PROV.                        Alberta : PROVINCE
UWI .               100101705323W400 : UNIQUE WELL ID
SLAT.WGS84                  53.57772 : SURFACE LATITUDE
SLON.WGS84                  -113.352 : SURFACE LONGITUDE
~Curve Information -----------------------------------------
DEPT  .FT    : Depth Curve
CALIED.IN    : CALIPER FROM CALIPER LOG
CALWS .IN    : CALIPER [CALIED]
GRNED .GAPI  : GAMMA RAY FROM GRN LOG
GRWS  .GAPI  : GAMMA RAY [GRNED]
NEUTED.NAPI  : NEUTRON FROM GRN LOG
NEUTWS.NAPI  : NEUTRON [NEUTED]
~Params ----------------------------------------------------
PD  .                     GL : PERMANENT DATUM
EPD .FT                 2135 : ELEVATION PERMANENT DATUM
LMF .                     KB : LOG MEASURED FROM
DAPD.FT                 13.5 : FEET ABOVE PERMANENT DATUM
DMF .                     KB : DRILLING MEASURED FROM
EKB .FT               2148.5 : KELLY BUSHING
EGL .FT                 2135 : GROUND LEVEL
DATE.               08/02/65 : RUN DATE
RUN .                      1 : RUN NUMBER
DD  .FT                 6087 : DEPTH DRILLER
DL  .FT                 6087 : DEPTH LOGGER
BLI .FT                 6086 : BOTTOM LOG INTERVAL
TLI .FT                   20 : TOP LOG INTERVAL
CS  .IN                10.75 : CASING SIZE
CBD .FT                  630 : CASING BOTTOM DRILLER
BSD .FT                 6087 : BIT SIZE AT DEPTH
DFT .    MUD SALT SATURARTED : DRILLING FLUID TYPE
DFD .                   10.7 : DRILLING FLUID DENSITY
DFV .                     20 : DRILLING FLUID VISCOSITY
TCS .HRS                   8 : TIME CIRCULATED STOPPED
ENGI.                   COLE : RECORDING ENGINEER
WITN.                COULSON : WITNESSED BY
CLNT.                A2DTECH : CLIENT CODE
ORIG.            2" 5" PRINT : ORIGIN OF DATA
UWI .       100101705323W400 : UNIQUE WELL ID
DICO. A2D Technologies, Inc. : DIGITIZING COMPANY
~Other -----------------------------------------------------
GRN-CALI LOG RAN
~ASCII -----------------------------------------------------
  300.00000    -999.25    -999.25   56.54370   56.54370  609.41990  609.41990
  350.00000    -999.25    -999.25   63.23170   63.23170  449.74110  449.74110
  400.00000    -999.25    -999.25   65.95230   65.95230  444.77980  444.77980
  450.00000    -999.25    -999.25   54.23590   54.23590  507.80920  507.80920
  500.00000    -999.25    -999.25   51.83090   51.83090  425.09540  425.09540
  550.00000    -999.25    -999.25   50.58340   50.58340  499.27660  499.27660
  600.00000    -999.25    -999.25   51.92760   51.92760  497.69200  497.69200
  650.00000   15.10830   15.10830   67.26910   67.26910  514.35410  514.35410
  700.00000   12.89570   12.89570   65.93250   65.93250  618.58910  618.58910
  750.00000   14.33360   14.33360   56.00110   56.00110  488.14520  488.14520
  800.00000   11.69400   11.69400   69.91080   69.91080  519.76770  519.76770
  850.00000   13.65420   13.65420   65.72380   65.72380  503.42870  503.42870
  900.00000   14.98500   14.98500   54.18780   54.18780  577.44150  577.44150
  950.00000   10.14510   10.14510   57.74240   57.74240  622.34270  622.34270
 1000.00000   13.43050   13.43050   68.00480   68.00480  480.01280  480.01280
 1050.00000   12.85590   12.85590   55.82130   55.82130  562.67160  562.67160
 1100.00000   11.28270   11.28270   57.29800   57.29800  502.11500  502.11500
 1150.00000    9.17070    9.17070   47.75240   47.75240  662.22690  662.22690
 1200.00000    8.95950    8.95950   46.86710   46.86710  672.74490  672.74490
 1250.00000   12.88960   12.88960   69.56540   69.56540  513.60280  513.60280
 1300.00000   11.06660   11.06660   64.15360   64.15360  542.39670  542.39670
 1350.00000   14.23000   14.23000   69.69230   69.69230  476.86540  476.86540
 1400.00000   14.04890   14.04890   77.00220   77.00220  538.10250  538.10250
 1450.00000   15.19870   15.19870   65.69960   65.69960  480.02030  480.02030
 1500.00000   15.32920   15.32920   63.64780   63.64780  512.99330  512.99330
 1550.00000   13.44230   13.44230   74.14550   74.14550  450.95820  450.95820
 1600.00000   15.36500   15.36500   61.12840   61.12840  486.13040  486.13040
 1650.00000   15.32550   15.32550   67.89210   67.89210  491.07350  491.07350
 1700.00000   15.43810   15.43810   70.36630   70.36630  462.41160  462.41160
 1750.00000   14.17360   14.17360  107.98210  107.98210  489.28690  489.28690
 1800.00000   10.64200   10.64200  148.45520  148.45520  507.57470  507.57470
 1850.00000   13.71180   13.71180  120.72700  120.72700  508.11410  508.11410
 1900.00000   12.26080   12.26080  114.05800  114.05800  463.83410  463.83410
 1950.00000   14.85740   14.85740  100.59370  100.59370  520.52710  520.52710
 2000.00000   13.23790   13.23790   83.54090   83.54090  466.31220  466.31220
 2050.00000   15.46890   15.46890   68.41680   68.41680  513.39800  513.39800
 2100.00000   14.99710   14.99710   79.30970   79.30970  479.37420  479.37420
 2150.00000   15.36030   15.36030   62.86140   62.86140  499.30500  499.30500
 2200.00000   15.34280   15.34280   78.68450   78.68450  463.97220  463.97220
 2250.00000   15.40690   15.40690   86.15090   86.15090  505.70340  505.70340
 2300.00000   12.45660   12.45660  102.93940  102.93940  483.22790  483.22790
 2350.00000   11.73840   11.73840  133.00720  133.00720  530.17820  530.17820
 2400.00000    9.89390    9.89390  113.57180  113.57180  684.03280  684.03280
 2450.00000    9.28230    9.28230  134.57140  134.57140  605.92850  605.92850
 2500.00000    9.44070    9.44070  161.68270  161.68270  528.14490  528.14490
 2550.00000    9.97190    9.97190  170.07260  170.07260  577.61460  577.61460
 2600.00000   12.64540   12.64540  143.01240  143.01240  494.09430  494.09430
 2650.00000   10.12380   10.12380  266.85500  266.85500  535.70920  535.70920
 2700.00000   14.35630   14.35630   80.52920   80.52920  487.56460  487.56460
 2750.00000   14.52100   14.52100   88.85500   88.85500  516.10490  516.10490
 2800.00000    9.38510    9.38510   96.28470   96.28470  724.63990  724.63990
 2850.00000    9.34210    9.34210   84.48520   84.48520  800.34440  800.34440
 2900.00000   14.93560   14.93560   85.82510   85.82510  482.84550  482.84550
 2950.00000   10.44670   10.44670   77.81990   77.81990  696.53470  696.53470
 3000.00000    9.89960    9.89960   92.72580   92.72580  704.36910  704.36910
 3050.00000   10.49240   10.49240   75.25080   75.25080  718.43380  718.43380
 3100.00000   10.88490   10.88490   72.87640   72.87640  606.91740  606.91740
 3150.00000   11.14650   11.14650   87.31920   87.31920  635.87550  635.87550
 3200.00000   11.80250   11.80250   90.03730   90.03730  703.16470  703.16470
 3250.00000   12.50770   12.50770   79.93000   79.93000  595.46890  595.46890
 3300.00000   11.87860   11.87860   86.29170   86.29170  670.75460  670.75460
 3350.00000   12.96180   12.96180   88.14780   88.14780  556.18640  556.18640
 3400.00000   10.72130   10.72130   84.75830   84.75830  552.99430  552.99430
 3450.00000   10.33400   10.33400   80.97420   80.97420  721.80420  721.80420
 3500.00000    9.61500    9.61500   78.24200   78.24200  667.00890  667.00890
 3550.00000    8.77800    8.77800   40.71530   40.71530  714.22130  714.22130
 3600.00000    8.87080    8.87080   34.19370   34.19370  728.67970  728.67970
 3650.00000    8.85500    8.85500   29.89420   29.89420  784.67740  784.67740
 3700.00000   12.40260   12.40260   82.83770   82.83770  544.44350  544.44350
 3750.00000   14.55080   14.55080   49.81550   49.81550  553.15260  553.15260
 3800.00000   10.08890   10.08890   27.87110   27.87110 1001.64430 1001.64430
 3850.00000    9.93820    9.93820   33.00960   33.00960 1329.03970 1329.03970
 3900.00000    9.31830    9.31830   41.94660   41.94660 1191.00660 1191.00660
 3950.00000   10.47470   10.47470  112.18450  112.18450  973.14140  973.14140
 4000.00000    8.93130    8.93130   37.89630   37.89630 1210.68550 1210.68550
 4050.00000    8.77550    8.77550   37.21180   37.21180  891.09970  891.09970
 4100.00000    9.27720    9.27720   29.86770   29.86770 1157.51890 1157.51890
 4150.00000    8.97590    8.97590   30.62630   30.62630 1106.43250 1106.43250
 4200.00000    9.69690    9.69690   73.31310   73.31310 1102.41480 1102.41480
 4250.00000   10.33730   10.33730   78.35830   78.35830 1135.00180 1135.00180
 4300.00000   11.24120   11.24120   91.74130   91.74130  626.77010  626.77010
 4350.00000   11.59720   11.59720   87.55640   87.55640  621.72210  621.72210
 4400.00000   14.67600   14.67600   97.47600   97.47600  694.60830  694.60830
 4450.00000   10.56400   10.56400  100.59910  100.59910  745.41820  745.41820
 4500.00000   10.51870   10.51870  101.92190  101.92190  731.08220  731.08220
 4550.00000   10.16290   10.16290   83.26630   83.26630  895.67390  895.67390
 4600.00000   10.61560   10.61560  110.37740  110.37740  674.34740  674.34740
 4650.00000    9.98770    9.98770   81.61170   81.61170  825.73790  825.73790
 4700.00000   10.00010   10.00010   81.00410   81.00410  793.49070  793.49070
 4750.00000    9.57030    9.57030   85.05210   85.05210 1144.47880 1144.47880
 4800.00000    9.57010    9.57010   95.16040   95.16040  900.80750  900.80750
 4850.00000    9.42230    9.42230  118.91110  118.91110  940.48630  940.48630
 4900.00000    9.64180    9.64180   51.56310   51.56310  958.15560  958.15560
 4950.00000   10.69390   10.69390   28.70010   28.70010 1144.39620 1144.39620
 5000.00000    8.53590    8.53590   23.22520   23.22520 1064.04720 1064.04720
 5050.00000    9.47730    9.47730   28.59580   28.59580 1238.38380 1238.38380
 5100.00000    8.84250    8.84250   24.52420   24.52420 1051.53000 1051.53000
 5150.00000    9.33430    9.33430   23.70590   23.70590  972.61890  972.61890
 5200.00000    9.63870    9.63870   30.39220   30.39220 1463.78770 1463.78770
 5250.00000   10.23580   10.23580   52.43980   52.43980 1139.18920 1139.18920
 5300.00000   10.19900   10.19900   52.04420   52.04420 1279.24400 1279.24400
 5350.00000    9.75110    9.75110   36.36370   36.36370 1576.92480 1576.92480
 5400.00000    9.63180    9.63180   17.20570   17.20570 1413.27880 1413.27880
