~Version ---------------------------------------------------
VERS.      2.0 : CWLS log ASCII Standard -VERSION 2.0
WRAP.       NO : One line per depth step
CREA. 01/05/18 : LAS Creation Date
~Well ------------------------------------------------------
STRT.FT                            650.0 : START DEPTH
STOP.FT                           9200.0 : STOP DEPTH
STEP.FT                         50.00000 : STEP LENGTH
NULL.                            -999.25 : NULL VALUE
COMP.                 DENISON MINES LTD. : COMPANY
WELL. DENISON ET AL VIRG HILLS 4-7-65-12 : WELL
FLD .                                    : FIELD
LOC .                                    : LOCATION
CTRY.                             CANADA : COUNTRY
SRVC.                       Schlumberger : SERVICE COMPANY
DATE.                        14-Sep-1974 : LOGDATE
PROV.                            Alberta : PROVINCE
UWI .                   100040706512W500 : UNIQUE WELL ID
SLAT.WGS84                      54.60475 : SURFACE LATITUDE
SLON.WGS84                     -115.8121 : SURFACE LONGITUDE
~Curve Information -----------------------------------------
DEPT  .FT    : Depth Curve
CALSED.IN    : CALIPER FROM SONIC LOG [ADJ TO SPRED]
CALWS .IN    : CALIPER [CALSED]
CILDED.MMHO  : CONDUCTIVITY FROM RESISTIVITY LOG
CONDWS.MMHO  : CONDUCTIVITY [1000/DRESWS]
DRESWS.OHMM  : DEEP RESISTIVITY [ILDED]
DTED  .US/F  : DELTA TIME FROM SONIC LOG [ADJ TO SPRED]
DTWS  .US/F  : DELTA TIME [DTED]
GRSED .GAPI  : GAMMA RAY FROM SONIC LOG [ADJ TO SPRED]
GRWS  .GAPI  : GAMMA RAY [GRSED]
ILDED .OHMM  : INDUCTION LOG DEEP RESISTIVITY
ILMED .OHMM  : INDUCTION LOG MEDIUM RESISTIVITY
LL8ED .OHMM  : 8 INCH LATEROLOG RESISTIVITY
MRESWS.OHMM  : MEDIUM RESISTIVITY [ILMED]
SPRED .MV    : SPONTANEOUS POTENTIAL FROM RESISTIVITY LOG
SPWS  .MV    : SPONTANEOUS POTENTIAL [BASELINE 0 MV] [SPRED]
SRESWS.OHMM  : SHALLOW RESISTIVITY [LL8ED]
~Params ----------------------------------------------------
PD  .                     GL : PERMANENT DATUM
EPD .FT                 3432 : ELEVATION PERMANENT DATUM
LMF .                     KB : LOG MEASURED FROM
DAPD.FT                   14 : FEET ABOVE PERMANENT DATUM
EKB .FT                 3446 : KELLY BUSHING
EGL .FT                 3432 : GROUND LEVEL
DATE.               09/14/74 : RUN DATE
RUN .                      1 : RUN NUMBER
DD  .FT                 9235 : DEPTH DRILLER
DL  .FT                 9236 : DEPTH LOGGER
BLI .FT                 9230 : BOTTOM LOG INTERVAL
TLI .FT                  657 : TOP LOG INTERVAL
CBD .FT                  657 : CASING BOTTOM DRILLER
CBL .FT                  657 : CASING BOTTOM LOGGER
BS  .IN                7.875 : BIT SIZE
BSD .FT                 9235 : BIT SIZE AT DEPTH
DFT .               GEL CHEM : DRILLING FLUID TYPE
DFD .                    9.5 : DRILLING FLUID DENSITY
DFV .                     85 : DRILLING FLUID VISCOSITY
DFPH.                   10.4 : DRILLING FLUID PH
DFL .                    7.8 : DRILLING FLUID LOSS
MSS .               FLOWLINE : MUD SAMPLE SOURCE
RMS .OHMM                3.1 : RESISTIVITY MUD SAMPLE
MST .DEGF                 61 : MUD SAMPLE TEMPERATURE
RMF .OHMM               1.95 : RESISTIVITY MUD FILTRATE SAMPLE
MFST.DEGF                 69 : MUD FILTRATE SAMPLE TEMPERATURE
RMB .OHMM               0.75 : RESISTIVITY MUD AT BHT
TCS .HRS                 2.5 : TIME CIRCULATED STOPPED
LUN .                   7690 : LOGGING UNIT NUMBER
LUL .                    EDM : LOGGING UNIT LOCATION
ENGI.                SIMPSON : RECORDING ENGINEER
WITN.                BISSETT : WITNESSED BY
CLNT.                A2DTECH : CLIENT CODE
ORIG.            2" 5" PRINT : ORIGIN OF DATA
UWI .       100040706512W500 : UNIQUE WELL ID
DICO. A2D Technologies, Inc. : DIGITIZING COMPANY
~Other -----------------------------------------------------
IE-SONIC LOGS RUN
IE LOG DATA ALL CURVES TOP-8480' FROM 2" SCALE
SONIC LOG DATA ALL CURVES TOP-8490 FROM 2" SCALE
~ASCII -----------------------------------------------------
# ...
 7100.00000    7.76160    7.76160   60.10090   62.03360   16.12030   52.71580   52.71580   15.08680   15.08680   16.12030    -999.25  199.24130    -999.25 -247.17470 -175.79450  199.24130
 7150.00000    8.59370    8.59370   34.53450   34.05580   29.37660   50.34570   50.34570   19.45540   19.45540   29.37660    -999.25  168.24610    -999.25 -214.51260 -143.09430  168.24610
 7200.00000    8.72990    8.72990   59.46640   51.96150   19.24500   52.42530   52.42530   16.67470   16.67470   19.24500    -999.25   86.01090    -999.25 -181.52570 -110.06900   86.01090
 7250.00000    9.36190    9.36190  302.08520  306.31620    3.26460   52.12950   52.12950   38.09910   38.09910    3.26460    -999.25   12.83180    -999.25 -134.28820  -62.79330   12.83180
 7300.00000    7.97660    7.97660  116.79320  114.56360    8.72900   59.97160   59.97160   34.45650   34.45650    8.72900    -999.25   46.14920    -999.25 -185.51490 -113.98190   46.14920
 7350.00000    9.00610    9.00610    9.96320    8.96630  111.52920   47.12730   47.12730   22.40860   22.40860  111.52920    -999.25  175.05700    -999.25 -159.57240  -88.00100  175.05700
 7400.00000    8.92800    8.92800  117.18900  118.30930    8.45260   55.67790   55.67790   42.12050   42.12050    8.45260    -999.25   15.78230    -999.25 -148.79610  -77.18670   15.78230
 7450.00000    8.79550    8.79550   81.15060   75.11450   13.31300   51.26230   51.26230   27.25390   27.25390   13.31300    -999.25   17.45760    -999.25 -120.42170  -48.77380   17.45760
 7500.00000    9.20710    9.20710   40.16390   39.18070   25.52280   56.47490   56.47490   41.58830   41.58830   25.52280    -999.25   30.73900    -999.25  -76.61140   -4.92530   30.73900
 7550.00000    9.02920    9.02920   56.74040   57.32690   17.44510   58.72970   58.72970   49.10590   49.10590   17.44510    -999.25   20.86080    -999.25  -74.16430   -2.48550   20.86080
 7600.00000   14.05490   14.05490  228.48570  232.94280    4.29290   78.69580   78.69580   82.83880   82.83880    4.29290    -999.25    5.00080    -999.25  -79.06250   -7.88110    5.00080
 7650.00000   14.29850   14.29850  211.27860  218.68430    4.57280   74.95870   74.95870   63.79120   63.79120    4.57280    -999.25    5.10670    -999.25  -78.80670   -8.11780    5.10670
 7700.00000    9.81760    9.81760   96.95150   96.82600   10.32780   63.89970   63.89970   43.35040   43.35040   10.32780    -999.25   13.03620    -999.25  -75.53250   -5.34110   13.03620
 7750.00000   10.89380   10.89380  194.48180  192.23380    5.20200   71.60200   71.60200   71.42480   71.42480    5.20200    -999.25    5.98130    -999.25  -80.22600  -10.52950    5.98130
 7800.00000   10.09120   10.09120  171.79800  165.00440    6.06040   71.24440   71.24440   69.64890   69.64890    6.06040    -999.25    6.86280    -999.25  -73.62710   -4.42310    6.86280
 7850.00000    8.96360    8.96360  168.01130  169.80240    5.88920   69.17740   69.17740   81.72310   81.72310    5.88920    -999.25    6.58650    -999.25  -81.98400  -13.27750    6.58650
 7900.00000    9.87240    9.87240  168.11620  167.28620    5.97890   67.56140   67.56140   63.87100   63.87100    5.97890    -999.25    7.87800    -999.25  -76.52490   -8.31090    7.87800
 7950.00000    8.94730    8.94730   81.26350   82.27410   12.15450   61.06070   61.06070   56.89060   56.89060   12.15450    -999.25   14.55590    -999.25  -76.05620   -8.33960   14.55590
 8000.00000   12.81630   12.81630  294.08650  316.00570    3.16450   84.55610   84.55610   86.97060   86.97060    3.16450    -999.25    3.97240    -999.25  -84.37040  -17.14880    3.97240
 8050.00000   13.36070   13.36070  234.53410  249.07170    4.01550   78.07590   78.07590   73.36970   73.36970    4.01550    -999.25    5.14150    -999.25  -75.03720   -8.30810    5.14150
 8100.00000   10.66740   10.66740  196.53320  177.10710    5.64630   78.43650   78.43650   84.73790   84.73790    5.64630    -999.25    7.14020    -999.25  -81.53720  -15.30560    7.14020
 8150.00000    9.75750    9.75750  125.51340  127.11190    7.86760   67.87760   67.87760   71.50010   71.50010    7.86760    -999.25    9.47080    -999.25  -73.86810   -8.21610    9.47080
 8200.00000    9.41380    9.41380  139.16990  138.83100    7.20300   68.06530   68.06530   76.41630   76.41630    7.20300    -999.25    8.91380    -999.25  -74.06760   -9.27050    8.91380
 8250.00000    8.76800    8.76800  131.59190  130.36960    7.67050   66.01730   66.01730   66.92270   66.92270    7.67050    -999.25    9.94720    -999.25  -68.93110   -4.98470    9.94720
 8300.00000   11.53260   11.53260  180.74360  188.41170    5.30780   74.21350   74.21350   81.64790   81.64790    5.30780    -999.25    6.28630    -999.25  -80.00740  -16.90740    6.28630
 8350.00000   12.31750   12.31750  220.31970  225.53000    4.43400   78.16150   78.16150   84.33510   84.33510    4.43400    -999.25    5.29680    -999.25  -85.72350  -23.47850    5.29680
 8400.00000    9.03160    9.03160  105.93720  103.94710    9.63150   65.01480   65.01480   67.55070   67.55070    9.63150    -999.25   11.69350    -999.25  -68.12400   -6.72540   11.69350
 8450.00000   10.67330   10.67330  190.04860  193.72710    5.16190   73.21160   73.21160   78.84670   78.84670    5.16190    -999.25    6.62780    -999.25  -76.38200  -15.83830    6.62780
 8500.00000   11.08630   11.08630    -999.25  178.76620    5.59390   72.54770   72.54770   80.45000   80.45000    5.59390    5.78970    7.19790    5.78970  -72.96260  -13.26960    7.19790
 8550.00000    9.53850    9.53850    -999.25  175.58870    5.72980   69.70600   69.70600   73.64310   73.64310    5.72980    6.46720    9.93540    6.46720  -74.55050  -15.70390    9.93540
 8600.00000    9.26010    9.26010    -999.25   81.33120   12.29540   63.91380   63.91380   64.59020   64.59020   12.29540   12.76300   14.54510   12.76300  -69.18570  -11.19410   14.54510
 8650.00000   10.19220   10.19220    -999.25   86.92950   11.51860   98.89750   98.89750  146.77340  146.77340   11.51860   12.16310   18.64110   12.16310  -65.40780   -8.26260   18.64110
 8700.00000   11.24070   11.24070    -999.25  197.78090    5.05610   76.32830   76.32830   71.44380   71.44380    5.05610    5.24060    7.17480    5.24060  -77.49260  -21.20230    7.17480
 8750.00000    8.27140    8.27140    -999.25    4.73520  211.18640   57.55470   57.55470   33.32120   33.32120  211.18640  340.08680 1255.97550  340.08680  -61.22030   -5.63120 1255.97550
 8800.00000    8.80090    8.80090    -999.25   35.66100   28.10630   60.09650   60.09650   39.32000   39.32000   28.10630   29.53710   42.85980   29.53710  -59.82520   -4.74460   42.85980
 8850.00000    8.83230    8.83230    -999.25    5.63830  177.35920   49.80730   49.80730   23.46890   23.46890  177.35920  226.37480  598.69210  226.37480  -72.98800  -18.42100  598.69210
 8900.00000    8.16840    8.16840    -999.25   65.90200   15.17510   61.12150   61.12150   52.78070   52.78070   15.17510   15.91870   20.57100   15.91870  -57.15520   -3.09660   20.57100
 8950.00000    7.89330    7.89330    -999.25   30.49870   32.78830   56.18330   56.18330   41.23410   41.23410   32.78830   34.02060   42.56680   34.02060  -58.72420   -5.17920   42.56680
 9000.00000    7.81330    7.81330    -999.25    0.76950 1299.53040   52.40250   52.40250   35.51050   35.51050 1299.53040 1459.19800  647.65810 1459.19800  -81.03420  -28.00020  647.65810
 9050.00000    7.76220    7.76220    -999.25   26.14300   38.27840   59.51630   59.51630   51.59060   51.59060   38.27840   41.18680   53.00750   41.18680  -66.59790  -14.07230   53.00750
 9100.00000    7.76970    7.76970    -999.25   19.20750   52.06300   50.74140   50.74140   15.87580   15.87580   52.06300   59.35570   94.58280   59.35570 -175.37460 -123.36260   94.58280
 9150.00000    8.21930    8.21930    -999.25   55.69800   18.02610   53.00230   53.00230   18.77970   18.77970   18.02610   25.74650   42.27460   25.74650 -153.05830 -101.55470   42.27460
 9200.00000    7.75790    7.75790    -999.25   40.77600   24.52420   57.45380   57.45380   86.34230   86.34230   24.52420   27.78630   77.45660   27.78630  -61.20460  -10.21460   77.45660
