~Version ---------------------------------------------------
VERS.      2.0 : CWLS log ASCII Standard -VERSION 2.0
WRAP.       NO : One line per depth step
CREA. 09/23/17 : LAS Creation Date
~Well ------------------------------------------------------
STRT.FT                          900.0 : START DEPTH
STOP.FT                         9150.0 : STOP DEPTH
STEP.FT                       50.00000 : STEP LENGTH
NULL.                          -999.25 : NULL VALUE
COMP.    UNO-TEX PETROLEUM CORPORATION : COMPANY
WELL. UNO-TEX ET AL BOULDER 4-31-70-19 : WELL
FLD .                                  : FIELD
LOC .                                  : LOCATION
CTRY.                           CANADA : COUNTRY
SRVC.                     Schlumberger : SERVICE COMPANY
DATE.                      14-Sep-1974 : LOGDATE
PROV.                          Alberta : PROVINCE
UWI .                 100043107019W500 : UNIQUE WELL ID
SLAT.WGS84               55.1008449393 : SURFACE LATITUDE
SLON.WGS84             -116.8929272887 : SURFACE LONGITUDE
~Curve Information -----------------------------------------
DEPT  .FT    : Depth Curve
CALSED.IN    : CALIPER FROM SONIC LOG
CALWS .IN    : CALIPER (CALSED)
CILDED.MMHO  : CONDUCTIVITY FROM LOG
CONDWS.MMHO  : CONDUCTIVITY (1000/DRESWS)
DRESWS.OHMM  : DEEP RESISTIVITY (ILDED)
DTED  .US/F  : DELTA TIME
DTWS  .US/F  : DELTA TIME (DTED)
GRSED .GAPI  : GAMMA RAY FROM SONIC LOG
GRWS  .GAPI  : GAMMA RAY (GRSED)
ILDED .OHMM  : DEEP INDUCTION RESISTIVITY
ILMED .OHMM  : MEDIUM INDUCTION RESISTIVITY
LL8ED .OHMM  : LATEROLOG-8 RESISTIVITY
MRESWS.OHMM  : MEDIUM RESISTIVITY (ILMED)
SPRED .MV    : Spontaneous Potential from Resistivity Log
SPWS  .MV    : SPONTANEOUS POTENTIAL BASELINE 0 MV (SPRED)
SRESWS.OHMM  : SHALLOW RESISTIVITY (LL8ED)
~Params ----------------------------------------------------
PD  .                     GL : PERMANENT DATUM
EPD .FT                 2502 : ELEVATION PERMANENT DATUM
LMF .                     KB : LOG MEASURED FROM
DAPD.FT                   15 : FEET ABOVE PERMANENT DATUM
EKB .FT                 2517 : KELLY BUSHING
EGL .FT                 2502 : GROUND LEVEL
DATE.               09/14/74 : RUN DATE
RUN .                      1 : RUN NUMBER
DD  .FT                 9141 : DEPTH DRILLER
DL  .FT                 9155 : DEPTH LOGGER
BLI .FT                 9149 : BOTTOM LOG INTERVAL
TLI .FT                  912 : TOP LOG INTERVAL
CBD .FT                  912 : CASING BOTTOM DRILLER
CBL .FT                  912 : CASING BOTTOM LOGGER
BS  .IN                7.875 : BIT SIZE
BSD .FT                 9141 : BIT SIZE AT DEPTH
DFT .                    GEL : DRILLING FLUID TYPE
DFD .                    9.2 : DRILLING FLUID DENSITY
DFV .                    104 : DRILLING FLUID VISCOSITY
DFPH.                    9.5 : DRILLING FLUID PH
DFL .                    7.0 : DRILLING FLUID LOSS
MSS .             CIRCULATED : MUD SAMPLE SOURCE
RMS .OHMM               1.32 : RESISTIVITY MUD SAMPLE
MST .DEGF                 60 : MUD SAMPLE TEMPERATURE
RMF .OHMM               2.14 : RESISTIVITY MUD FILTRATE SAMPLE
MFST.DEGF                 71 : MUD FILTRATE SAMPLE TEMPERATURE
RMB .OHMM               0.97 : RESISTIVITY MUD AT BHT
TCS .HRS                   9 : TIME CIRCULATED STOPPED
LUN .                   7670 : LOGGING UNIT NUMBER
LUL .                    FDM : LOGGING UNIT LOCATION
ENGI.                   WOON : RECORDING ENGINEER
WITN.                 HARRIS : WITNESSED BY
CLNT.                A2DTECH : CLIENT CODE
ORIG.            2" 5" PRINT : ORIGIN OF DATA
UWI .       100043107019W500 : UNIQUE WELL ID
DICO. A2D Technologies, Inc. : DIGITIZING COMPANY
~Other -----------------------------------------------------
~ASCII -----------------------------------------------------
  900.00000    -999.25    -999.25    -999.25    -999.25    -999.25    -999.25    -999.25   44.17160   44.17160    -999.25    -999.25    -999.25    -999.25    -999.25    -999.25    -999.25
  950.00000   11.65430   11.65430  224.77860  225.18460    4.44080  135.96770  135.96770   42.42610   42.42610    4.44080    -999.25    3.92200    -999.25  -86.44540   -9.25620    3.92200
 1000.00000   12.21160   12.21160  257.12160  223.08730    4.48260  140.00240  140.00240   46.01490   46.01490    4.48260    -999.25    3.85710    -999.25  -87.02520   -9.83600    3.85710
 1050.00000   11.51470   11.51470  223.13660  218.98130    4.56660  131.93430  131.93430   53.53490   53.53490    4.56660    -999.25    3.98240    -999.25  -85.99500   -8.80580    3.98240
 1100.00000   11.53430   11.53430  259.33140  227.32090    4.39910  147.38970  147.38970   53.34190   53.34190    4.39910    -999.25    3.83600    -999.25  -87.25020  -10.06100    3.83600
 1150.00000   10.49130   10.49130  225.64740  225.55030    4.43360  112.50590  112.50590   43.70540   43.70540    4.43360    -999.25    3.93100    -999.25  -88.50200  -11.31280    3.93100
 1200.00000   10.12380   10.12380  245.17160  217.63260    4.59490  132.54920  132.54920   50.49200   50.49200    4.59490    -999.25    3.85210    -999.25  -86.23560   -9.04640    3.85210
 1250.00000   10.86510   10.86510  180.09190  173.09810    5.77720  117.49910  117.49910   48.26730   48.26730    5.77720    -999.25    5.00100    -999.25  -87.16150   -9.97240    5.00100
 1300.00000   10.19780   10.19780  169.16940  160.89850    6.21510  108.69640  108.69640   41.72650   41.72650    6.21510    -999.25    6.30410    -999.25  -86.86230   -9.67310    6.30410
 1350.00000    9.18260    9.18260  197.76990  167.12170    5.99180  127.87430  127.87430   43.69550   43.69550    5.99180    -999.25    4.58490    -999.25  -92.49220  -15.30300    4.58490
 1400.00000   10.89470   10.89470  259.53540  218.37880    4.57920  133.68530  133.68530   54.81750   54.81750    4.57920    -999.25    3.60530    -999.25  -85.77570   -8.58650    3.60530
 1450.00000    9.80500    9.80500  149.57930  149.94530    6.66910  118.49030  118.49030   51.95210   51.95210    6.66910    -999.25    5.55580    -999.25  -86.86050   -9.67130    5.55580
 1500.00000   10.91560   10.91560  227.36400  227.22770    4.40240  133.21750  133.21750   62.23980   62.23980    4.40240    -999.25    5.07360    -999.25  -85.21410   -8.02490    5.07360
 1550.00000   13.34880   13.34880  161.12190  161.16300    6.20490  116.96270  116.96270   63.56690   63.56690    6.20490    -999.25    5.38490    -999.25  -87.41020  -10.22100    5.38490
 1600.00000   14.45760   14.45760  143.15230  143.18200    6.98450  169.62250  169.62250   63.44650   63.44650    6.98450    -999.25    5.69940    -999.25  -89.47150  -12.28230    5.69940
 1650.00000   14.40530   14.40530  178.65060  177.37100    5.63790  154.37650  154.37650   80.59850   80.59850    5.63790    -999.25    4.83570    -999.25  -89.51750  -12.32830    4.83570
 1700.00000   11.35200   11.35200  213.03340  213.26960    4.68890  134.79000  134.79000  102.17580  102.17580    4.68890    -999.25    5.71970    -999.25  -84.61940   -7.43020    5.71970
 1750.00000    9.50130    9.50130  127.16850  127.27470    7.85870  115.02730  115.02730  149.09590  149.09590    7.85870    -999.25    8.88650    -999.25  -85.55120   -8.36200    8.88650
 1800.00000   14.41840   14.41840  161.82370  161.78610    6.18100  147.52530  147.52530   61.29060   61.29060    6.18100    -999.25    5.44220    -999.25  -92.20510  -14.52260    5.44220
 1850.00000   14.37990   14.37990  168.96190  168.94180    5.91970  100.81280  100.81280   64.60660   64.60660    5.91970    -999.25    5.52940    -999.25  -94.66920  -16.10130    5.52940
 1900.00000   14.36800   14.36800  154.91110  155.00750    6.45130  165.66390  165.66390   57.23780   57.23780    6.45130    -999.25    5.29000    -999.25  -95.78410  -16.33970    5.29000
 1950.00000   14.32460   14.32460  132.45130  132.45030    7.55000  168.20300  168.20300   46.18670   46.18670    7.55000    -999.25    6.22700    -999.25  -95.43070  -15.09660    6.22700
 2000.00000    8.68690    8.68690  140.54790  140.56960    7.11530  139.47040  139.47040   87.63220   87.63220    7.11530    -999.25    6.09680    -999.25  -96.63650  -15.42580    6.09680
 2050.00000   14.36280   14.36280  138.88370  139.13430    7.18730  176.07850  176.07850   38.29750   38.29750    7.18730    -999.25    5.53970    -999.25  -98.27880  -16.19160    5.53970
 2100.00000   14.33430   14.33430  139.79050  139.86270    7.15000  166.71610  166.71610   50.76990   50.76990    7.15000    -999.25    5.39340    -999.25  -96.04620  -13.07370    5.39340
 2150.00000   14.30750   14.30750  150.19710  150.35560    6.65090  125.92980  125.92980   71.77870   71.77870    6.65090    -999.25    5.80200    -999.25  -92.20100   -8.35190    5.80200
 2200.00000   14.26120   14.26120  135.57070  143.42060    6.97250  144.80800  144.80800   77.52740   77.52740    6.97250    -999.25    6.30600    -999.25  -93.33850   -8.59970    6.30600
 2250.00000   14.27620   14.27620  176.21800  183.10490    5.46130  119.99460  119.99460   83.00430   83.00430    5.46130    -999.25    6.26010    -999.25  -92.34900   -6.73360    6.26010
 2300.00000    8.47260    8.47260  182.46920  182.50510    5.47930  114.55980  114.55980  103.31290  103.31290    5.47930    -999.25    6.06630    -999.25  -91.75430   -5.26240    6.06630
 2350.00000   11.08040   11.08040  166.32470  165.96230    6.02550  124.97540  124.97540   91.24270   91.24270    6.02550    -999.25    6.81900    -999.25  -92.40700   -5.02970    6.81900
 2400.00000   10.79080   10.79080  166.30810  166.33400    6.01200  112.43360  112.43360   92.54980   92.54980    6.01200    -999.25    6.59640    -999.25  -93.96890   -5.71510    6.59640
 2450.00000    8.84820    8.84820  164.27560  164.57110    6.07640  119.37070  119.37070  138.44470  138.44470    6.07640    -999.25    7.26690    -999.25  -94.02070   -4.87720    7.26690
 2500.00000   10.29100   10.29100  126.55350  126.61020    7.89830  104.92890  104.92890   65.91920   65.91920    7.89830    -999.25    6.83640    -999.25 -101.86730  -12.49590    6.83640
 2550.00000    9.44710    9.44710  186.60250  186.62290    5.35840  114.57600  114.57600   84.83900   84.83900    5.35840    -999.25    5.83520    -999.25  -88.76280    0.36260    5.83520
 2600.00000    9.26540    9.26540  184.90370  185.01360    5.40510  112.52120  112.52120   91.19460   91.19460    5.40510    -999.25    6.01270    -999.25  -95.94080   -7.06370    6.01270
 2650.00000    9.42650    9.42650  200.52660  200.40480    4.98990  100.20800  100.20800   85.26100   85.26100    4.98990    -999.25    5.42570    -999.25  -93.86570   -5.23460    5.42570
 2700.00000   10.04910   10.04910  256.66510  257.08260    3.88980  115.85240  115.85240   86.63070   86.63070    3.88980    -999.25    4.48280    -999.25  -93.26410   -4.88270    4.48280
 2750.00000   10.12120   10.12120  217.33090  217.09440    4.60740   98.96010   98.96010   80.83920   80.83920    4.60740    -999.25    5.25050    -999.25  -92.88240   -4.74690    5.25050
 2800.00000    8.69060    8.69060  199.17710  201.36120    4.96620  100.48040  100.48040   88.81920   88.81920    4.96620    5.33920    6.19440    5.33920  -94.05040   -6.16090    6.19440
 2850.00000    8.48140    8.48140    -999.25  254.55300    3.92860  103.98020  103.98020   90.36040   90.36040    3.92860    4.39520    4.70590    4.39520  -91.59210   -3.95100    4.70590
 2900.00000    9.61530    9.61530    -999.25  235.41040    4.24790  104.73340  104.73340   96.75490   96.75490    4.24790    4.49190    4.91040    4.49190  -92.03280   -4.57330    4.91040
 2950.00000    9.84020    9.84020    -999.25  286.78770    3.48690  106.36130  106.36130  187.73270  187.73270    3.48690    3.68200    4.07650    3.68200  -88.18950   -0.73000    4.07650
 3000.00000   10.52190   10.52190    -999.25  454.27190    2.20140  116.18990  116.18990   80.57140   80.57140    2.20140    2.35580    3.15190    2.35580  -87.22930    0.23020    3.15190
