~Version ---------------------------------------------------
VERS.      2.0 : CWLS log ASCII Standard -VERSION 2.0
WRAP.       NO : One line per depth step
CREA. 12/29/17 : LAS Creation Date
~Well ------------------------------------------------------
STRT.FT                     1350.0 : START DEPTH
STOP.FT                    12700.0 : STOP DEPTH
STEP.FT                   50.00000 : STEP LENGTH
NULL.                      -999.25 : NULL VALUE
COMP. TRANS-PRAIRIES PIPELINES LTD : COMPANY
WELL. TPPL DEEP VALLEY 11-21-64-25 : WELL
FLD .                              : FIELD
LOC .                              : LOCATION
CTRY.                       CANADA : COUNTRY
SRVC.                 Schlumberger : SERVICE COMPANY
DATE.                  04-Jan-1974 : LOGDATE
PROV.                      Alberta : PROVINCE
UWI .             100112106425W500 : UNIQUE WELL ID
SLAT.WGS84                54.55513 : SURFACE LATITUDE
SLON.WGS84               -117.7228 : SURFACE LONGITUDE
~Curve Information -----------------------------------------
DEPT    .FT    : Depth Curve
CALDED  .IN    : CALIPER FROM DENSITY LOG [ADJ. TO RESISTIVITY LOG]
CALSED  .IN    : CALIPER FROM SONIC LOG [ADJ. TO RESISTIVITY LOG]
CALWS   .IN    : CALIPER [CALSED]
CILDED  .MMHO  : CONDUCTIVITY FROM RESISTIVITY LOG
CONDWS  .MMHO  : CONDUCTIVITY [1000/DRESWS]
DCORWS  .G/C3  : DENSITY CORRECTION [DRHOED]
DENWS   .G/C3  : FORMATION BULK DENSITY [RHOBED]
DPHILSED.V/V   : DENSITY POROSITY LIMESTONE [M=2.71 F=1.00] FROM DENSITY LOG [ADJ. TO RHOBED/RESISTIVITY LOG]
DPHISSED.V/V   : DENSITY POROSITY SANDSTONE [M=2.65 F=1.00] FROM DENSITY LOG [ADJ. TO RHOBED/RESISTIVITY LOG]
DPOLSWS .V/V   : DENSITY POROSITY LIMESTONE [CALC FROM DENWS,M=2.71 F=1.00]
DRESWS  .OHMM  : DEEP RESISTIVITY [1000/CILDED IF ILDED<=5, ILDED]
DRHOED  .G/C3  : DENSITY CORRECTION FROM DENSITY LOG [ADJ. TO RESISTIVITY LOG]
DTED    .US/F  : DELTA T FROM SONIC LOG [ADJ. TO RESISTIVITY LOG]
DTWS    .US/F  : COMPRESSIONAL SONIC [DTED]
GRDED   .GAPI  : GAMMA RAY FROM DENSITY LOG [ADJ. TO RESISTIVITY LOG]
GRSED   .GAPI  : GAMMA RAY FROM SONIC LOG [ADJ. TO RESISTIVITY LOG]
GRWS    .GAPI  : GAMMA RAY [GRSED SPL. TO GRDED @ 7211']
ILDED   .OHMM  : DEEP INDUCTION FROM RESISTIVITY LOG
NPHILSED.V/V   : NEUTRON POROSITY LIMESTONE FROM DENSITY LOG [ADJ. TO RHOBED/RESISTIVITY LOG]
NPHISSED.V/V   : NEUTRON POROSITY SANDSTONE FROM DENSITY LOG [ADJ. TO RHOBED/RESISTIVITY LOG]
NPOLSWS .V/V   : NEUTRON POROSITY LIMESTONE [NPHISSED CONVERTED TO LIMESTONE MATRIX, SPL. TO NPHILSED @ 7065']
RHOBED  .G/C3  : BULK DENSITY FROM DENSITY LOG [ADJ. TO RESISTIVITY LOG]
SNED    .OHMM  : SHORT NORMAL FROM RESISTIVITY LOG
SPRED   .MV    : SPONTANEOUS POTENTIAL FROM RESISTIVITY LOG
SPWS    .MV    : SPONATENOUS POTENTIAL [BASELINE 0 MV, SPRED]
SRESWS  .OHMM  : SHALLOW RESISTIVITY [SNED]
~Params ----------------------------------------------------
PD  .                     GL : PERMANENT DATUM
EPD .FT                 2726 : ELEVATION PERMANENT DATUM
LMF .                     KB : LOG MEASURED FROM
DAPD.FT                   22 : FEET ABOVE PERMANENT DATUM
EKB .FT                 2748 : KELLY BUSHING
EDF .FT                 2726 : DRILLING FLOOR
DATE.               01/04/74 : RUN DATE
RUN .                      3 : RUN NUMBER
DD  .FT                12720 : DEPTH DRILLER
DL  .FT                12719 : DEPTH LOGGER
BLI .FT                12713 : BOTTOM LOG INTERVAL
TLI .FT                11088 : TOP LOG INTERVAL
CBD .FT                 1313 : CASING BOTTOM DRILLER
CBL .FT                 1314 : CASING BOTTOM LOGGER
BS  .IN                 8.75 : BIT SIZE
BSD .FT                12720 : BIT SIZE AT DEPTH
DFT .               GEL CHEM : DRILLING FLUID TYPE
DFD .                    9.6 : DRILLING FLUID DENSITY
DFV .                     97 : DRILLING FLUID VISCOSITY
DFL .                   10.9 : DRILLING FLUID LOSS
RMS .OHMM               2.08 : RESISTIVITY MUD SAMPLE
MST .DEGF                 50 : MUD SAMPLE TEMPERATURE
RMF .OHMM               1.51 : RESISTIVITY MUD FILTRATE SAMPLE
MFST.DEGF                 58 : MUD FILTRATE SAMPLE TEMPERATURE
RMC .OHMM               2.27 : RESISTIVITY MUD CAKE
MCST.DEGF                 52 : MUD CAKE SAMPLE TEMPERATURE
TCS .HRS                 2.5 : TIME CIRCULATED STOPPED
LUN .                   7691 : LOGGING UNIT NUMBER
LUL .                    EDM : LOGGING UNIT LOCATION
ENGI.                  LEITH : RECORDING ENGINEER
WITN.        SLOAN MCDONNELL : WITNESSED BY
CLNT.                A2DTECH : CLIENT CODE
ORIG.            2" 5" PRINT : ORIGIN OF DATA
UWI .       100112106425W500 : UNIQUE WELL ID
DICO. A2D Technologies, Inc. : DIGITIZING COMPANY
~Other -----------------------------------------------------
CNFD-IEL-BCS LOG RAN.
RUN#2: FDC ONLY TO 11088' & CNL ONLY TO 11650'
~ASCII -----------------------------------------------------
# ...
 10800.00000    8.92510    8.84390    8.84390    5.06850    2.01250    0.23270    2.74460   -0.05490    -999.25   -0.02020  496.89450    0.23270   51.28620   51.28620   19.39170    -999.25   19.39170  496.89450    0.01800    -999.25    0.01800    2.74460  158.86040   18.13700  -89.38050  158.86040
 10850.00000    9.08610    8.93170    8.93170    4.70480    2.01250    0.10610    2.69920    0.01250    -999.25    0.00630  496.89450    0.10610   50.74920   50.74920   17.47160    -999.25   17.47160  496.89450    0.01370    -999.25    0.01370    2.69920  190.85320   11.71010  -95.85010  190.85320
 10900.00000    8.78280    8.82170    8.82170   31.36880   26.77750    0.01590    2.70000    0.01250    -999.25    0.00580   37.34480    0.01590   55.26980   55.26980   29.16990    -999.25   29.16990   37.34480    0.04620    -999.25    0.04620    2.70000   43.99360   38.25830  -69.34440   43.99360
 10950.00000    8.26480    8.78190    8.78190   24.14960   20.40110    0.03510    2.70140    0.00170    -999.25    0.00500   49.01700    0.03510   58.62810   58.62810   36.82520    -999.25   36.82520   49.01700    0.07980    -999.25    0.07980    2.70140   48.01060   29.76740  -77.87800   48.01060
 11000.00000    8.72620    8.82720    8.82720   28.03350   22.15280   -0.01010    2.67150    0.02730    -999.25    0.02250   45.14110   -0.01010   59.29810   59.29810   36.02510    -999.25   36.02510   45.14110    0.07590    -999.25    0.07590    2.67150   45.28750   68.74740  -38.94050   45.28750
 11050.00000    8.71860    9.06370    9.06370   28.23020   23.00050    0.02670    2.58320    0.07430    -999.25    0.07420   43.47730    0.02670   77.87240   77.87240  126.11270    -999.25  126.11270   43.47730    0.22720    -999.25    0.22720    2.58320   43.12590   15.83170  -91.89860   43.12590
 11100.00000   10.48640    9.78490    9.78490  276.94680  276.94680    0.16870    2.49610    0.12710    -999.25    0.12510    3.61080    0.16870   76.96960   76.96960   83.65830    -999.25   83.65830    3.51200    0.28640    -999.25    0.28640    2.49610    4.79000   44.13720  -63.63580    4.79000
 11150.00000   11.40810   10.61370   10.61370  301.00610  301.00610    0.15870    2.41580    0.17910    -999.25    0.17200    3.32220    0.15870   78.41410   78.41410   73.81970    -999.25   73.81970    3.25770    0.23720    -999.25    0.23720    2.41580    4.78510   69.83040  -37.98510    4.78510
 11200.00000   15.10460   13.21260   13.21260  339.99610  339.99610    0.17120    2.17260    0.31390    -999.25    0.31430    2.94120    0.17120   84.62100   84.62100   83.18760    -999.25   83.18760    2.68670    0.38510    -999.25    0.38510    2.17260    4.00400   50.57150  -57.28670    4.00400
 11250.00000   15.05470   13.76880   13.76880  374.96270  374.96270    0.17670    2.30860    0.23530    -999.25    0.23470    2.66690    0.17670   86.41120   86.41120   77.88590    -999.25   77.88590    2.57660    0.43100    -999.25    0.43100    2.30860    3.69020   52.21380  -55.68690    3.69020
 11300.00000    8.75140    8.89490    8.89490  158.57100  163.84040    0.08720    2.70760    0.00580    -999.25    0.00140    6.10350    0.08720   66.83020   66.83020   74.46800    -999.25   74.46800    6.10350    0.15750    -999.25    0.15750    2.70760    8.84920   65.66090  -42.28220    8.84920
 11350.00000    8.87480    8.94320    8.94320  193.10060  193.10060    0.15650    2.68410    0.01870    -999.25    0.01510    5.17860    0.15650   70.31970   70.31970   74.81560    -999.25   74.81560    4.96760    0.18440    -999.25    0.18440    2.68410    7.18750   77.94080  -30.04500    7.18750
 11400.00000    8.99920    8.98880    8.98880  171.75310  178.98370    0.01760    2.69610    0.00670    -999.25    0.00820    5.58710    0.01760   69.10560   69.10560   73.18560    -999.25   73.18560    5.58710    0.17890    -999.25    0.17890    2.69610    7.88030   86.94420  -21.08410    7.88030
 11450.00000   11.39350    9.75480    9.75480  303.50490  303.50490    0.22720    2.45090    0.14650    -999.25    0.15150    3.29480    0.22720   77.30850   77.30850   75.47620    -999.25   75.47620    3.18150    0.23470    -999.25    0.23470    2.45090    4.44740   82.77290  -25.29810    4.44740
 11500.00000   10.00570    9.27550    9.27550  270.43220  270.43220    0.21940    2.58050    0.07510    -999.25    0.07570    3.69780    0.21940   77.43050   77.43050   95.42330    -999.25   95.42330    3.50230    0.23740    -999.25    0.23740    2.58050    5.12180   94.21470  -13.89880    5.12180
 11550.00000    9.00300    8.86650    8.86650  180.68590  187.85340    0.12170    2.66500    0.02380    -999.25    0.02630    5.32330    0.12170   69.38040   69.38040   76.68510    -999.25   76.68510    5.32330    0.19390    -999.25    0.19390    2.66500    8.07780   76.38270  -33.24260    8.07780
 11600.00000   11.84650   10.05960   10.05960  284.94660  284.94660    0.14270    2.56130    0.07210    -999.25    0.08700    3.50940    0.14270   83.05030   83.05030   93.46480    -999.25   93.46480    3.34340    0.27650    -999.25    0.27650    2.56130    5.02940   70.52940  -40.71090    5.02940
 11650.00000    8.77460    8.90000    8.90000   20.60250   22.27880    0.04740    2.56340    0.09030    -999.25    0.08570   44.88570    0.04740   79.61190   79.61190  121.24320    -999.25  121.24320   44.88570    0.20590    -999.25    0.20590    2.56340   59.99310   78.98450  -33.86020   59.99310
 11700.00000    8.46890    8.83490    8.83490   23.34140   25.39210    0.01220    2.70550    0.00280    -999.25    0.00260   39.38230    0.01220   57.08510   57.08510   42.01280    -999.25   42.01280   39.38230    0.06860    -999.25    0.06860    2.70550   48.76320   66.57100  -47.88860   48.76320
 11750.00000    8.36810    8.80100    8.80100    6.98060    3.61620    0.00220    2.69670    0.00990    -999.25    0.00780  276.53280    0.00220   52.53180   52.53180   20.97210    -999.25   20.97210  276.53280    0.02490    -999.25    0.02490    2.69670  362.70800   68.25760  -47.80640  362.70800
 11800.00000    8.68280    8.90970    8.90970    5.25530    3.99980    0.05290    2.71290    0.00170    -999.25   -0.00170  250.01260    0.05290   51.26280   51.26280   24.66230    -999.25   24.66230  250.01260    0.03780    -999.25    0.03780    2.71290  247.56740   69.55530  -48.11310  247.56740
 11850.00000    8.65950    8.96920    8.96920   45.66620   48.60480    0.09400    2.72000   -0.00820    -999.25   -0.00580   20.57410    0.09400   61.72460   61.72460   70.26830    -999.25   70.26830   20.57410    0.13030    -999.25    0.13030    2.72000   26.67640   90.89680  -28.38650   26.67640
 11900.00000   11.33420    9.51970    9.51970    1.63850    1.99950    0.23070    2.51330    0.12600    -999.25    0.11500  500.13140    0.23070   50.35160   50.35160    8.21450    -999.25    8.21450  500.13140    0.02750    -999.25    0.02750    2.51330  581.16060   53.91010  -66.97760  581.16060
 11950.00000   11.61870    9.53620    9.53620    3.45890    2.01250    0.22520    2.32320    0.23820    -999.25    0.22620  496.89450    0.22520   48.84380   48.84380    5.02120    -999.25    5.02120  496.89450    0.00730    -999.25    0.00730    2.32320  666.63480    8.28260 -114.22000  666.63480
 12000.00000    9.44710    9.22100    9.22100    2.31830    2.01250    0.22720    2.40660    0.16460    -999.25    0.17740  496.89450    0.22720   50.98190   50.98190   15.78570    -999.25   15.78570  496.89450    0.00540    -999.25    0.00540    2.40660  666.63480   37.63190  -86.47510  666.63480
 12050.00000    7.61160    8.02180    8.02180  512.67560  512.67560    0.11250    2.43870    0.15630    -999.25    0.15870    1.95060    0.11250   69.12320   69.12320   73.55500    -999.25   73.55500    1.93390    0.12160    -999.25    0.12160    2.43870   18.02380  -53.66930 -179.38070   18.02380
 12100.00000    9.05180   10.18670   10.18670   35.05680   36.04990    0.11740    2.61760    0.05550    -999.25    0.05400   27.73930    0.11740   68.77450   68.77450  128.16310    -999.25  128.16310   27.73930    0.25020    -999.25    0.25020    2.61760   35.59360   30.22950  -97.09680   35.59360
