~Version ---------------------------------------------------
VERS.      2.0 : CWLS log ASCII Standard -VERSION 2.0
WRAP.       NO : One line per depth step
CREA. 08/01/17 : LAS Creation Date
~Well ------------------------------------------------------
STRT.FT                       300.0 : START DEPTH
STOP.FT                     11500.0 : STOP DEPTH
STEP.FT                    50.00000 : STEP LENGTH
NULL.                       -999.25 : NULL VALUE
COMP.          MOBIL OIL CANADA LTD : COMPANY
WELL. MOBIL ET AL NE PINE 6-9-59-18 : WELL
FLD .                    CLARK LAKE : FIELD
LOC .                               : LOCATION
CTRY.                        CANADA : COUNTRY
SRVC.                  Schlumberger : SERVICE COMPANY
DATE.                   18-Jul-1968 : LOGDATE
PROV.                       Alberta : PROVINCE
UWI .              100060905918W500 : UNIQUE WELL ID
SLAT.WGS84                 54.08428 : SURFACE LATITUDE
SLON.WGS84                -116.6419 : SURFACE LONGITUDE
~Curve Information -----------------------------------------
DEPT  .FT    : Depth Curve
CALSED.IN    : CALIPER FROM SONIC LOG
CALWS .IN    : CALIPER [CALSED]
CILDED.MMHO  : CONDUCTIVITY FROM RESISTIVITY LOG
CONDWS.MMHO  : CONDUCTIVITY [1000/DRESWS]
DRESWS.OHMM  : DEEP RESISTIVITY [ILDED]
DTED  .US/F  : DELTA TIME FROM SONIC LOG
DTWS  .US/F  : DELTA TIME [DTED]
GRSED .GAPI  : GAMMA RAY FROM SONIC LOG
GRWS  .GAPI  : GAMMA RAY [GRSED]
ILDED .OHMM  : INDUCTION LOG DEEP RESISTIVITY
SNED  .OHMM  : 16 INCH SHORT NORMAL RESISTIVITY FROM IEL
SPRED .MV    : SPONTANEOUS POTENTIAL FROM RESISTIVITY LOG
SPWS  .MV    : SPONTANEOUS POTENTIAL [BASELINE 0 MV] [SPRED]
SRESWS.OHMM  : SHALLOW RESISTIVITY [SNED]
~Params ----------------------------------------------------
PD  .                     GL : PERMANENT DATUM
EPD .FT               3509.9 : ELEVATION PERMANENT DATUM
LMF .                     KB : LOG MEASURED FROM
DAPD.FT                16.06 : FEET ABOVE PERMANENT DATUM
EKB .FT              3525.96 : KELLY BUSHING
EGL .FT               3509.9 : GROUND LEVEL
DATE.               07/18/68 : RUN DATE
RUN .                      1 : RUN NUMBER
DD  .FT                11521 : DEPTH DRILLER
DL  .FT                11510 : DEPTH LOGGER
BLI .FT                11510 : BOTTOM LOG INTERVAL
TLI .FT                 1200 : TOP LOG INTERVAL
CBL .FT                 1215 : CASING BOTTOM LOGGER
BS  .IN                 8.75 : BIT SIZE
BSD .FT                11521 : BIT SIZE AT DEPTH
DFT .                    GEL : DRILLING FLUID TYPE
DFD .                   10.2 : DRILLING FLUID DENSITY
DFV .                     95 : DRILLING FLUID VISCOSITY
DFPH.                   10.5 : DRILLING FLUID PH
DFL .                      6 : DRILLING FLUID LOSS
RMS .OHMM               1.18 : RESISTIVITY MUD SAMPLE
MST .DEGF                 58 : MUD SAMPLE TEMPERATURE
RMF .OHMM              0.693 : RESISTIVITY MUD FILTRATE SAMPLE
MFST.DEGF                 60 : MUD FILTRATE SAMPLE TEMPERATURE
RMC .OHMM                1.4 : RESISTIVITY MUD CAKE
MCST.DEGF                 59 : MUD CAKE SAMPLE TEMPERATURE
RMB .OHMM               0.39 : RESISTIVITY MUD AT BHT
TCS .HRS                   3 : TIME CIRCULATED STOPPED
LUN .                   7501 : LOGGING UNIT NUMBER
LUL .                    EDM : LOGGING UNIT LOCATION
ENGI.               STUEHMER : RECORDING ENGINEER
WITN.                   HELM : WITNESSED BY
CLNT.                A2DTECH : CLIENT CODE
ORIG.            2" 5" PRINT : ORIGIN OF DATA
UWI .       100060905918W500 : UNIQUE WELL ID
DICO. A2D Technologies, Inc. : DIGITIZING COMPANY
~Other -----------------------------------------------------
~ASCII -----------------------------------------------------
# ...
 5200.00000   11.79520   11.79520   97.76970   93.26880   10.72170   81.67520   81.67520   70.59840   70.59840   10.72170   10.10910  -84.54100   -4.17700   10.10910
 5250.00000   11.68240   11.68240  135.41060  139.72330    7.15700   85.49680   85.49680   82.70620   82.70620    7.15700    7.79070  -84.64560   -4.55600    7.79070
 5300.00000   11.72060   11.72060  123.53340  128.80440    7.76420   88.32850   88.32850   84.58910   84.58910    7.76420    8.48330  -81.31500   -1.49840    8.48330
 5350.00000   11.73240   11.73240  139.49620  132.28740    7.55930   89.76750   89.76750   84.79110   84.79110    7.55930    6.90560  -81.13240   -1.59150    6.90560
 5400.00000   11.45700   11.45700  127.93380  116.74740    8.56550   86.94190   86.94190   82.88570   82.88570    8.56550    7.76660  -80.81370   -1.54960    7.76660
 5450.00000    9.74860    9.74860   65.29090   64.15070   15.58830   83.55370   83.55370   53.45950   53.45950   15.58830   17.08970 -106.00990  -27.05390   17.08970
 5500.00000   11.64280   11.64280   78.41110   75.47060   13.25020   76.17670   76.17670   74.68460   74.68460   13.25020   12.72750  -83.31110   -4.66320   12.72750
 5550.00000   11.87030   11.87030  109.98360  104.65480    9.55590   78.73330   78.73330   85.60970   85.60970    9.55590    8.88270  -80.60150   -2.26020    8.88270
 5600.00000   11.91440   11.91440  110.91240  106.93360    9.35160   79.00910   79.00910   83.89000   83.89000    9.35160    8.85430  -80.38050   -2.34880    8.85430
 5650.00000   11.19640   11.19640  105.53440  102.76860    9.73060   81.48540   81.48540   87.06530   87.06530    9.73060    9.60780  -80.81460   -3.09100    9.60780
 5700.00000   11.37730   11.37730  129.48670  130.01870    7.69120   83.86930   83.86930   84.67030   84.67030    7.69120    8.26670  -81.06690   -3.65140    8.26670
 5750.00000   11.53320   11.53320  122.39630  121.57020    8.22570   88.39880   88.39880   87.43120   87.43120    8.22570    9.01220  -80.63900   -3.53160    9.01220
 5800.00000   11.04750   11.04750  108.50040  111.69360    8.95340   93.91740   93.91740   82.78530   82.78530    8.95340    9.58510  -79.30750   -2.50660    9.58510
 5850.00000   10.34410   10.34410   92.87440   89.78760   11.13740   89.20120   89.20120   98.27840   98.27840   11.13740   12.34250  -79.98360   -3.49240   12.34250
 5900.00000   10.35290   10.35290  109.00180  108.36000    9.22850   90.82310   90.82310   88.53380   88.53380    9.22850   10.88210  -78.80110   -2.61800   10.88210
 5950.00000    9.98900    9.98900   70.87730   69.78610   14.32950   89.34130   89.34130  106.13970  106.13970   14.32950   19.24240  -77.96560   -2.09060   19.24240
 6000.00000   10.13930   10.13930   81.54170   79.20850   12.62490   90.04890   90.04890   98.80820   98.80820   12.62490   15.33970  -77.37700   -1.81010   15.33970
 6050.00000    9.98270    9.98270   51.70290   49.84910   20.09810   83.16880   83.16880   96.62770   96.62770   20.09810   22.48680  -78.80820   -3.54780   22.48680
 6100.00000   11.95600   11.95600  126.34190  122.67980    8.15130   91.86530   91.86530   86.87410   86.87410    8.15130    9.88550  -76.46300   -1.57100    9.88550
 6150.00000   10.67010   10.67010   86.99680   85.81780   11.65260   84.91440   84.91440   85.88080   85.88080   11.65260   14.57560  -77.65210   -3.43510   14.57560
 6200.00000   11.19720   11.19720  131.22700  124.21590    8.05050   84.41710   84.41710   83.74470   83.74470    8.05050    8.85210  -76.30020   -2.75820    8.85210
 6250.00000   10.97580   10.97580  117.28730  113.47390    8.81260   78.48060   78.48060   74.71710   74.71710    8.81260    9.90610  -75.81840   -2.95140    9.90610
 6300.00000   10.96020   10.96020   98.43890   96.35210   10.37880   87.42950   87.42950   94.14750   94.14750   10.37880   11.29730  -75.96670   -3.77130   11.29730
 6350.00000   11.30330   11.30330  122.62340  121.85020    8.20680   83.81740   83.81740   85.83420   85.83420    8.20680    9.29720  -74.84440   -3.32750    9.29720
 6400.00000   11.90360   11.90360  111.66890  109.54700    9.12850   87.11340   87.11340   83.67830   83.67830    9.12850    9.83080  -74.32200   -3.48010    9.83080
 6450.00000   12.42850   12.42850  157.24490  158.91430    6.29270   86.91210   86.91210   81.54000   81.54000    6.29270    6.93310  -73.29090   -3.12400    6.93310
 6500.00000   14.44240   14.44240  151.38670  151.94340    6.58140   91.89360   91.89360  100.25540  100.25540    6.58140    6.97110  -72.57930   -3.08740    6.97110
 6550.00000   12.74410   12.74410  343.68430  350.42890    2.85370   95.95560   95.95560   79.11130   79.11130    2.85370    3.77930  -72.94650   -4.12630    3.77930
 6600.00000   10.81950   10.81950  271.26330  283.45470    3.52790   95.43260   95.43260   88.91680   88.91680    3.52790    4.22750  -72.81880   -4.67690    4.22750
 6650.00000   12.30750   12.30750  158.02870  157.06480    6.36680   88.90920   88.90920   69.10240   69.10240    6.36680    5.92370  -70.67070   -3.20380    5.92370
 6700.00000   10.04460   10.04460   52.84230   51.54050   19.40220   68.59880   68.59880   45.81650   45.81650   19.40220   23.47670 -101.47190  -34.61610   23.47670
 6750.00000   11.24420   11.24420   87.95020   86.65060   11.54060  121.53410  121.53410   72.33710   72.33710   11.54060   12.34050  -71.96020   -5.65640   12.34050
 6800.00000   10.36540   10.36540   61.90420   58.96540   17.00830   69.06660   69.06660   38.25230   38.25230   17.00830   18.37800  -72.94580   -7.19130   18.37800
 6850.00000   10.38250   10.38250   57.47350   54.37470   18.39090   72.83870   72.83870   53.21770   53.21770   18.39090   20.94170  -80.24270  -15.04290   20.94170
 6900.00000   10.03700   10.03700   62.74480   60.36280   16.56650  111.32440  111.32440   56.54860   56.54860   16.56650   15.43890  -71.29360   -6.64580   15.43890
 6950.00000   10.04020   10.04020   80.19740   76.81490   13.01830   86.68120   86.68120   58.66470   58.66470   13.01830   14.03090  -69.99700   -5.90120   14.03090
 7000.00000   11.10500   11.10500  110.04010  107.79110    9.27720  110.36830  110.36830   69.52170   69.52170    9.27720   15.49600  -66.37900   -2.86250   15.49600
 7050.00000   10.01510   10.01510   82.05790   79.41860   12.59840   76.21740   76.21740   61.01970   61.01970   12.59840   15.45620  -69.35510   -6.93210   15.45620
 7100.00000   12.88880   12.88880   61.94590   58.41630   17.11850  101.25660  101.25660   44.33430   44.33430   17.11850   24.90550  -66.72610   -5.40740   24.90550
 7150.00000   10.30900   10.30900   70.51350   67.59360   14.79430   85.14860   85.14860   74.49920   74.49920   14.79430   13.63470  -67.46690   -7.24710   13.63470
 7200.00000   10.20420   10.20420   91.10910   88.19040   11.33910   71.82620   71.82620   55.07400   55.07400   11.33910   15.09570  -69.12030   -9.99940   15.09570
 7250.00000   12.78120   12.78120   90.24840   86.27230   11.59120   87.35370   87.35370   62.34140   62.34140   11.59120   18.48610  -67.09370   -9.07170   18.48610
 7300.00000   10.68160   10.68160   96.88670   94.68680   10.56170   76.03790   76.03790   73.58070   73.58070   10.56170   12.51640  -63.65670   -6.72820   12.51640
 7350.00000   10.08810   10.08810   89.53260   86.39380   11.57490   75.88340   75.88340   74.53600   74.53600   11.57490   14.94270  -67.45960  -11.63540   14.94270
 7400.00000   11.74570   11.74570  116.75390  115.46940    8.66030   72.07270   72.07270   72.27160   72.27160    8.66030    9.34540  -57.41820   -2.69290    9.34540
 7450.00000   11.21920   11.21920   95.39650   91.25420   10.95840   80.14560   80.14560   63.51210   63.51210   10.95840   12.50260  -55.67330   -2.04690   12.50260
 7500.00000    9.61790    9.61790   21.96170   19.85830   50.35680   77.24140   77.24140   30.65580   30.65580   50.35680   41.78420  -80.34580  -27.81830   41.78420
 7550.00000    9.98890    9.98890   87.09870   84.30450   11.86210   67.65590   67.65590   81.39410   81.39410   11.86210   15.76040  -53.16100   -1.72700   15.76040
 7600.00000    8.73540    8.73540   47.12400   45.43370   22.01010   75.95410   75.95410   20.52880   20.52880   22.01010   23.15400 -117.98980  -70.95680   23.15400
