~Version ---------------------------------------------------
VERS.      2.0 : CWLS log ASCII Standard -VERSION 2.0
WRAP.       NO : One line per depth step
CREA. 12/18/17 : LAS Creation Date
~Well ------------------------------------------------------
STRT.FT                        1150.0 : START DEPTH
STOP.FT                       11350.0 : STOP DEPTH
STEP.FT                      50.00000 : STEP LENGTH
NULL.                         -999.25 : NULL VALUE
COMP.   THE ATLANTIC REFINING COMPANY : COMPANY
WELL. ATLANTIC ANTE CREEK 10-18-65-23 : WELL
FLD .                                 : FIELD
LOC .                                 : LOCATION
CTRY.                          CANADA : COUNTRY
SRVC.                    Schlumberger : SERVICE COMPANY
DATE.                     05-Jan-1963 : LOGDATE
PROV.                         Alberta : PROVINCE
UWI .                100101806523W500 : UNIQUE WELL ID
SLAT.WGS84                     54.627 : SURFACE LATITUDE
SLON.WGS84                  -117.4631 : SURFACE LONGITUDE
~Curve Information -----------------------------------------
DEPT  .FT    : Depth Curve
CALWS .IN    : CALIPER [MCALED]
CILDED.MMHO  : CONDUCTIVITY FROM RESISTIVITY LOG
CONDWS.MMHO  : CONDUCTIVITY [1000/DRESWS]
DRESWS.OHMM  : DEEP RESISTIVITY [1000/CILDED IF ILDED <=5, ILDED]
DT1ED .US/F  : DELTA-T 1' SPAN FROM SONIC LOG [ADJ.TO DTED]
DTED  .US/F  : DELTA-T 3' SPAN FROM SONIC LOG
DTWS  .US/F  : COMPRESSIONAL SONIC [DTED]
GRNED .GAPI  : GAMMA RAY FROM GRN LOG [ADJ.TO RESISTIVITY LOG]
GRSED .GAPI  : GAMMA RAY FROM SONIC LOG
GRWS  .GAPI  : GAMMA RAY [GRSED]
ILDED .OHMM  : DEEP INDUCTION FROM RESISTIVITY LOG
MCALED.IN    : MICRO CALIPER FROM MICRO LOG
NEUTED.NAPI  : NEUTRON FROM GRN LOG [ADJ.TO RESISTIVITY LOG]
NEUTWS.NAPI  : NEUTRON [NEUTED]
SNED  .OHMM  : SHORT NORMAL 16" FROM RESISTIVITY LOG
SPRED .MV    : SPONTANEOUS POTENTIAL FROM RESISTIVITY LOG
SPWS  .MV    : SPONTANEOUS POTENTIAL [BASELINE 0 MV, SPRED]
SRESWS.OHMM  : SHALLOW RESISTIVITY [SNED]
~Params ----------------------------------------------------
PD  .                     GL : PERMANENT DATUM
EPD .FT                 2763 : ELEVATION PERMANENT DATUM
LMF .                     KB : LOG MEASURED FROM
DAPD.FT                 14.5 : FEET ABOVE PERMANENT DATUM
EKB .FT               2777.5 : KELLY BUSHING
EGL .FT                 2763 : GROUND LEVEL
DATE.               01/05/63 : RUN DATE
RUN .                      1 : RUN NUMBER
DD  .FT                11380 : DEPTH DRILLER
DL  .FT                11362 : DEPTH LOGGER
BLI .FT                11361 : BOTTOM LOG INTERVAL
TLI .FT                 1166 : TOP LOG INTERVAL
CBD .FT                 1175 : CASING BOTTOM DRILLER
CBL .FT                 1166 : CASING BOTTOM LOGGER
BS  .IN                8.625 : BIT SIZE
BSD .FT                11380 : BIT SIZE AT DEPTH
DFT .               GEL CHEM : DRILLING FLUID TYPE
DFD .                    9.8 : DRILLING FLUID DENSITY
DFV .                     80 : DRILLING FLUID VISCOSITY
DFPH.                    9.5 : DRILLING FLUID PH
DFL .                      7 : DRILLING FLUID LOSS
RMS .OHMM                2.7 : RESISTIVITY MUD SAMPLE
MST .DEGF                 67 : MUD SAMPLE TEMPERATURE
RMF .OHMM                1.9 : RESISTIVITY MUD FILTRATE SAMPLE
MFST.DEGF                 82 : MUD FILTRATE SAMPLE TEMPERATURE
RMC .OHMM               2.41 : RESISTIVITY MUD CAKE
MCST.DEGF                 82 : MUD CAKE SAMPLE TEMPERATURE
RMB .OHMM               0.95 : RESISTIVITY MUD AT BHT
TCS .HRS                   3 : TIME CIRCULATED STOPPED
LUN .                   3534 : LOGGING UNIT NUMBER
LUL .                    WCT : LOGGING UNIT LOCATION
ENGI.                  MILLS : RECORDING ENGINEER
WITN.        HARTWELL RAMSEY : WITNESSED BY
CLNT.                A2DTECH : CLIENT CODE
ORIG.            2" 5" PRINT : ORIGIN OF DATA
UWI .       100101806523W500 : UNIQUE WELL ID
DICO. A2D Technologies, Inc. : DIGITIZING COMPANY
~Other -----------------------------------------------------
IEL-ML-SONIC-GRN LOG RUN.
ALL CURVE FROM IEL LOG DIG IN 2" SCALE @ TOP TO 3438'
ALL CURVE FROM SONIC LOG DIG IN 2" SCALE @ TOP TO 3438'
MCALED DIG IN 2" SCALE @ TOP TO 3488'
~ASCII -----------------------------------------------------
# ...
 7000.00000   10.43980   31.36490   28.21560   35.44140    -999.25   63.93770   63.93770   56.61750   68.28560   68.28560   35.44140   10.43980    -999.25    -999.25   40.09460  -55.16250  -13.22020   40.09460
 7050.00000    9.96420   28.44360   26.23870   38.11160    -999.25   62.46520   62.46520   52.38740   67.44700   67.44700   38.11160    9.96420    -999.25    -999.25   42.95780  -50.82660   -8.60120   42.95780
 7100.00000    9.84410   34.25720   32.17510   31.07990    -999.25   62.76830   62.76830   59.11720   71.67890   71.67890   31.07990    9.84410    -999.25    -999.25   35.02320  -50.90550   -8.39710   35.02320
 7150.00000    9.97570   36.75380   34.65660   28.85450    -999.25   63.89380   63.89380   56.32040   67.70330   67.70330   28.85450    9.97570    -999.25    -999.25   30.82450  -62.15800  -19.36650   30.82450
 7200.00000   10.49110   31.64110   30.03980   33.28920    -999.25   63.48120   63.48120   54.19720   72.39720   72.39720   33.28920   10.49110    -999.25    -999.25   34.24890  -46.55770   -3.48310   34.24890
 7250.00000   10.45530   20.89000   18.82930   53.10860    -999.25   54.71970   54.71970   10.40580   17.53680   17.53680   53.10860   10.45530    -999.25    -999.25   50.03170 -110.35980  -67.00220   50.03170
 7300.00000    7.85130  475.73180  475.73180    2.10200    -999.25   64.01620   64.01620   20.35230   33.73360   33.73360    2.38450    7.85130    -999.25    -999.25   24.79420 -180.68480 -134.14190   24.79420
 7350.00000   11.44630   36.76600   34.85400   28.69110    -999.25   46.60710   46.60710   32.98440   40.07540   40.07540   28.69110   11.44630    -999.25    -999.25   35.52460  -97.68400  -47.27500   35.52460
 7400.00000   10.11060   13.98780    9.71260  102.95940    -999.25   49.10910   49.10910   15.58520   20.90460   20.90460  102.95940   10.11060    -999.25    -999.25   80.34900  -96.41120  -42.13610   80.34900
 7450.00000    9.40830   10.73570    6.05880  165.04820    -999.25   45.80880   45.80880    -999.25   24.62900   24.62900  165.04820    9.40830    -999.25    -999.25  136.27330 -113.15590  -55.01470  136.27330
 7500.00000    9.71900   24.63050   20.59240   48.56160    -999.25   49.46720   49.46720    -999.25   41.37910   41.37910   48.56160    9.71900    -999.25    -999.25   71.48000 -106.75490  -49.06260   71.48000
 7550.00000    8.98280   65.96410   59.86450   16.70440    -999.25   52.94240   52.94240    -999.25   22.84090   22.84090   16.70440    8.98280    -999.25    -999.25   73.48520 -167.00700 -115.03750   73.48520
 7600.00000   11.07210   51.61150   49.24680   20.30590    -999.25   50.64580   50.64580    -999.25   16.50350   16.50350   20.30590   11.07210    -999.25    -999.25   36.88390 -109.25330  -63.00660   36.88390
 7650.00000    8.62190  404.61260  404.61260    2.47150    -999.25   66.31710   66.31710    -999.25   36.87160   36.87160    3.09680    8.62190    -999.25    -999.25   18.26450 -173.99900 -133.80110   18.26450
 7700.00000    9.58450  112.53530  114.88840    8.70410    -999.25   62.92490   62.92490    -999.25   16.52220   16.52220    8.70410    9.58450    -999.25    -999.25   48.20570 -162.13740 -128.09700   48.20570
 7750.00000    9.90730   60.87880   64.14120   15.59060    -999.25   61.96630   61.96630    -999.25   47.11090   47.11090   15.59060    9.90730    -999.25    -999.25   39.33240  -71.53930  -43.65640   39.33240
 7800.00000   11.59020   16.54230   20.04150   49.89640    -999.25   52.14080   52.14080    -999.25   27.34740   27.34740   49.89640   11.59020    -999.25    -999.25   59.93610  -61.08710  -38.66920   59.93610
 7850.00000    8.59420  116.83790  109.26330    9.15220    -999.25   57.06110   57.06110    -999.25   28.88510   28.88510    9.15220    8.59420    -999.25    -999.25   37.86110 -140.40230 -117.21690   37.86110
 7900.00000   10.20890  124.60370  107.50260    9.30210    -999.25   54.77020   54.77020    -999.25   22.32560   22.32560    9.30210   10.20890    -999.25    -999.25   20.15490  -90.54430  -66.59130   20.15490
 7950.00000    9.95600   24.03190   21.09380   47.40740    -999.25   54.43330   54.43330    -999.25   44.24870   44.24870   47.40740    9.95600    -999.25    -999.25   48.18790  -72.05500  -47.33440   48.18790
 8000.00000   10.36460  118.18530   93.05100   10.74680    -999.25   58.10930   58.10930    -999.25   52.68790   52.68790   10.74680   10.36460    -999.25    -999.25   27.27610  -82.24140  -56.75320   27.27610
 8050.00000   12.73990    7.17330    3.25840  306.89870    -999.25   47.87350   47.87350    -999.25   14.49220   14.49220  306.89870   12.73990    -999.25    -999.25  208.12080 -103.70340  -77.44760  208.12080
 8100.00000   12.71790   13.31610    8.06510  123.99120    -999.25   48.84780   48.84780    -999.25   15.75490   15.75490  123.99120   12.71790    -999.25    -999.25  144.14570 -137.51840 -110.49500  144.14570
 8150.00000   10.12740   24.43590   21.18250   47.20880    -999.25   50.94830   50.94830    -999.25   13.51980   13.51980   47.20880   10.12740    -999.25    -999.25  103.69170 -128.84400 -101.05300  103.69170
 8200.00000    9.43080   92.40480   79.97570   12.50380    -999.25   59.38480   59.38480    -999.25   59.78220   59.78220   12.50380    9.43080    -999.25    -999.25   24.38730  -56.75230  -28.19370   24.38730
 8250.00000    9.66220  206.92150  185.57350    5.38870    -999.25   59.67090   59.67090    -999.25   42.31060   42.31060    5.38870    9.66220    -999.25    -999.25    9.42940  -67.04970  -37.72350    9.42940
 8300.00000    9.64940   74.74200   69.65830   14.35580    -999.25   54.47170   54.47170    -999.25   33.92510   33.92510   14.35580    9.64940    -999.25    -999.25   29.77670  -49.75040  -19.65660   29.77670
 8350.00000   10.23910   46.87780   47.67880   20.97370    -999.25   60.93490   60.93490    -999.25   46.53300   46.53300   20.97370   10.23910    -999.25    -999.25   32.21080  -40.82500   -9.48320   32.21080
 8400.00000    9.97420    7.67760    6.35350  157.39290    -999.25   50.59470   50.59470    -999.25   15.07360   15.07360  157.39290    9.97420    -999.25    -999.25   93.36000  -51.27460  -15.16100   93.36000
 8450.00000    9.26890   13.82370   12.15440   82.27470    -999.25   53.89220   53.89220    -999.25   31.30650   31.30650   82.27470    9.26890    -999.25    -999.25   76.28450  -67.30260  -26.41730   76.28450
 8500.00000    9.97740   16.56360   16.53050   60.49420    -999.25   51.56350   51.56350    -999.25   20.52420   20.52420   60.49420    9.97740    -999.25    -999.25   44.96450  -67.43670  -21.77960   44.96450
 8550.00000    9.11120    8.45830    6.04190  165.51170    -999.25   53.58820   53.58820    -999.25   25.98680   25.98680  165.51170    9.11120    -999.25    -999.25  124.89260  -77.22530  -26.79650  124.89260
 8600.00000    9.03990   13.57170   11.26760   88.74980    -999.25   54.14480   54.14480    -999.25   40.11120   40.11120   88.74980    9.03990    -999.25    -999.25   76.09280  -76.88420  -21.68360   76.09280
 8650.00000    9.10740   14.85970   11.67900   85.62360    -999.25   53.17210   53.17210    -999.25   29.61820   29.61820   85.62360    9.10740    -999.25    -999.25   81.88470  -79.99450  -20.02220   81.88470
 8700.00000    9.11750   11.27600    5.99460  166.81760    -999.25   53.51910   53.51910    -999.25   29.76380   29.76380  166.81760    9.11750    -999.25    -999.25  114.78570  -84.49600  -19.75190  114.78570
 8750.00000    9.25150   21.85100   20.69910   48.31120    -999.25   60.64870   60.64870    -999.25   41.42460   41.42460   48.31120    9.25150    -999.25    -999.25   53.26570  -76.35280   -6.83700   53.26570
 8800.00000    9.19040   13.38180   12.48400   80.10240    -999.25   57.38390   57.38390    -999.25   38.62720   38.62720   80.10240    9.19040    -999.25    -999.25   67.24930  -77.80280   -3.51520   67.24930
 8850.00000   10.49620   59.71440   65.56560   15.25190    -999.25   82.89880   82.89880    -999.25  192.02760  192.02760   15.25190   10.49620    -999.25    -999.25   30.71950  -81.47500   -5.75590   30.71950
 8900.00000   11.83050    2.94870    2.00000  500.00000    -999.25   50.74070   50.74070    -999.25   16.70010   16.70010  500.00000   11.83050    -999.25    -999.25  281.78170  -99.90090  -25.34400  281.78170
