~Version ---------------------------------------------------
VERS.      2.0 : CWLS log ASCII Standard -VERSION 2.0
WRAP.       NO : One line per depth step
CREA. 11/21/17 : LAS Creation Date
~Well ------------------------------------------------------
STRT.FT                       1200.0 : START DEPTH
STOP.FT                      11400.0 : STOP DEPTH
STEP.FT                     50.00000 : STEP LENGTH
NULL.                        -999.25 : NULL VALUE
COMP.  THE ATLANTIC REFINING COMPANY : COMPANY
WELL. ATLANTIC ANTE CREEK 4-18-65-23 : WELL
FLD .                                : FIELD
LOC .                                : LOCATION
CTRY.                         CANADA : COUNTRY
SRVC.                   Schlumberger : SERVICE COMPANY
DATE.                    22-Mar-1963 : LOGDATE
PROV.                        Alberta : PROVINCE
UWI .               100041806523W500 : UNIQUE WELL ID
SLAT.WGS84                  54.61968 : SURFACE LATITUDE
SLON.WGS84                 -117.4756 : SURFACE LONGITUDE
~Curve Information -----------------------------------------
DEPT  .FT    : Depth Curve
CALMED.IN    : CALIPER FROM MICROLOG
CALWS .IN    : CALIPER [CALMED]
CILDED.MMHO  : CONDUCTIVITY FROM RESISTIVITY LOG
CONDWS.MMHO  : CONDUCTIVITY [1000/DRESWS]
DRESWS.OHMM  : DEEP RESISTIVITY [ILDED]
DTED  .US/F  : DELTA-T FROM SONIC LOG
DTWS  .US/F  : COMPRESSIONAL SONIC [DTED]
GRSED .GAPI  : GAMMA RAY FROM SONIC LOG
GRWS  .GAPI  : GAMMA RAY [GRSED]
ILDED .OHMM  : DEEP INDUCTION RESISTIVITY FROM RESISTIVITY LOG
NEUTED.NAPI  : NEUTRON FROM NEUTRON LOG
NEUTWS.NAPI  : NEUTRON [NEUTED]
SIGMED.CU    : NEUTRON CAPTURE CROSS SECTION FROM TDT LOG
SNED  .OHMM  : 16 INCH SHORT NORMAL RESISTIVITY FROM RESISTIVITY LOG
SPRED .MV    : SPONTANEOUS POTENTIAL FROM RESISTIVITY LOG
SPWS  .MV    : SPONTANEOUS POTENTIAL [BASELINE 0 MV,SPRED]
SRESWS.OHMM  : SHALLOW RESISTIVITY [SNED]
~Params ----------------------------------------------------
PD  .                     GL : PERMANENT DATUM
EPD .FT                 2813 : ELEVATION PERMANENT DATUM
LMF .                     KB : LOG MEASURED FROM
DAPD.FT                   14 : FEET ABOVE PERMANENT DATUM
EKB .FT                 2827 : KELLY BUSHING
EGL .FT                 2813 : GROUND LEVEL
DATE.               03/22/63 : RUN DATE
RUN .                      1 : RUN NUMBER
DD  .FT                11400 : DEPTH DRILLER
DL  .FT                11412 : DEPTH LOGGER
BLI .FT                11411 : BOTTOM LOG INTERVAL
TLI .FT                 1185 : TOP LOG INTERVAL
CBD .FT                 1185 : CASING BOTTOM DRILLER
CBL .FT                 1185 : CASING BOTTOM LOGGER
BS  .IN                8.625 : BIT SIZE
BSD .FT                11400 : BIT SIZE AT DEPTH
DFT .               GEL CHEM : DRILLING FLUID TYPE
DFD .                    9.9 : DRILLING FLUID DENSITY
DFV .                     90 : DRILLING FLUID VISCOSITY
DFPH.                      9 : DRILLING FLUID PH
DFL .                    7.4 : DRILLING FLUID LOSS
RMF .OHMM               2.02 : RESISTIVITY MUD FILTRATE SAMPLE
MFST.DEGF                 78 : MUD FILTRATE SAMPLE TEMPERATURE
RMC .OHMM               2.45 : RESISTIVITY MUD CAKE
MCST.DEGF                 78 : MUD CAKE SAMPLE TEMPERATURE
TCS .HRS                   4 : TIME CIRCULATED STOPPED
LUN .                   1534 : LOGGING UNIT NUMBER
LUL .                     VV : LOGGING UNIT LOCATION
ENGI.                  MILLS : RECORDING ENGINEER
WITN.            SCOTT COWRN : WITNESSED BY
CLNT.                A2DTECH : CLIENT CODE
ORIG.            2" 5" PRINT : ORIGIN OF DATA
UWI .       100041806523W500 : UNIQUE WELL ID
DICO. A2D Technologies, Inc. : DIGITIZING COMPANY
~Other -----------------------------------------------------
IEL-BHC-NEUTRON-TDT-MICRO LOG RUN.
IEL: ALL DATA VERYFIED FROM SMALL SCALE @ TOP TO 3418'
BHC-MICROLOG: ALL DATA VERYFIED FROM SMALL SCALE @ TOP TO 3829'
~ASCII -----------------------------------------------------
# ...
 9400.00000   11.99780   11.99780    2.68960    1.78000  561.80000   48.44740   48.44740   53.15420   53.15420  561.80000    -999.25    -999.25    -999.25  218.88960 -140.56100 -110.18430  218.88960
 9450.00000   11.70520   11.70520    3.01670    1.83270  545.65000   48.06940   48.06940   60.25260   60.25260  545.65000    -999.25    -999.25    -999.25  343.35480 -120.37150  -91.98240  343.35480
 9500.00000   11.08090   11.08090    2.11010    1.83270  545.65000   48.21270   48.21270   54.96290   54.96290  545.65000    -999.25    -999.25    -999.25  252.09980 -127.46990 -101.05530  252.09980
 9550.00000   12.08420   12.08420    2.94160    1.83940  543.65000   49.59180   49.59180   51.12110   51.12110  543.65000    -999.25    -999.25    -999.25  306.73870 -147.37320 -122.93320  306.73870
 9600.00000   10.87970   10.87970    2.90620    1.83940  543.65000   48.00660   48.00660   55.10770   55.10770  543.65000    -999.25    -999.25    -999.25  288.01100 -156.30390 -133.85150  288.01100
 9650.00000    9.67080    9.67080    2.36280    2.42450  412.45000   48.24450   48.24450   51.53010   51.53010  412.45000    -999.25    -999.25    -999.25  181.27110 -171.20080 -150.72300  181.27110
 9700.00000    8.69630    8.69630   23.89100   24.52480   40.77500   51.24860   51.24860   46.35680   46.35680   40.77500    -999.25    -999.25    -999.25   71.69680 -165.21720 -146.72700   71.69680
 9750.00000    7.84860    7.84860    8.69620   10.64400   93.95000   50.17160   50.17160   53.39750   53.39750   93.95000    -999.25    -999.25    -999.25  123.81530 -215.98790 -199.47220  123.81530
 9800.00000    6.68300    6.68300   14.48420   14.64130   68.30000   52.32240   52.32240   48.05290   48.05290   68.30000    -999.25    -999.25    -999.25  120.53470 -198.99880 -184.45770  120.53470
 9850.00000   12.36370   12.36370    5.92460    6.92520  144.40000   51.46930   51.46930   54.51730   54.51730  144.40000    -999.25    -999.25    -999.25   66.55450 -111.61850  -99.06500   66.55450
 9900.00000   10.07670   10.07670    2.02910    2.01310  496.75000   51.13610   51.13610   57.84890   57.84890  496.75000    -999.25    -999.25    -999.25  457.66850  -66.22910  -55.65020  457.66850
 9950.00000    9.52750    9.52750    3.24180    2.01310  496.75000   50.10340   50.10340   67.91670   67.91670  496.75000    -999.25    -999.25    -999.25  284.19470  -59.51550  -50.92420  284.19470
 10000.00000    9.38680    9.38680    2.53100    2.00340  499.15000   50.05940   50.05940   63.81240   63.81240  499.15000    -999.25    -999.25    -999.25  367.40550  -48.95550  -42.33870  367.40550
 10050.00000    9.41280    9.41280    2.72270    2.04250  489.67500   50.47660   50.47660   57.41840   57.41840  489.67500    -999.25    -999.25    -999.25  334.96960  -35.72960  -31.08750  334.96960
 10100.00000    9.72150    9.72150    2.43480    3.34620  298.85000   51.75960   51.75960   57.91800   57.91800  298.85000    -999.25    -999.25    -999.25  237.47860  -41.99510  -39.34050  237.47860
 10150.00000    9.26730    9.26730    3.45820    2.00500  498.75000   50.23940   50.23940   56.81280   56.81280  498.75000    -999.25    -999.25    -999.25  264.58870  -30.60130  -29.92130  264.58870
 10200.00000    9.48620    9.48620    3.64630    2.93640  340.55000   53.34250   53.34250   65.92100   65.92100  340.55000    -999.25    -999.25    -999.25  155.34230  -28.59580  -29.90340  155.34230
 10250.00000    9.54270    9.54270   17.27400   19.19390   52.10000   55.80700   55.80700   66.90570   66.90570   52.10000    -999.25    -999.25    -999.25   64.08940  -39.98430  -43.26640   64.08940
 10300.00000    9.56060    9.56060   56.89870   55.56410   17.99750   60.36940   60.36940   70.73040   70.73040   17.99750    -999.25    -999.25    -999.25   28.69910  -42.73670  -47.99340   28.69910
 10350.00000    9.41320    9.41320   35.08550   33.59090   29.77000   58.13810   58.13810   69.48680   69.48680   29.77000    -999.25    -999.25    -999.25   35.27330  -47.60890  -53.86790   35.27330
 10400.00000    9.76120    9.76120   46.13340   53.80680   18.58500   72.61240   72.61240  117.89210  117.89210   18.58500    -999.25    -999.25    -999.25   23.24950  -64.15770  -67.04270   23.24950
 10450.00000   13.61920   13.61920  316.34860  298.50750    3.35000   74.96760   74.96760  102.28650  102.28650    3.35000    -999.25    -999.25    -999.25    4.96770  -79.32620  -78.81500    4.96770
 10500.00000   15.85190   15.85190  308.69280  294.55080    3.39500   80.54860   80.54860   89.04790   89.04790    3.39500    -999.25    -999.25    -999.25    4.77940 -115.20460 -111.31940    4.77940
 10550.00000   15.23780   15.23780  344.15310  309.38050    3.23250   89.81960   89.81960   98.50880   98.50880    3.23250    -999.25    -999.25    -999.25    4.68320 -114.22390 -106.96460    4.68320
 10600.00000    9.87350    9.87350  145.36830  137.64620    7.26500   68.98890   68.98890  102.68180  102.68180    7.26500    -999.25    -999.25    -999.25   11.24800 -104.94610  -94.29060   11.24800
 10650.00000   10.27800   10.27800  172.80790  165.97510    6.02500   69.29260   69.29260  107.33600  107.33600    6.02500    -999.25    -999.25    -999.25    8.80190 -105.16780  -91.13830    8.80190
 10700.00000   10.46980   10.46980  181.93660  160.77170    6.22000   71.23150   71.23150   97.14630   97.14630    6.22000    -999.25    -999.25    -999.25    8.41300 -109.17590  -91.75020    8.41300
 10750.00000   10.08380   10.08380  203.65140  171.82130    5.82000   71.39010   71.39010  104.47090  104.47090    5.82000    -999.25    -999.25    -999.25    7.92390 -112.97030  -92.17060    7.92390
 10800.00000   10.71940   10.71940  248.04280  217.54350    4.59750   73.72910   73.72910   93.01400   93.01400    4.59750    -999.25    -999.25    -999.25    7.11400 -118.58670  -94.41290    7.11400
 10850.00000    9.82980    9.82980  168.08040  154.67900    6.46500   70.98680   70.98680  111.26760  111.26760    6.46500    -999.25    -999.25    -999.25    9.41280 -109.94310  -82.37310    9.41280
 10900.00000    9.98780    9.98780  247.13370  215.28530    4.64500   74.47790   74.47790  111.09340  111.09340    4.64500    -999.25    -999.25    -999.25    6.89190 -113.94220  -82.99820    6.89190
 10950.00000   10.04520   10.04520  189.92790  163.26530    6.12500   70.08500   70.08500   96.96020   96.96020    6.12500    -999.25    -999.25    -999.25    8.64170 -115.61520  -81.27500    8.64170
 11000.00000    9.24480    9.24480  142.67940  131.23360    7.62000   81.24250   81.24250  120.13840  120.13840    7.62000  532.85100  532.85100    -999.25   11.03320  -93.21870  -55.50450   11.03320
 11050.00000    8.96110    8.96110   18.83230   18.99350   52.65000   58.68980   58.68980   70.12950   70.12950   52.65000  851.40300  851.40300    -999.25   63.32860  -76.08460  -34.99640   63.32860
 11100.00000   10.41550   10.41550   84.40930   76.98230   12.99000   90.12060   90.12060  137.03980  137.03980   12.99000  476.38100  476.38100    -999.25   18.01390  -72.67620  -28.19170   18.01390
 11150.00000    9.16150    9.16150   14.87380   17.18210   58.20000   71.74000   71.74000  104.66080  104.66080   58.20000  687.58200  687.58200    -999.25   65.39320  -52.56500   -4.70650   65.39320
 11200.00000    9.01710    9.01710    2.00170    5.46300  183.05000   50.36210   50.36210   35.52310   35.52310  183.05000 1300.59480 1300.59480    7.38490  130.90440 -136.48360  -87.11900  130.90440
 11250.00000    7.89760    7.89760    5.61430    6.62030  151.05000   53.11810   53.11810   33.87270   33.87270  151.05000  953.81980  953.81980    8.72050  141.74730 -228.64230 -179.27770  141.74730
 11300.00000    8.63080    8.63080    3.50600    5.38030  191.35000   48.52110   48.52110   27.18600   27.18600  191.35000 1719.83140 1719.83140    7.20770  165.78310 -165.92930 -116.56470  165.78310
 11350.00000    8.50300    8.50300    -999.25    -999.25    -999.25   48.45520   48.45520   38.72200   38.72200    -999.25 1469.19360 1469.19360    8.68300  454.60380 -129.03140  -79.66680  454.60380
 11400.00000    8.41980    8.41980    -999.25    -999.25    -999.25    -999.25    -999.25    -999.25    -999.25    -999.25    -999.25    -999.25    -999.25  783.46830 -112.02780  -62.66320  783.46830
