~Version ---------------------------------------------------
VERS.      2.0 : CWLS log ASCII Standard -VERSION 2.0
WRAP.       NO : One line per depth step
CREA. 10/19/17 : LAS Creation Date
~Well ------------------------------------------------------
STRT.FT                          300.0 : START DEPTH
STOP.FT                        10200.0 : STOP DEPTH
STEP.FT                       50.00000 : STEP LENGTH
NULL.                          -999.25 : NULL VALUE
COMP.             IMPERIAL OIL LIMITED : COMPANY
WELL.   IMPERIAL CYNTHIA NO. 9-6-52-11 : WELL
FLD .                                  : FIELD
LOC .                                  : LOCATION
CTRY.                           CANADA : COUNTRY
SRVC. Schlumberger Well Surveying Corp : SERVICE COMPANY
DATE.                      06-Sep-1954 : LOGDATE
PROV.                          Alberta : PROVINCE
UWI .                 100090605211W500 : UNIQUE WELL ID
SLAT.WGS84               53.4630190179 : SURFACE LATITUDE
SLON.WGS84             -115.6015677109 : SURFACE LONGITUDE
~Curve Information -----------------------------------------
DEPT  .FT         : Depth Curve
CALIED.IN         : CALIPER FROM CALIPER LOG
CALWS .IN         : CALIPER [CALIED]
CONDWS.MMHO       : CONDUCTIVITY [1000/DRESWS]
DRESWS.OHMM       : DEEP RESISTIVITY [LNED]
GRNED .UgRa-Eq/T  : GAMMA RAY FROM NEUTRON LOG
GRWS  .GAPI       : GAMMA RAY [GRNED*16.50, CONVERTED TO API UNIT]
LNED  .OHMM       : LONG NORMAL FROM RESISTIVITY LOG
LT18ED.OHMM       : LATERAL 18' 8" FROM RESISTIVITY LOG
NEUTED.NAPI       : NEUTRON FROM NEUTRON LOG
NEUTWS.NAPI       : NEUTRON [NEUTED]
SNED  .OHMM       : SHORT NORMAL 16" FROM RESISTIVITY LOG
SPRED .MV         : SPONTANEOUS POTENTIAL FROM RESISTIVITY LOG
SPWS  .MV         : SPONTANEOUS POTENTIAL [BASELINE 0 MV,SPRED]
SRESWS.OHMM       : SHALLOW RESISTIVITY [SNED]
~Params ----------------------------------------------------
LMF .                     KB : LOG MEASURED FROM
DMF .                     KB : DRILLING MEASURED FROM
EKB .FT                 3086 : KELLY BUSHING
DATE.               09/06/54 : RUN DATE
RUN .                      4 : RUN NUMBER
DD  .FT                10217 : DEPTH DRILLER
DL  .FT                10217 : DEPTH LOGGER
BLI .FT                10217 : BOTTOM LOG INTERVAL
TLI .FT                 8589 : TOP LOG INTERVAL
CBD .FT                 5691 : CASING BOTTOM DRILLER
CBL .FT                 5690 : CASING BOTTOM LOGGER
BS  .IN                8.625 : BIT SIZE
BSD .FT                10217 : BIT SIZE AT DEPTH
DFT .              LIME BASE : DRILLING FLUID TYPE
DFD .                   10.1 : DRILLING FLUID DENSITY
DFV .                    240 : DRILLING FLUID VISCOSITY
DFPH.                   10.5 : DRILLING FLUID PH
DFL .                    7.8 : DRILLING FLUID LOSS
MSS .               FLOWLINE : MUD SAMPLE SOURCE
RMS .OHMM                1.4 : RESISTIVITY MUD SAMPLE
MST .DEGF                 70 : MUD SAMPLE TEMPERATURE
RMB .OHMM                0.5 : RESISTIVITY MUD AT BHT
TCS .HRS                 2.5 : TIME CIRCULATED STOPPED
LUN .                   1772 : LOGGING UNIT NUMBER
LUL .                    GDM : LOGGING UNIT LOCATION
ENGI.                BUCKLEY : RECORDING ENGINEER
WITN.                  BLAND : WITNESSED BY
CLNT.                A2DTECH : CLIENT CODE
ORIG.            2" 5" PRINT : ORIGIN OF DATA
UWI .       100090605211W500 : UNIQUE WELL ID
DICO. A2D Technologies, Inc. : DIGITIZING COMPANY
~Other -----------------------------------------------------
EL,GRN,CALIPER LOG RUN
SPRED MECHANICAL SHIFT @ 4901',5698'
ALL RESISTIVITY CURVES FROM LINEAR SCALE OF 5" LOG. RESISTIVITY DATA VERIFIED @700-3300', 5700-6300' FROM SMALL SCALE LOG
GRN DATA @700'-3300', 5500-6200', 6400-7400' FROM SMALL SCALE LOG
~ASCII -----------------------------------------------------
# ...
 5200.00000    6.90710    6.90710  142.67770    7.00910    2.87310   47.40610    7.00910   10.92030  171.47810  168.67720    9.11240  -38.96630   -3.35920    9.11240
 5250.00000    6.46140    6.46140  134.97460    7.40880    3.14050   51.81820    7.40880   10.67610  150.40620  153.98240    9.56730  -38.47670   -3.38630    9.56730
 5300.00000    7.66630    7.66630   97.21390   10.28660    2.62040   43.23660   10.28660    9.06850  156.10020  156.92440   11.07470  -37.29820   -2.72460   11.07470
 5350.00000    6.00580    6.00580   54.32460   18.41040    2.32650   38.38770   18.41040   14.67280  160.95930  159.08820   18.68560  -41.03970   -7.59490   18.68560
 5400.00000    6.21040    6.21040   82.49330   12.12220    3.03290   50.04280   12.12220   14.30600  173.88850  176.80120   12.86000  -36.27650   -4.24650   12.86000
 5450.00000    6.16150    6.16150   81.94460   12.20340    3.03950   50.15180   12.20340   12.26530  167.80300  164.66250   13.19330  -35.07510   -4.46930   13.19330
 5500.00000    5.93790    5.93790   92.89450   10.76490    3.10470   51.22750   10.76490   11.33320  163.26670  162.29570   12.16150  -34.73900   -5.54800   12.16150
 5550.00000    5.94220    5.94220   92.46930   10.81440    2.92160   48.20640   10.81440   14.88720  154.11100  158.29800   13.72020  -34.45580   -6.67970   13.72020
 5600.00000    5.97890    5.97890   88.57980   11.28920    3.62580   59.82570   11.28920   10.10550  153.61990  152.47570   12.65690  -30.71100   -4.35910   12.65690
 5650.00000    5.88570    5.88570   75.39940   13.26270    3.18760   52.59540   13.26270    8.38720  158.99420  156.88940   13.70360  -29.39050   -4.45340   13.70360
 5700.00000    -999.25    -999.25   64.82820   15.42600    6.62670  109.34050   15.42600    -999.25  170.37570  169.17040   14.21050  -27.97660   -4.13780   14.21050
 5750.00000    -999.25    -999.25   52.34620   19.10360    5.98420   98.74010   19.10360   14.85710  181.78750  178.60760   16.48350  -28.97350   -5.21090   16.48350
 5800.00000    -999.25    -999.25   46.81190   21.36210    8.27970  136.61510   21.36210   16.84090  170.48480  171.40050   16.25510  -29.13360   -5.44710   16.25510
 5850.00000    -999.25    -999.25   31.36480   31.88390    7.90600  130.44900   31.88390   27.61840  173.96420  175.96240   23.74930  -30.62690   -7.01710   23.74930
 5900.00000    -999.25    -999.25   50.63800   19.74800    7.34640  121.21480   19.74800   19.76890  181.48280  176.91120   15.98410  -27.91900   -4.38530   15.98410
 5950.00000    -999.25    -999.25   32.71480   30.57150    9.59380  158.29770   30.57150   24.36530  181.28440  184.03610   24.01890  -29.21160   -5.75460   24.01890
 6000.00000    -999.25    -999.25   54.00360   18.51730    7.18230  118.50790   18.51730   12.54790  192.26840  187.14620   15.64570  -30.43950   -7.05860   15.64570
 6050.00000    -999.25    -999.25   92.44710   10.81700    3.71740   61.33710   10.81700   10.99460  179.83220  180.74940    8.48660  -27.44090   -4.13610    8.48660
 6100.00000    -999.25    -999.25   94.54520   10.57700    4.16610   68.73980   10.57700   10.28280  180.77890  182.73140    8.65320  -26.41360   -3.18550    8.65320
 6150.00000    -999.25    -999.25   82.53820   12.11560    3.60910   59.55020   12.11560    9.72020  183.87130  179.49140    9.43460  -25.18570   -2.03370    9.43460
 6200.00000    -999.25    -999.25  112.28980    8.90570    9.03050  149.00330    8.90570    8.20060  181.21350  178.00290    8.34490  -25.53270   -2.45740    8.34490
 6250.00000    -999.25    -999.25  226.64430    4.41220    7.85660  129.63390    4.41220    3.22240  174.90320  175.74990    4.30880  -25.51710   -2.51790    4.30880
 6300.00000    -999.25    -999.25  151.10760    6.61780    7.79170  128.56220    6.61780    5.30890  182.13650  184.99970    6.93040  -25.49230   -2.56930    6.93040
 6350.00000    -999.25    -999.25   33.12150   30.19280    5.38760   88.89540   30.19280   22.45720  239.92060  233.57710   24.81230  -34.52340  -11.83220   24.81230
 6400.00000    -999.25    -999.25   45.56720   21.94560    4.00610   66.10070   21.94560   25.00730  261.00070  261.00070   17.67570  -37.63440  -15.24620   17.67570
 6450.00000    -999.25    -999.25  410.64450    2.43540    6.92080  114.19320    2.43540    2.86550  171.85580  171.85580    2.86460  -27.38510   -5.30180    2.86460
 6500.00000    -999.25    -999.25   37.68340   26.53690    3.74320   61.76280   26.53690   25.61240  226.62760  226.62760   22.01160  -61.65690  -39.87660   22.01160
 6550.00000    -999.25    -999.25   28.70650   34.83530    3.93920   64.99680   34.83530   10.36040  245.22370  245.22370   24.57620  -36.68410  -15.20680   24.57620
 6600.00000    -999.25    -999.25   28.44930   35.15780    5.21870   86.10860   35.15780   10.50910  236.06120  236.06120   21.92960  -40.03610  -18.86370   21.92960
 6650.00000    -999.25    -999.25   42.11200   23.74620    5.96070   98.35160   23.74620   41.30210  229.38790  229.38790   17.57980  -35.14340  -14.27400   17.57980
 6700.00000    -999.25    -999.25   28.82500   34.69360    4.80640   79.30640   34.69360   36.93640  230.71150  229.84280   23.23940  -29.25800   -8.69360   23.23940
 6750.00000    -999.25    -999.25   45.53650   21.96040    6.18260  102.01290   21.96040   15.87200  232.12790  228.87260   16.75670  -37.10040  -16.83890   16.75670
 6800.00000    -999.25    -999.25   49.65220   20.14010    4.17350   68.86270   20.14010    8.85800  240.21780  240.19150   19.43300  -38.46740  -18.62970   19.43300
 6850.00000    -999.25    -999.25   52.79330   18.94180    4.72790   78.01120   18.94180   17.55200  227.45360  197.02700   13.96730  -31.80660  -12.85120   13.96730
 6900.00000    -999.25    -999.25   31.90360   31.34440    4.91220   81.05130   31.34440   24.40570  236.03660  245.01940   22.38040  -31.52010  -13.44130   22.38040
 6950.00000    -999.25    -999.25   31.39430   31.86200    5.37010   88.60750   31.86200   35.57890  207.24110  209.92680   23.80560  -23.35300   -6.15650   23.80560
 7000.00000    -999.25    -999.25   22.95830   43.55720    6.06610  100.09070   43.55720   51.74450  201.69350  190.18980   30.08990  -19.07990   -2.76000   30.08990
 7050.00000    -999.25    -999.25   31.67640   31.56920    6.95060  114.68490   31.56920  148.39850  185.49660  194.11680   21.77660  -21.47100   -4.81700   21.77660
 7100.00000    -999.25    -999.25   11.89780   84.44140    2.60760   43.02540   84.44140   82.81050  310.08400  284.21630   51.76540  -42.40290  -25.19540   51.76540
 7150.00000    -999.25    -999.25   28.34970   35.27370    4.99270   82.37960   35.27370   29.84430  208.75970  211.31220   23.25830  -33.72810  -15.97070   23.25830
 7200.00000    -999.25    -999.25   85.23880   11.73180    6.10370  100.71020   11.73180   10.22390  183.86070  176.15110   10.93150  -26.13320   -8.14480   10.93150
 7250.00000    -999.25    -999.25    2.55350  391.62130    1.97690   32.61800  391.62130  400.49630  358.69420  345.72340  136.19700  -74.06940  -56.39130  136.19700
 7300.00000    -999.25    -999.25    1.52980  653.68280    1.46360   24.14940  653.68280  498.20300  302.89730  289.58080  178.76330  -76.99900  -59.63130  178.76330
 7350.00000    -999.25    -999.25    1.00270  997.35190    2.42100   39.94650  997.35190 1793.06840  347.82200  330.45340  157.56420  -46.98120  -29.92580  157.56420
 7400.00000    -999.25    -999.25   20.76260   48.16360    4.59130   75.75650   48.16360  110.44510  223.13530  220.21540   22.37370  -52.41800  -35.67300   22.37370
 7450.00000    -999.25    -999.25    5.76880  173.64680    1.27980   21.11670  173.64680  257.36900  285.70950  293.78430   81.11420 -168.72610 -152.29340   81.11420
 7500.00000    -999.25    -999.25   37.34260   26.77910    4.83730   79.81540   26.77910   26.62660  256.38610  262.12050   25.77280  -47.08750  -30.96510   25.77280
 7550.00000    -999.25    -999.25   20.07200   49.82060    3.13230   51.68290   49.82060   40.05020  266.75210  265.15950   40.72170  -41.07960  -25.26760   40.72170
 7600.00000    -999.25    -999.25   42.32020   23.63150    3.48760   57.54620   23.63150   18.36470  232.46950  237.55890   20.06470  -51.90060  -36.40090   20.06470
