~Version ---------------------------------------------------
VERS.      2.0 : CWLS log ASCII Standard -VERSION 2.0
WRAP.       NO : One line per depth step
CREA. 08/01/17 : LAS Creation Date
~Well ------------------------------------------------------
STRT.FT                         950.0 : START DEPTH
STOP.FT                        9900.0 : STOP DEPTH
STEP.FT                      50.00000 : STEP LENGTH
NULL.                         -999.25 : NULL VALUE
COMP. GENERAL CRUDE OIL, NORTHERN LTD : COMPANY
WELL.   GCON HB PUSKWASKAU 11-6-73-24 : WELL
FLD .                                 : FIELD
LOC .                                 : LOCATION
CTRY.                          CANADA : COUNTRY
SRVC.          Schlumberger of Canada : SERVICE COMPANY
DATE.                     29-Jan-1973 : LOGDATE
PROV.                         Alberta : PROVINCE
UWI .                100110607324W500 : UNIQUE WELL ID
SLAT.WGS84                   55.29715 : SURFACE LATITUDE
SLON.WGS84                  -117.6848 : SURFACE LONGITUDE
~Curve Information -----------------------------------------
DEPT  .FT    : Depth Curve
CALSED.IN    : CALIPER FROM SONIC LOG
CALWS .IN    : CALIPER [CALSED]
CILDED.MMHO  : CONDUCTIVITY FROM RESISTIVITY LOG
CONDWS.MMHO  : CONDUCTIVITY [1000/DRESWS]
DRESWS.OHMM  : DEEP RESISTIVITY [ILDED] [1000/CILDED, IF ILDED<5, ILDED]
DTED  .US/F  : DELTA TIME FROM SONIC LOG
DTWS  .US/F  : DELTA TIME [DTED]
GRSED .GAPI  : GAMMA RAY FROM SONIC LOG
GRWS  .GAPI  : GAMMA RAY [GRSED]
ILDED .OHMM  : INDUCTION LOG DEEP RESISTIVITY
ILMED .OHMM  : INDUCTION LOG MEDIUM RESISTIVITY
LL8ED .OHMM  : 8 INCH LATEROLOG RESISTIVITY
MRESWS.OHMM  : MEDIUM RESISTIVITY [ILMED]
SPRED .MV    : SPONTANEOUS POTENTIAL FROM RESISTIVITY LOG
SPWS  .MV    : SPONTANEOUS POTENTIAL [BASELINE 0 MV] [SPRED]
SRESWS.OHMM  : SHALLOW RESISTIVITY [LL8ED]
~Params ----------------------------------------------------
PD  .                     GL : PERMANENT DATUM
EPD .FT                 2352 : ELEVATION PERMANENT DATUM
LMF .                     KB : LOG MEASURED FROM
DAPD.FT                   14 : FEET ABOVE PERMANENT DATUM
EKB .FT                 2366 : KELLY BUSHING
EGL .FT                 2352 : GROUND LEVEL
DATE.               01/73/29 : RUN DATE
RUN .                      1 : RUN NUMBER
DD  .FT                 9931 : DEPTH DRILLER
DL  .FT                 9919 : DEPTH LOGGER
BLI .FT                 9913 : BOTTOM LOG INTERVAL
TLI .FT                 1011 : TOP LOG INTERVAL
CBD .FT                 1011 : CASING BOTTOM DRILLER
CBL .FT                 1011 : CASING BOTTOM LOGGER
BS  .IN                 8.75 : BIT SIZE
BSD .FT                 9931 : BIT SIZE AT DEPTH
DFT .                    GEL : DRILLING FLUID TYPE
DFD .                    9.5 : DRILLING FLUID DENSITY
DFV .                     95 : DRILLING FLUID VISCOSITY
DFPH.                    7.5 : DRILLING FLUID PH
DFL .                    8.2 : DRILLING FLUID LOSS
RMF .OHMM               1.35 : RESISTIVITY MUD FILTRATE SAMPLE
MFST.DEGF                 68 : MUD FILTRATE SAMPLE TEMPERATURE
RMB .OHMM               0.56 : RESISTIVITY MUD AT BHT
TCS .HRS                   4 : TIME CIRCULATED STOPPED
LUN .                   7635 : LOGGING UNIT NUMBER
LUL .                     DC : LOGGING UNIT LOCATION
ENGI.                  BAKER : RECORDING ENGINEER
WITN.                JOHNSON : WITNESSED BY
CLNT.                A2DTECH : CLIENT CODE
ORIG.            2" 5" PRINT : ORIGIN OF DATA
UWI .       100110607324W500 : UNIQUE WELL ID
DICO. A2D Technologies, Inc. : DIGITIZING COMPANY
~Other -----------------------------------------------------
~ASCII -----------------------------------------------------
  950.00000    -999.25    -999.25    -999.25    -999.25    -999.25    -999.25    -999.25   38.16790   38.16790    -999.25    -999.25    -999.25    -999.25    -999.25    -999.25    -999.25
 1000.00000    -999.25    -999.25    -999.25    -999.25    -999.25    -999.25    -999.25   35.06110   35.06110    -999.25    -999.25    -999.25    -999.25    -999.25    -999.25    -999.25
 1050.00000    8.57440    8.57440  125.00510  125.00510    7.99970  119.10060  119.10060   78.34600   78.34600    8.15590    -999.25    6.22750    -999.25 -125.68540   -8.84780    6.22750
 1100.00000    8.37720    8.37720  132.52090  132.52090    7.54600  119.60010  119.60010   78.11820   78.11820    7.41550    -999.25    5.54640    -999.25 -127.46780  -10.68010    5.54640
 1150.00000    8.75860    8.75860  134.72580  134.72580    7.42290  125.02850  125.02850   93.55300   93.55300    7.59610    -999.25    6.26700    -999.25 -126.22830   -9.48990    6.26700
 1200.00000    8.48730    8.48730  138.44160  138.44160    7.22330  125.98930  125.98930  104.84240  104.84240    7.38480    -999.25    6.47070    -999.25 -122.23980   -5.55130    6.47070
 1250.00000    8.55790    8.55790  148.03210  148.03210    6.75530  110.72200  110.72200   92.26580   92.26580    6.85430    -999.25    6.13640    -999.25 -120.87820   -4.23940    6.13640
 1300.00000    9.74860    9.74860  132.10640  132.10640    7.56980  122.51590  122.51590   89.74250   89.74250    7.80130    -999.25    6.25250    -999.25 -125.01350   -8.42410    6.25250
 1350.00000    8.30800    8.30800   77.66880   77.66880   12.87520  116.76960  116.76960   72.33060   72.33060   12.65860    -999.25    9.22760    -999.25 -127.36400  -10.82440    9.22760
 1400.00000    8.52170    8.52170  135.40490  135.40490    7.38530  119.56050  119.56050   96.08870   96.08870    7.58130    -999.25    6.04380    -999.25 -123.74660   -7.25640    6.04380
 1450.00000    7.51470    7.51470  115.14060  115.14060    8.68500  109.56750  109.56750  100.28520  100.28520    8.86840    -999.25    6.36260    -999.25 -124.12430   -7.68400    6.36260
 1500.00000    8.38300    8.38300  105.90730  105.90730    9.44220  109.39050  109.39050   89.85840   89.85840    9.55530    -999.25    6.77340    -999.25 -126.20200   -9.81130    6.77340
 1550.00000    7.95860    7.95860   73.26350   73.26350   13.65630  103.55660  103.55660   81.96310   81.96310   13.63590    -999.25    8.42140    -999.25 -128.54780  -12.20650    8.42140
 1600.00000    8.36580    8.36580  106.27540  106.27540    9.40950  109.17770  109.17770   92.72670   92.72670    9.62040    -999.25    6.90690    -999.25 -122.60530   -6.31390    6.90690
 1650.00000    8.31030    8.31030  116.92030  116.92030    8.55310  113.93880  113.93880   93.18920   93.18920    8.70790    -999.25    6.15010    -999.25 -122.34010   -6.09810    6.15010
 1700.00000    8.39930    8.39930   98.50400   98.50400   10.15190  108.07750  108.07750   90.38770   90.38770   10.31050    -999.25    6.74240    -999.25 -123.03000   -6.83780    6.74240
 1750.00000    7.70430    7.70430  134.67700  134.67700    7.42520  113.40760  113.40760  104.07080  104.07080    7.52680    -999.25    5.73220    -999.25 -123.22390   -7.08130    5.73220
 1800.00000    8.10210    8.10210  148.44650  148.44650    6.73650  120.73440  120.73440  103.59420  103.59420    6.96570    -999.25    5.81260    -999.25 -119.54510   -3.45190    5.81260
 1850.00000    8.07710    8.07710  148.53400  148.53400    6.73250  118.33020  118.33020  106.92680  106.92680    6.82890    -999.25    5.82460    -999.25 -122.67390   -6.63060    5.82460
 1900.00000    8.13310    8.13310  140.53180  140.53180    7.11590  116.19240  116.19240   98.45120   98.45120    7.23770    -999.25    6.04280    -999.25 -121.76820   -5.77430    6.04280
 1950.00000    8.50240    8.50240  115.92720  115.92720    8.62610  114.61670  114.61670   94.28970   94.28970    8.80480    -999.25    7.68540    -999.25 -121.98310   -6.03910    7.68540
 2000.00000    9.16010    9.16010  117.61430  117.61430    8.50240  116.88410  116.88410  108.23690  108.23690    8.54410    -999.25    7.98680    -999.25 -119.29930   -3.43900    7.98680
 2050.00000    9.22470    9.22470  147.97600  147.97600    6.75790  117.42340  117.42340  107.68340  107.68340    6.72800    -999.25    6.27650    -999.25 -118.18750   -2.94260    6.27650
 2100.00000    9.22900    9.22900  106.79870  106.79870    9.36340  109.88910  109.88910   67.15960   67.15960    9.64200    -999.25    6.80250    -999.25 -123.42270   -8.79950    6.80250
 2150.00000    8.43370    8.43370  147.58500  147.58500    6.77620  100.40550  100.40550   74.07630   74.07630    7.04120    -999.25    5.88820    -999.25 -129.92650  -15.91870    5.88820
 2200.00000    7.36280    7.36280  101.21180  101.21180    9.88030   99.26670   99.26670   57.29090   57.29090   10.06100    -999.25    9.65420    -999.25 -150.86430  -37.47820    9.65420
 2250.00000    8.46860    8.46860  190.32330  190.32330    5.25420  115.89760  115.89760   70.06500   70.06500    5.16190    -999.25    4.66160    -999.25 -127.42910  -14.66160    4.66160
 2300.00000    8.07630    8.07630  180.63090  180.63090    5.53800  104.91440  104.91440   84.95410   84.95410    5.81570    -999.25    4.80520    -999.25 -123.73560  -11.58350    4.80520
 2350.00000    8.91530    8.91530  272.22590  272.22590    3.67340  106.24800  106.24800   91.63950   91.63950    3.90840    -999.25    3.25910    -999.25 -114.09620   -3.85090    3.25910
 2400.00000    8.84760    8.84760  191.64550  191.64550    5.21980  103.40590  103.40590   94.11710   94.11710    5.25230    -999.25    4.67780    -999.25 -115.92310   -7.78020    4.67780
 2450.00000    8.92620    8.92620  189.00110  189.00110    5.29100  103.12750  103.12750   96.10600   96.10600    5.42580    -999.25    4.38020    -999.25 -116.76360  -10.74420    4.38020
 2500.00000    7.72370    7.72370  117.40070  117.40070    8.51780   97.92140   97.92140   73.19340   73.19340    8.29650    -999.25    7.53230    -999.25 -128.41710  -24.51070    7.53230
 2550.00000    7.14340    7.14340  194.20970  194.20970    5.14920  100.39210  100.39210   87.80330   87.80330    5.38700    -999.25    4.46010    -999.25 -115.44950  -13.64550    4.46010
 2600.00000    9.06920    9.06920  178.93420  178.93420    5.58860  100.12420  100.12420  102.89880  102.89880    5.78160    -999.25    4.88330    -999.25 -115.98220  -16.30170    4.88330
 2650.00000    9.75200    9.75200  151.76690  151.76690    6.58940   96.55250   96.55250  102.34310  102.34310    6.87010    -999.25    5.68800    -999.25 -115.44690  -17.86880    5.68800
 2700.00000    9.25260    9.25260  308.43410  308.43410    3.24220  114.02040  114.02040  118.49820  118.49820    3.55950    -999.25    3.28830    -999.25 -110.81830  -15.36370    3.28830
 2750.00000    9.19110    9.19110  366.43520  366.43520    2.72900  116.32470  116.32470   81.52630   81.52630    2.80960    -999.25    2.57630    -999.25 -109.44430  -16.10260    2.57630
 2800.00000    8.66610    8.66610  370.61390  370.61390    2.69820  131.28370  131.28370   93.19910   93.19910    2.80790    -999.25    2.40990    -999.25  -94.84920   -3.61000    2.40990
 2850.00000   10.77340   10.77340  282.66740  282.66740    3.53770  104.11970  104.11970   79.57990   79.57990    3.77760    -999.25    3.24170    -999.25  -91.56700   -2.45120    3.24170
 2900.00000   11.46610   11.46610    -999.25  236.78340    4.22330  101.49810  101.49810   90.27960   90.27960    4.22330    4.01950    4.21080    4.01950  -92.44430   -3.69420    4.21080
 2950.00000   11.22830   11.22830    -999.25  200.04000    4.99900   98.63470   98.63470   84.51690   84.51690    4.99900    4.77970    4.64150    4.77970  -95.14230   -6.70720    4.64150
 3000.00000   10.65840   10.65840    -999.25  152.63910    6.55140   97.22010   97.22010   92.90730   92.90730    6.55140    6.92430    6.29730    6.92430  -95.57140   -7.44960    6.29730
 3050.00000    8.32030    8.32030    -999.25  138.42210    7.22530   87.58820   87.58820   39.96040   39.96040    7.22530    9.45550   12.37470    9.45550 -145.70780  -57.89770   12.37470
