~Version ---------------------------------------------------
VERS.      2.0 : CWLS log ASCII Standard -VERSION 2.0
WRAP.       NO : One line per depth step
CREA. 11/22/17 : LAS Creation Date
~Well ------------------------------------------------------
STRT.FT                              1100.0 : START DEPTH
STOP.FT                             10450.0 : STOP DEPTH
STEP.FT                            50.00000 : STEP LENGTH
NULL.                               -999.25 : NULL VALUE
COMP. HUDSONS BAY OIL & GAS COMPANY LIMITED : COMPANY
WELL.       HB ET AL EAGLE TOWER 7-14-63-17 : WELL
FLD .                                       : FIELD
LOC .                                       : LOCATION
CTRY.                                CANADA : COUNTRY
SRVC.                          Schlumberger : SERVICE COMPANY
DATE.                           30-Mar-1973 : LOGDATE
PROV.                               Alberta : PROVINCE
UWI .                      100071406317W500 : UNIQUE WELL ID
SLAT.WGS84                         54.44795 : SURFACE LATITUDE
SLON.WGS84                        -116.4526 : SURFACE LONGITUDE
~Curve Information -----------------------------------------
DEPT  .FT    : Depth Curve
CALSED.IN    : CALIPER FROM SONIC LOG
CALWS .IN    : CALIPER [CALSED]
CILDED.MMHO  : CONDUCTIVITY FROM RESISTIVITY LOG
CONDWS.MMHO  : CONDUCTIVITY [1000/DRESWS]
DRESWS.OHMM  : DEEP RESISTIVITY [1080' 1000/CILDED 10472' ILDED]
DTED  .US/F  : DELTA TIME FROM SONIC LOG
DTWS  .US/F  : DELTA TIME [DTED]
GRSED .GAPI  : GAMMA RAY FROM SONIC LOG
GRWS  .GAPI  : GAMMA RAY [GRSED]
ILDED .OHMM  : INDUCTION LOG DEEP RESISTIVITY
ILMED .OHMM  : INDUCTION LOG MEDIUM RESISTIVITY
LL8ED .OHMM  : 8 INCH LATEROLOG RESISTIVITY
MRESWS.OHMM  : MEDIUM RESISTIVITY [ILMED]
SPRED .MV    : SPONTANEOUS POTENTIAL FROM RESISTIVITY LOG [NUMEROUS SHIFTS ARE REMOVED, PATCHED, TOOK HOURS]
SPWS  .MV    : SPONTANEOUS POTENTIAL [BASELINE 0 MV] [SPRED] [STILL, PL. USE W/ A HUGE RESERVATION]
SRESWS.OHMM  : SHALLOW RESISTIVITY [LL8ED]
~Params ----------------------------------------------------
PD  .                     GL : PERMANENT DATUM
EPD .FT                 3394 : ELEVATION PERMANENT DATUM
LMF .                     KB : LOG MEASURED FROM
DAPD.FT                   13 : FEET ABOVE PERMANENT DATUM
EKB .FT                 3407 : KELLY BUSHING
EGL .FT                 3394 : GROUND LEVEL
DATE.               03/30/73 : RUN DATE
RUN .                      1 : RUN NUMBER
DD  .FT                10470 : DEPTH DRILLER
DL  .FT                10480 : DEPTH LOGGER
BLI .FT                10474 : BOTTOM LOG INTERVAL
TLI .FT                 1076 : TOP LOG INTERVAL
CBD .FT                 1075 : CASING BOTTOM DRILLER
CBL .FT                 1076 : CASING BOTTOM LOGGER
BS  .IN                 8.75 : BIT SIZE
BSD .FT                10470 : BIT SIZE AT DEPTH
DFT .               GEL CHEM : DRILLING FLUID TYPE
DFD .                    9.6 : DRILLING FLUID DENSITY
DFV .                    126 : DRILLING FLUID VISCOSITY
DFPH.                   11.4 : DRILLING FLUID PH
DFL .                    9.2 : DRILLING FLUID LOSS
RMF .OHMM                1.1 : RESISTIVITY MUD FILTRATE SAMPLE
MFST.DEGF                 60 : MUD FILTRATE SAMPLE TEMPERATURE
LUN .                   7636 : LOGGING UNIT NUMBER
LUL .                    EDM : LOGGING UNIT LOCATION
ENGI.                  SCOTT : RECORDING ENGINEER
WITN.                  WIEBE : WITNESSED BY
CLNT.                A2DTECH : CLIENT CODE
ORIG.            2" 5" PRINT : ORIGIN OF DATA
UWI .       100071406317W500 : UNIQUE WELL ID
DICO. A2D Technologies, Inc. : DIGITIZING COMPANY
~Other -----------------------------------------------------
~ASCII -----------------------------------------------------
# ...
 3250.00000   10.92980   10.92980  261.74660  261.74660    3.82050  108.02050  108.02050   63.49240   63.49240    3.91570    -999.25    3.43490    -999.25  -67.41290  -10.14470    3.43490
 3300.00000    9.46540    9.46540  131.61260  131.61260    7.65000  105.16330  105.16330   58.98680   58.98680    6.98400    -999.25    5.72900    -999.25  -71.18660  -14.47410    5.72900
 3350.00000    9.42310    9.42310  171.37950  171.37950    5.83500   94.23120   94.23120   57.43370   57.43370    5.56180    -999.25    6.12900    -999.25  -71.11730  -14.96610    6.12900
 3400.00000    9.52810    9.52810  166.63720  166.63720    6.04080   94.73810   94.73810   63.30340   63.30340    5.74760    -999.25    5.31780    -999.25  -68.00430  -12.40880    5.31780
 3450.00000    9.52660    9.52660  184.25750  184.25750    5.42720   90.85680   90.85680   60.41960   60.41960    5.59200    -999.25    4.83170    -999.25  -67.80100  -12.76680    4.83170
 3500.00000    8.91660    8.91660  116.98960  116.98960    8.54780   89.53520   89.53520   41.58100   41.58100    8.40140    -999.25    9.79700    -999.25  -77.61130  -23.13570    9.79700
 3550.00000    9.35940    9.35940  158.35410  158.35410    6.32140   90.17180   90.17180   59.09040   59.09040    6.32310    -999.25    5.35310    -999.25  -67.61850  -13.69860    5.35310
 3600.00000    9.86240    9.86240  193.01370  193.01370    5.18100   95.56300   95.56300   58.87760   58.87760    5.41570    -999.25    4.39840    -999.25  -63.70890  -10.35030    4.39840
 3650.00000    9.80320    9.80320  167.53380  167.53380    5.96910   96.87740   96.87740   79.03590   79.03590    6.01910    -999.25    5.32650    -999.25  -63.95600  -11.15310    5.32650
 3700.00000    9.36930    9.36930  134.14100  134.14100    7.45480   93.89780   93.89780   77.58900   77.58900    7.41350    -999.25    6.70240    -999.25  -64.52870  -12.28710    6.70240
 3750.00000   10.35930   10.35930  172.89570  172.89570    5.78380  103.48350  103.48350   80.89100   80.89100    5.96850    -999.25    5.49670    -999.25  -62.64010  -10.95700    5.49670
 3800.00000    9.98770    9.98770  168.48170  168.48170    5.93540  104.80560  104.80560  106.23900  106.23900    5.94000    -999.25    6.11380    -999.25  -60.96760   -9.84030    6.11380
 3850.00000   10.00000   10.00000  126.21050  126.21050    7.92330   97.25800   97.25800  103.59940  103.59940    7.74540    -999.25    8.19630    -999.25  -61.88360  -11.31760    8.19630
 3900.00000    9.66060    9.66060  123.33210  123.33210    8.10830   92.06330   92.06330   92.00370   92.00370    8.41870    -999.25    8.11400    -999.25  -61.01140  -11.00100    8.11400
 3950.00000   10.44290   10.44290  150.62930  150.62930    6.63880   98.10780   98.10780   84.91440   84.91440    6.54570    -999.25    6.49000    -999.25  -58.87180   -9.77600    6.49000
 4000.00000   10.51370   10.51370  157.28290  157.28290    6.35800   98.45440   98.45440   85.68040   85.68040    6.37230    -999.25    5.85370    -999.25  -58.73670  -10.57520    5.85370
 4050.00000   10.06670   10.06670  114.68610  114.68610    8.71950   86.06590   86.06590   85.38160   85.38160    8.80190    -999.25    8.01180    -999.25  -58.34920  -11.11740    8.01180
 4100.00000   10.61120   10.61120  130.24590  130.24590    7.67780   91.77500   91.77500   80.79370   80.79370    7.69380    -999.25    6.88200    -999.25  -56.36030  -10.06740    6.88200
 4150.00000   10.55240   10.55240  145.47520  145.47520    6.87400   93.75950   93.75950  101.34350  101.34350    6.80960    -999.25    6.31590    -999.25  -54.71850   -9.35520    6.31590
 4200.00000   11.43290   11.43290  169.47470  169.47470    5.90060   97.87470   97.87470  103.47270  103.47270    6.08060    -999.25    5.35360    -999.25  -53.63620   -9.21190    5.35360
 4250.00000   11.13610   11.13610  153.12270  153.12270    6.53070   94.51640   94.51640   96.59900   96.59900    6.62530    -999.25    5.90190    -999.25  -51.92360   -8.43350    5.90190
 4300.00000   11.79880   11.79880  143.44020  143.44020    6.97160   89.91870   89.91870   85.15420   85.15420    6.95500    -999.25    5.95660    -999.25  -51.11880   -8.55840    5.95660
 4350.00000   10.60480   10.60480  127.43850  127.43850    7.84690   86.02010   86.02010   82.93880   82.93880    7.87090    -999.25    7.32460    -999.25  -51.10820   -9.48670    7.32460
 4400.00000   10.52280   10.52280  145.96500  145.96500    6.85190   91.94260   91.94260   91.64120   91.64120    6.90710    -999.25    6.14760    -999.25  -47.70840   -7.01650    6.14760
 4450.00000    9.39830    9.39830  148.85620  148.85620    6.71790   94.64190   94.64190  100.99480  100.99480    6.80180    -999.25    6.17260    -999.25  -46.27600   -6.70570    6.17260
 4500.00000   10.69520   10.69520  141.59690  141.59690    7.06230   89.54590   89.54590   94.20150   94.20150    6.99110    -999.25    6.65410    -999.25  -45.06760   -7.57280    6.65410
 4550.00000   10.22880   10.22880  162.60990  162.60990    6.14970   92.86410   92.86410   98.51840   98.51840    5.89760    -999.25    6.28150    -999.25  -42.96090   -7.53120    6.28150
 4600.00000   10.32150   10.32150  174.36820  174.36820    5.73500   97.33440   97.33440  103.80640  103.80640    5.96900    -999.25    6.53570    -999.25  -40.49030   -7.14660    6.53570
 4650.00000    9.94380    9.94380  151.82630  151.82630    6.58690   98.17250   98.17250  103.49420  103.49420    6.57330    -999.25    7.23680    -999.25  -39.65650   -8.37800    7.23680
 4700.00000    9.76070    9.76070  150.68940  150.68940    6.63620  100.47740  100.47740  110.61300  110.61300    6.71890    -999.25    7.54110    -999.25  -37.40860   -8.21600    7.54110
 4750.00000    8.81560    8.81560  123.85800  123.85800    8.07380   99.72260   99.72260  127.73730  127.73730    8.09490    -999.25   10.06000    -999.25  -37.28880  -10.17170   10.06000
 4800.00000    8.75030    8.75030  126.51240  126.51240    7.90460  100.90370  100.90370  125.91280  125.91280    7.84470    -999.25    9.84540    -999.25  -36.04120  -11.16790    9.84540
 4850.00000    9.32390    9.32390  167.70460  167.70460    5.96290   98.91690   98.91690  102.96440  102.96440    6.10180    -999.25    7.01490    -999.25  -32.43170   -9.90630    7.01490
 4900.00000    9.26340    9.26340  132.21280  132.21280    7.56370   85.89180   85.89180   93.81220   93.81220    7.45930    -999.25    7.10580    -999.25  -33.33660  -13.13580    7.10580
 4950.00000    9.35890    9.35890  184.13990  184.13990    5.43070   88.50400   88.50400   96.49870   96.49870    5.51450    -999.25    5.73180    -999.25  -28.13130  -10.27840    5.73180
 5000.00000    9.38270    9.38270  172.17060  172.17060    5.80820   90.15750   90.15750  107.66890  107.66890    5.29730    -999.25    6.15190    -999.25  -27.82540  -12.30880    6.15190
 5050.00000    9.66880    9.66880  183.53530  183.53530    5.44880   90.06720   90.06720   91.54190   91.54190    5.19100    -999.25    5.75590    -999.25  -26.92750  -11.76210    5.75590
 5100.00000    9.83470    9.83470  205.63490  205.63490    4.86300   91.31970   91.31970  101.95990  101.95990    4.55200    -999.25    5.45830    -999.25  -26.92960  -11.89620    5.45830
 5150.00000    9.64740    9.64740  143.06630  143.06630    6.99030   87.12710   87.12710   97.42980   97.42980    6.34050    -999.25    7.17010    -999.25  -29.17870  -14.27590    7.17010
 5200.00000   12.39490   12.39490  254.08130  254.08130    3.93570  101.84720  101.84720   92.96780   92.96780    3.71870    -999.25    4.55350    -999.25  -25.20530  -10.43450    4.55350
 5250.00000   11.81910   11.81910  184.03690  184.03690    5.43370   90.58960   90.58960   99.93730   99.93730    5.04290    -999.25    6.20580    -999.25  -23.55920   -8.91980    6.20580
 5300.00000   11.07220   11.07220  337.18050  337.18050    2.96930  103.31590  103.31590  126.04370  126.04370    2.80870    -999.25    3.83000    -999.25  -23.29520   -8.78640    3.83000
 5350.00000   11.34040   11.34040  345.73610  345.73610    2.89240  110.21140  110.21140   86.38210   86.38210    2.74370    -999.25    3.60170    -999.25  -22.51680   -8.14010    3.60170
