~Version ---------------------------------------------------
VERS. 2.0 : CWLS log ASCII Standard -VERSION 2.0
WRAP.  NO : ONE LINE PER DEPTH STEP
~Well ------------------------------------------------------
STRT.F                                   347.3 : START DEPTH
STOP.F                                  9458.8 : STOP DEPTH
STEP.F                                 0.50000 : STEP LENGTH
NULL.                                  -999.25 : NULL VALUE
COMP. THE BRITISH AMERICAN OIL COMPANY LIMITED : COMPANY
WELL.              B.A. GOOSE RIVER 4-32-66-18 : WELL
FLD .                                          : FIELD
LOC .                                          : LOCATION
CTRY.                                   CANADA : COUNTRY
SRVC.                             Schlumberger : SERVICE COMPANY
DATE.                              02-Dec-1964 : LOGDATE
PROV.                                  Alberta : PROVINCE
UWI .                         100043206618W500 : UNIQUE WELL ID
SLAT.WGS84                            54.75185 : SURFACE LATITUDE
SLON.WGS84                           -116.6939 : SURFACE LONGITUDE
~Curve Information -----------------------------------------
DEPT.F    0   1   0  0 : 1 MEASURED DEPTH
GRN .GAPI 35 310 01 00 : GAMMA RAY FROM GRN LOG
NEUT.NAPI 35 330 01 00 : NEUTRON
GR  .GAPI 30 310 00 00 : GAMMA RAY
CILD.MMHO 05 110 46 00 : INDUCTION DEEP CONDUCTIVITY
ILD .OHMM 05 120 46 00 : INDUCTION DEEP RESISTIVITY
SN  .OHMM 05 040 16 00 : SHORT NORMAL RESISTIVITY
SPR .MV   05 010 01 00 : SPONTANEOUS POTENTIAL FROM RESISTIVITY LOG
GRS .GAPI 60 310 01 00 : GAMMA RAY FROM SONIC LOG
DT  .US/F 60 500 00 00 : DELTA-T (INTERVAL TRANSIT TIME)
CALS.IN   60 280 50 00 : CALIPER FROM SONIC LOG
DT_1.US/F 60 500 31 00 : DELTA-T (INTERVAL TRANSIT TIME)
~Params ----------------------------------------------------
PD  .                     GL : PERMANENT DATUM
EPD .FT                 2485 : ELEVATION PERMANENT DATUM
LMF .                     KB : LOG MEASURED FROM
DAPD.FT                   15 : FEET ABOVE PERMANENT DATUM
EKB .FT                 2500 : KELLY BUSHING
EGL .FT                 2485 : GROUND LEVEL
DATE.               12/02/64 : RUN DATE
RUN .                      1 : RUN NUMBER
DD  .FT                 9461 : DEPTH DRILLER
DL  .FT                 9460 : DEPTH LOGGER
BLI .FT                 9459 : BOTTOM LOG INTERVAL
TLI .FT                  781 : TOP LOG INTERVAL
CBD .FT                  784 : CASING BOTTOM DRILLER
CBL .FT                  781 : CASING BOTTOM LOGGER
BS  .IN                7.625 : BIT SIZE
BSD .FT                 9461 : BIT SIZE AT DEPTH
DFT .               GEL CHEM : DRILLING FLUID TYPE
DFD .                    9.8 : DRILLING FLUID DENSITY
DFV .                     95 : DRILLING FLUID VISCOSITY
DFPH.                    9.5 : DRILLING FLUID PH
DFL .                    7.4 : DRILLING FLUID LOSS
RMS .OHMM               2.38 : RESISTIVITY MUD SAMPLE
MST .DEGF                 64 : MUD SAMPLE TEMPERATURE
RMF .OHMM                2.1 : RESISTIVITY MUD FILTRATE SAMPLE
MFST.DEGF                 66 : MUD FILTRATE SAMPLE TEMPERATURE
RMC .OHMM               2.32 : RESISTIVITY MUD CAKE
MCST.DEGF                 66 : MUD CAKE SAMPLE TEMPERATURE
RMB .OHMM               0.84 : RESISTIVITY MUD AT BHT
TCS .HRS                   6 : TIME CIRCULATED STOPPED
LUN .                   3534 : LOGGING UNIT NUMBER
LUL .                    V V : LOGGING UNIT LOCATION
ENGI.               CHENOSKY : RECORDING ENGINEER
WITN.                  WEISS : WITNESSED BY
CLNT.                A2DTECH : CLIENT CODE
ORIG.            2" 5" PRINT : ORIGIN OF DATA
UWI .       100043206618W500 : UNIQUE WELL ID
DICO. A2D Technologies, Inc. : DIGITIZING COMPANY
~Other -----------------------------------------------------
~ASCII -----------------------------------------------------
# ...
 5959.30000    -999.25    -999.25    -999.25   32.08300   32.43420   73.92490 -154.27510   31.71270   53.96420    8.16830    -999.25
 5959.80000    -999.25    -999.25    -999.25   30.42690   34.56710   74.78750 -154.70720   29.32920   54.13260    8.06820    -999.25
 5960.30000    -999.25    -999.25    -999.25   28.77780   37.37820   75.22970 -155.00920   27.47270   54.13980    8.03890    -999.25
 5960.80000    -999.25    -999.25    -999.25   26.18220   40.63070   75.66990 -155.06460   26.39360   53.26020    8.09060    -999.25
 5961.30000    -999.25    -999.25    -999.25   24.13820   44.70250   76.20060 -155.30240   23.75500   53.21430    8.19250    -999.25
 5961.80000    -999.25    -999.25    -999.25   21.99520   48.53630   76.54720 -155.15630   21.75590   52.71700    8.41800    -999.25
 5962.30000    -999.25    -999.25    -999.25   20.96280   54.09840   76.79510 -154.81640   22.61540   52.65130    8.50960    -999.25
 5962.80000    -999.25    -999.25    -999.25   19.74940   58.86600   77.70700 -154.31230   22.79640   52.88120    8.60450    -999.25
 5963.30000    -999.25    -999.25    -999.25   18.51630   63.63370   79.22780 -153.92210   22.59730   53.43430    8.65740    -999.25
 5963.80000    -999.25    -999.25    -999.25   17.42550   68.40130   80.92920 -153.82190   22.53940   53.75250    8.66950    -999.25
 5964.30000    -999.25    -999.25    -999.25   16.39880   73.16890   83.57520 -154.29750   23.13310   53.72530    8.75560    -999.25
 5964.80000    -999.25    -999.25    -999.25   15.09510   77.93660   86.30710 -154.75640   23.53380   53.69330    8.89050    -999.25
 5965.30000    -999.25    -999.25    -999.25   13.96090   83.56200   88.25370 -155.13220   20.68590   53.84970    8.77420    -999.25
 5965.80000    -999.25    -999.25    -999.25   12.80790   89.71950   90.19330 -155.51430   19.24370   53.23290    8.65800    -999.25
 5966.30000    -999.25    -999.25    -999.25   12.11850   95.87710   92.13300 -155.80870   20.06310   52.37760    8.55720    -999.25
 5966.80000    -999.25    -999.25    -999.25   11.17140  102.03460   94.07260 -155.89330   20.83240   52.07640    8.62290    -999.25
 5967.30000    -999.25    -999.25    -999.25   10.80230  108.19210   96.01230 -156.35370   23.50750   52.28540    8.77740    -999.25
 5967.80000    -999.25    -999.25    -999.25   10.16340  113.21090   97.95190 -156.95720   24.80630   52.30620    8.73070    -999.25
 5968.30000    -999.25    -999.25    -999.25    9.77490  114.36370   99.48720 -157.57580   24.72690   51.85740    8.67360    -999.25
 5968.80000    -999.25    -999.25    -999.25   10.05130  112.40050  100.76760 -158.68050   23.59410   52.21810    8.77830    -999.25
 5969.30000    -999.25    -999.25    -999.25    9.80320  108.88270  101.94590 -159.58380   21.94310   51.96140    8.77430    -999.25
 5969.80000    -999.25    -999.25    -999.25    9.88500  105.32380  103.08310 -160.43150   21.75370   51.48250    8.71710    -999.25
 5970.30000    -999.25    -999.25    -999.25   10.20890  102.32800  104.22030 -161.21910   22.27120   51.69760    8.70800    -999.25
 5970.80000    -999.25    -999.25    -999.25   10.68970  101.05740  104.29470 -162.17920   22.60500   51.89960    8.70800    -999.25
 5971.30000    -999.25    -999.25    -999.25   10.36010   99.78670  103.62650 -163.03810   22.52450   51.83820    8.72380    -999.25
 5971.80000    -999.25    -999.25    -999.25   11.23980   93.39820  102.90780 -164.02780   22.50420   51.74080    8.74320    -999.25
 5972.30000    -999.25    -999.25    -999.25   12.11370   86.38130  102.18910 -165.07560   22.94540   52.17270    8.75880    -999.25
 5972.80000    -999.25    -999.25    -999.25   13.04210   78.33270  102.25680 -165.73040   22.09890   52.59530    8.76310    -999.25
 5973.30000    -999.25    -999.25    -999.25   14.61360   69.97010  101.67300 -166.49150   20.76210   52.17090    8.75410    -999.25
 5973.80000    -999.25    -999.25    -999.25   16.87230   61.60740  100.55690 -167.54670   21.20910   51.58920    8.62670    -999.25
 5974.30000    -999.25    -999.25    -999.25   19.02210   53.24470   99.30390 -168.59520   19.59310   51.50380    8.47710    -999.25
 5974.80000    -999.25    -999.25    -999.25   21.12580   46.95860   97.46800 -169.48700   17.04600   51.50570    8.58020    -999.25
 5975.30000    -999.25    -999.25    -999.25   23.12980   43.23600   95.69630 -170.56580   16.62670   51.21530    8.67480    -999.25
 5975.80000    -999.25    -999.25    -999.25   25.16190   40.21150   93.47660 -171.40510   19.26790   51.35190    8.70380    -999.25
 5976.30000    -999.25    -999.25    -999.25   26.28640   38.00120   91.71610 -172.40830   20.93350   51.76530    8.71040    -999.25
 5976.80000    -999.25    -999.25    -999.25   27.27790   36.76710   90.81080 -173.46870   22.09880   52.28590    8.61330    -999.25
 5977.30000    -999.25    -999.25    -999.25   27.79780   36.44150   90.25120 -174.12770   21.88130   52.54350    8.44760    -999.25
 5977.80000    -999.25    -999.25    -999.25   27.38820   37.50780   90.57640 -174.79310   21.24910   52.88260    8.26600    -999.25
 5978.30000    -999.25    -999.25    -999.25   26.67290   38.78470   90.59050 -175.30060   21.34830   53.05940    8.26870    -999.25
 5978.80000    -999.25    -999.25    -999.25   25.48950   40.85620   90.95390 -175.73300   23.50170   52.87950    8.50420    -999.25
 5979.30000    -999.25    -999.25    -999.25   24.51280   42.81270   91.36450 -176.19070   25.41830   52.68280    8.70290    -999.25
 5979.80000    -999.25    -999.25    -999.25   23.41240   43.95050   91.78160 -176.68270   26.04130   52.36390    8.66690    -999.25
 5980.30000    -999.25    -999.25    -999.25   22.98390   44.52490   92.19860 -177.17910   23.46930   52.05740    8.32730    -999.25
 5980.80000    -999.25    -999.25    -999.25   23.17850   44.06820   92.61570 -177.66410   20.96080   51.68590    8.47010    -999.25
 5981.30000    -999.25    -999.25    -999.25   23.97130   42.74110   92.73790 -178.08920   20.64060   51.57900    8.73860    -999.25
 5981.80000    -999.25    -999.25    -999.25   24.95160   40.82330   92.74450 -178.88570   19.60200   51.64980    8.85980    -999.25
 5982.30000    -999.25    -999.25    -999.25   26.16700   39.05690   92.75870 -179.30790   18.81040   51.51530    8.84470    -999.25
 5982.80000    -999.25    -999.25    -999.25   26.88740   37.29300   92.04120 -179.47380   18.58730   51.46450    8.79260    -999.25
 5983.30000    -999.25    -999.25    -999.25   27.69880   36.20070   91.56380 -179.50640   19.38620   51.64770    8.74090    -999.25
 5983.80000    -999.25    -999.25    -999.25   28.68060   35.71840   91.57890 -179.43120   19.53560   51.93290    8.67370    -999.25
 5984.30000    -999.25    -999.25    -999.25   28.81610   35.57600   91.46420 -179.29850   17.60740   52.41700    8.42870    -999.25
 5984.80000    -999.25    -999.25    -999.25   28.64820   35.87310   91.12070 -179.06800   17.80270   53.10840    8.26340    -999.25
 5985.30000    -999.25    -999.25    -999.25   28.23910   36.50440   91.41370 -177.65430   18.94910   53.72330    8.25040    -999.25
 5985.80000    -999.25    -999.25    -999.25   27.15260   37.11720   91.59020 -176.80870   20.19910   53.82150    8.24360    -999.25
 5986.30000    -999.25    -999.25    -999.25   27.42540   37.42180   91.45520 -175.84440   21.99700   53.72620    8.23810    -999.25
 5986.80000    -999.25    -999.25    -999.25   27.75690   36.71650   90.69010 -174.83460   22.51790   53.58590    8.32840    -999.25
 5987.30000    -999.25    -999.25    -999.25   28.88600   34.62600   89.98520 -174.11590   21.96300   52.90860    8.57170    -999.25
 5987.80000    -999.25    -999.25    -999.25   32.74720   31.06250   88.20830 -173.11200   20.72400   52.18050    8.93150    -999.25
 5988.30000    -999.25    -999.25    -999.25   36.71790   26.91900   86.04630 -171.99200   19.10960   51.74250    8.81720    -999.25
 5988.80000    -999.25    -999.25    -999.25   43.42790   22.84310   83.02310 -171.21970   18.57660   51.62740    8.82870    -999.25
 5989.30000    -999.25    -999.25    -999.25   50.81700   18.28230   79.71810 -170.36720   19.40430   51.22150    8.99700    -999.25
