~Version ---------------------------------------------------
VERS.      2.0 : CWLS log ASCII Standard -VERSION 2.0
WRAP.       NO : One line per depth step
CREA. 10/01/14 : LAS Creation Date
~Well ------------------------------------------------------
STRT.FT                                  935.9 : START DEPTH
STOP.FT                                 9375.9 : STOP DEPTH
STEP.FT                                0.50000 : STEP LENGTH
NULL.                                  -999.25 : NULL VALUE
COMP. THE BRITISH AMERICAN OIL COMPANY LIMITED : COMPANY
WELL.        B.A. EAST GOOSE RIVER 10-22-66-15 : WELL
FLD .                                          : FIELD
LOC .                                          : LOCATION
CTRY.                                   CANADA : COUNTRY
SRVC.                   Schlumberger of Canada : SERVICE COMPANY
DATE.                              16-Mar-1960 : LOGDATE
PROV.                                  Alberta : PROVINCE
UWI .                         100102206615W500 : UNIQUE WELL ID
SLAT.WGS84                            54.72873 : SURFACE LATITUDE
SLON.WGS84                           -116.1771 : SURFACE LONGITUDE
~Curve Information -----------------------------------------
DEPT.FT      : DEPTH FEET
CILD.MMHO    : CONDUCTIVITY FROM RESISTIVITY LOG
DT  .US/F    : DELTA-T FROM SONIC LOG
GRS .MG/TON  : GAMMA RAY FROM SONIC LOG
ILD .OHMM    : DEEP INDUCTION FROM RESISTIVITY LOG
MCAL.IN      : MLT CALIPER FROM MICRO LOG
SN  .OHMM    : SHORT NORMAL FROM RESISTIVITY LOG
SPR .MV      : SPONTANEOUS POTENTIAL FROM RESISTIVITY LOG
~Params ----------------------------------------------------
LMF .                     KB : LOG MEASURED FROM
DMF .                     KB : DRILLING MEASURED FROM
EKB .FT                 3222 : KELLY BUSHING
EGL .FT                 3205 : GROUND LEVEL
DATE.               03/16/60 : RUN DATE
RUN .                      2 : RUN NUMBER
DD  .FT                 9370 : DEPTH DRILLER
DL  .FT                 9378 : DEPTH LOGGER
BLI .FT                 9373 : BOTTOM LOG INTERVAL
TLI .FT                 5000 : TOP LOG INTERVAL
CBD .FT                  975 : CASING BOTTOM DRILLER
BS  .IN                    9 : BIT SIZE
BSD .FT                 9370 : BIT SIZE AT DEPTH
DFT .                    GEL : DRILLING FLUID TYPE
DFD .                     10 : DRILLING FLUID DENSITY
DFV .                    120 : DRILLING FLUID VISCOSITY
DFPH.                     10 : DRILLING FLUID PH
DFL .                    6.2 : DRILLING FLUID LOSS
RMS .OHMM                2.8 : RESISTIVITY MUD SAMPLE
MST .DEGF                 59 : MUD SAMPLE TEMPERATURE
RMF .OHMM               1.41 : RESISTIVITY MUD FILTRATE SAMPLE
MFST.DEGF                 68 : MUD FILTRATE SAMPLE TEMPERATURE
RMC .OHMM               2.56 : RESISTIVITY MUD CAKE
MCST.DEGF                 67 : MUD CAKE SAMPLE TEMPERATURE
RMB .OHMM               0.94 : RESISTIVITY MUD AT BHT
TCS .HRS                 4.5 : TIME CIRCULATED STOPPED
LUN .                  1573C : LOGGING UNIT NUMBER
LUL .                     WC : LOGGING UNIT LOCATION
ENGI.              HAUSEGGER : RECORDING ENGINEER
WITN.                   COTE : WITNESSED BY
CLNT.                A2DTECH : CLIENT CODE
ORIG.            2" 5" PRINT : ORIGIN OF DATA
UWI .       100102206615W500 : UNIQUE WELL ID
DICO. A2D Technologies, Inc. : DIGITIZING COMPANY
~Other -----------------------------------------------------
~ASCII -----------------------------------------------------
# ...
 5435.90000   19.71720   64.85100    2.13250   66.13580    8.92060   84.83530  -52.10350
 5436.40000   19.94330   65.57490    2.39090   66.38630    8.89090   83.25550  -52.11520
 5436.90000   20.40890   66.69820    2.60170   66.65500    9.06770   82.07440  -52.10520
 5437.40000   20.87440   66.34020    2.64030   64.75120    9.03060   81.24690  -52.20050
 5437.90000   21.34000   65.61870    2.51670   63.14800    9.04020   81.12300  -52.11430
 5438.40000   21.88790   65.67400    2.43700   62.56870    9.06880   81.20220  -52.28510
 5438.90000   22.48650   65.87610    2.13770   61.19460    9.10800   82.48950  -52.67870
 5439.40000   22.06080   65.73780    2.06390   61.51990    9.07880   83.76700  -52.74130
 5439.90000   20.47240   65.43100    2.21100   65.04990    9.02800   87.97590  -52.41830
 5440.40000   19.85630   65.50820    2.32280   66.83950    9.08680   90.31130  -52.27710
 5440.90000   17.94210   66.77390    2.56540   75.27360    9.11790   99.48140  -51.93020
 5441.40000   17.29300   66.42000    2.59180   76.93560    9.05190  102.00090  -51.98160
 5441.90000   15.34570   65.80380    2.65380   95.01190    8.90300  112.06950  -52.03610
 5442.40000   14.69660   65.84640    2.66460   98.88660    8.94910  115.13450  -52.18630
 5442.90000   13.39190   65.73310    2.58890  110.51050    8.99210  124.32940  -52.76580
 5443.40000   13.33450   65.38130    2.56530  114.38510    8.96340  125.80960  -53.04530
 5443.90000   13.16250   64.15860    2.58670  126.00910    8.92650  132.37760  -54.13050
 5444.40000   13.10520   64.00880    2.50450  128.69780    8.92240  134.92160  -54.67810
 5444.90000   12.93320   63.64420    2.19490  134.88970    8.90580  142.55330  -55.98810
 5445.40000   12.81850   63.23690    2.05590  138.39280    8.85950  147.64120  -56.39880
 5445.90000   12.70390   62.84060    2.19520  141.40800    8.72900  152.24610  -56.59520
 5446.40000   12.58920   62.50610    2.43260  138.28110    8.85800  157.38440  -56.97630
 5446.90000   12.47450   62.34370    2.52000  132.21460    8.95360  163.65350  -57.82860
 5447.40000   12.37940   62.31680    2.38730  152.51370    8.93000  169.65450  -57.86830
 5447.90000   12.38120   62.14690    2.28260  165.92790    8.88080  172.65500  -57.54700
 5448.40000   12.38300   61.17860    2.07460  152.54500    8.73330  181.65660  -58.26470
 5448.90000   12.38470   60.91060    2.13830  176.01930    8.69930  184.64220  -58.29730
 5449.40000   12.38650   60.62720    2.21680  153.02280    8.79750  193.29310  -58.84940
 5449.90000   12.38740   60.70980    2.11030  152.38710    8.81770  196.12570  -58.81380
 5450.40000   12.39000   60.87380    1.80220  185.23700    8.64250  204.67540  -58.48910
 5450.90000   12.39090   60.91450    1.85770  202.37910    8.66080  207.57210  -58.34460
 5451.40000   12.39360   61.02190    2.17550  233.98030    8.63350  216.26200  -57.95480
 5451.90000   12.39440   60.92030    2.31930  239.33150    8.69530  219.16910  -57.86870
 5452.40000   12.39710   60.32120    2.57590  236.95820    8.80670  231.70170  -57.74530
 5452.90000   12.39800   59.90720    2.45310  242.33650    8.81160  236.32800  -57.69310
 5453.40000   12.49870   58.63570    1.93450  264.03640    8.78190  249.84170  -57.69170
 5453.90000   12.64050   58.35860    1.82920  287.75760    8.72190  254.37980  -57.50290
 5454.40000   13.06600   58.53470    1.81980  385.84770    8.61170  267.99410  -56.65750
 5454.90000   13.20790   58.45850    1.96390  404.30540    8.67110  271.82480  -56.25290
 5455.40000   13.63330   58.62300    2.46490  450.33160    8.65490  281.58820  -54.94940
 5455.90000   13.91700   58.89070    2.59020  428.94590    8.70310  286.31620  -53.98620
 5456.40000   14.20060   59.12160    2.25000  399.98640    8.76370  290.26240  -52.84690
 5456.90000   14.48000   59.13560    1.81570  418.33070    8.69450  293.89860  -51.67630
 5457.40000   14.47100   59.16130    1.88920  469.65870    8.66570  295.30410  -50.22540
 5457.90000   14.46200   59.59850    2.38150  412.09500    8.66570  296.41910  -48.95700
 5458.40000   14.45300   59.48400    2.67060  365.08850    8.67030  296.91910  -48.18870
 5458.90000   14.44400   59.55480    3.25170  361.37400    8.71970  297.66500  -46.20870
 5459.40000   14.36420   59.63500    3.13250  351.51000    8.70510  297.56770  -45.95480
 5459.90000   14.16990   58.49170    2.36010  376.99690    8.65110  295.91850  -45.16140
 5460.40000   14.07280   57.81670    2.12060  338.94580    8.64760  294.59200  -45.02110
 5460.90000   13.78140   56.50480    1.70260  244.65760    8.69290  290.56720  -45.80090
 5461.40000   13.68420   56.69260    1.67920  273.68620    8.73330  289.27970  -45.91570
 5461.90000   13.39280   58.02000    1.70590  339.93330    8.65970  281.41330  -46.50770
 5462.40000   13.29560   58.54890    1.86010  310.48850    8.63300  278.40020  -46.67680
 5462.90000   13.00420   60.25240    2.62060  232.63600    8.70190  269.38310  -47.96920
 5463.40000   12.90710   60.48930    2.89020  252.94130    8.68590  266.38120  -47.76120
 5463.90000   12.61560   60.79240    3.29450  241.18240    8.69220  257.37520  -47.03410
 5464.40000   12.51850   60.61180    3.12610  222.59580    8.70540  254.37320  -47.09430
 5464.90000   12.22700   59.39950    2.14720  180.47010    8.71290  246.18860  -47.38830
 5465.40000   12.05250   59.09280    1.85550  189.27180    8.71000  243.22280  -47.26640
 5465.90000   11.49000   59.10470    1.37300  205.13100    8.71340  234.21240  -46.16000
 5466.40000   11.10210   60.13920    1.60880  195.81710    8.73840  230.61890  -46.21880
 5466.90000   11.10950   61.67120    2.15130  172.80920    8.87040  228.98610  -45.90070
 5467.40000   11.13010   62.98930    2.64670  185.25430    8.98370  229.76060  -45.62880
 5467.90000   11.15070   63.73680    2.96970  187.52850    8.82740  232.70750  -45.58730
 5468.40000   11.17120   63.27250    2.84410  201.47620    8.69300  237.85640  -45.30210
 5468.90000   11.19180   63.25250    2.75060  200.81990    8.68150  240.38550  -45.31760
 5469.40000   11.21240   64.49680    2.40460  189.50220    8.75730  245.77970  -45.75630
 5469.90000   11.23300   65.45790    2.34550  208.28240    8.70980  247.24160  -45.95280
 5470.40000   11.25350   68.02870    2.70130  289.58480    8.71630  251.62760  -45.96690
 5470.90000   11.26380   68.60390    3.09830  303.38640    8.75270  253.01440  -46.01470
 5471.40000   11.29470   71.18600    4.22770  306.73220    8.84860  256.13230  -46.61390
 5471.90000   11.30500   72.43010    4.29180  315.47330    8.80680  257.32250  -47.02230
 5472.40000   11.33580   74.25900    4.06950  351.38950    8.64600  258.38920  -48.25140
 5472.90000   11.34610   74.41830    3.99280  347.47710    8.64070  257.31510  -48.64160
 5473.40000   11.37700   74.94290    4.12960  328.43320    8.66100  252.57890  -49.73500
 5473.90000   11.38730   76.27230    4.32830  324.91940    8.67790  250.48050  -50.04910
 5474.40000   11.41810   80.40980    5.02450  295.80930    8.72070  240.12600  -50.95700
 5474.90000   11.42840   81.10440    5.43560  274.87850    8.73410  235.65260  -51.19380
 5475.40000   11.45930   83.22400    6.64320  222.56570    8.79890  222.23260  -52.59870
 5475.90000   11.45550   84.93370    7.48190  191.31850    8.86850  212.49600  -53.56540
 5476.40000   11.44650   87.08180    7.58570  170.31050    8.93810  206.57520  -54.73470
 5476.90000   11.43740   89.13260    6.90740  186.92290    9.00770  200.11370  -56.02910
 5477.40000   11.42840   89.03730    6.39190  179.70770    9.07710  195.79860  -57.21430
 5477.90000   11.41940   87.15430    6.25450  141.38600    9.07620  191.22360  -59.45770
 5478.40000   11.41040   85.28630    6.37850  155.66100    9.02860  187.70680  -61.50490
 5478.90000   11.40140   83.02210    6.22610  216.80590    8.98110  183.23680  -62.99630
 5479.40000   11.39240   81.76340    5.78700  199.83470    8.96070  181.00180  -64.62430
 5479.90000   11.38340   75.69450    4.08420  166.29310    8.93440  174.29670  -69.00860
 5480.40000   11.37440   74.23080    3.91560  169.38220    8.93150  168.17670  -70.03320
