~Version ---------------------------------------------------
VERS.      2.0 : CWLS log ASCII Standard -VERSION 2.0
WRAP.       NO : One line per depth step
CREA. 11/20/17 : LAS Creation Date
~Well ------------------------------------------------------
STRT.FT                  850.0 : START DEPTH
STOP.FT                 8000.0 : STOP DEPTH
STEP.FT               50.00000 : STEP LENGTH
NULL.                  -999.25 : NULL VALUE
COMP.     IMPERIAL OIL LIMITED : COMPANY
WELL. IMP IROQUOIS 10-21-75-19 : WELL
FLD .                          : FIELD
LOC .                          : LOCATION
CTRY.                   CANADA : COUNTRY
SRVC.             Schlumberger : SERVICE COMPANY
DATE.              06-Jan-1962 : LOGDATE
PROV.                  Alberta : PROVINCE
UWI .         100102107519W500 : UNIQUE WELL ID
SLAT.WGS84            55.51402 : SURFACE LATITUDE
SLON.WGS84           -116.8811 : SURFACE LONGITUDE
~Curve Information -----------------------------------------
DEPT  .FT         : Depth Curve
CALSED.IN         : CALIPER FROM SONIC LOG [ADJ. TO RESISTIVITY LOG]
CALWS .IN         : CALIPER [CALSED]
CILDED.MMHO       : CONDUCTIVITY FROM RESISTIVITY LOG
CONDWS.MMHO       : CONDUCTIVITY [1000/DRESWS]
DRESWS.OHMM       : DEEP RESISTIVITY [1000/CILDED IF ILDED <=2.5, ILDED]
DT1ED .US/F       : DELTA TIME SPACING 3' PICKUP SPAN 1'FROM SONIC LOG [ADJ. TO RESISTIVITY LOG]
DTED  .US/F       : DELTA TIME SPACING 3' PICKUP SPAN 3'FROM SONIC LOG [ADJ. TO RESISTIVITY LOG]
DTWS  .US/F       : COMPRESSIONAL SONIC [DTED]
GRSED .UgRa-Eq/T  : GAMMA RAY FROM SONIC LOG [ADJ. TO RESISTIVITY LOG]
GRWS  .GAPI       : GAMMA RAY [GRSED, CONVERTED TO GAPI UNIT *16.5]
ILDED .OHMM       : DEEP INDUCTION  RESISTIVITY FROM RESISTIVITY LOG
SNED  .OHMM       : SHORT NORMAL 16" RESISTIVITY FROM RESISTIVITY LOG
SPRED .MV         : SPONTANEOUS POTENTIAL FROM RESISTIVITY LOG
SPWS  .MV         : SPONTANEOUS POTENTIAL [BASELINE 0 MV, SPRED]
SRESWS.OHMM       : SHALLOW RESISTIVITY [SNED]
~Params ----------------------------------------------------
PD  .                     GL : PERMANENT DATUM
EPD .FT               2116.7 : ELEVATION PERMANENT DATUM
LMF .                     KB : LOG MEASURED FROM
DAPD.FT                 12.3 : FEET ABOVE PERMANENT DATUM
DMF .                     KB : DRILLING MEASURED FROM
EKB .FT                 2129 : KELLY BUSHING
EGL .FT               2116.7 : GROUND LEVEL
DATE.               01/06/62 : RUN DATE
RUN .                      1 : RUN NUMBER
DD  .FT                 8030 : DEPTH DRILLER
DL  .FT                 8036 : DEPTH LOGGER
BLI .FT                 8031 : BOTTOM LOG INTERVAL
TLI .FT                  854 : TOP LOG INTERVAL
CBD .FT                  856 : CASING BOTTOM DRILLER
CBL .FT                  854 : CASING BOTTOM LOGGER
BS  .IN                 8.75 : BIT SIZE
BSD .FT                 8030 : BIT SIZE AT DEPTH
DFT .                    GEL : DRILLING FLUID TYPE
DFD .                   10.1 : DRILLING FLUID DENSITY
DFV .                     66 : DRILLING FLUID VISCOSITY
DFPH.                     10 : DRILLING FLUID PH
DFL .                    9.6 : DRILLING FLUID LOSS
RMS .OHMM                  2 : RESISTIVITY MUD SAMPLE
MST .DEGF                 40 : MUD SAMPLE TEMPERATURE
RMF .OHMM                1.2 : RESISTIVITY MUD FILTRATE SAMPLE
MFST.DEGF                 60 : MUD FILTRATE SAMPLE TEMPERATURE
RMC .OHMM                3.1 : RESISTIVITY MUD CAKE
MCST.DEGF                 60 : MUD CAKE SAMPLE TEMPERATURE
TCS .HRS                   3 : TIME CIRCULATED STOPPED
LUN .                   1511 : LOGGING UNIT NUMBER
LUL .                     DC : LOGGING UNIT LOCATION
ENGI.                PRATHER : RECORDING ENGINEER
WITN.                RAE ROY : WITNESSED BY
CLNT.                A2DTECH : CLIENT CODE
ORIG.            2" 5" PRINT : ORIGIN OF DATA
UWI .       100102107519W500 : UNIQUE WELL ID
DICO. A2D Technologies, Inc. : DIGITIZING COMPANY
~Other -----------------------------------------------------
IEL-BHC TOOLS RUN
DATA FROM 2" LOG
~ASCII -----------------------------------------------------
  850.00000    -999.25    -999.25    -999.25    -999.25    -999.25    -999.25    -999.25    -999.25    3.23550   53.38580    -999.25    -999.25    -999.25    -999.25    -999.25
  900.00000    -999.25    -999.25  140.05800  136.69230    7.31570    -999.25  131.91130  131.91130    5.23110   86.31310    7.31570    8.07480  -32.93250   -5.02640    8.07480
  950.00000    -999.25    -999.25  146.72550  146.33580    6.83360    -999.25  130.66250  130.66250    4.52240   74.61960    6.83360    7.28250  -33.79710   -5.51110    7.28250
 1000.00000    -999.25    -999.25  175.72150  174.83130    5.71980    -999.25  140.85990  140.85990    4.79840   79.17360    5.71980    6.71490  -33.27830   -4.61230    6.71490
 1050.00000    -999.25    -999.25  161.46950  159.50740    6.26930    -999.25  128.07650  128.07650    6.03280   99.54120    6.26930    7.62770  -30.70530   -1.87590    7.62770
 1100.00000    -999.25    -999.25  179.34250  179.48810    5.57140    -999.25  139.08640  139.08640    6.63070  109.40660    5.57140    7.21620  -30.10830   -1.27890    7.21620
 1150.00000    -999.25    -999.25  175.74530  168.31900    5.94110    -999.25  122.90220  122.90220    5.50790   90.88040    5.94110    7.51800  -31.89380   -3.06440    7.51800
 1200.00000    -999.25    -999.25  100.69010   98.78400   10.12310    -999.25  123.51370  123.51370    3.89270   64.22960   10.12310   11.68330  -46.69800  -17.86860   11.68330
 1250.00000    -999.25    -999.25  220.09950  215.44760    4.64150    -999.25  137.23480  137.23480    5.41140   89.28730    4.64150    5.48450  -30.19970   -1.38980    5.48450
 1300.00000    -999.25    -999.25  173.26360  171.61490    5.82700    -999.25  109.13260  109.13260    4.57330   75.45940    5.82700    6.31940  -34.75360   -6.22310    6.31940
 1350.00000    -999.25    -999.25  274.73700  253.54970    3.94400    -999.25  126.64470  126.64470    4.45670   73.53560    3.94400    4.43800  -29.47110   -1.22000    4.43800
 1400.00000    -999.25    -999.25  177.47230  171.53840    5.82960    -999.25  108.91210  108.91210    4.80640   79.30560    5.82960    6.71310  -38.33320  -10.36140    6.71310
 1450.00000    -999.25    -999.25  203.90650  206.84230    4.83460    -999.25  119.53740  119.53740    5.42150   89.45480    4.83460    5.73650  -30.74920   -3.05680    5.73650
 1500.00000    -999.25    -999.25  178.00030  175.62960    5.69380    -999.25  114.64470  114.64470    3.87890   64.00180    5.69380    6.65290  -46.07170  -18.42400    6.65290
 1550.00000    -999.25    -999.25  214.56110  206.99650    4.83100    -999.25  112.83970  112.83970    5.45390   89.98940    4.83100    5.65480  -30.24090   -3.11050    5.65480
 1600.00000    -999.25    -999.25  214.38380  222.36060    4.49720    -999.25  112.56490  112.56490    5.42430   89.50180    4.49720    5.23610  -27.98580   -2.84480    5.23610
 1650.00000    -999.25    -999.25  210.01980  215.87550    4.63230    -999.25  110.88270  110.88270    5.86630   96.79390    4.63230    5.27630  -28.45020   -5.29860    5.27630
 1700.00000    -999.25    -999.25  441.92580  441.92580    2.26280    -999.25  128.53680  128.53680    6.51220  107.45130    2.45440    3.10120  -24.47200   -2.73290    3.10120
 1750.00000    -999.25    -999.25  509.91830  509.91830    1.96110    -999.25  138.20010  138.20010    5.06870   83.63360    2.30630    2.74570  -23.67850   -1.93940    2.74570
 1800.00000    -999.25    -999.25  411.01100  411.01100    2.43300    -999.25  121.84430  121.84430    5.41040   89.27160    2.73340    3.24050  -25.65960   -2.62710    3.24050
 1850.00000    -999.25    -999.25  362.15730  362.15730    2.76120    -999.25  120.24760  120.24760    5.30710   87.56710    2.99660    3.56120  -27.79210   -3.21990    3.56120
 1900.00000    -999.25    -999.25  363.55160  363.55160    2.75060    -999.25  119.44540  119.44540    5.38710   88.88630    2.97780    3.93060  -28.50620   -2.39430    3.93060
 1950.00000    -999.25    -999.25  190.14940  188.46940    5.30590    -999.25  101.73180  101.73180    2.63300   43.44450    5.30590    7.43100  -64.54170  -38.07570    7.43100
 2000.00000    -999.25    -999.25  208.46750  204.29010    4.89500    -999.25   99.00720   99.00720    4.46020   73.59330    4.89500    5.85260  -32.03680   -5.57080    5.85260
 2050.00000    -999.25    -999.25  419.75900  419.75900    2.38230    -999.25  140.19740  140.19740    4.54840   75.04860    2.42630    3.39190  -33.47070   -6.86530    3.39190
 2100.00000    -999.25    -999.25  299.35330  269.11380    3.71590    -999.25  102.51200  102.51200    3.47640   57.36060    3.71590    5.49740  -49.89190  -23.07200    5.49740
 2150.00000    -999.25    -999.25  244.57690  239.18300    4.18090    -999.25  104.64220  104.64220    4.23530   69.88240    4.18090    4.89250  -43.19450  -16.16020    4.89250
 2200.00000    -999.25    -999.25  305.79040  305.79040    3.27020    -999.25  118.71040  118.71040    4.83500   79.77830    3.27340    4.16780  -31.26300   -4.01420    4.16780
 2250.00000    -999.25    -999.25  224.57680  226.12160    4.42240    -999.25  102.85230  102.85230    3.89600   64.28400    4.42240    5.68300  -44.13330  -16.67000    5.68300
 2300.00000    -999.25    -999.25  208.18070  198.48750    5.03810    -999.25  101.90660  101.90660    3.25590   53.72230    5.03810    7.31130  -70.42610  -43.10930    7.31130
 2350.00000    -999.25    -999.25  180.61780  179.04140    5.58530    -999.25  101.09160  101.09160    3.48100   57.43650    5.58530    7.61500  -65.41990  -40.46650    7.61500
 2400.00000    -999.25    -999.25  350.93880  350.93880    2.84950    -999.25  114.74790  114.74790    2.97700   49.12050    2.95600    4.29580  -69.81660  -47.22660    4.29580
 2450.00000    -999.25    -999.25  228.39100  217.03270    4.60760    -999.25  101.74280  101.74280    4.74740   78.33210    4.60760    6.26300  -39.55880  -15.70420    6.26300
 2500.00000    -999.25    -999.25  185.98610  197.11040    5.07330    -999.25  100.74230  100.74230    4.04120   66.67980    5.07330    6.85330  -48.84770  -22.48910    6.85330
 2550.00000    -999.25    -999.25  209.04930  204.43210    4.89160    -999.25  100.84500  100.84500    4.15650   68.58230    4.89160    7.09180  -52.83950  -26.99250    7.09180
 2600.00000    -999.25    -999.25  230.51260  231.46000    4.32040    -999.25  104.75900  104.75900    4.49240   74.12460    4.32040    5.26040  -27.89820   -2.56270    5.26040
 2650.00000    -999.25    -999.25  154.52650  161.48830    6.19240    -999.25  103.97770  103.97770    2.94320   48.56280    6.19240    9.10580  -71.39120  -46.34170    9.10580
 2700.00000    -999.25    -999.25  154.04360  145.88960    6.85450    -999.25   97.88970   97.88970    3.55300   58.62450    6.85450   10.81640  -59.24020  -34.45160   10.81640
 2750.00000    -999.25    -999.25  225.10580  209.18750    4.78040    -999.25  103.88990  103.88990    4.75490   78.45580    4.78040    6.21600  -28.06680   -3.53900    6.21600
 2800.00000    -999.25    -999.25  166.63800  159.77500    6.25880    -999.25   81.12990   81.12990    4.25260   70.16790    6.25880    8.37030  -27.59050   -3.32360    8.37030
 2850.00000    -999.25    -999.25  220.42500  215.16480    4.64760    -999.25  100.43110  100.43110    4.26150   70.31480    4.64760    6.21570  -33.24680   -9.04260    6.21570
 2900.00000    -999.25    -999.25  237.34360  231.79810    4.31410    -999.25   99.20020   99.20020    3.44850   56.90030    4.31410    6.22120  -55.94730  -31.46830    6.22120
 2950.00000    -999.25    -999.25  175.17780  183.54350    5.44830    -999.25   97.50340   97.50340    4.13060   68.15490    5.44830    7.57550  -37.00120  -12.24730    7.57550
 3000.00000    -999.25    -999.25  154.02730  152.51570    6.55670    -999.25   96.00150   96.00150    4.90660   80.95970    6.55670    8.31850  -30.63420   -5.60550    8.31850
 3050.00000    9.54290    9.54290  310.40650  310.40650    3.22160   99.97360  114.37040  114.37040    4.01050   66.17330    3.19380    4.55320  -28.93820   -3.56900    4.55320
 3100.00000    8.31270    8.31270   96.88140   93.62510   10.68090   94.02830   89.72810   89.72810    3.10740   51.27210   10.68090   13.93980  -48.85250  -22.27130   13.93980
