~Version ---------------------------------------------------
VERS.      2.0 : CWLS log ASCII Standard -VERSION 2.0
WRAP.       NO : One line per depth step
CREA. 11/21/17 : LAS Creation Date
~Well ------------------------------------------------------
STRT.FT                          1000.0 : START DEPTH
STOP.FT                         13800.0 : STOP DEPTH
STEP.FT                        50.00000 : STEP LENGTH
NULL.                           -999.25 : NULL VALUE
COMP. HUDSONS BAY OIL & GAS COMPANY LTD : COMPANY
WELL. HB AMOCO FINA BAYBERNE 11-5-57-18 : WELL
FLD .                                   : FIELD
LOC .                                   : LOCATION
CTRY.                            CANADA : COUNTRY
SRVC.                           Unknown : SERVICE COMPANY
DATE.                       13-Aug-1977 : LOGDATE
PROV.                           Alberta : PROVINCE
UWI .                  100110505718W500 : UNIQUE WELL ID
SLAT.WGS84                     53.89911 : SURFACE LATITUDE
SLON.WGS84                    -116.6428 : SURFACE LONGITUDE
~Curve Information -----------------------------------------
DEPT    .FT    : Depth Curve
CALDED  .IN    : CALIPER FROM DENSITY LOG [ADJ. TO RESISTIVITY LOG]
CALSED  .IN    : CALIPER FROM SONIC LOG
CALWS   .IN    : CALIPER [CALSED SPL. TO CALDED @ 5994']
CILDED  .MMHO  : CONDUCTIVITY FROM RESISTIVITY LOG
CONDWS  .MMHO  : CONDUCTIVITY [1000/DRESWS]
DCORWS  .G/C3  : DENSITY CORRECTION [DRHOED]
DENWS   .G/C3  : FORMATION BULK DENSITY [RHOBED]
DPHILSED.V/V   : DENSITY POROSITY LIMESTONE [M=2.71, F=1.00] FROM DENSITY LOG [ADJ. TO RESISTIVITY LOG]
DPHISSED.V/V   : DENSITY POROSITY SANDSTONE [M=2.65, F=1.00] FROM DENSITY LOG [ADJ. TO RESISTIVITY LOG]
DPOLSWS .V/V   : DENSITY POROSITY LIMESTONE [CALC. FROM DENWS, M=2.71, F=1.00]
DRESWS  .OHMM  : DEEP RESISTIVITY [ILDED]
DRHOED  .G/C3  : DENSITY CORRECTION FROM DENSITY LOG [ADJ. TO RESISTIVITY LOG]
DTED    .US/F  : DELTA TIME FROM SONIC LOG
DTWS    .US/F  : COMPRESSIONAL SONIC [DTED]
GRDED   .GAPI  : GAMMA RAY FROM DENSITY LOG [ADJ. TO RESISTIVITY LOG]
GRSED   .GAPI  : GAMMA RAY FROM SONIC LOG
GRWS    .GAPI  : GAMMA RAY [GRSED SPL. TO GRDED @ 13780']
ILDED   .OHMM  : DEEP INDUCTION RESISTIVITY FROM RESISTIVITY LOG
ILMED   .OHMM  : MEDIUM INDUCTION RESISTIVITY FROM RESISTIVITY LOG
LL8ED   .OHMM  : LATEROLOG-8 RESISTIVITY FROM RESISTIVITY LOG
MRESWS  .OHMM  : MEDIUM RESISTIVITY [ILMED]
NPHILSED.V/V   : NEUTRON POROSITY LIMESTONE FROM DENSITY LOG [ADJ. TO RESISTIVITY LOG]
NPHISSED.V/V   : NEUTRON POROSITY SANDSTONE FROM DENSITY LOG [ADJ. TO RESISTIVITY LOG]
NPOLSWS .V/V   : NEUTRON POROSITY LIMESTONE [NPHISSED MATRIX CONVERSION FOR LIMESTONE, SPL. TO NPHILSED @ 8509']
RHOBED  .G/C3  : BULK DENSITY FROM DENSITY LOG [ADJ. TO RESISTIVITY LOG]
SPRED   .MV    : SPONTANEOUS POTENTIAL FROM RESISTIVITY LOG [ADJ. TO RESISTIVITY LOG]
SPWS    .MV    : SPONTANEOUS POTENTIAL [BASELINE 0 MV, SPRED]
SRESWS  .OHMM  : SHALLOW RESISTIVITY [LL8ED]
~Params ----------------------------------------------------
PD  .                     GL : PERMANENT DATUM
EPD .FT               3898.7 : ELEVATION PERMANENT DATUM
LMF .                     KB : LOG MEASURED FROM
DAPD.FT                 20.4 : FEET ABOVE PERMANENT DATUM
DMF .                     KB : DRILLING MEASURED FROM
EKB .FT               3919.1 : KELLY BUSHING
EGL .FT               3898.7 : GROUND LEVEL
DATE.               08/13/77 : RUN DATE
RUN .                      2 : RUN NUMBER
DD  .FT                13825 : DEPTH DRILLER
DL  .FT                13826 : DEPTH LOGGER
BLI .FT                13820 : BOTTOM LOG INTERVAL
TLI .FT                 8771 : TOP LOG INTERVAL
CBD .FT                 8770 : CASING BOTTOM DRILLER
CBL .FT                 8771 : CASING BOTTOM LOGGER
BS  .IN                  8.5 : BIT SIZE
BSD .FT                13825 : BIT SIZE AT DEPTH
DFT .                    GEL : DRILLING FLUID TYPE
DFD .                    8.9 : DRILLING FLUID DENSITY
DFV .                    120 : DRILLING FLUID VISCOSITY
DFPH.                     11 : DRILLING FLUID PH
DFL .                   11.2 : DRILLING FLUID LOSS
MSS .                    MUD : MUD SAMPLE SOURCE
RMS .OHMM               1.38 : RESISTIVITY MUD SAMPLE
MST .DEGF                 62 : MUD SAMPLE TEMPERATURE
RMF .OHMM                1.0 : RESISTIVITY MUD FILTRATE SAMPLE
MFST.DEGF                 62 : MUD FILTRATE SAMPLE TEMPERATURE
RMC .OHMM               1.72 : RESISTIVITY MUD CAKE
MCST.DEGF                 64 : MUD CAKE SAMPLE TEMPERATURE
RMB .OHMM               0.24 : RESISTIVITY MUD AT BHT
TCS .HRS                 3.5 : TIME CIRCULATED STOPPED
LUN .                   7809 : LOGGING UNIT NUMBER
LUL .                    EDM : LOGGING UNIT LOCATION
ENGI.     CROCKFORD DEROCHIE : RECORDING ENGINEER
WITN.       NORTON GILBREATH : WITNESSED BY
CLNT.                A2DTECH : CLIENT CODE
ORIG.            2" 5" PRINT : ORIGIN OF DATA
UWI .       100110505718W500 : UNIQUE WELL ID
DICO. A2D Technologies, Inc. : DIGITIZING COMPANY
~Other -----------------------------------------------------
DIL-FDC-CNL-BHC LOG RUN
ALL RESISTIVITY & SONIC DATA FROM SMALL SECTION @ TOP-5928'
CALS INVALID FROM 4993' TO CASING ON MAIN PASS, THEREFORE THIS SECTION WAS RELOGGED
~ASCII -----------------------------------------------------
# ...
 12250.00000    8.63620    8.35480    8.63620    -999.25    3.69930    0.16990    2.63330    0.04620    -999.25    0.04490  270.32480    0.16990   48.16680   48.16680   14.52300   16.35400   16.35400  270.32480  134.59480  402.19080  134.59480    0.08120    -999.25    0.08120    2.63330  -99.90910  -58.82660  402.19080
 12300.00000    7.99780    7.51230    7.99780    -999.25   10.35290    0.25000    2.56780    0.08810    -999.25    0.08320   96.66610    0.25000   50.59950   50.59950   12.21970   13.12540   13.12540   96.66610  179.51300  200.68880  179.51300    0.12120    -999.25    0.12120    2.56780 -126.42350  -81.42800  200.68880
 12350.00000   12.29620    9.42280   12.29620    -999.25    2.39690    0.22790    2.28760    0.24750    -999.25    0.24700  417.20260    0.22790   57.52720   57.52720   20.34390   23.10510   23.10510  417.20260  209.80130  290.90650  209.80130    0.07170    -999.25    0.07170    2.28760  -88.28640  -39.35210  290.90650
 12400.00000   11.15790    8.93500   11.15790    -999.25    0.99080    0.19750    2.57240    0.07920    -999.25    0.08050 1009.31150    0.19750   50.01780   50.01780   11.88600   13.27820   13.27820 1009.31150  252.48140 1402.07640  252.48140    0.00630    -999.25    0.00630    2.57240  -75.95340  -23.10610 1402.07640
 12450.00000    9.79490    8.90160    9.79490    -999.25   92.04880    0.24440    2.10310    0.37080    -999.25    0.35490   10.86380    0.24440   60.92720   60.92720   66.75210   67.45770   67.45770   10.86380   12.15770   25.58170   12.15770    0.03170    -999.25    0.03170    2.10310  -94.90070  -39.38100   25.58170
 12500.00000    9.73970    8.89930    9.73970    -999.25    5.72870    0.24790    2.64430    0.04370    -999.25    0.03840  174.55960    0.24790   47.03360   47.03360   18.72250   25.16160   25.16160  174.55960  226.06250  268.25340  226.06250    0.03140    -999.25    0.03140    2.64430 -102.50240  -45.11740  268.25340
 12550.00000    8.67890    8.74790    8.67890    -999.25   42.97630    0.04160    2.71100   -0.00560    -999.25   -0.00060   23.26940    0.04160   50.72350   50.72350   14.93400   17.55600   17.55600   23.26940   21.75440   61.58960   21.75440    0.10140    -999.25    0.10140    2.71100 -110.79600  -51.54570   61.58960
 12600.00000   10.14180    8.39220   10.14180    -999.25   31.11170    0.19770    2.69350    0.00770    -999.25    0.00960   32.14220    0.19770   48.68110   48.68110   10.75260   16.11110   16.11110   32.14220   27.20730   46.21460   27.20730    0.07740    -999.25    0.07740    2.69350 -105.54090  -44.41300   46.21460
 12650.00000    8.30490    8.06340    8.30490    -999.25   12.24700    0.14610    2.64170    0.03570    -999.25    0.03990   81.65280    0.14610   48.47850   48.47850   31.06630   35.77780   35.77780   81.65280   88.45160  205.94170   88.45160    0.06510    -999.25    0.06510    2.64170 -129.38240  -66.38920  205.94170
 12700.00000    9.89860    8.63380    9.89860    -999.25    6.67530    0.20800    2.68790    0.00440    -999.25    0.01290  149.80630    0.20800   45.99500   45.99500   43.78610   48.81840   48.81840  149.80630  122.89080  194.04720  122.89080    0.02000    -999.25    0.02000    2.68790 -105.42000  -40.54920  194.04720
 12750.00000    9.10900    8.55450    9.10900    -999.25   11.44840    0.08150    2.51720    0.13100    -999.25    0.11270   87.34840    0.08150   56.52320   56.52320  212.34950  214.47270  214.47270   87.34840  152.57320  202.61060  152.57320    0.03800    -999.25    0.03800    2.51720  -68.65780   -1.92170  202.61060
 12800.00000    7.74780    7.45290    7.74780    -999.25  133.30730    0.21350    2.56140    0.08950    -999.25    0.08690    7.52010    0.21350   54.23540   54.23540  131.72230  124.03850  124.03850    7.52010   14.53220   65.83940   14.53220    0.10060    -999.25    0.10060    2.56140 -138.08850  -82.37880   65.83940
 12850.00000    8.08680    7.89100    8.08680    -999.25   45.80240    0.06800    2.61650    0.05940    -999.25    0.05470   21.83290    0.06800   52.19570   52.19570   32.98660   42.85700   42.85700   21.83290   30.00440   54.79540   30.00440    0.13100    -999.25    0.13100    2.61650 -128.44290  -84.00520   54.79540
 12900.00000    8.34620    8.42320    8.34620    -999.25    3.47160    0.19000    2.54260    0.11010    -999.25    0.09790  288.05440    0.19000   50.13550   50.13550   18.15700   20.85390   20.85390  288.05440  188.39800  229.92920  188.39800    0.06680    -999.25    0.06680    2.54260 -108.71200  -75.47260  229.92920
 12950.00000   13.75020   12.09290   13.75020    -999.25   29.75590    0.19850    2.25430    0.26990    -999.25    0.26650   33.60680    0.19850   63.25400   63.25400  143.39420  148.15200  148.15200   33.60680   46.50480   60.95010   46.50480    0.21670    -999.25    0.21670    2.25430  -30.30920   -8.34170   60.95010
 13000.00000   12.98700   11.15270   12.98700    -999.25   57.69240    0.18120    2.13970    0.33810    -999.25    0.33350   17.33330    0.18120   64.98170   64.98170  135.12730  140.25310  140.25310   17.33330   17.68460   20.31200   17.68460    0.20550    -999.25    0.20550    2.13970  -22.27530   -8.06000   20.31200
 13050.00000   13.80200    9.78940   13.80200    -999.25   27.00040    0.23690    2.12980    0.34510    -999.25    0.33930   37.05630    0.23690   64.46560   64.46560   79.04950   87.05470   87.05470   37.05630   25.66030   24.01880   25.66030    0.19590    -999.25    0.19590    2.12980  -25.24540  -10.58810   24.01880
 13100.00000   14.67710   13.71750   14.67710    -999.25   41.28220    0.14510    1.62240    0.45000    -999.25    0.63600   24.22350    0.14510   69.84890   69.84890   92.51560   93.57590   93.57590   24.22350    5.88240   15.95880    5.88240    0.45000    -999.25    0.45000    1.62240  -32.61210  -17.51000   15.95880
 13150.00000   10.90050    9.12540   10.90050    -999.25   10.63040    0.23430    2.32190    0.21610    -999.25    0.22700   94.06970    0.23430   56.33720   56.33720   48.56660   53.66100   53.66100   94.06970 1751.65270   75.06640 1751.65270    0.11420    -999.25    0.11420    2.32190  -23.26890   -7.72490   75.06640
 13200.00000   14.95700   12.99370   14.95700    -999.25   70.99550    0.12190    1.58320    0.45000    -999.25    0.65890   14.08540    0.12190   85.53780   85.53780  118.15080  113.59070  113.59070   14.08540    4.07460   10.33380    4.07460    0.41070    -999.25    0.41070    1.58320  -42.16560  -26.17670   10.33380
 13250.00000   15.00000   12.56250   15.00000    -999.25   43.99780    0.12050    1.69930    0.45000    -999.25    0.59110   22.72840    0.12050   63.94690   63.94690   92.39710   95.79970   95.79970   22.72840    9.14320   38.80630    9.14320    0.31650    -999.25    0.31650    1.69930  -18.76130   -2.33050   38.80630
 13300.00000   12.24840    9.14040   12.24840    -999.25  293.22130    0.22180    2.04090    0.38990    -999.25    0.39130    3.41410    0.22180   51.60960   51.60960   19.20580   23.45420   23.45420    3.41410    4.10640    7.44710    4.10640    0.04230    -999.25    0.04230    2.04090 -104.98170  -88.10890    7.44710
 13350.00000   11.50370    8.93320   11.50370    -999.25  183.54010    0.25000    2.21240    0.29620    -999.25    0.29100    5.44840    0.25000   63.87930   63.87930   19.82490   27.27350   27.27350    5.44840    5.66120   18.73320    5.66120    0.02580    -999.25    0.02580    2.21240  -98.31940  -81.00180   18.73320
 13400.00000    8.60020    8.42170    8.60020    -999.25   20.91500    0.15110    2.42610    0.17000    -999.25    0.16610   47.81250    0.15110   59.37050   59.37050   73.91190   83.01850   83.01850   47.81250  192.31220   59.82100  192.31220    0.10540    -999.25    0.10540    2.42610  -34.33730  -16.57780   59.82100
 13450.00000   12.65470   10.71490   12.65470    -999.25   56.01640    0.14730    2.46750    0.14290    -999.25    0.14180   17.85190    0.14730   79.24520   79.24520  151.56050  149.15700  149.15700   17.85190    8.69630   16.71780    8.69630    0.30800    -999.25    0.30800    2.46750  -28.93680  -10.73240   16.71780
