~Version ---------------------------------------------------
VERS.      2.0 : CWLS log ASCII Standard -VERSION 2.0
WRAP.       NO : One line per depth step
CREA. 12/29/17 : LAS Creation Date
~Well ------------------------------------------------------
STRT.FT                           500.0 : START DEPTH
STOP.FT                         10300.0 : STOP DEPTH
STEP.FT                        50.00000 : STEP LENGTH
NULL.                           -999.25 : NULL VALUE
COMP.             TIDEWATER OIL COMPANY : COMPANY
WELL. TIDEWATER GOOSE RIVER 10-26-66-19 : WELL
FLD .                                WC : FIELD
LOC .                                   : LOCATION
CTRY.                            CANADA : COUNTRY
SRVC.            Schlumberger of Canada : SERVICE COMPANY
DATE.                       04-May-1959 : LOGDATE
PROV.                           Alberta : PROVINCE
UWI .                  100102606619W500 : UNIQUE WELL ID
SLAT.WGS84                     54.74347 : SURFACE LATITUDE
SLON.WGS84                    -116.7568 : SURFACE LONGITUDE
~Curve Information -----------------------------------------
DEPT  .FT         : Depth Curve
CALWS .IN         : CALIPER [MCALED]
CILDED.MMHO       : CONDUCTIVITY FROM RESISTIVITY LOG
CONDWS.MMHO       : CONDUCTIVITY [1000/DRESWS]
DRESWS.OHMM       : DEEP RESISTIVITY [1000/CILDED IF ILDED < 4, ILDED]
GRNED .UgRa-Eq/T  : GAMMA RAY NEUTRON FROM GRN LOG
GRWS  .GAPI       : GAMMA RAY [GRNED * 16.5 TO CONVERTED TO GAPI]
ILDED .OHMM       : INDUCTION DEEP FROM RESISTIVITY LOG
LLED  .OHMM       : LATEROLOG FROM RESISTIVITY LOG
MCALED.IN         : CALIPER FROM MICROLOG
NEUTED.CPS        : NEUTRON FROM GRN LOG
NEUTWS.CPS        : NEUTRON [NEUTED]
SNED  .OHMM       : SHORT NORMAL FROM RESISTIVITY LOG
SPRED .MV         : SPONTANEOUS POTENTIAL FROM RESISTIVITY LOG
SPWS  .MV         : SPONTANEOUS POTENTIAL [BASELINE 0 MV, SPRED]
SRESWS.OHMM       : SHALLOW RESISTIVITY [SNED]
~Params ----------------------------------------------------
LMF .                     KB : LOG MEASURED FROM
DMF .                     KB : DRILLING MEASURED FROM
EKB .FT                 2543 : KELLY BUSHING
DATE.               05/04/59 : RUN DATE
RUN .                      1 : RUN NUMBER
DD  .FT                10334 : DEPTH DRILLER
DL  .FT                10328 : DEPTH LOGGER
BLI .FT                10323 : BOTTOM LOG INTERVAL
TLI .FT                 1012 : TOP LOG INTERVAL
CBD .FT                 1012 : CASING BOTTOM DRILLER
CBL .FT                 1012 : CASING BOTTOM LOGGER
BS  .IN                 8.75 : BIT SIZE
BSD .FT                10334 : BIT SIZE AT DEPTH
DFT .                    GEL : DRILLING FLUID TYPE
DFD .                   10.6 : DRILLING FLUID DENSITY
DFV .                     95 : DRILLING FLUID VISCOSITY
DFPH.                     10 : DRILLING FLUID PH
DFL .                      6 : DRILLING FLUID LOSS
RMS .OHMM                2.1 : RESISTIVITY MUD SAMPLE
MST .DEGF                 67 : MUD SAMPLE TEMPERATURE
RMF .OHMM                1.9 : RESISTIVITY MUD FILTRATE SAMPLE
MFST.DEGF                 60 : MUD FILTRATE SAMPLE TEMPERATURE
RMC .OHMM                3.0 : RESISTIVITY MUD CAKE
MCST.DEGF                 65 : MUD CAKE SAMPLE TEMPERATURE
RMB .OHMM               0.73 : RESISTIVITY MUD AT BHT
TCS .HRS                   4 : TIME CIRCULATED STOPPED
LUN .                   2781 : LOGGING UNIT NUMBER
LUL .                    SKW : LOGGING UNIT LOCATION
ENGI.                SPENCER : RECORDING ENGINEER
WITN.                 RENNIE : WITNESSED BY
CLNT.                A2DTECH : CLIENT CODE
ORIG.            2" 5" PRINT : ORIGIN OF DATA
UWI .       100102606619W500 : UNIQUE WELL ID
DICO. A2D Technologies, Inc. : DIGITIZING COMPANY
~Other -----------------------------------------------------
IEL-GRN-ML-LL LOG RAN
~ASCII -----------------------------------------------------
  500.00000    -999.25    -999.25    -999.25    -999.25    2.40630   39.46330    -999.25    -999.25    -999.25  139.68100  139.68100    -999.25    -999.25    -999.25    -999.25
  550.00000    -999.25    -999.25    -999.25    -999.25    2.38940   39.18620    -999.25    -999.25    -999.25  131.75800  131.75800    -999.25    -999.25    -999.25    -999.25
  600.00000    -999.25    -999.25    -999.25    -999.25    2.74170   44.96390    -999.25    -999.25    -999.25  140.46500  140.46500    -999.25    -999.25    -999.25    -999.25
  650.00000    -999.25    -999.25    -999.25    -999.25    2.33520   38.29730    -999.25    -999.25    -999.25  142.50180  142.50180    -999.25    -999.25    -999.25    -999.25
  700.00000    -999.25    -999.25    -999.25    -999.25    2.22650   36.51460    -999.25    -999.25    -999.25  139.04280  139.04280    -999.25    -999.25    -999.25    -999.25
  750.00000    -999.25    -999.25    -999.25    -999.25    2.94740   48.33740    -999.25    -999.25    -999.25  143.44420  143.44420    -999.25    -999.25    -999.25    -999.25
  800.00000    -999.25    -999.25    -999.25    -999.25    2.55350   41.87740    -999.25    -999.25    -999.25  142.36440  142.36440    -999.25    -999.25    -999.25    -999.25
  850.00000    -999.25    -999.25    -999.25    -999.25    2.57510   42.23160    -999.25    -999.25    -999.25  138.79400  138.79400    -999.25    -999.25    -999.25    -999.25
  900.00000    -999.25    -999.25    -999.25    -999.25    3.05160   50.04620    -999.25    -999.25    -999.25  149.28820  149.28820    -999.25    -999.25    -999.25    -999.25
  950.00000    -999.25    -999.25    -999.25    -999.25    2.44310   40.06680    -999.25    -999.25    -999.25  133.15310  133.15310    -999.25    -999.25    -999.25    -999.25
 1000.00000    -999.25    -999.25    -999.25    -999.25    2.85310   46.79080    -999.25    -999.25    -999.25  143.47780  143.47780    -999.25    -999.25    -999.25    -999.25
 1050.00000    -999.25  297.16750  297.16750    3.36510    3.24350   53.19340    3.38290    5.68740    -999.25  147.86380  147.86380    5.55810 -142.54230   -3.87710    5.55810
 1100.00000    -999.25  315.19670  315.19670    3.17260    3.55790   58.34960    3.35330    3.81590    -999.25  147.47820  147.47820    5.27760 -143.26220   -4.59690    5.27760
 1150.00000    -999.25  264.10240  264.10240    3.78640    3.21030   52.64890    3.71670    5.73950    -999.25  161.38110  161.38110    5.72520 -142.08350   -3.41820    5.72520
 1200.00000    -999.25  658.98470  658.98470    1.51750    3.12870   51.31070    1.61130    2.54370    -999.25  152.67810  152.67810    3.37530 -140.21990   -1.52960    3.37530
 1250.00000    -999.25  358.81090  358.81090    2.78700    3.65280   59.90590    2.96030    3.99420    -999.25  135.83870  135.83870    5.03190 -141.11290   -2.25760    5.03190
 1300.00000    -999.25  317.79770  317.79770    3.14670    3.39750   55.71900    3.26030    3.88200    -999.25  135.98970  135.98970    5.06780 -141.30780   -2.28750    5.06780
 1350.00000    -999.25  311.19180  311.19180    3.21350    3.56330   58.43810    3.58380    4.86160    -999.25  180.07970  180.07970    5.78970 -143.32390   -4.13750    5.78970
 1400.00000    -999.25  355.08200  355.08200    2.81630    3.23050   52.98020    2.70530    3.58030    -999.25  157.81200  157.81200    4.53440 -140.96020   -1.60880    4.53440
 1450.00000    -999.25  179.49450  169.64100    5.89480    3.56900   58.53160    5.89480    5.95850    -999.25  175.57530  175.57530    7.92110 -146.55530   -7.03790    7.92110
 1500.00000    -999.25  395.97970  395.97970    2.52540    3.14060   51.50580    2.48090    4.08610    -999.25  140.35780  140.35780    4.19130 -142.07490   -2.39240    4.19130
 1550.00000    -999.25  318.99260  318.99260    3.13490    2.96370   48.60470    2.85470    3.77310    -999.25  147.86220  147.86220    4.59370 -142.19880   -2.35130    4.59370
 1600.00000    -999.25  412.58020  412.58020    2.42380    2.11080   34.61710    2.33070    3.79090    -999.25  155.13600  155.13600    4.23920 -141.94220   -1.92860    4.23920
 1650.00000    -999.25  253.22180  243.21430    4.11160    3.02240   49.56740    4.11160    5.73460    -999.25  171.34540  171.34540    5.94630 -142.77840   -2.59980    5.94630
 1700.00000    -999.25  370.02420  370.02420    2.70250    2.95720   48.49810    2.64480    3.54800    -999.25  140.53350  140.53350    4.81100 -142.54930   -2.20460    4.81100
 1750.00000    -999.25  136.50000  137.61970    7.26640    2.66730   43.74370    7.26640    6.85440    -999.25  170.81940  170.81940    8.16640 -148.51930   -8.00960    8.16640
 1800.00000    -999.25   65.77950   61.53430   16.25110    2.28660   37.50020   16.25110   16.40340    -999.25  206.46240  206.46240   18.27120 -148.73820   -8.06350   18.27120
 1850.00000    -999.25  149.01750  160.39010    6.23480    2.69600   44.21440    6.23480    7.60430    -999.25  180.25020  180.25020    7.41580 -147.47180   -6.63100    7.41580
 1900.00000    -999.25  340.62230  340.62230    2.93580    2.74990   45.09840    2.81620    3.59860    -999.25  148.40260  148.40260    4.78630 -142.82850   -1.82270    4.78630
 1950.00000    -999.25  320.25660  320.25660    3.12250    3.04790   49.98560    2.94640    4.82390    -999.25  153.82810  153.82810    4.96120 -142.95810   -1.78620    4.96120
 2000.00000    -999.25   91.67770   80.35740   12.44440    2.58970   42.47110   12.44440   11.43650    -999.25  199.54900  199.54900   13.13020 -151.47930  -10.14240   13.13020
 2050.00000    -999.25  276.97110  276.97110    3.61050    2.44770   40.14230    3.36240    4.55050    -999.25  152.74710  152.74710    5.29850 -148.49990   -6.99800    5.29850
 2100.00000    -999.25  374.42990  374.42990    2.67070    3.49070   57.24750    2.50300    4.40130    -999.25  135.21520  135.21520    4.80960 -144.14510   -2.47700    4.80960
 2150.00000    -999.25  103.39990  108.08010    9.25240    1.79570   29.44950    9.25240   11.15880    -999.25  210.23100  210.23100   10.88620 -151.82480   -9.99180   10.88620
 2200.00000    -999.25  316.31010  316.31010    3.16150    2.52000   41.32800    2.89450    4.47060    -999.25  146.69120  146.69120    4.82970 -145.51680   -3.51760    4.82970
 2250.00000    -999.25  265.10690  265.10690    3.77210    3.50200   57.43280    3.83990    4.91460    -999.25  163.25990  163.25990    5.89860 -145.17740   -3.47450    5.89860
 2300.00000    -999.25  209.06080  208.73780    4.79070    3.42700   56.20280    4.79070    5.81910    -999.25  142.52750  142.52750    6.82860 -146.49920   -5.21570    6.82860
 2350.00000    -999.25  235.64830  227.97740    4.38640    3.69840   60.65380    4.38640    5.74560    -999.25  143.74590  143.74590    6.55980 -148.90450   -8.04320    6.55980
 2400.00000    -999.25  162.47560  161.67890    6.18510    3.54260   58.09860    6.18510    8.11200    -999.25  150.67340  150.67340    7.72270 -148.15790   -7.71600    7.72270
 2450.00000    -999.25  224.40150  223.98420    4.46460    3.99090   65.45080    4.46460    6.30910    -999.25  143.25940  143.25940    6.88550 -149.65400   -9.63410    6.88550
 2500.00000    -999.25  211.91290  205.84600    4.85800    5.45490   89.46040    4.85800    6.68340    -999.25  143.54230  143.54230    7.84040 -146.64700   -7.04650    7.84040
 2550.00000    -999.25  161.89920  162.58580    6.15060    4.38560   71.92380    6.15060    8.26630    -999.25  151.81810  151.81810    8.52710 -148.87530   -9.69420    8.52710
 2600.00000    -999.25  221.64550  221.11170    4.52260    4.48290   73.51960    4.52260    6.60090    -999.25  137.47960  137.47960    7.00610 -140.69140   -1.93240    7.00610
 2650.00000    -999.25  218.23240  216.64250    4.61590    4.29580   70.45110    4.61590    6.42400    -999.25  136.47660  136.47660    6.78060 -143.45020   -5.08730    6.78060
 2700.00000    -999.25  178.05770  176.13700    5.67740    4.05560   66.51180    5.67740    6.97630    -999.25  144.75770  144.75770    7.53040 -142.75620   -4.78550    7.53040
 2750.00000    -999.25  169.47810  164.48450    6.07960    3.21610   52.74400    6.07960    6.61220    -999.25  155.94900  155.94900    7.85500 -142.32010   -4.73890    7.85500
