~Version ---------------------------------------------------
VERS. 2.0 : CWLS log ASCII Standard -VERSION 2.0
WRAP.  NO : ONE LINE PER DEPTH STEP
~Well ------------------------------------------------------
STRT.F                          1250.0 : START DEPTH
STOP.F                         11000.0 : STOP DEPTH
STEP.F                        50.00000 : STEP LENGTH
NULL.                          -999.25 : NULL VALUE
COMP.             MOBIL OIL CANADA LTD : COMPANY
WELL. MOBIL ET AL ROSEVEAR 10-19-53-14 : WELL
FLD .                                  : FIELD
LOC .                                  : LOCATION
CTRY.                           CANADA : COUNTRY
SRVC.                     Schlumberger : SERVICE COMPANY
DATE.                      04-Mar-1978 : LOGDATE
PROV.                          Alberta : PROVINCE
UWI .                 100101905314W500 : UNIQUE WELL ID
SLAT.WGS84                    53.59265 : SURFACE LATITUDE
SLON.WGS84                   -116.0472 : SURFACE LONGITUDE
~Curve Information -----------------------------------------
DEPT   .F    0   1   0  0 : 1 MEASURED DEPTH
GRD    .GAPI 45 310 01 00 : GAMMA RAY FROM DENSITY LOG
DRHO   .G/C3 45 356 01 00 : BULK DENSITY CORRECTION
RHOB   .G/C3 45 350 01 00 : BULK DENSITY
NPHI_SS.DEC  42 890 03 00 : NEUTRON POROSITY SANDSTONE
DPHI_SS.DEC  45 890 12 00 : DENSITY POROSITY SANDSTONE
CALD   .IN   45 280 60 00 : CALIPER FROM DENSITY LOG
NPHI_LS.DEC  42 890 01 00 : NEUTRON POROSITY LIMESTONE
DPHI_LS.DEC  45 890 10 00 : DENSITY POROSITY LIMESTONE
DT     .US/F 60 500 00 00 : DELTA-T (INTERVAL TRANSIT TIME)
SPR    .MV   07 010 01 00 : SPONTANEOUS POTENTIAL FROM RESISTIVITY LOG
ILD    .OHMM 07 120 46 00 : INDUCTION DEEP RESISTIVITY
ILM    .OHMM 07 120 44 00 : INDUCTION MEDIUM RESISTIVITY
LL8    .OHMM 07 220 08 00 : LATEROLOG 8
~Params ----------------------------------------------------
PD  .                     GL : PERMANENT DATUM
EPD .FT               2885.2 : ELEVATION PERMANENT DATUM
LMF .                     KB : LOG MEASURED FROM
DAPD.FT                 13.8 : FEET ABOVE PERMANENT DATUM
EKB .FT                 2899 : KELLY BUSHING
EGL .FT               2885.2 : GROUND LEVEL
DATE.               03/04/78 : RUN DATE
RUN .                      1 : RUN NUMBER
DD  .FT                11010 : DEPTH DRILLER
DL  .FT                11002 : DEPTH LOGGER
BLI .FT                10999 : BOTTOM LOG INTERVAL
TLI .FT                 1207 : TOP LOG INTERVAL
CBD .FT                 1205 : CASING BOTTOM DRILLER
CBL .FT                 1207 : CASING BOTTOM LOGGER
BS  .IN                 8.75 : BIT SIZE
BSD .FT                11010 : BIT SIZE AT DEPTH
DFT .               GEL CHEM : DRILLING FLUID TYPE
DFD .                    9.2 : DRILLING FLUID DENSITY
DFV .                    132 : DRILLING FLUID VISCOSITY
DFPH.                     10 : DRILLING FLUID PH
DFL .                    9.4 : DRILLING FLUID LOSS
MSS .               FLOWLINE : MUD SAMPLE SOURCE
RMS .OHMM               1.94 : RESISTIVITY MUD SAMPLE
MST .DEGF                 64 : MUD SAMPLE TEMPERATURE
RMF .OHMM               2.12 : RESISTIVITY MUD FILTRATE SAMPLE
MFST.DEGF                 59 : MUD FILTRATE SAMPLE TEMPERATURE
RMB .OHMM               0.65 : RESISTIVITY MUD AT BHT
TCS .HRS                   3 : TIME CIRCULATED STOPPED
LUN .                   7730 : LOGGING UNIT NUMBER
LUL .                    EDM : LOGGING UNIT LOCATION
ENGI.               CAMPBELL : RECORDING ENGINEER
WITN.              MATHEWSON : WITNESSED BY
CLNT.                A2DTECH : CLIENT CODE
ORIG.            2" 5" PRINT : ORIGIN OF DATA
UWI .       100101905314W500 : UNIQUE WELL ID
DICO. A2D Technologies, Inc. : DIGITIZING COMPANY
~Other -----------------------------------------------------
~ASCII -----------------------------------------------------
# ...
 9050.00000   18.97290    0.07810    2.62940    -999.25    -999.25    8.15270    0.16470    0.03710   53.85230 -191.67650    8.47920   14.20740   67.29540
 9100.00000   18.53260    0.10310    2.77780    -999.25    -999.25    9.19490    0.07890   -0.03420   48.21820 -144.44950 1401.56230  546.58300  206.53400
 9150.00000   39.22010    0.14410    2.68450    -999.25    -999.25    9.11880    0.10110    0.01180   53.59540 -147.28080   53.22450   40.66690   75.76590
 9200.00000   33.40660    0.21690    2.10010    -999.25    -999.25    9.69400    0.14490    0.38150   50.72760 -143.51430  330.21330  130.91340   73.08120
 9250.00000   25.62710    0.18910    2.21840    -999.25    -999.25    9.80400    0.15580    0.28530   52.27540 -153.13790  672.59010   97.81390  140.03430
 9300.00000   38.12410    0.23400    2.74910    -999.25    -999.25    9.24260    0.07070   -0.00350   50.38190  -77.57500  349.36310  177.06510  273.71420
 9350.00000   47.58010   -0.01090    2.65030    -999.25    -999.25    9.18830    0.08740    0.02720   54.46970  -59.49680   68.05830   64.37200   88.15040
 9400.00000   59.29040    0.06450    2.69000    -999.25    -999.25    9.17600    0.09230    0.01340   56.22800  -46.73750   31.80640   28.98480   48.55090
 9450.00000   63.64290   -0.02170    2.66850    -999.25    -999.25    9.34700    0.12580    0.00480   58.61480  -43.78880   22.58100   20.79480   29.69880
 9500.00000   97.15790    0.22930    2.32480    -999.25    -999.25   12.43900    0.35310    0.31020   74.36790  -54.39760    6.89620    6.06160    8.16300
 9550.00000  101.17200    0.12210    2.64270    -999.25    -999.25   12.02750    0.30980    0.09290   72.55880  -47.66740    6.89090    6.61780    9.74860
 9600.00000  101.60930   -0.00370    2.60190    -999.25    -999.25    8.97870    0.22470    0.05660   68.52790  -54.33350   46.22180   54.40320   76.64860
 9650.00000   63.61020    0.24000    2.54290    -999.25    -999.25    9.28490    0.15360    0.09150   59.82780  -53.79530   19.09500   25.61690   34.86750
 9700.00000  109.12170    0.16370    2.45590    -999.25    -999.25   11.78140    0.36370    0.13680   76.48860  -62.14870    5.16190    5.34400    7.18280
 9750.00000   82.96680   -0.01070    2.72880    -999.25    -999.25    9.30020    0.19940   -0.00060   61.42940  -49.09540   21.05690   22.73070   31.10760
 9800.00000  112.86320    0.20160    2.40600    -999.25    -999.25    9.95370    0.27430    0.17820   68.21420  -45.20490    9.43250   10.12660   14.27980
 9850.00000   99.20840    0.01060    2.63430    -999.25    -999.25    9.36000    0.22630    0.04960   66.21720  -45.71440   12.86620   14.16570   18.50950
 9900.00000   92.41020    0.11150    2.58190    -999.25    -999.25    9.15970    0.21240    0.03980   63.89750  -46.15180   14.29090   16.65330   21.51020
 9950.00000  108.50360    0.22230    2.60660    -999.25    -999.25    9.90240    0.27330    0.07050   68.02770  -44.60670   10.66360   11.49820   16.65930
 10000.00000  117.92180    0.15290    2.51500    -999.25    -999.25   10.93370    0.32860    0.11680   70.68530  -43.52260    8.37980    9.33330   13.11000
 10050.00000  102.41800    0.25200    2.56060    -999.25    -999.25    9.42580    0.23680    0.06930   66.40440  -38.25090   11.90070   13.57020   19.05770
 10100.00000   68.42610   -0.00530    2.68100    -999.25    -999.25    9.18750    0.13670    0.00100   56.78230  -33.91680   18.46500   22.30940   39.74020
 10150.00000  100.96050    0.22890    2.61790    -999.25    -999.25    9.59580    0.24930    0.04250   69.32690  -32.04280    9.48660   10.73340   15.18020
 10200.00000  109.85170    0.17360    2.67910    -999.25    -999.25   10.15170    0.26420    0.04390   71.44140  -32.78140   10.05950   10.76880   17.45230
 10250.00000  106.94900    0.18750    2.53570    -999.25    -999.25    9.49020    0.25420    0.12300   69.93350  -23.36900    9.59850   10.27050   16.74760
 10300.00000   85.85470    0.03130    2.69330    -999.25    -999.25    9.19380    0.21600    0.00350   67.22210  -16.33430   13.94510   15.41310   23.80510
 10350.00000  135.75370   -0.00000    2.61050    -999.25    -999.25    9.08110    0.21660    0.05900   63.91880  -31.83530   60.86390   74.26100  103.36950
 10400.00000  151.24700    0.17080    2.30230    -999.25    -999.25   11.65900    0.39630    0.25210   82.78940  -54.60750   20.71590   14.64990   52.36910
 10450.00000  113.32110    0.20920    2.45060    -999.25    -999.25   11.13240    0.34170    0.15640   76.09310  -37.32110   10.06830   10.73980   14.53400
 10500.00000   37.60230   -0.01030    2.66450    -999.25    -999.25    8.91610    0.10890    0.04080   57.49700  -45.71140  148.86730  228.25670  720.19130
 10550.00000   44.57630    0.01200    2.68120    -999.25    -999.25    9.00670    0.08840   -0.00280   53.28700  -46.27030   57.78890   68.49460  106.51530
 10600.00000   82.05820   -0.00220    2.69750    -999.25    -999.25    9.03370    0.17350    0.01030   62.01090  -30.77810   19.09670   22.56190   41.67860
 10650.00000   77.49220    0.00870    2.68720    -999.25    -999.25    8.87740    0.15020    0.01480   59.12000  -23.91870   23.78300   27.79710   37.62730
 10700.00000   39.52080    0.06730    2.68740    -999.25    -999.25    9.16580    0.05350    0.00190   53.46560  -73.07680  153.26350  168.02900  226.44040
 10750.00000   15.58010    0.20980    2.42260    -999.25    -999.25    9.18870    0.03910    0.15030   50.64960 -185.39920 1175.45940 1474.39760 1385.58150
 10800.00000   22.82890    0.23230    2.62950    -999.25    -999.25    9.05070    0.02520    0.05270   49.23400 -177.79520 1557.14200 1213.02950 1429.81670
 10850.00000   32.26680    0.21380    2.66770    -999.25    -999.25    8.59780    0.03550    0.01980   50.27020 -173.60950 1648.71450 1452.25330 1391.26380
 10900.00000   17.36710    0.18740    2.72850    -999.25    -999.25    8.77350    0.01640    0.02000   48.53790 -137.98010 1631.75820 1409.21200 1169.16770
 10950.00000   71.85020    0.05580    2.60160    -999.25    -999.25    8.66090    0.04190    0.04690   56.25680  -72.87850   59.85670   53.34660   93.39570
 11000.00000    -999.25    0.10650    2.67420    -999.25    -999.25    8.56500    -999.25   -0.13100    -999.25    -999.25    -999.25    -999.25    -999.25
