~Version ---------------------------------------------------
VERS. 2.0 : CWLS log ASCII Standard -VERSION 2.0
WRAP.  NO : ONE LINE PER DEPTH STEP
~Well ------------------------------------------------------
STRT.F                     300.0 : START DEPTH
STOP.F                    9850.0 : STOP DEPTH
STEP.F                  50.00000 : STEP LENGTH
NULL.                    -999.25 : NULL VALUE
COMP. PHILLIPS PETROLEUM COMPANY : COMPANY
WELL.    PHILLIPS A KAYBOB 10-16 : WELL
FLD .                     kaybob : FIELD
LOC .                            : LOCATION
CTRY.                     CANADA : COUNTRY
SRVC.                      Welex : SERVICE COMPANY
DATE.                21-Apr-1958 : LOGDATE
PROV.                    Alberta : PROVINCE
UWI .           100101606419W500 : UNIQUE WELL ID
SLAT.WGS84              54.53981 : SURFACE LATITUDE
SLON.WGS84             -116.8075 : SURFACE LONGITUDE
~Curve Information -----------------------------------------
DEPT .F                 : 
CALM .IN   15 280 01 00 : CALIPER FROM MICROLATEROLOG
SPR  .MV   07 010 01 00 : SPONTANEOUS POTENTIAL FROM RESISTIVITY LOG
GRN  .CPS  35 310 30 00 : GAMMA RAY FROM GRN LOG
NEUT .CPS  35 330 30 00 : NEUTRON
CILD .MMHO 07 110 46 00 : INDUCTION DEEP CONDUCTIVITY
GUARD.OHMM 07 120 05 00 : GUARD LOG RESISITIVITY
GR   .GAPI 81 310 01 00 : GAMMA RAY
SPM  .MV   15 010 01 00 : SPONTANEOUS POTENTIAL FROM MICROLOG
~Params ----------------------------------------------------
PD  .                     CF : PERMANENT DATUM
LMF .                     KB : LOG MEASURED FROM
DAPD.FT                   13 : FEET ABOVE PERMANENT DATUM
DMF .                     KB : DRILLING MEASURED FROM
EKB .FT                 2512 : KELLY BUSHING
EDF .FT                 2510 : DRILLING FLOOR
EGL .FT                 2499 : GROUND LEVEL
DATE.               04/21/58 : RUN DATE
RUN .                      1 : RUN NUMBER
DD  .FT                 9900 : DEPTH DRILLER
DL  .FT                 9896 : DEPTH LOGGER
BLI .FT                 9891 : BOTTOM LOG INTERVAL
TLI .FT                 1510 : TOP LOG INTERVAL
CS  .IN                10.75 : CASING SIZE
CBD .FT                 1510 : CASING BOTTOM DRILLER
CBL .FT                 1510 : CASING BOTTOM LOGGER
BS  .IN                7.875 : BIT SIZE
BSD .FT                 9900 : BIT SIZE AT DEPTH
DFT .            OIL MULSION : DRILLING FLUID TYPE
DFD .                   10.6 : DRILLING FLUID DENSITY
DFV .                    112 : DRILLING FLUID VISCOSITY
DFPH.                   10.0 : DRILLING FLUID PH
DFL .                    4.8 : DRILLING FLUID LOSS
MSS .             CIRCULATED : MUD SAMPLE SOURCE
RMS .OHMM               2.75 : RESISTIVITY MUD SAMPLE
MST .DEGF                 58 : MUD SAMPLE TEMPERATURE
RMF .OHMM               0.65 : RESISTIVITY MUD FILTRATE SAMPLE
MFST.DEGF                180 : MUD FILTRATE SAMPLE TEMPERATURE
RMC .OHMM               1.15 : RESISTIVITY MUD CAKE
MCST.DEGF                180 : MUD CAKE SAMPLE TEMPERATURE
RMB .OHMM               0.94 : RESISTIVITY MUD AT BHT
ENGI.         FOWLER CARBERT : RECORDING ENGINEER
WITN.         HANKINS FOSTER : WITNESSED BY
CLNT.                A2DTECH : CLIENT CODE
ORIG.            2" 5" PRINT : ORIGIN OF DATA
UWI .       100101606419W500 : UNIQUE WELL ID
DICO. A2D Technologies, Inc. : DIGITIZING COMPANY
~Other -----------------------------------------------------
~ASCII -----------------------------------------------------
# ...
 4300.00000    9.80420  -80.70700  110.49480  371.07270   30.10640    5.39130   67.87780    -999.25
 4350.00000   10.84460  -78.90900  121.86650  304.96080   65.16720    2.71240   71.39410    -999.25
 4400.00000   11.22910  -77.43270  118.63770  308.17380   62.95140    2.78510   58.54080    -999.25
 4450.00000   10.86420  -78.16360  124.99230  314.89790   60.89230    2.85530   78.12200    -999.25
 4500.00000    9.13760  -77.37760  157.59800  316.24720   99.61930    1.62590   93.90750    -999.25
 4550.00000    8.66250  -77.93060  120.94730  301.36630    -999.25    1.29410   61.21520    -999.25
 4600.00000    8.49200  -78.52380  118.95520  346.62010   69.74900    3.13300   65.05280  -80.62600
 4650.00000   10.22850  -78.75340  118.05090  330.12190   82.60650    2.25030   79.35680  -79.98600
 4700.00000   10.77370  -79.38740  120.24320  344.72160   31.14100    6.44540   55.92800  -79.73300
 4750.00000   10.67710  -80.13820   80.97830  303.08150   69.97040    2.85100   64.11640  -80.98400
 4800.00000   10.88040  -79.31610   83.18370  380.81670   88.87850    2.01070   63.12440  -77.66200
 4850.00000   10.15640  -84.38000   95.13570  290.51920   21.41810   21.15850   68.25820  -82.31400
 4900.00000    9.14300  -91.79890   72.99780  421.32070   22.55610    9.79640   26.53270  -88.51500
 4950.00000    9.06060  -81.96320   75.94920  335.99760   26.24940    7.91870   48.20760  -84.82100
 5000.00000    9.92890  -75.38700   86.80710  299.61570   27.32620    6.42460   37.74310  -78.69000
 5050.00000   10.50510  -76.88960   94.79190  393.88510   28.62860    8.48950   52.27110  -75.98100
 5100.00000    8.67410  -76.56940   76.40000  463.57750    7.13320   37.60680   42.04550  -77.55200
 5150.00000    9.92550  -82.04150   94.18310  373.35350   19.93540   10.28690   37.40730  -83.23500
 5200.00000    9.03060  -48.77710   75.46450  356.09560   19.41870   11.42130   50.01210  -54.57900
 5250.00000   10.39430  -48.82600   94.01160  400.12310   81.81260    2.31070   41.90580  -47.68800
 5300.00000    9.70160  -68.42260   99.20160  428.18310   25.58190    7.85850   65.77900  -64.94200
 5350.00000   12.10710  -53.59210   97.45230  378.04410    5.91650   50.09080   35.03940  -55.04400
 5400.00000    9.14350  -57.74120   78.02300  414.09470   38.92180    5.82210   37.11040  -63.26200
 5450.00000    9.59510  -49.68350  106.88490  379.11620   33.06160    6.35710   62.25400  -48.27100
 5500.00000   11.29210  -52.25540  110.60290  374.56670   69.74190    4.65360   44.94960  -51.84000
 5550.00000    9.32480  -50.44650  108.69670  319.52320   38.24220    4.96990   56.24780  -48.95700
 5600.00000    8.71730  -70.92190   59.64260  455.74830   15.72060   15.28570   34.11220  -79.28200
 5650.00000    9.35310  -55.03600  105.24980  388.30850   15.33900   13.44550   62.89400  -53.69400
 5700.00000   10.38830  -53.55320  119.71770  322.34560   19.61060   11.17010   52.27050  -53.27400
 5750.00000    8.21680  -48.98390  113.58950  419.14550   18.36100    9.73440   54.30280  -47.59200
 5800.00000    9.70000  -41.10900   98.64240  285.14390   26.79540    6.10450   63.42230  -41.28000
 5850.00000   11.71270 -172.31030  105.59450  281.70120   99.77650    2.15180   51.50600 -170.12500
 5900.00000    8.20390 -176.93950  128.27370  303.99240   12.51960   30.96780  104.24250 -177.33100
 5950.00000    7.49340 -128.13370  172.94810  458.54520    0.88780 1999.95350  149.76170 -137.21100
 6000.00000    9.69840 -188.28670   86.88570  397.17980   35.07800   10.14010   44.29820 -199.12900
 6050.00000    8.45680 -190.46960   99.16670  437.22870   20.51110   19.41340   37.33470 -191.66600
 6100.00000    8.14260 -185.21360   98.20970  474.35360   28.29330   14.72800   51.40210 -185.63600
 6150.00000    8.56060 -189.56430  130.08810  435.41540   43.19550   10.62900   46.86950 -184.93900
 6200.00000    7.63020 -269.45370   52.26180  585.93950   11.08200   37.47380   32.54170 -237.06400
 6250.00000    8.18440 -201.26730   41.02270  530.21660    6.89320  167.48840   22.81580 -202.57400
 6300.00000    8.31340 -272.46010   45.48330  491.47790    4.10450  123.30000   25.82930 -269.05900
 6350.00000    7.77120 -160.85690   51.17620  691.03250    2.24800  198.39270   21.11620 -158.99800
 6400.00000    9.17600 -171.00670  101.41900  488.82720   18.75490   33.60810   67.05880 -170.86800
 6450.00000    8.89970 -268.09390   42.92920  447.50460   12.52540   56.36090   19.49690 -257.66900
 6500.00000    -999.25 -257.09740   60.22620  396.53220   72.48070    4.84900   17.53990 -239.18800
 6550.00000    -999.25 -200.45090   55.21470  483.91610   20.05470   39.65180   27.19690    -999.25
 6600.00000    -999.25 -193.92580   81.33440  530.71710    3.91650  113.55020    8.35150    -999.25
 6650.00000    -999.25 -332.59790   40.01700  545.48210    3.53450  166.57770    6.55060    -999.25
 6700.00000    -999.25 -327.58450   35.01730  692.86060    4.18250  120.04410   11.51160    -999.25
 6750.00000    -999.25 -206.33840   82.13370  381.72730   62.63010    7.30950   52.76990    -999.25
 6800.00000    -999.25 -193.65160  103.67670  425.90720    -999.25    2.35360   40.30420    -999.25
 6850.00000    -999.25 -183.90500   95.86250  564.29310   55.33210    6.86420   44.99840    -999.25
 6900.00000    -999.25 -162.86550   70.62200  537.15450   26.41440   10.99770   31.76000    -999.25
 6950.00000    -999.25 -189.85980   53.76390  549.55120    0.98260  681.45390   10.41830    -999.25
 7000.00000    -999.25 -174.86960   48.76840  642.84800   10.32440   44.31410    6.94680    -999.25
 7050.00000    -999.25 -229.23100   39.27590  643.66300   11.20650   47.32920   22.27950    -999.25
 7100.00000    -999.25 -202.88290   91.47760  572.05340   18.23230   25.53920   29.84530    -999.25
 7150.00000    -999.25 -193.14020   65.85030  611.61960    6.83020   67.29030   13.94940    -999.25
 7200.00000    -999.25 -186.15280   58.34960  713.42720    1.56200  348.12180   15.76580    -999.25
 7250.00000    -999.25 -220.85080   56.70610  706.17580    0.85390 1228.80470   13.51440    -999.25
 7300.00000    -999.25 -184.72730   69.65450  578.26280    7.46330   61.63760   25.25060    -999.25
 7350.00000    -999.25 -196.04340   69.52280  610.29460    9.89380   41.57370   31.88880    -999.25
 7400.00000    -999.25 -128.22810    -999.25  725.17940    0.96910 1449.33170  115.87090    -999.25
 7450.00000    -999.25 -216.24480   40.71460  746.53880    2.30280  273.89940    6.24610    -999.25
 7500.00000    -999.25 -200.77720   39.90010  750.89700    0.95640  720.93480    6.54380    -999.25
 7550.00000    -999.25 -223.20470   39.70110  793.18940    1.34400  478.32430    5.40850    -999.25
 7600.00000    -999.25 -261.40650   40.87260  738.10590    1.12590  640.26520    6.88810    -999.25
 7650.00000    -999.25 -233.93080   41.89790  749.09080    0.90000  707.11680    9.10350    -999.25
 7700.00000    -999.25 -304.65410   42.12980  707.17230    1.07420  758.76200    6.50840    -999.25
 7750.00000    -999.25 -284.02160   37.35670  754.28870    4.43750  122.04500    5.02280    -999.25
 7800.00000    -999.25 -257.57150   37.64560  711.41230    0.84930 1565.34790    3.65500    -999.25
 7850.00000    -999.25 -291.64320   39.53270  692.77250    1.21760  645.86980    6.05400    -999.25
 7900.00000    -999.25 -237.32710   39.59330  638.89980    0.72660 5509.00290    6.34900    -999.25
 7950.00000    -999.25 -343.61640   38.81610  591.31150    0.75840 3659.26860    4.59020    -999.25
 8000.00000    -999.25 -312.66840   36.84000  615.30220    1.14890  772.58940    4.32560    -999.25
 8050.00000    -999.25 -352.81830   39.50940  750.38650    2.25950  290.03720    5.67830    -999.25
 8100.00000    -999.25 -297.43570   34.80380  754.22460    1.89790  351.45620    6.87980    -999.25
 8150.00000    -999.25 -291.02670   40.55590  592.73820    1.82550  341.21290  103.78500    -999.25
 8200.00000    -999.25 -257.65710   44.81350  622.24700    1.73200  293.66850   13.73930    -999.25
 8250.00000    -999.25 -258.99600   37.27880  547.06240   17.83630   28.62450   18.49760    -999.25
