~Version ---------------------------------------------------
VERS.      2.0 : CWLS log ASCII Standard -VERSION 2.0
WRAP.       NO : One line per depth step
CREA. 08/22/14 : LAS Creation Date
~Well ------------------------------------------------------
STRT.FT                 1143.82546 : START DEPTH
STOP.FT                11159.82546 : STOP DEPTH
STEP.FT                    0.50000 : STEP LENGTH
NULL.                      -999.25 : NULL VALUE
COMP.            TRIAD OIL CO. LTD : COMPANY
WELL. TRIAD PAN AM ANTE 2-27-66-25 : WELL
FLD .                              : FIELD
LOC .                              : LOCATION
CTRY.                       CANADA : COUNTRY
SRVC.                   Lane Wells : SERVICE COMPANY
DATE.                  15-Aug-1967 : LOGDATE
PROV.                      Alberta : PROVINCE
UWI .             100022706625W500 : UNIQUE WELL ID
SLAT.WGS84                54.73614 : SURFACE LATITUDE
SLON.WGS84                 -117.69 : SURFACE LONGITUDE
~Curve Information -----------------------------------------
DEPT.FT    : DEPTH FEET
CALS.IN    : CALIPER FROM SONIC LOG
DT  .US/F  : DELTA TIME FROM SONIC LOG
GRS .GAPI  : GAMMA RAY FROM SONIC LOG
ILD .OHMM  : INDUCTION LOG DEEP RESISTIVITY
SN  .OHMM  : 16 INCH SHORT NORMAL RESISTIVITY FROM IEL
SPR .MV    : SPONTANEOUS POTENTIAL FROM RESISTIVITY LOG
~Params ----------------------------------------------------
PD  .                     GL : PERMANENT DATUM
EPD .FT               2399.7 : ELEVATION PERMANENT DATUM
LMF .                     KB : LOG MEASURED FROM
DAPD.FT                   15 : FEET ABOVE PERMANENT DATUM
DMF .                     KB : DRILLING MEASURED FROM
EKB .FT               2414.7 : KELLY BUSHING
EGL .FT               2399.7 : GROUND LEVEL
DATE.               08/15/67 : RUN DATE
RUN .                      1 : RUN NUMBER
DD  .FT                11172 : DEPTH DRILLER
DL  .FT                11160 : DEPTH LOGGER
BLI .FT                11156 : BOTTOM LOG INTERVAL
TLI .FT                 1144 : TOP LOG INTERVAL
CS  .IN                9.625 : CASING SIZE
CBD .FT                 1145 : CASING BOTTOM DRILLER
CBL .FT                 1144 : CASING BOTTOM LOGGER
BS  .IN                7.625 : BIT SIZE
BSD .FT                11172 : BIT SIZE AT DEPTH
DFT .                MUD GEL : DRILLING FLUID TYPE
DFD .                    9.9 : DRILLING FLUID DENSITY
DFV .                     89 : DRILLING FLUID VISCOSITY
DFPH.                      9 : DRILLING FLUID PH
DFL .                    7.2 : DRILLING FLUID LOSS
MSS .                   CIRC : MUD SAMPLE SOURCE
RMS .OHMM                3.0 : RESISTIVITY MUD SAMPLE
MST .DEGF                 86 : MUD SAMPLE TEMPERATURE
RMF .OHMM                2.4 : RESISTIVITY MUD FILTRATE SAMPLE
MFST.DEGF                 86 : MUD FILTRATE SAMPLE TEMPERATURE
RMC .OHMM                3.2 : RESISTIVITY MUD CAKE
MCST.DEGF                 86 : MUD CAKE SAMPLE TEMPERATURE
MFSS.                   MEAS : MUD FILTRATE SAMPLE SOURCE
MCSS.                   MEAS : MUD CAKE SAMPLE SOURCE
RMB .OHMM                1.2 : RESISTIVITY MUD AT BHT
TCS .HRS                   6 : TIME CIRCULATED STOPPED
LUN .                   1256 : LOGGING UNIT NUMBER
LUL .                    EDM : LOGGING UNIT LOCATION
ENGI.      KOWALCHUK DOMSTAD : RECORDING ENGINEER
WITN.            DANIELEWICZ : WITNESSED BY
CLNT.                A2DTECH : CLIENT CODE
ORIG.            2" 5" PRINT : ORIGIN OF DATA
UWI .       100022706625W500 : UNIQUE WELL ID
DICO. A2D Technologies, Inc. : DIGITIZING COMPANY
~Other -----------------------------------------------------
~ASCII -----------------------------------------------------
# ...
 9795.82546   10.52500   42.76330   32.60820  454.63710  153.47140  -66.19360
 9796.32546   10.78370   43.85820   33.82610  454.66070  156.30220  -67.06350
 9796.82546   11.25210   45.20400   33.48740  454.70800  161.96690  -68.78280
 9797.32546   11.43690   45.97170   32.58110  454.73160  163.89660  -69.64270
 9797.82546   11.77030   46.71900   30.75520  454.77800  166.36970  -71.35760
 9798.32546   11.92050   47.12120   30.04710  454.80150  167.36390  -72.03870
 9798.82546   12.18160   48.14250   30.86060  454.84870  169.38160  -72.37590
 9799.32546   12.19760   48.29740   32.10250  454.87230  170.37270  -72.27550
 9799.82546   12.12000   49.06370   32.70170  454.91950  170.91720  -72.74190
 9800.32546   12.18250   49.75800   31.78810  454.94310  170.63320  -73.21400
 9800.82546   12.46160   51.60770   29.33470  454.99040  170.07030  -74.16900
 9801.32546   12.57360   52.84970   28.10400  455.01400  169.79560  -74.37590
 9801.82546   12.60680   55.06670   27.85180  455.06120  169.24730  -74.18070
 9802.32546   12.58730   58.04320   29.03130  455.08460  168.97250  -74.00020
 9802.82546   12.62940   64.75660   30.28260  455.13120  168.42310  -74.06470
 9803.32546   12.67700   61.41700   29.13100  455.18000  167.85500  -74.83300
 9803.82546   12.62200   54.38640   29.78230  455.20200  167.59940  -74.60000
 9804.32546   12.49800   49.93900   32.19000  455.25200  167.01900  -73.80100
 9804.82546   12.43360   49.81250   33.12050  455.27290  166.77590  -73.41990
 9805.32546   12.24200   50.04000   33.95900  455.32400  166.18200  -72.48800
 9805.82546   12.17780   49.86500   33.31120  455.34380  165.95440  -72.12870
 9806.32546   12.08710   50.04540   31.85980  455.39010  165.40210  -71.26930
 9806.82546   12.06390   50.22000   31.09270  455.41360  165.14090  -70.83940
 9807.32546   11.97750   50.18960   29.71170  455.46090  163.84090  -69.97860
 9807.82546   11.88440   50.38910   30.37610  455.48450  162.96830  -69.54900
 9808.32546   11.66780   50.98850   32.01020  455.53170  161.21320  -68.69130
 9808.82546   11.56050   51.23920   32.42940  455.55540  159.81140  -68.38060
 9809.32546   11.34240   51.64970   33.00200  455.58650  155.91890  -68.12920
 9809.82546   11.23280   51.83570   33.70730  455.59170  153.72860  -68.09640
 9810.32546   10.98340   52.20180   35.39360  455.57780  149.33680  -68.02950
 9810.82546   10.86310   52.22850   35.71990  455.29890  147.13530  -67.99650
 9811.32546   10.60720   51.93090   34.76180  454.59230  140.84560  -67.93010
 9811.82546   10.45780   51.79140   34.09480  451.04600  136.91340  -67.89660
 9812.32546   10.12260   51.64480   34.68770  413.02570  129.09340  -67.82970
 9812.82546    9.87740   51.58090   34.61420  379.89990  124.74610  -67.79660
 9813.32546    9.41530   51.51700   33.99390  309.67910  115.95410  -67.73030
 9813.82546    9.14200   51.66400   35.74000  236.95500  106.60500  -67.66100
 9814.32546    9.12800   51.76690   36.42410  204.40010  101.85330  -67.63000
 9814.82546    9.10200   51.98800   36.01800  134.23200   94.05300  -67.56000
 9815.32546    9.08810   52.06190   35.96550  126.29090   92.11060  -67.53060
 9815.82546    9.06300   52.14800   38.31600  107.73200   87.33300  -67.45900
 9816.32546    9.05040   52.16820   39.12970  103.67010   85.73730  -67.43440
 9816.82546    9.02460   52.26220   40.44410   98.58660   83.32690  -67.10510
 9817.32546    9.01890   52.33310   40.64200   97.78990   82.77740  -66.82570
 9817.82546    9.01680   52.48140   39.77560   96.88000   81.84170  -66.24200
 9818.32546    9.01410   52.55610   39.08930   94.64210   81.38110  -65.95280
 9818.82546    9.01100   52.70480   37.85600   88.78710   80.46360  -65.38260
 9819.32546    9.00920   52.77900   38.29700   85.85590   80.00390  -65.02970
 9819.82546    9.00550   52.92810   39.99820   79.98940   79.08440  -64.26350
 9820.32546    9.00330   53.00500   39.88440   77.03250   78.62440  -63.88140
 9820.82546    8.99950   53.07400   40.01100   73.64080   77.68740  -63.11810
 9821.32546    8.99670   53.04300   40.63740   73.31520   77.60080  -62.73550
 9821.82546    8.99020   52.90220   42.00210   72.57340   78.30000  -62.00040
 9822.32546    8.98690   52.80160   42.76510   72.99440   78.79810  -61.83400
 9822.82546    8.98030   52.57310   44.40180   77.89270   79.79780  -61.82900
 9823.32546    8.98490   52.51500   45.21230   81.43740   80.29720  -61.83360
 9823.82546    9.00850   52.51500   46.84920   88.52600   81.30120  -62.11380
 9824.32546    9.03300   52.54900   47.70300   95.85900   82.33400  -62.60200
 9824.82546    9.04390   52.56660   47.57320   99.21600   82.27210  -62.80650
 9825.32546    9.06800   52.67600   49.85400   99.19200   78.70800  -63.28200
 9825.82546    9.07830   52.79780   51.20950   93.27270   76.60010  -63.47840
 9826.32546    9.10300   53.11400   54.53200   78.53200   71.38300  -63.96600
 9826.82546    9.11220   53.35210   55.11850   72.90420   69.40050  -64.15250
 9827.32546    9.13370   53.94020   54.30020   58.93430   64.60910  -64.60400
 9827.82546    9.14470   54.35770   53.15270   51.35610   62.23300  -64.82580
 9828.32546    9.16620   55.46450   53.74880   40.23380   55.76850  -64.76830
 9828.82546    9.17720   56.62640   53.20400   35.94430   52.38340  -64.57450
 9829.32546    9.20660   61.04620   49.94400   30.87640   48.39200  -64.40490
 9829.82546    9.22370   64.32160   48.01620   29.87670   47.80440  -64.64220
 9830.32546    9.25700   70.50230   45.18060   29.62000   47.97350  -65.33800
 9830.82546    9.27380   71.24370   44.85160   30.37590   48.67850  -65.68180
 9831.32546    9.30800   70.41300   43.06240   33.03680   51.00870  -66.69570
 9831.82546    9.32350   69.98230   41.57130   35.37740   53.96620  -67.43960
 9832.32546    9.35300   69.40960   40.10140   43.62910   61.90010  -69.07750
 9832.82546    9.36710   69.25690   40.34810   49.36020   65.78670  -69.77480
 9833.32546    9.39330   68.93460   40.96330   64.04620   73.59460  -70.62880
 9833.82546    9.40650   68.76000   40.46400   70.57830   76.96240  -70.89700
 9834.32546    9.43270   68.32130   38.26890   80.37140   82.98170  -71.43680
 9834.82546    9.46000   67.79700   37.93200   90.25300   89.71300  -71.99800
 9835.32546    9.47030   67.56510   38.44710   95.19670   92.69060  -72.24560
 9835.82546    9.50300   67.02800   39.18600  110.15300   99.57400  -72.82300
 9836.32546    9.51620   66.27670   39.27700  123.24000  102.39470  -73.04900
 9836.82546    9.54800   63.97200   38.79400  159.95100  109.43500  -74.38200
 9837.32546    9.56370   65.33190   37.87430  175.10480  112.10070  -75.16550
 9837.82546    9.61630   66.07130   36.04490  212.67720  118.57290  -77.08310
 9838.32546    9.64290   65.78410   36.70500  231.64890  121.80390  -78.04490
 9838.82546    9.69400   65.22780   35.07210  266.46830  128.27950  -79.96960
 9839.32546    9.72630   64.98870   32.86140  269.52820  131.55610  -80.93260
 9839.82546    9.80300   64.65270   28.61430  273.48560  136.34750  -82.85770
 9840.32546    9.84320   64.61100   27.74840  285.92400  138.15340  -83.81000
 9840.82546    9.92480   64.92860   27.30780  318.57710  141.75920  -85.43950
 9841.32546    9.98100   65.22980   27.75970  335.05260  143.52830  -85.70810
 9841.82546   10.14810   65.93090   27.75080  364.05270  146.58670  -84.73440
 9842.32546   10.24620   66.34350   28.09600  372.61210  146.86030  -83.70630
 9842.82546   10.41730   67.32840   30.11800  376.35710  145.46550  -81.48100
 9843.32546   10.50890   67.87050   30.95280  386.44380  144.58630  -80.94680
 9843.82546   10.70100   68.80210   32.67210  421.52880  142.82780  -80.99960
 9844.32546   10.83900   68.88200   32.81100  451.59700  141.03900  -81.28400
 9844.82546   10.88330   67.34230   31.37120  454.75230  140.19300  -81.05640
 9845.32546   10.93800   59.13800   28.28400  456.24800  138.36100  -80.44900
 9845.82546   10.95600   53.98230   29.24670  455.93010  137.55690  -80.16110
 9846.32546   10.96400   49.80000   32.11100  455.19100  135.67000  -79.49300
 9846.82546   10.96060   49.65290   31.50600  454.88940  135.42200  -79.22040
