~Version ---------------------------------------------------
VERS.      2.0 : CWLS log ASCII Standard -VERSION 2.0
WRAP.       NO : One line per depth step
CREA. 11/15/17 : LAS Creation Date
~Well ------------------------------------------------------
STRT.FT                        950.0 : START DEPTH
STOP.FT                       9400.0 : STOP DEPTH
STEP.FT                     50.00000 : STEP LENGTH
NULL.                        -999.25 : NULL VALUE
COMP. CANADIAN PACIFIC OIL & GAS LTD : COMPANY
WELL.       CPOG OBERLIN 10-15-38-21 : WELL
FLD .                                : FIELD
LOC .                                : LOCATION
CTRY.                         CANADA : COUNTRY
SRVC.                        Unknown : SERVICE COMPANY
DATE.                    13-Apr-1967 : LOGDATE
PROV.                        Alberta : PROVINCE
UWI .               100101503821W400 : UNIQUE WELL ID
SLAT.WGS84                  52.26833 : SURFACE LATITUDE
SLON.WGS84                 -112.9183 : SURFACE LONGITUDE
~Curve Information -----------------------------------------
DEPT   .FT    : Depth Curve
CALDED .IN    : CALIPER FROM DENSITY LOG
CALED  .IN    : CALIPER FROM CALIPER LOG
CALWS  .IN    : CALIPER [CALED SPL. TO CALED @ 4501']
CONDWS .MMHO  : CONDUCTIVITY [1000/DRESWS]
DCORED .G/C3  : DENSITY CORRECTION [DRHOED]
DCORWS .G/C3  : DENSITY CORRECTION [DCORED]
DENWS  .G/C3  : FORMATION BULK DENSITY [RHOBED]
DPOLSWS.V/V   : DENSITY POROSITY LIMESTONE [CALC ROM DENWS, M=2.71, F=1.00]
DRESWS .OHMM  : DEEP RESISTIVITY [ILDED]
DRHOED .G/C3  : DENSITY CORRECTION FROM DENSITY LOG
DTED   .US/F  : DELTA TIME FROM SONIC LOG [ADJ. TO RESISTIVITY LOG]
DTWS   .US/F  : COMPRESSIONAL SONIC [DTED]
GRNED  .GAPI  : GAMMA RAY FROM NEUTRON GAMMA RAY LOG [ADJ. TO RESISTIVITY LOG]
GRSED  .GAPI  : GAMMA RAY FROM SONIC LOG [ADJ. TO RESISTIVITY LOG]
GRWS   .GAPI  : GAMMA RAY [GRSED]
ILDED  .OHMM  : DEEP INDUCTION FROM RESISTIVITY LOG
ILMED  .OHMM  : INDUCTION MEDIUM FROM RESISTIVITY LOG
LL8ED  .OHMM  : LATEROLOG-8 FROM RESISTIVITY LOG
MRESWS .OHMM  : MEDIUM RESISTIVITY [ILMED]
NEUTED .NAPI  : NEUTRON FROM NEUTRON GAMMA RAY LOG [ADJ. TO RESISTIVITY LOG]
NEUTWS .NAPI  : NEUTRON [NEUTED]
RHOBED .G/C3  : BULK DENSITY FROM DENSITY LOG
SPRED  .MV    : SPONTANEOUS POTENTIAL FROM RESISTIVITY
SPWS   .MV    : SPONTANEOUS POTENTIAL [SPRED]
SRESWS .OHMM  : SHALLOW RESISTIVITY [LL8ED]
~Params ----------------------------------------------------
PD  .                     GL : PERMANENT DATUM
EPD .FT               2675.8 : ELEVATION PERMANENT DATUM
LMF .                     KB : LOG MEASURED FROM
DAPD.FT                   13 : FEET ABOVE PERMANENT DATUM
DMF .                     KB : DRILLING MEASURED FROM
EKB .FT               2688.8 : KELLY BUSHING
EGL .FT               2675.8 : GROUND LEVEL
DATE.               04/13/67 : RUN DATE
RUN .                      1 : RUN NUMBER
DD  .FT                 9418 : DEPTH DRILLER
DL  .FT                 9417 : DEPTH LOGGER
BLI .FT                 9413 : BOTTOM LOG INTERVAL
TLI .FT                  920 : TOP LOG INTERVAL
CBD .FT                  920 : CASING BOTTOM DRILLER
CBL .FT                  918 : CASING BOTTOM LOGGER
BS  .IN                 8.75 : BIT SIZE
BSD .FT                 9417 : BIT SIZE AT DEPTH
DFT .            CAUSTIC GEL : DRILLING FLUID TYPE
DFD .                   10.4 : DRILLING FLUID DENSITY
DFV .                     68 : DRILLING FLUID VISCOSITY
DFPH.                   10.5 : DRILLING FLUID PH
DFL .                    9.6 : DRILLING FLUID LOSS
MSS .               FLOWLINE : MUD SAMPLE SOURCE
RMS .OHMM              0.397 : RESISTIVITY MUD SAMPLE
MST .DEGF                 62 : MUD SAMPLE TEMPERATURE
RMF .OHMM              0.211 : RESISTIVITY MUD FILTRATE SAMPLE
MFST.DEGF                 76 : MUD FILTRATE SAMPLE TEMPERATURE
RMB .OHMM              0.094 : RESISTIVITY MUD AT BHT
TCS .HRS                   3 : TIME CIRCULATED STOPPED
LUN .                   7014 : LOGGING UNIT NUMBER
LUL .                  STETT : LOGGING UNIT LOCATION
ENGI.                  YOUNG : RECORDING ENGINEER
WITN.                KOZBIAL : WITNESSED BY
CLNT.                A2DTECH : CLIENT CODE
ORIG.            2" 5" PRINT : ORIGIN OF DATA
UWI .       100101503821W400 : UNIQUE WELL ID
DICO. A2D Technologies, Inc. : DIGITIZING COMPANY
~Other -----------------------------------------------------
~ASCII -----------------------------------------------------
# ...
 6550.00000   11.40830    -999.25   11.40830   16.44650    0.03430    0.03430    2.69420    0.00920   60.80390    0.03430   54.41720   54.41720    -999.25   33.74780   33.74780   60.80390   31.31990   63.33360   31.31990    -999.25    -999.25    2.69420 -109.27380  -31.26140   63.33360
 6600.00000   10.64880    -999.25   10.64880   32.02720    0.00860    0.00860    2.72980   -0.01160   31.22350    0.00860   55.88070   55.88070    -999.25   40.88070   40.88070   31.22350   24.81480   47.28170   24.81480    -999.25    -999.25    2.72980 -114.64880  -36.57660   47.28170
 6650.00000   10.78140    -999.25   10.78140   29.06280    0.03110    0.03110    2.70850    0.00090   34.60570    0.03110   54.40280   54.40280    -999.25   24.38410   24.38410   34.60570   19.37800   67.28170   19.37800    -999.25    -999.25    2.70850 -127.89230  -49.76070   67.28170
 6700.00000   10.74810    -999.25   10.74810    4.06910    0.00640    0.00640    2.69020    0.01160  245.75250    0.00640   51.82270   51.82270    -999.25   33.99290   33.99290  245.75250   60.89600  148.78900   60.89600    -999.25    -999.25    2.69020 -118.28730  -40.09590  148.78900
 6750.00000   11.17500    -999.25   11.17500   11.17700    0.02490    0.02490    2.68000    0.01750   89.46920    0.02490   50.75820   50.75820    -999.25   24.66580   24.66580   89.46920   68.62430  138.25200   68.62430    -999.25    -999.25    2.68000 -121.93470  -43.68380  138.25200
 6800.00000    9.07400    -999.25    9.07400  120.34220    0.04840    0.04840    2.60100    0.06370    8.31090    0.04840   56.48680   56.48680    -999.25   16.61180   16.61180    8.31090   11.42140   23.98170   11.42140    -999.25    -999.25    2.60100 -138.81680  -60.50650   23.98170
 6850.00000   10.50830    -999.25   10.50830    4.61460    0.01370    0.01370    2.70570    0.00250  216.70260    0.01370   50.47200   50.47200    -999.25   24.10290   24.10290  216.70260   75.39750  434.90090   75.39750    -999.25    -999.25    2.70570 -122.61540  -44.24530  434.90090
 6900.00000   10.16500    -999.25   10.16500    5.22010    0.00250    0.00250    2.68740    0.01320  192.42550    0.00250   51.35690   51.35690    -999.25   28.04410   28.04410  192.42550   58.55980  229.78010   58.55980    -999.25    -999.25    2.68740 -111.64290  -33.21340  229.78010
 6950.00000   11.48940    -999.25   11.48940   14.00950    0.00830    0.00830    2.69760    0.00730   71.38030    0.00830   50.66600   50.66600    -999.25   18.78000   18.78000   71.38030   46.92630   87.36330   46.92630    -999.25    -999.25    2.69760 -127.05750  -48.56810   87.36330
 7000.00000    9.81810    -999.25    9.81810   10.61050   -0.00710   -0.00710    2.67640    0.01960   94.24620   -0.00710   52.14750   52.14750    -999.25   25.46190   25.46190   94.24620   60.03450   95.54670   60.03450    -999.25    -999.25    2.67640 -116.12380  -37.57500   95.54670
 7050.00000   11.14700    -999.25   11.14700   90.36050   -0.00010   -0.00010    2.70240    0.00440   11.06890   -0.00010   65.51710   65.51710    -999.25   71.37150   71.37150   11.06890   10.52690   16.18670   10.52690    -999.25    -999.25    2.70240  -94.70060  -16.09240   16.18670
 7100.00000   10.35850    -999.25   10.35850   14.03240    0.00730    0.00730    2.71280   -0.00160   71.26370    0.00730   54.20370   54.20370    -999.25   32.69720   32.69720   71.26370   43.78320  167.91330   43.78320    -999.25    -999.25    2.71280 -103.06330  -25.49170  167.91330
 7150.00000    9.98640    -999.25    9.98640  116.90040    0.00960    0.00960    2.74090   -0.01800    8.64330    0.00960   56.34460   56.34460    -999.25   67.23470   67.23470    8.64330    8.19390   13.33930    8.19390    -999.25    -999.25    2.74090 -103.92680  -27.58770   13.33930
 7200.00000    9.99420    -999.25    9.99420   40.53790    0.00980    0.00980    2.67190    0.02230   24.66830    0.00980   57.60240   57.60240    -999.25   44.21970   44.21970   24.66830   21.40200   41.06490   21.40200    -999.25    -999.25    2.67190  -97.48800  -22.38940   41.06490
 7250.00000   15.00000    -999.25   15.00000   16.94680    0.07480    0.07480    2.29110    0.24500   59.00830    0.07480   59.71120   59.71120    -999.25   30.45930   30.45930   59.00830    3.47540    2.81480    3.47540    -999.25    -999.25    2.29110 -118.13290  -44.26680    2.81480
 7300.00000   10.79840    -999.25   10.79840   56.75050    0.04700    0.04700    2.66020    0.02910   17.68690    0.04700   55.10860   55.10860    -999.25   29.10370   29.10370   17.68690   13.05870   18.50180   13.05870    -999.25    -999.25    2.66020 -139.77440  -67.14080   18.50180
 7350.00000   10.22330    -999.25   10.22330  236.72000    0.00870    0.00870    2.43360    0.16160    4.22440    0.00870   55.33600   55.33600    -999.25   45.01540   45.01540    4.22440    3.57310    4.54380    3.57310    -999.25    -999.25    2.43360 -142.42210  -71.02910    4.54380
 7400.00000   11.10640    -999.25   11.10640  187.30650    0.04220    0.04220    2.49260    0.12720    5.36410    0.04220   68.17390   68.17390    -999.25  131.02450  131.02450    5.36410    6.03830   11.92680    6.03830    -999.25    -999.25    2.49260 -137.44840  -67.28780   11.92680
 7450.00000   10.80180    -999.25   10.80180   26.43330    0.00520    0.00520    2.57040    0.08160   37.83110    0.00520   60.78040   60.78040    -999.25  109.30440  109.30440   37.83110   18.24060   40.38990   18.24060    -999.25    -999.25    2.57040 -120.63550  -51.71550   40.38990
 7500.00000   12.28670    -999.25   12.28670  202.29810    0.01440    0.01440    2.58710    0.07190    4.94320    0.01440   53.95340   53.95340    -999.25   77.21110   77.21110    4.94320   13.35230   19.97270   13.35230    -999.25    -999.25    2.58710 -108.89430  -41.20680   19.97270
 7550.00000   12.89540    -999.25   12.89540   82.29910    0.00570    0.00570    2.60380    0.06210   14.36360    0.00570   57.81430   57.81430    -999.25   95.16020   95.16020   14.36360   11.01160   34.12290   11.01160    -999.25    -999.25    2.60380  -83.51700  -17.06190   34.12290
 7600.00000   11.54650    -999.25   11.54650  161.53780    0.00760    0.00760    2.50730    0.11850    6.19050    0.00760   97.60930   97.60930    -999.25  107.12290  107.12290    6.19050    2.71970    8.79440    2.71970    -999.25    -999.25    2.50730 -102.27160  -37.05710    8.79440
 7650.00000   12.25630    -999.25   12.25630  234.36900    0.01990    0.01990    2.45900    0.14680    4.26770    0.01990   81.06980   81.06980    -999.25  106.77100  106.77100    4.26770    3.49010    8.14390    3.49010    -999.25    -999.25    2.45900 -118.58980  -54.60780    8.14390
 7700.00000   11.60520    -999.25   11.60520  222.95550    0.01680    0.01680    2.53170    0.10430    4.48520    0.01680   72.65490   72.65490    -999.25  108.97620  108.97620    4.48520    2.94840    7.87560    2.94840    -999.25    -999.25    2.53170 -102.88510  -40.14370    7.87560
 7750.00000   10.59630    -999.25   10.59630   44.51960   -0.00360   -0.00360    2.61730    0.05420   22.46200   -0.00360   54.66980   54.66980    -999.25   70.33870   70.33870   22.46200   16.20740   34.49970   16.20740    -999.25    -999.25    2.61730  -99.46560  -37.95660   34.49970
 7800.00000   14.32440    -999.25   14.32440  241.17620    0.11900    0.11900    2.25030    0.26880    4.14770    0.11900   90.87680   90.87680    -999.25   95.28500   95.28500    4.14770    2.05710    4.76150    2.05710    -999.25    -999.25    2.25030  -89.22540  -28.94890    4.76150
 7850.00000   15.00000    -999.25   15.00000  219.24060    0.06820    0.06820    2.31110    0.23330    4.56120    0.06820   75.95370   75.95370    -999.25   86.07780   86.07780    4.56120    2.45500    6.13690    2.45500    -999.25    -999.25    2.31110  -75.87910  -16.84320    6.13690
 7900.00000   15.00000    -999.25   15.00000  136.35250    0.14620    0.14620    2.28920    0.24610    7.34020    0.14620   76.11420   76.11420    -999.25   83.84460   83.84460    7.34020    3.68320   10.14290    3.68320    -999.25    -999.25    2.28920  -67.91550  -10.11210   10.14290
