~Version ---------------------------------------------------
VERS.      2.0 : CWLS log ASCII Standard -VERSION 2.0
WRAP.       NO : One line per depth step
CREA. 09/19/13 : LAS Creation Date
~Well ------------------------------------------------------
STRT.M                          300.0 : START DEPTH
STOP.M                         2550.0 : STOP DEPTH
STEP.M                       50.00000 : STEP LENGTH
NULL.                         -999.25 : NULL VALUE
COMP. QUINTANA EXPLORATION CANADA LTD : COMPANY
WELL. ATLANTIS ET AL TWINN 6-11-33-24 : WELL
FLD .                                 : FIELD
LOC .                                 : LOCATION
CTRY.                          CANADA : COUNTRY
SRVC.                   Dresser Atlas : SERVICE COMPANY
DATE.                     21-Jan-1987 : LOGDATE
PROV.                         Alberta : PROVINCE
UWI .                100061103324W400 : UNIQUE WELL ID
SLAT.WGS84                   51.81356 : SURFACE LATITUDE
SLON.WGS84                  -113.3015 : SURFACE LONGITUDE
~Curve Information -----------------------------------------
DEPT    .M      : Depth Curve
ACED    .US/M   : DELTA TIME FROM SONIC LOG
CALMED  .MM     : CALIPER FROM MICRO LATEROLOG [ADJ.TO DIFL LOG]
CALSED  .MM     : CALIPER  FROM SONIC LOG
CALWS   .MM     : CALIPER [CALSED]
CALXED  .MM     : CALIPER X FROM DENSITY LOG [ADJ.TO DIFL LOG]
CALYED  .MM     : CALIPER Y FROM DENSITY LOG [ADJ.TO DIFL LOG]
CNCLSED .V/V    : NEUTRON POROSITY LIMESTONE FROM DENSITY LOG [ADJ.TO DIFL LOG]
CONDWS  .MMHO   : CONDUCTIVITY [1000/DRESWS]
DCORWS  .KG/M3  : DENSITY CORRECTION [ZCORED]
DENWS   .KG/M3  : FORMATION BULK DENSITY [CALC FROM DPOLSWS, M=2710, F=1000]
DPOLSWS .V/V    : DENSITY POROSITY LIMESTONE [PORLSED]
DRESWS  .OHMM   : DEEP RESISTIVITY [RILDED]
DTWS    .US/M   : COMPRESSIONAL SONIC [ACED]
GRDED   .GAPI   : GAMMA RAY FROM DENSITY LOG [ADJ.TO DIFL LOG]
GRMED   .GAPI   : GAMMA RAY FROM MICRO LATEROLOG [ADJ.TO DIFL LOG]
GRSED   .GAPI   : GAMMA RAY FROM SONIC LOG
GRWS    .GAPI   : GAMMA RAY [GRSED SPL. TO GRMED @ 2539.9 M]
MRESWS  .OHMM   : MEDIUM RESISTIVITY [RILMED]
NPOLSWS .V/V    : NEUTRON POROSITY LIMESTONE [CNCLSED]
PEED    .B/E    : PHOTOELECTRIC FACTOR FROM DENSITY LOG [ADJ.TO DIFL LOG]
PEFWS   .B/E    : PHOTO ELECTRIC FACTOR [PEED]
PORZLSED.V/V    : DENSITY POROSITY LIMESTONE [M=2710, F=1000] FROM DENSITY LOG [ADJ.TO DIFL LOG]
RFOCED  .OHMM   : SHALLOW FOCUSED FROM DIFL LOG
RILDED  .OHMM   : DEEP INDUCTION FROM DIFL LOG
RILMED  .OHMM   : MEDIUM INDUCTION FROM DIFL LOG
RMLLED  .OHMM   : MICRO LATEROLOG RESISTIVITY FROM MICRO LATEROLOG [ADJ.TO DIFL LOG]
SPRED   .MV     : SPONTANEOUS POTENTIAL FROM DIFL LOG
SPWS    .MV     : SPONTANEOUS POTENTIAL [BASELINE 0 MV, SPRED]
SRESWS  .OHMM   : SHALLOW RESISTIVITY [RFOCED]
TENDED  .N      : TENSION FROM DENSITY LOG [ADJ.TO DIFL LOG]
TENMED  .N      : TENSION FROM MICRO LATEROLOG [ADJ.TO DIFL LOG]
TENSED  .N      : TENSION  FROM SONIC LOG
ZCORED  .KG/M3  : DENSITY CORRECTION FROM DENSITY LOG [ADJ.TO DIFL LOG]
ZDENED  .KG/M3  : BULK DENSITY FROM DENSITY LOG [ADJ.TO DIFL LOG]
~Params ----------------------------------------------------
PD  .                         GL : PERMANENT DATUM
EPD .M                     904.6 : ELEVATION PERMANENT DATUM
LMF .                         KB : LOG MEASURED FROM
DAPD.M                       6.8 : FEET ABOVE PERMANENT DATUM
DMF .                         KB : DRILLING MEASURED FROM
EKB .M                     911.4 : KELLY BUSHING
EGL .M                     904.6 : GROUND LEVEL
DATE.                   01/21/87 : RUN DATE
RUN .                          1 : RUN NUMBER
DD  .M                      2560 : DEPTH DRILLER
DL  .M                    2554.4 : DEPTH LOGGER
BLI .M                    2553.8 : BOTTOM LOG INTERVAL
TLI .M                     455.8 : TOP LOG INTERVAL
CS  .MM                    244.5 : CASING SIZE
CBD .M                     455.4 : CASING BOTTOM DRILLER
CBL .M                     455.8 : CASING BOTTOM LOGGER
BS  .MM                      222 : BIT SIZE
BSD .M                      2560 : BIT SIZE AT DEPTH
DFT .                   GEL CHEM : DRILLING FLUID TYPE
DFD .                       1120 : DRILLING FLUID DENSITY
DFV .                         83 : DRILLING FLUID VISCOSITY
DFPH.                         11 : DRILLING FLUID PH
DFL .                        7.8 : DRILLING FLUID LOSS
MSS .                   FLOWLINE : MUD SAMPLE SOURCE
RMS .OHMM                   0.74 : RESISTIVITY MUD SAMPLE
MST .DEGC                     18 : MUD SAMPLE TEMPERATURE
RMF .OHMM                    0.6 : RESISTIVITY MUD FILTRATE SAMPLE
MFST.DEGC                     18 : MUD FILTRATE SAMPLE TEMPERATURE
RMC .OHMM                   0.71 : RESISTIVITY MUD CAKE
MCST.DEGC                     18 : MUD CAKE SAMPLE TEMPERATURE
MFSS.                   MEASURED : MUD FILTRATE SAMPLE SOURCE
MCSS.                   MEASURED : MUD CAKE SAMPLE SOURCE
RMB .OHMM                    0.2 : RESISTIVITY MUD AT BHT
TCS .HRS                     4.5 : TIME CIRCULATED STOPPED
LUN .                   HOL 6438 : LOGGING UNIT NUMBER
LUL .                   RED DEER : LOGGING UNIT LOCATION
ENGI.                     THOKLE : RECORDING ENGINEER
WITN.                      YOPYK : WITNESSED BY
CLNT.                    A2DTECH : CLIENT CODE
ORIG. 6.5"/100M 16.5"/100M PRINT : ORIGIN OF DATA
UWI .           100061103324W400 : UNIQUE WELL ID
DICO.     A2D Technologies, Inc. : DIGITIZING COMPANY
~Other -----------------------------------------------------
DIFL-AC LOG RAN IN COMBO & ZDL-CNL-MLL LOG RUN
SP & RILM BEING AFFECTED BY LOW MUD RESISTIVITIES ON BOTTOM PORTION OF HOLE.
SEVERAL LOCATIONS FOR SP SURFACE ELECTRODE WERE ATTEMPTED
RILD & RILM CORRECTED FOR 222 MM HOLE
~ASCII -----------------------------------------------------
# ...
 1350.00000  294.13150    -999.25  299.75520  322.70030  322.70030  279.88050    -999.25  165.70280    -999.25    -999.25    -999.25    6.03490  294.13150  118.11450    -999.25  111.61930  111.61930    6.81260    -999.25    -999.25    -999.25    -999.25    8.00010    6.03490    6.81260    -999.25  -40.53720   -2.80210    8.00010 -2629.04770    -999.25 -2756.95640    -999.25    -999.25
 1400.00000  292.18210    -999.25  269.79420  255.22250  255.22250  274.17770    -999.25  178.05950    -999.25    -999.25    -999.25    5.61610  292.18210  119.39100    -999.25  141.49200  141.49200    6.60110    -999.25    -999.25    -999.25    -999.25    7.56960    5.61610    6.60110    -999.25  -38.99650   -2.61560    7.56960 -3858.02350    -999.25 -2804.23960    -999.25    -999.25
 1450.00000  252.20670    -999.25  284.64240  282.28390  282.28390  280.00850    -999.25  123.60940    -999.25    -999.25    -999.25    8.09000  252.20670   95.87800    -999.25   93.32560   93.32560    8.98670    -999.25    -999.25    -999.25    -999.25    9.41780    8.09000    8.98670    -999.25  -43.24710   -8.22050    9.41780 -519.00810    -999.25 -2028.07660    -999.25    -999.25
 1500.00000  502.95490    -999.25  313.92060  414.55210  414.55210  257.87290    -999.25  737.19130    -999.25    -999.25    -999.25    1.35650  502.95490   72.44560    -999.25   72.50580   72.50580    1.23310    -999.25    -999.25    -999.25    -999.25    1.90960    1.35650    1.23310    -999.25  -36.27350   -2.93310    1.90960 -974.98550    -999.25 -1503.42620    -999.25    -999.25
 1550.00000  224.07390    -999.25  305.72390  292.68870  292.68870  300.27530    -999.25   75.08750    -999.25    -999.25    -999.25   13.31780  224.07390   61.85670    -999.25   60.20420   60.20420   14.77330    -999.25    -999.25    -999.25    -999.25   18.24370   13.31780   14.77330    -999.25  -42.90720  -12.28140   18.24370 -169.19220    -999.25 -2183.82830    -999.25    -999.25
 1600.00000  288.03330    -999.25  351.08420  328.36940  328.36940  366.55610    -999.25  113.04540    -999.25    -999.25    -999.25    8.84600  288.03330   90.92400    -999.25   88.53380   88.53380    7.83610    -999.25    -999.25    -999.25    -999.25    7.97790    8.84600    7.83610    -999.25  -35.74810   -7.83690    7.97790 -1974.79180    -999.25 -2046.16370    -999.25    -999.25
 1650.00000  183.57290    -999.25  307.38150  281.21910  281.21910  334.24740    -999.25   10.65910    -999.25    -999.25    -999.25   93.81680  183.57290   22.83420    -999.25   22.49510   22.49510   58.53260    -999.25    -999.25    -999.25    -999.25  163.41430   93.81680   58.53260    -999.25  -36.54680  -11.35020  163.41430 -1816.89650    -999.25 -2161.55630    -999.25    -999.25
 1700.00000  170.00310    -999.25  271.74530  263.40360  263.40360  283.95570    -999.25   17.82010    -999.25    -999.25    -999.25   56.11640  170.00310   31.54310    -999.25   31.72600   31.72600   69.38120    -999.25    -999.25    -999.25    -999.25  132.09460   56.11640   69.38120    -999.25  -37.35320  -13.07100  132.09460 -1488.09380    -999.25 -984.72090    -999.25    -999.25
 1750.00000  197.23200    -999.25  290.95120  272.56670  272.56670  300.57700    -999.25   57.98920    -999.25    -999.25    -999.25   17.24460  197.23200   57.83480    -999.25   58.52300   58.52300   20.44120    -999.25    -999.25    -999.25    -999.25   26.18190   17.24460   20.44120    -999.25  -43.77910  -18.56720   26.18190 -3295.02240    -999.25 -1792.16350    -999.25    -999.25
 1800.00000  214.97060  308.18100  304.08310  272.53810  272.53810  312.53430    0.18830   80.40720   45.70000 2715.47200   -0.00320   12.43670  214.97060   52.25490   60.47070   55.02880   55.02880   14.25290    0.18830    4.48670    4.48670   -0.00320   22.03230   12.43670   14.25290   19.67220  -41.50290  -15.36140   22.03230 -3823.24400 -1319.56500 -1901.31450   45.70000 2711.40000
 1850.00000  202.76140  300.49600  284.88330  266.16670  266.16670  300.27710    0.16830   52.22970  123.90000 2635.95700    0.04330   19.14620  202.76140   50.03130   48.30360   51.74490   51.74490   22.88620    0.16830    5.24240    5.24240    0.04330   31.26900   19.14620   22.88620    3.45890  -47.42030  -20.34920   31.26900 -685.98220 -630.10140 -2800.71920  123.90000 2636.20000
 1900.00000  166.32630  247.98760  261.47490  246.35440  246.35440  266.62340    0.06270   19.07110   97.00000 3015.23500   -0.17850   52.43540  166.32630   15.45120   15.05250   14.78270   14.78270   54.93240    0.06270    2.66340    2.66340   -0.17850  129.78640   52.43540   54.93240   84.63950  -70.07840  -42.07760  129.78640 -3612.66300 -1156.47620 -2944.43670   97.00000 3014.50000
 1950.00000  163.58650  283.95090  285.23030  258.44330  258.44330  286.42290    0.06050   16.18540   85.00000 2944.27000   -0.13700   61.78410  163.58650   14.29870   12.81090   15.20490   15.20490   57.62970    0.06050    3.00140    3.00140   -0.13700  207.12270   61.78410   57.62970  361.28970  -76.39600  -58.37150  207.12270 -1885.62040 -1398.84630 -1682.59050   85.00000 2958.10000
 2000.00000  172.04600  276.77300  282.01240  275.14860  275.14860  283.51640    0.12340   33.31700  105.80000 2861.16400   -0.08840   30.01470  172.04600   16.44010   15.25980   16.19850   16.19850   29.87100    0.12340    3.92860    3.92860   -0.08840   86.39340   30.01470   29.87100   94.15490  -92.05050 -105.55940   86.39340  -58.11860 -1316.96060 -1853.28600  105.80000 2836.70000
 2050.00000  150.62070  255.34390  260.19610  236.20920  236.20920  256.24900    0.03440    3.10730  126.30000 2959.83100   -0.14610  321.81910  150.62070   14.27170   12.55750   13.30960   13.30960  322.18320    0.03440    2.25000    2.25000   -0.14610 2000.00000  321.81910  322.18320 1995.55790   36.27020   -8.77210 2000.00000 -2489.95640 -1530.96990 -2371.40750  126.30000 2960.20000
 2100.00000  165.96300  249.69960  247.35450  237.25510  237.25510  248.89090    0.11690   19.68070  169.20000 2886.47200   -0.10320   50.81130  165.96300   37.40970   40.37730   45.01410   45.01410   52.35950    0.11690    2.62050    2.62050   -0.10320   87.71260   50.81130   52.35950   46.14550  -65.60230  -93.56430   87.71260 -1877.33190 -1484.45900 -1818.99780  169.20000 2887.60000
 2150.00000  202.95520  255.08930  257.66650  235.04030  235.04030  260.19790    0.21760   76.15860  249.10000 2804.39200   -0.05520   13.13050  202.95520   85.69390   90.75720   80.75870   80.75870   16.04110    0.21760    3.50290    3.50290   -0.05520   18.69080   13.13050   16.04110   19.33100   -8.24430  -17.54800   18.69080 -1841.17840 -1303.22020 -1727.63750  249.10000 2808.50000
 2200.00000  210.27570  259.90820  254.93570  243.06740  243.06740  260.75080    0.21520   73.41870  139.90000 2776.17700   -0.03870   13.62050  210.27570   91.83370   90.78300   88.63360   88.63360   16.39910    0.21520    4.37520    4.37520   -0.03870   23.79260   13.62050   16.39910   15.93150   67.55250   -3.65210   23.79260 -1427.56860 -1429.47040 -2187.72590  139.90000 2778.90000
 2250.00000  181.55450  227.26470  236.60330  229.23610  229.23610  237.39910    0.10360   20.00350   70.30000 2758.39300   -0.02830   49.99130  181.55450   36.06070   38.28800   38.57330   38.57330   54.16210    0.10360    3.78060    3.78060   -0.02830  144.48010   49.99130   54.16210   78.43160   86.65280   42.16960  144.48010 -1827.06180 -1262.80720 -1748.36480   70.30000 2758.70000
 2300.00000  168.85260  364.57550  268.76040  228.98160  228.98160  368.92770    0.06600    4.81310   32.90000 2687.42800    0.01320  207.76740  168.85260   16.87550   15.67620   20.64320   20.64320   69.93950    0.06600    4.85890    4.85890    0.01320  742.93150  207.76740   69.93950    2.04610  -30.37810  -53.55100  742.93150 -2191.73960 -1146.26510 -1657.39070   32.90000 2686.00000
 2350.00000  169.47750  226.53340  231.03080  226.37430  226.37430  241.34990    0.10340    3.57640   56.70000 2764.72000   -0.03200  279.60830  169.47750   41.21910   40.61650   40.00550   40.00550  185.57970    0.10340    5.20680    5.20680   -0.03200  734.87350  279.60830  185.57970  351.18010  -12.45470  -14.31730  734.87350 -767.96060 -1403.39950 -1218.86480   56.70000 2763.80000
