~Version ---------------------------------------------------
VERS.      2.0 : CWLS log ASCII Standard -VERSION 2.0
WRAP.       NO : One line per depth step
CREA. 09/22/17 : LAS Creation Date
~Well ------------------------------------------------------
STRT.FT                            1200.0 : START DEPTH
STOP.FT                           11700.0 : STOP DEPTH
STEP.FT                          50.00000 : STEP LENGTH
NULL.                             -999.25 : NULL VALUE
COMP.        PAN AMERICAN PETROLEUM CORP. : COMPANY
WELL. PAN AM FINA G-1 KAYBOBS 10-19-58-18 : WELL
FLD .                                  WC : FIELD
LOC .                                     : LOCATION
CTRY.                              CANADA : COUNTRY
SRVC.                        Schlumberger : SERVICE COMPANY
DATE.                         16-Apr-1969 : LOGDATE
PROV.                             Alberta : PROVINCE
UWI .                    100101905818W500 : UNIQUE WELL ID
SLAT.WGS84                       54.03118 : SURFACE LATITUDE
SLON.WGS84                      -116.6587 : SURFACE LONGITUDE
~Curve Information -----------------------------------------
DEPT    .FT    : Depth Curve
CALDED  .IN    : CALIPER FROM DENSITY LOG [DEP. ADJ. TO RESIS. LOG]
CALNED  .IN    : CALIPER FROM SNP LOG [DEP. ADJ. TO RESIS. LOG]
CALSED  .IN    : CALIPER FROM SONIC LOG
CALWS   .IN    : CALIPER [1200' CALSED 10727' CALDED]
CONDWS  .MMHO  : CONDUCTIVITY [1000/DRESWS]
DCORED  .G/C3  : DENSITY CORRECTION FROM DENSITY LOG [DEP. ADJ. TO RESIS. LOG]
DCORWS  .G/C3  : DENSITY CORRECTION [DCORED]
DENWS   .G/C3  : BULK DENSITY [M=2.71, F=1.00] [RHOBED]
DPHILSED.V/V   : DENSITY POROSITY [M=2.71, F=1.00] FROM DENSITY LOG [DEP. ADJ. TO RESIS. LOG]
DPOLSWS .V/V   : DENSITY POROSITY [M=2.71, F=1.00] [DPHILSED]
DRESWS  .OHMM  : DEEP RESISTIVITY [ILDED]
DTED    .US/F  : DELTA TIME FROM SONIC LOG
DTWS    .US/F  : DELTA TIME [DTED]
GRNED   .GAPI  : GAMMA RAY FROM SNP LOG [DEP. ADJ. TO RESIS. LOG]
GRSED   .GAPI  : GAMMA RAY FROM SONIC LOG
GRWS    .GAPI  : GAMMA RAY [1178' GRSED 11700' GRNED]
ILDED   .OHMM  : INDUCTION LOG DEEP RESISTIVITY
ILMED   .OHMM  : INDUCTION LOG MEDIUM RESISTIVITY
LL8ED   .OHMM  : 8 INCH LATEROLOG RESISTIVITY
MRESWS  .OHMM  : MEDIUM RESISTIVITY [ILMED]
NPOLSWS .V/V   : NEUTRON POROSITY LIMESTONE [SNPLSED]
RHOBED  .G/C3  : BULK DENSITY FROM DENSITY LOG [DEP. ADJ. TO RESIS. LOG]
SNPLSED .V/V   : SIDEWALL NEUTRON POROSITY [LIMESTONE] [DEP. ADJ. TO RESIS. LOG]
SPRED   .MV    : SPONTANEOUS POTENTIAL FROM RESISTIVITY LOG
SPWS    .MV    : SPONTANEOUS POTENTIAL [BASELINE 0 MV] [SPRED]
SRESWS  .OHMM  : SHALLOW RESISTIVITY [LL8ED]
~Params ----------------------------------------------------
PD  .                     GL : PERMANENT DATUM
EPD .FT                 3475 : ELEVATION PERMANENT DATUM
LMF .                     KB : LOG MEASURED FROM
DAPD.FT                   12 : FEET ABOVE PERMANENT DATUM
EKB .FT                 3487 : KELLY BUSHING
EGL .FT                 3475 : GROUND LEVEL
DATE.               04/16/69 : RUN DATE
RUN .                      1 : RUN NUMBER
DD  .FT                11735 : DEPTH DRILLER
DL  .FT                11734 : DEPTH LOGGER
BLI .FT                11729 : BOTTOM LOG INTERVAL
TLI .FT                 1202 : TOP LOG INTERVAL
CBD .FT                 1202 : CASING BOTTOM DRILLER
CBL .FT                 1202 : CASING BOTTOM LOGGER
BS  .IN                 8.75 : BIT SIZE
BSD .FT                11735 : BIT SIZE AT DEPTH
DFT .              GEL BENEX : DRILLING FLUID TYPE
DFD .                    9.3 : DRILLING FLUID DENSITY
DFV .                     90 : DRILLING FLUID VISCOSITY
DFPH.                    8.0 : DRILLING FLUID PH
DFL .                   11.2 : DRILLING FLUID LOSS
RMS .OHMM               2.37 : RESISTIVITY MUD SAMPLE
MST .DEGF                 67 : MUD SAMPLE TEMPERATURE
RMF .OHMM               1.81 : RESISTIVITY MUD FILTRATE SAMPLE
MFST.DEGF                 66 : MUD FILTRATE SAMPLE TEMPERATURE
RMC .OHMM               2.83 : RESISTIVITY MUD CAKE
MCST.DEGF                 68 : MUD CAKE SAMPLE TEMPERATURE
RMB .OHMM               0.62 : RESISTIVITY MUD AT BHT
TCS .HRS                   2 : TIME CIRCULATED STOPPED
LUN .                   7502 : LOGGING UNIT NUMBER
LUL .                    EDM : LOGGING UNIT LOCATION
ENGI.               ARMENTAN : RECORDING ENGINEER
WITN.                   CHUK : WITNESSED BY
CLNT.                A2DTECH : CLIENT CODE
ORIG.            2" 5" PRINT : ORIGIN OF DATA
UWI .       100101905818W500 : UNIQUE WELL ID
DICO. A2D Technologies, Inc. : DIGITIZING COMPANY
~Other -----------------------------------------------------
~ASCII -----------------------------------------------------
# ...
 6600.00000    -999.25    -999.25   11.89990   11.89990  162.35610    -999.25    -999.25    -999.25    -999.25    -999.25    6.15930   87.48550   87.48550    -999.25   90.38010   90.38010    6.15930    6.00750    7.37840    6.00750    -999.25    -999.25    -999.25  107.68980   -4.41640    7.37840
 6650.00000    -999.25    -999.25   11.64530   11.64530  133.34840    -999.25    -999.25    -999.25    -999.25    -999.25    7.49940   92.01840   92.01840    -999.25  111.29230  111.29230    7.49940    7.27390    9.63970    7.27390    -999.25    -999.25    -999.25  110.77970   -1.27670    9.63970
 6700.00000    -999.25    -999.25   11.65010   11.65010  177.96760    -999.25    -999.25    -999.25    -999.25    -999.25    5.61900   92.49990   92.49990    -999.25  112.91090  112.91090    5.61900    5.36330    6.79830    5.36330    -999.25    -999.25    -999.25  100.57340  -11.48300    6.79830
 6750.00000    -999.25    -999.25   12.79870   12.79870  250.50100    -999.25    -999.25    -999.25    -999.25    -999.25    3.99200   94.39070   94.39070    -999.25   89.66920   89.66920    3.99200    3.61040    4.63170    3.61040    -999.25    -999.25    -999.25  103.71320   -8.34320    4.63170
 6800.00000    -999.25    -999.25   11.98160   11.98160  199.44070    -999.25    -999.25    -999.25    -999.25    -999.25    5.01410   89.51620   89.51620    -999.25   86.86590   86.86590    5.01410    4.79200    5.64570    4.79200    -999.25    -999.25    -999.25  101.56090  -10.49550    5.64570
 6850.00000    -999.25    -999.25   10.00250   10.00250   49.60190    -999.25    -999.25    -999.25    -999.25    -999.25   20.16050   65.21910   65.21910    -999.25   46.25320   46.25320   20.16050   20.70380   21.50410   20.70380    -999.25    -999.25    -999.25   84.06530  -27.99110   21.50410
 6900.00000    -999.25    -999.25   10.49870   10.49870   57.74680    -999.25    -999.25    -999.25    -999.25    -999.25   17.32440   69.94710   69.94710    -999.25   62.44120   62.44120   17.32440   17.85580   20.06450   17.85580    -999.25    -999.25    -999.25   97.04030  -15.01610   20.06450
 6950.00000    -999.25    -999.25   10.85270   10.85270   89.60010    -999.25    -999.25    -999.25    -999.25    -999.25   11.16070   71.79080   71.79080    -999.25   66.83820   66.83820   11.16070   11.48700   14.04350   11.48700    -999.25    -999.25    -999.25   99.46610  -12.59030   14.04350
 7000.00000    -999.25    -999.25   12.01610   12.01610  100.18030    -999.25    -999.25    -999.25    -999.25    -999.25    9.98200   76.74330   76.74330    -999.25   71.65000   71.65000    9.98200    9.06220   16.75330    9.06220    -999.25    -999.25    -999.25   99.11770  -12.93870   16.75330
 7050.00000    -999.25    -999.25   10.70220   10.70220   73.67250    -999.25    -999.25    -999.25    -999.25    -999.25   13.61760   69.67090   69.67090    -999.25   61.47870   61.47870   13.61760   13.88280   17.08450   13.88280    -999.25    -999.25    -999.25   92.50410  -19.55230   17.08450
 7100.00000    -999.25    -999.25   10.82970   10.82970   66.98280    -999.25    -999.25    -999.25    -999.25    -999.25   14.92920   71.01390   71.01390    -999.25   41.39890   41.39890   14.92920   15.73920   19.88700   15.73920    -999.25    -999.25    -999.25   87.44630  -24.61010   19.88700
 7150.00000    -999.25    -999.25   10.66270   10.66270   86.36490    -999.25    -999.25    -999.25    -999.25    -999.25   11.57980   73.59710   73.59710    -999.25   76.89340   76.89340   11.57980   12.18110   16.14500   12.18110    -999.25    -999.25    -999.25  100.52310  -11.53330   16.14500
 7200.00000    -999.25    -999.25   10.75110   10.75110   77.42690    -999.25    -999.25    -999.25    -999.25    -999.25   12.91540   70.02250   70.02250    -999.25   59.31120   59.31120   12.91540   13.65440   16.22990   13.65440    -999.25    -999.25    -999.25   98.71050  -17.85560   16.22990
 7250.00000    -999.25    -999.25   10.99580   10.99580   65.56000    -999.25    -999.25    -999.25    -999.25    -999.25   15.25320   76.54770   76.54770    -999.25   80.46090   80.46090   15.25320   17.15260   26.13160   17.15260    -999.25    -999.25    -999.25   83.66420  -38.29930   26.13160
 7300.00000    -999.25    -999.25   12.52130   12.52130   34.26040    -999.25    -999.25    -999.25    -999.25    -999.25   29.27890  135.43770  135.43770    -999.25   45.13520   45.13520   29.27890   26.29830  123.22030   26.29830    -999.25    -999.25    -999.25   84.89500  -42.46590  123.22030
 7350.00000    -999.25    -999.25   12.25770   12.25770   43.61990    -999.25    -999.25    -999.25    -999.25    -999.25   22.92530  147.15480  147.15480    -999.25   27.33670   27.33670   22.92530   24.04670  244.98500   24.04670    -999.25    -999.25    -999.25  109.66680  -23.12700  244.98500
 7400.00000    -999.25    -999.25   11.13390   11.13390   72.03740    -999.25    -999.25    -999.25    -999.25    -999.25   13.88200   73.96190   73.96190    -999.25   80.91240   80.91240   13.88200   14.56870   20.45590   14.56870    -999.25    -999.25    -999.25  131.84590   -6.34530   20.45590
 7450.00000    -999.25    -999.25   10.35960   10.35960   76.64660    -999.25    -999.25    -999.25    -999.25    -999.25   13.04690   74.53260   74.53260    -999.25   73.20750   73.20750   13.04690   13.35670   14.65350   13.35670    -999.25    -999.25    -999.25   92.00330  -49.13750   14.65350
 7500.00000    -999.25    -999.25   10.08260   10.08260   68.42140    -999.25    -999.25    -999.25    -999.25    -999.25   14.61530   70.94080   70.94080    -999.25   73.73050   73.73050   14.61530   15.08280   17.10980   15.08280    -999.25    -999.25    -999.25   55.60230  -86.15780   17.10980
 7550.00000    -999.25    -999.25   10.86590   10.86590   92.21330    -999.25    -999.25    -999.25    -999.25    -999.25   10.84480   75.34120   75.34120    -999.25   73.15510   73.15510   10.84480   10.45180   12.94050   10.45180    -999.25    -999.25    -999.25   53.47270  -88.90680   12.94050
 7600.00000    -999.25    -999.25   11.09290   11.09290   87.92910    -999.25    -999.25    -999.25    -999.25    -999.25   11.37280   77.29060   77.29060    -999.25   75.04340   75.04340   11.37280   11.04130   13.59930   11.04130    -999.25    -999.25    -999.25   62.55570  -80.44720   13.59930
 7650.00000    -999.25    -999.25   10.51680   10.51680   21.13880    -999.25    -999.25    -999.25    -999.25    -999.25   47.31130   66.48320   66.48320    -999.25   35.13260   35.13260   47.31130   49.29800   53.52810   49.29800    -999.25    -999.25    -999.25   40.57510 -103.04710   53.52810
 7700.00000    -999.25    -999.25    9.88060    9.88060   54.24940    -999.25    -999.25    -999.25    -999.25    -999.25   18.43340   74.73530   74.73530    -999.25   83.54500   83.54500   18.43340   17.53720   23.85460   17.53720    -999.25    -999.25    -999.25   71.51500  -72.73060   23.85460
 7750.00000    -999.25    -999.25   10.59850   10.59850   63.42520    -999.25    -999.25    -999.25    -999.25    -999.25   15.76660   83.32210   83.32210    -999.25   82.41340   82.41340   15.76660   15.30600   21.73150   15.30600    -999.25    -999.25    -999.25   61.01300  -83.85200   21.73150
 7800.00000    -999.25    -999.25    9.48100    9.48100   27.40490    -999.25    -999.25    -999.25    -999.25    -999.25   36.53410   70.69540   70.69540    -999.25   36.49780   36.49780   36.53410   50.15320   71.35080   50.15320    -999.25    -999.25    -999.25   39.56130 -105.92300   71.35080
 7850.00000    -999.25    -999.25   10.56520   10.56520   35.79660    -999.25    -999.25    -999.25    -999.25    -999.25   27.93560   69.99110   69.99110    -999.25   62.84200   62.84200   27.93560   27.63780   36.49400   27.63780    -999.25    -999.25    -999.25   94.53960  -51.56810   36.49400
 7900.00000    -999.25    -999.25   12.48570   12.48570  162.98430    -999.25    -999.25    -999.25    -999.25    -999.25    6.13770   90.50650   90.50650    -999.25   89.22240   89.22240    6.13770    5.76430    6.87150    5.76430    -999.25    -999.25    -999.25   82.96300  -63.76400    6.87150
