~Version ---------------------------------------------------
VERS. 2.0 : CWLS log ASCII Standard -VERSION 2.0
WRAP.  NO : One line per depth step
~Well ------------------------------------------------------
STRT.FT                        300.0 : START DEPTH
STOP.FT                       5950.0 : STOP DEPTH
STEP.FT                     50.00000 : STEP LENGTH
NULL.                        -999.25 : NULL VALUE
COMP.                   PETRO-CANADA : COMPANY
WELL. PACIFIC ET AL NIPISI 4-26-80-8 : WELL
FLD .                                : FIELD
LOC .                                : LOCATION
CTRY.                         CANADA : COUNTRY
SRVC.                   Schlumberger : SERVICE COMPANY
DATE.                    05-Jan-1966 : LOGDATE
PROV.                        Alberta : PROVINCE
UWI .               100042608008W500 : UNIQUE WELL ID
SLAT.WGS84             55.9581377259 : SURFACE LATITUDE
SLON.WGS84           -115.1456120509 : SURFACE LONGITUDE
~Curve Information -----------------------------------------
DEPT.FT    : DEPTH FEET
CILD.MMHO  : CONDUCTIVITY FROM RESISTIVITY LOG
DT  .US/F  : DELTA TIME FROM SONIC LOG
GRS .GAPI  : GAMMA RAY FROM SONIC LOG
ILD .OHMM  : INDUCTION LOG DEEP RESISTIVITY
MCAL.IN    : CALIPER MICROLOG
SN  .OHMM  : 16 INCH SHORT NORMAL RESISTIVITY FROM IEL
SPR .MV    : SPONTANEOUS POTENTIAL FROM RESISTIVITY LOG
~Params ----------------------------------------------------
PD  .                     GL : PERMANENT DATUM
EPD .FT               2165.8 : ELEVATION PERMANENT DATUM
LMF .                     KB : LOG MEASURED FROM
DAPD.FT                 12.2 : FEET ABOVE PERMANENT DATUM
EKB .FT                 2178 : KELLY BUSHING
EGL .FT               2165.8 : GROUND LEVEL
DATE.               01/05/66 : RUN DATE
RUN .                      1 : RUN NUMBER
DD  .FT                 5980 : DEPTH DRILLER
DL  .FT                 5979 : DEPTH LOGGER
BLI .FT                 5978 : BOTTOM LOG INTERVAL
TLI .FT                  628 : TOP LOG INTERVAL
CBD .FT                  626 : CASING BOTTOM DRILLER
CBL .FT                  628 : CASING BOTTOM LOGGER
BS  .IN                7.875 : BIT SIZE
BSD .FT                 5980 : BIT SIZE AT DEPTH
DFT .                    GEL : DRILLING FLUID TYPE
DFD .                   10.2 : DRILLING FLUID DENSITY
DFV .                    115 : DRILLING FLUID VISCOSITY
DFPH.                     10 : DRILLING FLUID PH
DFL .                      8 : DRILLING FLUID LOSS
RMS .OHMM              0.643 : RESISTIVITY MUD SAMPLE
MST .DEGF                 36 : MUD SAMPLE TEMPERATURE
RMF .OHMM              0.588 : RESISTIVITY MUD FILTRATE SAMPLE
MFST.DEGF                 40 : MUD FILTRATE SAMPLE TEMPERATURE
RMC .OHMM               1.02 : RESISTIVITY MUD CAKE
MCST.DEGF                 41 : MUD CAKE SAMPLE TEMPERATURE
RMB .OHMM              0.301 : RESISTIVITY MUD AT BHT
TCS .HRS                   3 : TIME CIRCULATED STOPPED
LUN .                   3705 : LOGGING UNIT NUMBER
LUL .                    EDM : LOGGING UNIT LOCATION
ENGI.                  BERRY : RECORDING ENGINEER
WITN.                 CHETIN : WITNESSED BY
CLNT.                A2DTECH : CLIENT CODE
ORIG.            2" 5" PRINT : ORIGIN OF DATA
UWI .       100042608008W500 : UNIQUE WELL ID
DICO. A2D Technologies, Inc. : DIGITIZING COMPANY
~Other -----------------------------------------------------
~ASCII -----------------------------------------------------
  300.00000    -999.25    -999.25   30.35510    -999.25    -999.25    -999.25    -999.25
  350.00000    -999.25    -999.25   83.70740    -999.25    -999.25    -999.25    -999.25
  400.00000    -999.25    -999.25   55.06150    -999.25    -999.25    -999.25    -999.25
  450.00000    -999.25    -999.25   69.09180    -999.25    -999.25    -999.25    -999.25
  500.00000    -999.25    -999.25   64.45070    -999.25    -999.25    -999.25    -999.25
  550.00000    -999.25    -999.25   50.71810    -999.25    -999.25    -999.25    -999.25
  600.00000    -999.25    -999.25   44.09800    -999.25    -999.25    -999.25    -999.25
  650.00000  103.87600  176.10320   67.02020    9.39080   12.40660    7.10040  -60.13770
  700.00000  156.03230  196.69920   43.54570    6.72880   17.95520    4.71130  -53.98470
  750.00000  185.70080  172.66790   65.86190    5.05420   18.05240    4.04900  -54.97160
  800.00000  242.37600  152.50490   76.36240    4.27640   17.98640    3.97740  -55.06490
  850.00000  208.63430  188.37470   57.20160    4.93930   17.96460    3.30780  -48.44930
  900.00000  279.65930  141.39520   60.11800    4.19020   17.83850    3.14970  -44.17740
  950.00000  434.05870  158.13530  107.34870    4.11230   15.47170    2.90920  -56.76480
 1000.00000  356.87800  140.79120   59.49220    4.19290   14.58100    3.13820  -51.22670
 1050.00000  329.20100  138.96040   59.07330    4.10340   14.16020    3.56970  -45.50690
 1100.00000  250.16780  140.57070   74.27170    4.22080   12.66240    3.85490  -50.13970
 1150.00000  605.09020  194.67790   47.73660    1.80150   17.83370    2.15720  -38.90600
 1200.00000  489.62340  199.98410   34.26490    2.05760   17.96590    2.36650  -38.45380
 1250.00000  222.64220  127.32300   59.62460    3.91790    8.22180    5.66110  -59.75410
 1300.00000  281.96340  148.21120   52.56830    3.35990   12.05720    3.83680  -60.13860
 1350.00000  342.13790  182.33910   38.55180    2.62490   12.09270    3.11590  -48.84620
 1400.00000  286.09190  123.83470   59.39150    2.90680    8.80160    5.60580  -63.82000
 1450.00000  272.83900  139.37400   56.94950    2.98280   11.31660    4.22250  -59.57750
 1500.00000  246.16920  118.89790   64.41190    3.51380   10.37660    5.00920  -63.77450
 1550.00000  187.64010  114.21820   52.20020    4.94110    9.14840    6.85200  -61.07770
 1600.00000  251.74850  119.00030   54.07780    3.33110    9.71340    5.03790  -68.24470
 1650.00000  211.31020  117.88420   53.41960    4.14670    9.54480    6.45810  -65.37900
 1700.00000  211.25780  118.81790   54.52610    4.02810   13.17300    4.70670  -58.00620
 1750.00000  272.98790  154.39660   55.23090    3.14920   14.43190    4.43850  -52.95560
 1800.00000  157.59140  129.97720   50.13540    5.90180   13.46110    5.31790  -52.68160
 1850.00000  238.09730  191.73580   52.53370    4.96550   10.26230    4.11870  -54.41420
 1900.00000   40.33630   77.06170   23.69260   23.31210    9.47200   14.65730  -61.67870
 1950.00000   18.80490   78.63360   19.63040   37.75220    9.02730   24.59710  -56.98370
 2000.00000   22.80490   64.62630   25.20850   40.60870    9.22350   26.39140  -59.08780
 2050.00000   65.99430   71.20690   38.60830   14.76460   11.13100   13.93730  -62.49270
 2100.00000   35.70580   59.38300   23.97190   24.10250    9.26950   21.51400  -50.95520
 2150.00000   33.30730   59.01780   18.16350   26.11830    8.98800   26.83420  -56.72000
 2200.00000   56.80960   75.68810   23.54840   16.99110    9.11340   16.77090  -44.34980
 2250.00000  203.68520   96.11170   28.88820    4.93370   10.58440    5.64170  -41.18070
 2300.00000  184.37960   98.38570   32.31300    5.46300   10.95680    6.15920  -39.76300
 2350.00000  111.86490   86.07730   22.24640    8.57120    9.49640    8.80760  -40.41170
 2400.00000   71.65700   71.40210   21.77660   13.67820    9.02100   14.13480  -51.98950
 2450.00000   35.10830   40.66760   16.31620   27.02270    8.50380   31.50390  -58.67460
 2500.00000   56.09830   64.65510   23.47530   16.23770    8.74970   16.00350  -51.75470
 2550.00000   87.02980   67.40070   40.84320   12.44100    9.43690   11.02890  -47.08150
 2600.00000  295.13350  118.71780  110.98810    2.88330   12.23180    4.38230  -41.27740
 2650.00000   11.71510   55.21700   21.24000   48.34490    8.80360   30.69250  -47.00110
 2700.00000   13.98850   54.74690   14.68740   49.91890    8.91710   40.69980  -72.36760
 2750.00000   23.68440   54.10670   15.41020   42.95160    8.70890   36.61470  -62.25640
 2800.00000   17.81850   54.37060   15.91920   44.78670    9.21720   44.14140  -74.59820
 2850.00000   20.24420   57.42520   13.68300   38.19120    8.75860   39.50740  -73.35620
 2900.00000   28.19200   59.72230   16.31650   31.45970    8.58320   46.03440  -75.75250
 2950.00000   53.05350   58.48570   16.67720   18.59550    8.47430   35.17460  -75.94280
 3000.00000    4.91640   49.71820   14.33050   96.08790    8.57290   54.43410  -60.88840
 3050.00000   78.90600   60.79580   15.63310   12.67360    8.79820   26.41920  -79.48650
 3100.00000   10.56480   53.74840   13.21210   62.52700    8.41220   44.24930  -62.84520
 3150.00000   13.25470   54.88080   12.10270   51.43380    8.83460   39.57290  -68.62000
 3200.00000   21.05470   52.18760   13.29830   46.11050    8.74800   44.36650  -65.97550
 3250.00000   14.78310   56.16800   11.74880   58.14110    8.83920   43.61810  -66.52450
 3300.00000    6.11000   50.26520    9.33830   81.33170    8.72280   54.96120  -58.79210
 3350.00000   12.30610   51.75060   12.35220   62.02610    8.61720   57.92110  -64.14890
 3400.00000    7.19660   50.67770   15.01630   63.92370    9.24050   43.62310  -59.66530
 3450.00000   43.83320   50.22320   12.88030   22.83000    9.14850   33.13050  -65.83760
 3500.00000   20.50470   52.51690   12.65990   45.29790    9.16180   41.47290  -75.37100
 3550.00000  261.98410  101.85020   66.37500    3.18220   12.50990    4.39440  -53.81670
 3600.00000   32.64890   50.32400   15.03040   31.36610    8.18320   46.97060  -77.85750
 3650.00000   44.30010   51.65620   20.25000   20.42970    8.76990   25.68220  -69.77230
 3700.00000   23.85580   50.95830   11.51320   30.59460    8.26420   27.97360  -66.26680
 3750.00000   21.24550   48.14170   14.22770   42.50870    8.11910   38.02240  -65.48460
 3800.00000   19.32570   50.04390   11.17530   37.52380    8.48240   46.26230  -77.23560
 3850.00000  148.19390   58.63010   33.60970    8.26020    7.91410   24.90480  -92.38690
 3900.00000   55.91950   53.88070   19.09160   17.70130    8.10160   28.37750  -77.36760
 3950.00000  207.40120   88.00820   62.26970    4.38610   10.21660    7.30430  -52.54870
 4000.00000  229.15910   85.92310   58.72340    3.74190   11.97860    5.00260  -51.47070
 4050.00000  300.31270   99.75080   66.54910    2.73870   13.71500    3.88020  -55.71710
 4100.00000  259.10860   86.07800   59.21900    3.00520   12.44840    4.64710  -54.65890
 4150.00000  170.94800   68.87050   49.74540    5.62880    8.78390    7.29370  -55.07510
 4200.00000  234.83770   86.12890   50.95920    3.60160    9.56760    6.78370  -54.33990
 4250.00000   84.32840   71.09250   57.43240   11.31590    8.86680    9.49400  -51.71790
 4300.00000  238.48200  100.91680   55.72670    3.07780    9.64660    5.01880  -59.09330
 4350.00000  122.05700   75.16900   62.93890    8.29180    9.03640   10.76790  -59.63710
 4400.00000   61.62760   64.15970   36.32020   15.18390    8.53880   16.73700  -61.49600
 4450.00000  129.52190   73.10160   45.57170    7.58450    9.14360    8.97620  -57.50430
 4500.00000   48.73960   56.84170   18.93350   18.31820    8.29540   19.32880  -68.11290
 4550.00000   95.56350   65.59680   37.55730   10.14600    8.52270   11.89770  -53.19790
 4600.00000   84.89170   66.65270   36.85200   11.22660    8.37670   12.96070  -53.75920
 4650.00000  134.28370   71.95300   57.09720    7.31330    8.45100    9.17890  -51.62650
 4700.00000  173.61370   74.28420   51.16120    5.64850    8.63550    7.82430  -48.99290
 4750.00000  380.11040  103.54680   81.14900    2.25550   14.68630    3.45700  -56.39600
