~Version ---------------------------------------------------
VERS.      2.0 : CWLS log ASCII Standard -VERSION 2.0
WRAP.       NO : One line per depth step
CREA. 11/22/17 : LAS Creation Date
~Well ------------------------------------------------------
STRT.FT                      1000.0 : START DEPTH
STOP.FT                      9700.0 : STOP DEPTH
STEP.FT                    50.00000 : STEP LENGTH
NULL.                       -999.25 : NULL VALUE
COMP. HUDSON'S BAY OIL & GAS CO LTD : COMPANY
WELL.         HB MEEKWAP 11-8-66-18 : WELL
FLD .                               : FIELD
LOC .                               : LOCATION
CTRY.                        CANADA : COUNTRY
SRVC.                  Schlumberger : SERVICE COMPANY
DATE.                   20-Feb-1976 : LOGDATE
PROV.                       Alberta : PROVINCE
UWI .              100110806618W500 : UNIQUE WELL ID
SLAT.WGS84                 54.70024 : SURFACE LATITUDE
SLON.WGS84                -116.6871 : SURFACE LONGITUDE
~Curve Information -----------------------------------------
DEPT    .FT    : Depth Curve
CALDED  .IN    : CALIPER FROM DENSITY LOG [ADJ. TO RESISTIVITY LOG]
CALSED  .IN    : CALIPER FROM SONIC LOG [ADJ. TO RESISTIVITY LOG]
CALWS   .IN    : CALIPER [CALSED]
CILDED  .MMHO  : CONDUCTIVITY FROM RESISTIVITY LOG
CONDWS  .MMHO  : CONDUCTIVITY [1000/DRESWS]
DCORWS  .G/C3  : DENSITY CORRECTION [DRHOED]
DENWS   .G/C3  : FORMATION BULK DENSITY [RHOBED]
DPHILSED.V/V   : DENSITY POROSITY LIMESTONE [M=2.71, F=1.00] FROM DENSITY LOG [ADJ. TO RESISTIVITY LOG]
DPHISSED.V/V   : DENSITY POROSITY SANDSTONE [M=2.65, F=1.00] FROM DENSITY LOG [ADJ. TO RESISTIVITY LOG]
DPOLSWS .V/V   : DENSITY POROSITY LIMESTONE [CALC. FROM DENWS M=2.71, F=1.00]
DRESWS  .OHMM  : DEEP RESISTIVITY [FROM START TO 4053' IF ILDED<5;1000/CILDED;ELSE ILDED
DRHOED  .G/C3  : BULK DENSITY CORRECTION FROM DENSITY LOG [ADJ. TO RESISTIVITY LOG/DPHISSED/DPHILSED]
DTED    .US/F  : DELTA-T FROM SONIC LOG [ADJ. TO RESISTIVITY LOG]
DTWS    .US/F  : COMPRESSIONAL SONIC [DTED]
GRDED   .GAPI  : GAMMA RAY FROM DENSITY LOG [ADJ. TO RESISTIVITY LOG]
GRSED   .GAPI  : GAMMA RAY FROM SONIC LOG [ADJ. TO RESISTIVITY LOG]
GRWS    .GAPI  : GAMMA RAY [GRSED]
ILDED   .OHMM  : DEEP INDUCTION FROM RESISTIVITY LOG
ILMED   .OHMM  : MEDIUM INDUCTION FROM RESISTIVITY LOG
LL8ED   .OHMM  : LATEROLOG 8 FROM RESISTIVITY LOG
MRESWS  .OHMM  : MEDIUM RESISTIVITY [ILMED]
NPHILSED.V/V   : NEUTRON POROSITY LIMESTONE FROM DENSITY LOG [ADJ. TO RESISTIVITY LOG]
NPHISSED.V/V   : NEUTRON POROSITY SANDSTONE FROM DENSITY LOG [ADJ. TO RESISTIVITY LOG]
NPOLSWS .V/V   : NEUTRON POROSITY LIMESTONE [NPHISSED MATRIX CONVERSION FOR LIMESTONE FROM SCHLUMBERGER (CNL), SPL. TO NPHILSED @ 5502']
RHOBED  .G/C3  : BULK DENSITY FROM DENSITY LOG [ADJ. TO RESISTIVITY LOG/DPHISSED/DPHILSED]
SPRED   .MV    : SPONTANEOUS POTENTIAL FROM RESISTIVITY LOG
SPWS    .MV    : SPONTANEOUS POTENTIAL [BASELINE 0 MV, SPRED]
SRESWS  .OHMM  : SHALLOW RESISTIVITYV [LL8ED]
~Params ----------------------------------------------------
PD  .                     GL : PERMANENT DATUM
EPD .FT                 2674 : ELEVATION PERMANENT DATUM
LMF .                     KB : LOG MEASURED FROM
DAPD.FT                 16.8 : FEET ABOVE PERMANENT DATUM
EKB .FT               2690.8 : KELLY BUSHING
EGL .FT                 2674 : GROUND LEVEL
DATE.               02/20/76 : RUN DATE
RUN .                      1 : RUN NUMBER
DD  .FT                 9730 : DEPTH DRILLER
DL  .FT                 9732 : DEPTH LOGGER
BLI .FT                 9726 : BOTTOM LOG INTERVAL
TLI .FT                  995 : TOP LOG INTERVAL
CBD .FT                  995 : CASING BOTTOM DRILLER
CBL .FT                  995 : CASING BOTTOM LOGGER
BS  .IN                 8.75 : BIT SIZE
BSD .FT                 9730 : BIT SIZE AT DEPTH
DFT .                    GEL : DRILLING FLUID TYPE
DFD .                    9.6 : DRILLING FLUID DENSITY
DFV .                    120 : DRILLING FLUID VISCOSITY
DFPH.                      9 : DRILLING FLUID PH
DFL .                     10 : DRILLING FLUID LOSS
MSS .               FLOWLINE : MUD SAMPLE SOURCE
RMS .OHMM               0.68 : RESISTIVITY MUD SAMPLE
MST .DEGF                199 : MUD SAMPLE TEMPERATURE
RMF .OHMM                1.9 : RESISTIVITY MUD FILTRATE SAMPLE
MFST.DEGF                 60 : MUD FILTRATE SAMPLE TEMPERATURE
RMB .OHMM               0.57 : RESISTIVITY MUD AT BHT
LUN .                   7800 : LOGGING UNIT NUMBER
LUL .                    EDM : LOGGING UNIT LOCATION
ENGI.               BERNLSKY : RECORDING ENGINEER
WITN.                HARDMAN : WITNESSED BY
CLNT.                A2DTECH : CLIENT CODE
ORIG.            2" 5" PRINT : ORIGIN OF DATA
UWI .       100110806618W500 : UNIQUE WELL ID
DICO. A2D Technologies, Inc. : DIGITIZING COMPANY
~Other -----------------------------------------------------
DIL-CNFD-BHC LOG RUN
ALL DATA FROM DIL LOG VERIFY FROM TOP -4048'FROM 2" SCALE LOG
~ASCII -----------------------------------------------------
# ...
 8500.00000   15.00000   13.08690   13.08690    -999.25  261.32180    0.20660    1.83240    0.45000    -999.25    0.51320    3.82670    0.20660   82.97370   82.97370   77.75830   75.92750   75.92750    3.82670    3.65180    4.66610    3.65180    0.37930    -999.25    0.37930    1.83240 -316.79720  -86.80750    4.66610
 8550.00000   15.00000   13.13580   13.13580    -999.25  274.83100    0.25000    2.38610    0.19580    -999.25    0.18940    3.63860    0.25000   83.27440   83.27440   73.36440   84.42790   84.42790    3.63860    3.46240    4.79100    3.46240    0.39710    -999.25    0.39710    2.38610 -324.21120  -93.61660    4.79100
 8600.00000   15.00000   13.39960   13.39960    -999.25  257.89150    0.25000    2.12800    0.33980    -999.25    0.34040    3.87760    0.25000   83.37090   83.37090   76.19100   83.24290   83.24290    3.87760    3.58220    5.10670    3.58220    0.44050    -999.25    0.44050    2.12800 -282.58190  -51.37840    5.10670
 8650.00000   15.00000   13.49450   13.49450    -999.25  242.48890    0.16810    1.76870    0.45030    -999.25    0.55050    4.12390    0.16810   86.22830   86.22830   82.24510   74.06170   74.06170    4.12390    3.79840    5.60800    3.79840    0.39100    -999.25    0.39100    1.76870 -251.10850  -19.30000    5.60800
 8700.00000    9.37220    8.95110    8.95110    -999.25   89.26820    0.05360    2.72050   -0.00610    -999.25   -0.00610   11.20220    0.05360   65.20100   65.20100   65.98640   67.32440   67.32440   11.20220   10.09380   13.48250   10.09380    0.12720    -999.25    0.12720    2.72050 -240.01590   -7.59850   13.48250
 8750.00000    9.36150    8.95100    8.95100    -999.25   93.80690    0.04520    2.71320   -0.00020    -999.25   -0.00190   10.66020    0.04520   66.91930   66.91930   76.43750   81.09530   81.09530   10.66020    9.20900   13.26220    9.20900    0.13460    -999.25    0.13460    2.71320 -242.65830   -9.63590   13.26220
 8800.00000    9.18790    8.99780    8.99780    -999.25  110.36670    0.03440    2.72530   -0.01940    -999.25   -0.00890    9.06070    0.03440   68.98600   68.98600   80.00070   81.01360   81.01360    9.06070    8.12450   11.13830    8.12450    0.15560    -999.25    0.15560    2.72530 -283.19940  -49.57210   11.13830
 8850.00000    9.35790    8.98480    8.98480    -999.25  107.89580    0.04260    2.64200    0.02630    -999.25    0.03980    9.26820    0.04260   67.50620   67.50620   74.54500   83.61750   83.61750    9.26820    8.09480   13.27340    8.09480    0.14170    -999.25    0.14170    2.64200 -349.95060 -115.71440   13.27340
 8900.00000    9.35700    8.97100    8.97100    -999.25  128.71010    0.04170    2.72470   -0.01580    -999.25   -0.00860    7.76940    0.04170   71.88090   71.88090   91.85250   97.54280   97.54280    7.76940    7.18890   10.15600    7.18890    0.18660    -999.25    0.18660    2.72470 -404.14360 -169.30240   10.15600
 8950.00000   10.00220    9.14870    9.14870    -999.25  153.77520    0.21990    2.72160   -0.00820    -999.25   -0.00680    6.50300    0.21990   76.50700   76.50700   98.26690  104.24310  104.24310    6.50300    5.64560    8.67510    5.64560    0.21480    -999.25    0.21480    2.72160 -390.34960 -154.89950    8.67510
 9000.00000    9.62650    9.01210    9.01210    -999.25  148.17890    0.24670    2.72830   -0.02720    -999.25   -0.01070    6.74860    0.24670   73.94080   73.94080   84.34390   92.30080   92.30080    6.74860    6.04720    8.23760    6.04720    0.18330    -999.25    0.18330    2.72830 -264.56450  -28.50950    8.23760
 9050.00000    9.45870    8.89470    8.89470    -999.25  122.71900    0.06760    2.67310    0.03360    -999.25    0.02160    8.14870    0.06760   71.84450   71.84450   75.94650   84.28900   84.28900    8.14870    7.28060   10.99040    7.28060    0.17620    -999.25    0.17620    2.67310 -101.32010  135.33990   10.99040
 9100.00000    9.39040    8.86390    8.86390    -999.25  119.41870    0.05480    2.69130    0.01560    -999.25    0.01090    8.37390    0.05480   70.54880   70.54880   74.04080   84.83670   84.83670    8.37390    7.68440   11.44850    7.68440    0.17860    -999.25    0.17860    2.69130   12.88060  250.14950   11.44850
 9150.00000    9.12180    8.83660    8.83660    -999.25    6.82570    0.02570    2.52570    0.10720    -999.25    0.10780  146.50520    0.02570   76.94730   76.94730  110.87010  129.13660  129.13660  146.50520  130.18930  254.73320  130.18930    0.17180    -999.25    0.17180    2.52570   23.30200  261.17580  254.73320
 9200.00000    9.19830    8.83480    8.83480    -999.25   55.34190    0.04570    2.71160   -0.00470    -999.25   -0.00090   18.06950    0.04570   63.07600   63.07600   51.78770   57.65090   57.65090   18.06950   15.73950   25.72100   15.73950    0.08980    -999.25    0.08980    2.71160  -79.12500  159.35780   25.72100
 9250.00000    9.46250    9.19080    9.19080    -999.25  108.12800    0.24810    2.76030   -0.03460    -999.25   -0.02940    9.24830    0.24810   76.04790   76.04790   94.84190  107.37370  107.37370    9.24830    8.65340   11.79570    8.65340    0.20960    -999.25    0.20960    2.76030 -200.52270   38.56500   11.79570
 9300.00000    9.16350    8.80040    8.80040    -999.25   58.27980    0.08770    2.72800   -0.01330    -999.25   -0.01050   17.15860    0.08770   60.37130   60.37130   54.01020   59.66930   59.66930   17.15860   15.82360   31.41480   15.82360    0.09690    -999.25    0.09690    2.72800 -195.61210   44.08050   31.41480
 9350.00000    9.21910    8.79270    8.79270    -999.25    8.44780    0.07860    2.75750   -0.03480    -999.25   -0.02780  118.37460    0.07860   51.26760   51.26760   19.80720   18.90540   18.90540  118.37460   73.35340  884.30460   73.35340    0.01040    -999.25    0.01040    2.75750 -355.40490 -115.10330  884.30460
 9400.00000    9.17250    8.76920    8.76920    -999.25   19.46960    0.07640    2.74470   -0.02000    -999.25   -0.02030   51.36220    0.07640   55.98970   55.98970   31.24520   36.21860   36.21860   51.36220   46.85770   54.40190   46.85770    0.04090    -999.25    0.04090    2.74470 -388.60710 -147.70060   54.40190
 9450.00000    9.16930    8.79160    8.79160    -999.25   49.45210    0.07550    2.75160   -0.02780    -999.25   -0.02430   20.22160    0.07550   62.94230   62.94230   55.36810   62.06430   62.06430   20.22160   18.12940   26.04290   18.12940    0.11080    -999.25    0.11080    2.75160 -295.48400  -53.96860   26.04290
 9500.00000    8.98630    8.77850    8.77850    -999.25   22.84750    0.05100    2.68410    0.01470    -999.25    0.01510   43.76840    0.05100   61.18810   61.18810   39.69080   51.51680   51.51680   43.76840   40.64020   53.92040   40.64020    0.09510    -999.25    0.09510    2.68410 -256.80390  -14.68350   53.92040
 9550.00000    9.08570    8.78690    8.78690    -999.25   21.90420    0.06980    2.72790   -0.01060    -999.25   -0.01050   45.65340    0.06980   57.67300   57.67300   36.68370   36.50970   36.50970   45.65340   35.36370  172.57410   35.36370    0.06590    -999.25    0.06590    2.72790 -210.44780   32.27750  172.57410
 9600.00000    9.20010    8.81190    8.81190    -999.25    0.63390    0.07230    2.73780   -0.01790    -999.25   -0.01630 1577.57390    0.07230   50.07370   50.07370   12.99890   13.30480   13.30480 1577.57390 1031.27400 1521.77150 1031.27400    0.00830    -999.25    0.00830    2.73780 -509.12630 -265.79210 1521.77150
 9650.00000    9.33420    8.77550    8.77550    -999.25    1.41140    0.03870    2.72130   -0.01460    -999.25   -0.00660  708.53230    0.03870   50.75910   50.75910   15.20910   12.13360   12.13360  708.53230 1040.96530 1469.85170 1040.96530    0.01170    -999.25    0.01170    2.72130 -386.17350 -142.23430 1469.85170
 9700.00000    8.18370    7.17450    7.17450    -999.25 2389.48630    0.25450    2.37980    0.19690    -999.25    0.19310    0.41850    0.25450   71.37650   71.37650    -999.25   60.40580   60.40580    0.41850    0.34990    2.43380    0.34990    0.15950    -999.25    0.15950    2.37980 -370.14970 -125.83640    2.43380
