~Version ---------------------------------------------------
VERS.      2.0 : CWLS log ASCII Standard -VERSION 2.0
WRAP.       NO : One line per depth step
CREA. 08/01/17 : LAS Creation Date
~Well ------------------------------------------------------
STRT.FT                           1450.0 : START DEPTH
STOP.FT                          10150.0 : STOP DEPTH
STEP.FT                         50.00000 : STEP LENGTH
NULL.                            -999.25 : NULL VALUE
COMP.               CHEVRON STANDARD LTD : COMPANY
WELL. CHEVRON GULF PASS CREEK 6-10-61-17 : WELL
FLD .                                    : FIELD
LOC .                                    : LOCATION
CTRY.                             CANADA : COUNTRY
SRVC.                       Schlumberger : SERVICE COMPANY
DATE.                        29-Nov-1977 : LOGDATE
PROV.                            Alberta : PROVINCE
UWI .                   100061006117W500 : UNIQUE WELL ID
SLAT.WGS84                      54.25885 : SURFACE LATITUDE
SLON.WGS84                     -116.4678 : SURFACE LONGITUDE
~Curve Information -----------------------------------------
DEPT    .FT    : Depth Curve
CALDED  .IN    : CALIPER FROM DENSITY LOG [ADJ TO GRSED]
CALSED  .IN    : CALIPER FROM SONIC LOG
CALWS   .IN    : CALIPER [CALSED]
CONDWS  .MMHO  : CONDUCTIVITY [1000/DRESWS]
DCORWS  .G/C3  : DENSITY CORRECTION [DRHOED]
DENWS   .G/C3  : BULK DENSITY RHOBED]
DPHILSED.V/V   : DENSITY POROSITY [M=2.71, F=1.00] FROM DENSITY LOG [ADJ TO GRSED]
DPHISSED.V/V   : DENSITY POROSITY [M=2.65, F=1.00] FROM DENSITY LOG [ADJ TO GRSED]
DPOLSWS .V/V   : DENSITY POROSITY [M=2.71, F=1.00] [CALCULATED FROM DENWS]
DRESWS  .OHMM  : DEEP RESISTIVITY [ILDED]
DRHOED  .G/C3  : DENSITY CORRECTION FROM DENSITY LOG[ADJ TO GRSED]
DTED    .US/F  : DELTA TIME FROM SONIC LOG
DTWS    .US/F  : DELTA TIME [DTED]
GRDED   .GAPI  : GAMMA RAY FROM DENSITY LOG[ADJ TO GRSED]
GRSED   .GAPI  : GAMMA RAY FROM SONIC LOG
GRWS    .GAPI  : GAMMA RAY [GRSED, CSG <1537']
ILDED   .OHMM  : INDUCTION LOG DEEP RESISTIVITY
ILMED   .OHMM  : INDUCTION LOG MEDIUM RESISTIVITY
LL8ED   .OHMM  : 8 INCH LATEROLOG RESISTIVITY
MRESWS  .OHMM  : MEDIUM RESISTIVITY [ILMED]
NPHILSED.V/V   : NEUTRON POROSITY LIMESTONE FROM DENSITY LOG [ADJ TO GRSED]
NPHISSED.V/V   : NEUTRON POROSITY SANDSTONE FROM DENSITY LOG [ADJ TO GRSED]
NPOLSWS .V/V   : NEUTRON POROSITY LIMESTONE [CONVERTED NPHISSED TO LIMESTONE SPL WITH NPHILSED @9598']
RHOBED  .G/C3  : BULK DENSITY FROM DENSITY LOG [ADJ TO GRSED]
SPRED   .MV    : SPONTANEOUS POTENTIAL FROM RESISTIVITY LOG
SPWS    .MV    : SPONTANEOUS POTENTIAL [BASELINE 0 MV] [SPRED]
SRESWS  .OHMM  : SHALLOW RESISTIVITY [LL8ED]
TENDED  .LBF   : TENSION FROM DENSITY LOG [ADJ TO GRSED]
TENSED  .LBF   : TENSION FROM SONIC LOG
~Params ----------------------------------------------------
PD  .                     GL : PERMANENT DATUM
LMF .                     GL : LOG MEASURED FROM
EKB .FT                 2726 : KELLY BUSHING
DATE.               11/29/77 : RUN DATE
RUN .                      1 : RUN NUMBER
DFD .                    9.7 : DRILLING FLUID DENSITY
DFV .                    145 : DRILLING FLUID VISCOSITY
DFPH.                    9.5 : DRILLING FLUID PH
DFL .                    7.6 : DRILLING FLUID LOSS
MSS .               FLOWLINE : MUD SAMPLE SOURCE
TCS .HRS                 7.5 : TIME CIRCULATED STOPPED
ENGI.              BIGG GUNN : RECORDING ENGINEER
WITN.               WILLIAMS : WITNESSED BY
CLNT.                A2DTECH : CLIENT CODE
ORIG.            2" 5" PRINT : ORIGIN OF DATA
UWI .       100061006117W500 : UNIQUE WELL ID
DICO. A2D Technologies, Inc. : DIGITIZING COMPANY
~Other -----------------------------------------------------
~ASCII -----------------------------------------------------
# ...
 8950.00000    -999.25   10.13330   10.13330   86.92590    -999.25    -999.25    -999.25    -999.25    -999.25   11.51860    -999.25   71.29800   71.29800    -999.25  100.71340  100.71340   11.51860   13.30290   19.79180   13.30290    -999.25    -999.25    -999.25    -999.25   -3.34360  -14.90100   19.79180    -999.25 1413.54180
 9000.00000    -999.25    9.54030    9.54030   73.50890    -999.25    -999.25    -999.25    -999.25    -999.25   13.60380    -999.25   68.49860   68.49860    -999.25   95.18780   95.18780   13.60380   13.99570   16.24980   13.99570    -999.25    -999.25    -999.25    -999.25   -2.53680  -16.57220   16.24980    -999.25 1499.72010
 9050.00000    -999.25   12.15340   12.15340  197.06760    -999.25    -999.25    -999.25    -999.25    -999.25    5.07440    -999.25   80.06610   80.06610    -999.25   97.81580   97.81580    5.07440    5.38440    5.75170    5.38440    -999.25    -999.25    -999.25    -999.25   -6.59250  -23.11840    5.75170    -999.25 1499.10860
 9100.00000    -999.25    9.57950    9.57950   37.38880    -999.25    -999.25    -999.25    -999.25    -999.25   26.74600    -999.25   57.68780   57.68780    -999.25   67.53790   67.53790   26.74600   31.56440   46.48470   31.56440    -999.25    -999.25    -999.25    -999.25   11.80270   -7.21360   46.48470    -999.25 1695.63600
 9150.00000    -999.25    9.94970    9.94970   34.23120    -999.25    -999.25    -999.25    -999.25    -999.25   29.21310    -999.25   55.28900   55.28900    -999.25   50.64420   50.64420   29.21310   32.37250   42.78730   32.37250    -999.25    -999.25    -999.25    -999.25   14.48780   -7.01890   42.78730    -999.25 1691.81390
 9200.00000    -999.25    9.82350    9.82350   94.70650    -999.25    -999.25    -999.25    -999.25    -999.25   10.55900    -999.25   67.52770   67.52770    -999.25  102.64800  102.64800   10.55900   11.74210   15.28870   11.74210    -999.25    -999.25    -999.25    -999.25   19.57050   -4.43920   15.28870    -999.25 1752.63250
 9250.00000    -999.25    9.63410    9.63410   99.71480    -999.25    -999.25    -999.25    -999.25    -999.25   10.02860    -999.25   66.34990   66.34990    -999.25   93.20730   93.20730   10.02860   11.39820   15.34830   11.39820    -999.25    -999.25    -999.25    -999.25   22.69350   -3.79410   15.34830    -999.25 1808.41970
 9300.00000    -999.25    9.61050    9.61050  101.62700    -999.25    -999.25    -999.25    -999.25    -999.25    9.83990    -999.25   67.50800   67.50800    -999.25   91.13860   91.13860    9.83990   10.72720   13.60560   10.72720    -999.25    -999.25    -999.25    -999.25   25.66540   -3.31260   13.60560    -999.25 1187.21760
 9350.00000    -999.25    9.27960    9.27960  102.51150    -999.25    -999.25    -999.25    -999.25    -999.25    9.75500    -999.25   68.08390   68.08390    -999.25   98.79140   98.79140    9.75500   11.70740   15.67200   11.70740    -999.25    -999.25    -999.25    -999.25   28.73090   -2.40460   15.67200    -999.25 1277.37520
 9400.00000    -999.25    9.17500    9.17500  101.92640    -999.25    -999.25    -999.25    -999.25    -999.25    9.81100    -999.25   67.51730   67.51730    -999.25   89.70670   89.70670    9.81100   11.66630   15.44840   11.66630    -999.25    -999.25    -999.25    -999.25   25.03860   -6.36730   15.44840    -999.25 1316.26030
 9450.00000    -999.25    9.11320    9.11320   90.65800    -999.25    -999.25    -999.25    -999.25    -999.25   11.03300    -999.25   71.10680   71.10680    -999.25  110.28720  110.28720   11.03300   12.42420   16.48230   12.42420    -999.25    -999.25    -999.25    -999.25   16.45660  -15.22110   16.48230    -999.25 1337.86200
 9500.00000    -999.25    8.88410    8.88410    0.61950    -999.25    -999.25    -999.25    -999.25    -999.25 1614.07570    -999.25   68.85150   68.85150    -999.25  232.09880  232.09880 1614.07570 1458.54460 1523.02260 1458.54460    -999.25    -999.25    -999.25    -999.25  -66.51880  -98.46550 1523.02260    -999.25 1500.17310
 9550.00000    -999.25    8.84350    8.84350    0.68050    -999.25    -999.25    -999.25    -999.25    -999.25 1469.48460    -999.25   71.12530   71.12530    -999.25  157.60320  157.60320 1469.48460 1410.48210 1539.87670 1410.48210    -999.25    -999.25    -999.25    -999.25  -68.86200 -101.07910 1539.87670    -999.25 1392.96150
 9600.00000    9.14250    8.95220    8.95220   10.95590    0.02110    2.48570    0.05570    -999.25    0.13120   91.27520    0.02110   74.65690   74.65690  158.77640  169.99990  169.99990   91.27520  108.95300  114.88820  108.95300    0.17910    -999.25    0.17910    2.48570  -19.93800  -52.42560  114.88820 1647.81540 1518.32140
 9650.00000    9.64800    9.14510    9.14510    0.66610    0.01320    2.67790    0.02190    -999.25    0.01880 1501.31870    0.01320   48.17480   48.17480   11.47940   12.47230   12.47230 1501.31870 1389.84850 1569.76760 1389.84850    0.00420    -999.25    0.00420    2.67790 -158.76270 -191.52070 1569.76760 1695.30190 1579.31940
 9700.00000    9.32180    9.09040    9.09040    0.66050    0.01990    2.71190   -0.00770    -999.25   -0.00110 1513.90260    0.01990   48.99690   48.99690   14.20040   12.95160   12.95160 1513.90260  695.68910 1547.04980  695.68910    0.00360    -999.25    0.00360    2.71190 -150.62240 -183.65210 1547.04980 1704.36310 1617.46620
 9750.00000    9.06020    8.82610    8.82610    0.66920    0.00980    2.64870    0.02130    -999.25    0.03580 1494.26460    0.00980   48.90550   48.90550   11.54320    9.62540    9.62540 1494.26460  572.00120  766.35910  572.00120    0.00480    -999.25    0.00480    2.64870 -146.54970 -179.84850  766.35910 1675.46220 1654.79830
 9800.00000    8.82660    8.87110    8.87110    0.71470    0.03200    2.73290   -0.02610    -999.25   -0.01340 1399.13070    0.03200   48.39620   48.39620    8.53800    8.50010    8.50010 1399.13070  609.98160  500.20270  609.98160    0.00390    -999.25    0.00390    2.73290 -127.39480 -160.96400  500.20270 1659.84480 1732.57990
 9850.00000    8.76940    8.81150    8.81150    9.70200    0.01290    2.69450    0.00050    -999.25    0.00910  103.07180    0.01290   48.29570   48.29570    9.80190   10.37260   10.37260  103.07180  115.84150  343.14740  115.84150    0.00560    -999.25    0.00560    2.69450 -140.60470 -174.44430  343.14740 1676.47710 1844.10100
 9900.00000    8.52040    8.69710    8.69710  130.83010    0.08010    2.64650    0.05340    -999.25    0.03710    7.64350    0.08010   58.54470   58.54470   15.20060   14.73200   14.73200    7.64350    5.74660   33.19500    5.74660    0.01150    -999.25    0.01150    2.64650 -133.66170 -167.77180   33.19500 1453.40300 1623.62860
 9950.00000   11.64690    9.50060    9.50060    0.67010    0.20270    2.60480    0.05810    -999.25    0.06150 1492.35040    0.20270   48.08900   48.08900   15.26350   14.08140   14.08140 1492.35040 1319.94480 1602.25910 1319.94480    0.00540    -999.25    0.00540    2.60480 -147.59030 -181.97210 1602.25910 2240.86900 1857.77070
 10000.00000    9.12230    9.00180    9.00180    0.67330    0.11900    2.71580   -0.00160    -999.25   -0.00340 1485.26750    0.11900   48.38970   48.38970   17.20420   17.08100   17.08100 1485.26750 1440.56650 1561.17940 1440.56650    0.01190    -999.25    0.01190    2.71580 -105.88750 -140.53840 1561.17940 1950.00980 1910.72450
 10050.00000   10.03090    9.27460    9.27460    0.62670    0.25960    2.71510   -0.00920    -999.25   -0.00300 1595.58420    0.25960   47.86270   47.86270   23.34760   17.26430   17.26430 1595.58420 1424.85030 1530.23770 1424.85030    0.00510    -999.25    0.00510    2.71510 -110.87040 -145.79170 1530.23770 1992.60550 1950.24870
 10100.00000    9.12400    8.99850    8.99850   49.91990    0.02260    2.69830    0.00440    -999.25    0.00680   20.03210    0.02260   61.95520   61.95520  141.93460  140.17450  140.17450   20.03210   25.13110   57.68450   25.13110    0.14030    -999.25    0.14030    2.69830   32.83650   -2.35520   57.68450 1993.29640 1979.16200
 10150.00000   12.39130   10.46630   10.46630   85.20720    0.24760    2.22410    0.29040    -999.25    0.28420   11.73610    0.24760   71.99040   71.99040  189.71060  172.32600  172.32600   11.73610   14.20840   14.88410   14.20840    0.22600    -999.25    0.22600    2.22410   20.10010  -15.36210   14.88410 2189.33120 1866.50440
