~Version ---------------------------------------------------
VERS.      2.0 : CWLS log ASCII Standard -VERSION 2.0
WRAP.       NO : One line per depth step
CREA. 11/17/17 : LAS Creation Date
~Well ------------------------------------------------------
STRT.FT                  300.0 : START DEPTH
STOP.FT                10400.0 : STOP DEPTH
STEP.FT               50.00000 : STEP LENGTH
NULL.                  -999.25 : NULL VALUE
COMP.    J M HUBER CORPORATION : COMPANY
WELL. HUBER ROSEVEAR 6-5-55-14 : WELL
FLD .                       WC : FIELD
LOC .                          : LOCATION
CTRY.                   CANADA : COUNTRY
SRVC.             Schlumberger : SERVICE COMPANY
DATE.              04-Sep-1976 : LOGDATE
PROV.                  Alberta : PROVINCE
UWI .         100060505514W500 : UNIQUE WELL ID
SLAT.WGS84            53.72293 : SURFACE LATITUDE
SLON.WGS84           -116.0453 : SURFACE LONGITUDE
~Curve Information -----------------------------------------
DEPT    .FT    : Depth Curve
CALDED  .IN    : CALIPER FROM DENSITY LOG [ADJ. TO RESISTIVITY LOG]
CALRED  .MV    : CALIPER FROM FROM DLL
CALSED  .IN    : CALIPER FROM SONIC LOG [ADJ. TO RESISTIVITY LOG]
CALWS   .IN    : CALIPER [CALSED]
CONDWS  .MMHO  : CONDUCTIVITY [1000/DRESWS]
DCORED  .G/C3  : DENSITY CORRECTION FROM DENSITY LOG [ADJ. TO RESISTIVITY LOG]
DCORWS  .G/C3  : DENSITY CORRECTION [DCORED]
DENWS   .G/C3  : FORMATION BULK DENSITY [RHOBED SPL. TO DPHISSED CONVERTED TO LIMESTONE MATRIX, M=2.71, F=1.00 (ASSUMED) FROM 5892'-5905']
DPHILSED.V/V   : DENSITY POROSITY LIMESTONE [M=2.71, F=1.00 (ASSUMED)] FROM DENSITY LOG [ADJ. TO RESISTIVITY LOG]
DPHISSED.V/V   : DENSITY POROSITY SANDSTONE [M=2.65, F=1.00 (ASSUMED)] FROM DENSITY LOG [ADJ. TO RESISTIVITY LOG]
DPOLSWS .V/V   : DENSITY POROSITY LIMESTONE [CALC. FROM DENWS, M=2.71, F=1.00 (ASSUMED)]
DRESWS  .OHMM  : DEEP RESISTIVITY [LLDED]
DTED    .US/F  : DELTA TIME FROM SONIC LOG [ADJ. TO RESISTIVITY LOG]
DTWS    .US/F  : COMPRESSIONAL SONIC [DTED]
GRDED   .GAPI  : GAMMA RAY FROM DENSITY LOG [ADJ. TO RESISTIVITY LOG]
GRSED   .GAPI  : GAMMA RAY FROM SONIC LOG [ADJ. TO RESISTIVITY LOG]
GRWS    .GAPI  : GAMMA RAY [GRSED]
LLDED   .OHMM  : DEEP LATEROLOG RESISTIVITY FROM RESISTIVITY LOG
LLSED   .OHMM  : SHALLOW LATEROLOG RESISTIVITY LOG
NPHILSED.V/V   : NEUTRON POROSITY LIMESTONE FROM DENSITY LOG [ADJ. TO RESISTIVITY LOG]
NPHISSED.V/V   : NEUTRON POROSITY SANDSTONE FROM DENSITY LOG [ADJ. TO RESISTIVITY LOG]
NPOLSWS .V/V   : NEUTRON POROSITY LIMESTONE [NPHISSED MATRIX (SCHLUMBERGER) CONVERSION FOR LIMESTONE, SPL.TO NPHILSED @ 7149']
RHOBED  .G/C3  : BULK DENSITY FROM DENSITY LOG [ADJ. TO RESISTIVITY LOG]
SPRED   .MV    : SPONTANEOUS POTENTIAL FROM RESISTIVITY LOG
SPWS    .MV    : SPONTANEOUS POTENTIAL [BASELINE 0 MV, SPRED*-1]
SRESWS  .OHMM  : SHALLOW RESISTIVITY [LLSED]
~Params ----------------------------------------------------
PD  .                     GL : PERMANENT DATUM
EPD .FT                 2650 : ELEVATION PERMANENT DATUM
LMF .                     KB : LOG MEASURED FROM
DAPD.FT                   16 : FEET ABOVE PERMANENT DATUM
EKB .FT                 2666 : KELLY BUSHING
EGL .FT                 2650 : GROUND LEVEL
DATE.               09/04/76 : RUN DATE
RUN .                      2 : RUN NUMBER
DD  .FT                10450 : DEPTH DRILLER
DL  .FT                10450 : DEPTH LOGGER
BLI .FT                10448 : BOTTOM LOG INTERVAL
TLI .FT                 8400 : TOP LOG INTERVAL
CBD .FT                 1105 : CASING BOTTOM DRILLER
BS  .IN                 8.75 : BIT SIZE
BSD .FT                10450 : BIT SIZE AT DEPTH
DFT .               GEL CHEM : DRILLING FLUID TYPE
DFD .                    9.6 : DRILLING FLUID DENSITY
DFV .                     82 : DRILLING FLUID VISCOSITY
DFPH.                     11 : DRILLING FLUID PH
DFL .                     15 : DRILLING FLUID LOSS
RMS .OHMM               0.28 : RESISTIVITY MUD SAMPLE
MST .DEGF                 62 : MUD SAMPLE TEMPERATURE
RMF .OHMM               0.23 : RESISTIVITY MUD FILTRATE SAMPLE
MFST.DEGF                 62 : MUD FILTRATE SAMPLE TEMPERATURE
RMB .OHMM               0.11 : RESISTIVITY MUD AT BHT
TCS .HRS                   1 : TIME CIRCULATED STOPPED
LUN .                   7730 : LOGGING UNIT NUMBER
LUL .                    EDM : LOGGING UNIT LOCATION
ENGI.         PIMM MACDONALD : RECORDING ENGINEER
WITN.                 TAYLOR : WITNESSED BY
CLNT.                A2DTECH : CLIENT CODE
ORIG.               5" PRINT : ORIGIN OF DATA
UWI .       100060505514W500 : UNIQUE WELL ID
DICO. A2D Technologies, Inc. : DIGITIZING COMPANY
~Other -----------------------------------------------------
DLL-CNFD-BHC TOOLS RUN
~ASCII -----------------------------------------------------
# ...
 1650.00000    -999.25    9.98480   10.18850   10.18850   85.44890    -999.25    -999.25    -999.25    -999.25    -999.25    -999.25   11.70290   83.72400   83.72400    -999.25   89.52960   89.52960   11.70290    9.89760    -999.25    -999.25    -999.25    -999.25  -16.67790    4.09250    9.89760
 1700.00000    -999.25    9.30310   10.60260   10.60260   80.65560    -999.25    -999.25    -999.25    -999.25    -999.25    -999.25   12.39840   79.48250   79.48250    -999.25   75.45680   75.45680   12.39840   10.07720    -999.25    -999.25    -999.25    -999.25  -15.39290    6.03230   10.07720
 1750.00000    -999.25    9.50210   10.56730   10.56730  147.06530    -999.25    -999.25    -999.25    -999.25    -999.25    -999.25    6.79970   93.00260   93.00260    -999.25  115.21820  115.21820    6.79970    5.06710    -999.25    -999.25    -999.25    -999.25   -9.78490   12.29510    5.06710
 1800.00000    -999.25    9.48330   12.99060   12.99060   83.63860    -999.25    -999.25    -999.25    -999.25    -999.25    -999.25   11.95620   86.15080   86.15080    -999.25   92.36980   92.36980   11.95620    9.71290    -999.25    -999.25    -999.25    -999.25  -10.09900   12.63590    9.71290
 1850.00000    -999.25   10.04690   10.96100   10.96100  157.80340    -999.25    -999.25    -999.25    -999.25    -999.25    -999.25    6.33700  136.68070  136.68070    -999.25   89.89530   89.89530    6.33700    6.19810    -999.25    -999.25    -999.25    -999.25  -17.81900    5.57060    6.19810
 1900.00000    -999.25   13.13810   11.18420   11.18420  230.04370    -999.25    -999.25    -999.25    -999.25    -999.25    -999.25    4.34700  102.25370  102.25370    -999.25   96.33170   96.33170    4.34700    3.74600    -999.25    -999.25    -999.25    -999.25  -17.88290    6.16150    3.74600
 1950.00000    -999.25   11.07670   11.50510   11.50510  200.83550    -999.25    -999.25    -999.25    -999.25    -999.25    -999.25    4.97920   98.67980   98.67980    -999.25  115.07160  115.07160    4.97920    3.84100    -999.25    -999.25    -999.25    -999.25  -19.45940    5.23970    3.84100
 2000.00000    -999.25   10.88920   10.33600   10.33600  162.61750    -999.25    -999.25    -999.25    -999.25    -999.25    -999.25    6.14940  115.42480  115.42480    -999.25  110.39240  110.39240    6.14940    5.09090    -999.25    -999.25    -999.25    -999.25  -20.65590    4.69800    5.09090
 2050.00000    -999.25    9.92240   10.34380   10.34380  102.01580    -999.25    -999.25    -999.25    -999.25    -999.25    -999.25    9.80240   79.84950   79.84950    -999.25   72.96360   72.96360    9.80240    8.00300    -999.25    -999.25    -999.25    -999.25  -22.64900    3.35980    8.00300
 2100.00000    -999.25   10.31530   10.29570   10.29570  105.78880    -999.25    -999.25    -999.25    -999.25    -999.25    -999.25    9.45280   82.62680   82.62680    -999.25   97.13170   97.13170    9.45280    8.15680    -999.25    -999.25    -999.25    -999.25  -22.89490    3.76860    8.15680
 2150.00000    -999.25   10.93320   10.67070   10.67070  180.59020    -999.25    -999.25    -999.25    -999.25    -999.25    -999.25    5.53740   97.08000   97.08000    -999.25  105.69530  105.69530    5.53740    4.98400    -999.25    -999.25    -999.25    -999.25  -23.18290    4.13540    4.98400
 2200.00000    -999.25   10.40790   10.44050   10.44050  105.45300    -999.25    -999.25    -999.25    -999.25    -999.25    -999.25    9.48290   86.62310   86.62310    -999.25   93.10140   93.10140    9.48290    7.86030    -999.25    -999.25    -999.25    -999.25   -6.81790   21.06140    7.86030
 2250.00000    -999.25    9.59900   10.36610   10.36610  163.36670    -999.25    -999.25    -999.25    -999.25    -999.25    -999.25    6.12120   97.26350   97.26350    -999.25  127.58560  127.58560    6.12120    5.44530    -999.25    -999.25    -999.25    -999.25  -23.77200    4.31590    5.44530
 2300.00000    -999.25    9.43400   10.16310   10.16310  304.79440    -999.25    -999.25    -999.25    -999.25    -999.25    -999.25    3.28090  118.62760  118.62760    -999.25  114.40300  114.40300    3.28090    2.75040    -999.25    -999.25    -999.25    -999.25  -22.56200    5.73430    2.75040
 2350.00000    -999.25    9.37100   10.41590   10.41590  314.09990    -999.25    -999.25    -999.25    -999.25    -999.25    -999.25    3.18370  112.83690  112.83690    -999.25  118.32560  118.32560    3.18370    2.99620    -999.25    -999.25    -999.25    -999.25  -22.50200    6.00270    2.99620
 2400.00000   13.13220    9.60820   10.58960   10.58960  196.10920    0.21040    0.21040    2.22130    -999.25    0.26390    0.28580    5.09920   98.12500   98.12500  111.46340  112.93050  112.93050    5.09920    4.76680    -999.25    0.39350    0.35050    2.22130  -23.29790    5.41520    4.76680
 2450.00000   10.03940    9.69110   10.12340   10.12340  120.54870    0.13050    0.13050    2.46110    -999.25    0.12210    0.14560    8.29540   85.94010   85.94010   97.76760  109.60170  109.60170    8.29540    7.71570    -999.25    0.29720    0.25320    2.46110  -22.97490    5.94660    7.71570
 2500.00000   13.43220   10.27040   11.22340   11.22340  227.08180    0.20560    0.20560    2.20920    -999.25    0.27610    0.29290    4.40370   94.71110   94.71110  113.51700  116.61120  116.61120    4.40370    3.80740    -999.25    0.38490    0.34180    2.20920  -23.26790    5.86210    3.80740
 2550.00000   10.41820    9.89730   10.49740   10.49740  164.30610    0.10620    0.10620    2.39110    -999.25    0.16700    0.18650    6.08620   87.54740   87.54740  103.10110  109.18120  109.18120    6.08620    5.57710    -999.25    0.32180    0.27790    2.39110  -22.48400    6.85450    5.57710
 2600.00000   10.99740   10.49880   10.64190   10.64190  342.02070    0.17150    0.17150    2.22430    -999.25    0.26680    0.28400    2.92380  101.12790  101.12790  139.06150  146.72080  146.72080    2.92380    2.71530    -999.25    0.43620    0.39410    2.22430  -22.52400    7.02300    2.71530
 2650.00000   10.93280   11.12760   10.75370   10.75370  202.83980    0.08580    0.08580    2.38210    -999.25    0.17970    0.19180    4.93000   99.09910   99.09910  133.97660  141.22020  141.22020    4.93000    4.22570    -999.25    0.36360    0.32010    2.38210  -28.15500    1.60040    4.22570
 2700.00000   11.58560   12.20460   11.03250   11.03250  108.96330    0.19780    0.19780    2.41080    -999.25    0.14580    0.17500    9.17740   86.62470   86.62470  123.41970  125.72870  125.72870    9.17740    7.93290    -999.25    0.30270    0.25870    2.41080  -22.39990    7.56390    7.93290
 2750.00000   13.51630   13.65210   11.04850   11.04850  169.20470    0.19500    0.19500    2.35510    -999.25    0.18430    0.20750    5.91000   89.58890   89.58890   98.54390   97.89540   97.89540    5.91000    5.36740    -999.25    0.30320    0.25920    2.35510  -26.70400    3.46830    5.36740
 2800.00000   14.97160   13.16850   10.84200   10.84200  182.15600    0.20580    0.20580    2.31060    -999.25    0.20130    0.23360    5.48980   90.12460   90.12460  101.03470  103.92030  103.92030    5.48980    4.74160    -999.25    0.32740    0.28360    2.31060  -25.34200    5.03870    4.74160
 2850.00000   14.54580   12.32580   11.57250   11.57250  368.50060    0.10840    0.10840    2.33710    -999.25    0.20060    0.21810    2.71370  104.89390  104.89390  114.57890  126.70340  126.70340    2.71370    2.58030    -999.25    0.39770    0.35480    2.33710  -22.20990    8.37920    2.58030
 2900.00000   12.22860   12.33830   11.39200   11.39200   96.35400    0.08690    0.08690    2.48420    -999.25    0.11520    0.13200   10.37840   81.31600   81.31600   77.17300   86.27170   86.27170   10.37840    9.44860    -999.25    0.28020    0.23620    2.48420  -22.21200    8.58560    9.44860
 2950.00000   15.01260   12.45700   14.31210   14.31210  136.63070    0.16680    0.16680    2.35140    -999.25    0.20150    0.20970    7.31900   86.18840   86.18840   98.65470  104.09510  104.09510    7.31900    6.52940    -999.25    0.33800    0.29430    2.35140  -27.56740    3.43860    6.52940
