~Version ---------------------------------------------------
VERS.      2.0 : CWLS log ASCII Standard -VERSION 2.0
WRAP.       NO : One line per depth step
CREA. 11/16/17 : LAS Creation Date
~Well ------------------------------------------------------
STRT.FT                        1250.0 : START DEPTH
STOP.FT                       12550.0 : STOP DEPTH
STEP.FT                      50.00000 : STEP LENGTH
NULL.                         -999.25 : NULL VALUE
COMP.     ANADARKO CANADA CORPORATION : COMPANY
WELL. GPD NOEL AMOCO GOLD CK 5-8-69-5 : WELL
FLD .                              WC : FIELD
LOC .                                 : LOCATION
CTRY.                          CANADA : COUNTRY
SRVC.                    Schlumberger : SERVICE COMPANY
DATE.                     03-Nov-1970 : LOGDATE
PROV.                         Alberta : PROVINCE
UWI .                100050806905W600 : UNIQUE WELL ID
SLAT.WGS84                    54.9586 : SURFACE LATITUDE
SLON.WGS84                  -118.7315 : SURFACE LONGITUDE
~Curve Information -----------------------------------------
DEPT  .FT    : Depth Curve
CALSED.IN    : CALIPER FROM SONIC LOG
CALWS .IN    : CALIPER [CALSED]
CILDED.MMHO  : DEEP CONDUCTIVITY INDUCTION FROM RESISTIVITY LOG
CONDWS.MMHO  : CONDUCTIVITY [1000/DRESWS]
DRESWS.OHMM  : DEEP RESISTIVITY [1000/CILDED, IF ILDED <1, ILDED]
DTED  .US/F  : ACOUSTIC TRANSIT TIME SLOWNESS, DELTA T FROM SONIC LOG [ADJ. TO RESISTIVITY LOG]
DTWS  .US/F  : COMPRESSIONAL SONIC [ DTED]
GRSED .GAPI  : GAMMA RAY FROM SONIC LOG [ADJ. TO RESISTIVITY LOG]
GRWS  .GAPI  : GAMMA RAY [GRSED]
ILDED .OHMM  : DEEP INDUCTION RESISTIVITY FROM RESISTIVITY LOG
ILMED .OHMM  : MEDIUM INDUCTION RESISTIVITY FROM RESISTIVITY LOG
LL8ED .OHMM  : LATEROLOG-8 RESISTIVITY FROM RESISTIVITY LOG
MCALED.IN    : MLT [MICROLOG] CALIPER FROM MINILOG
MRESWS.OHMM  : MEDIUM RESISTIVITY [ILMED]
SPRED .MV    : SPONTANEOUS POTENTIAL FROM RESISTIVITY LOG
SPWS  .MV    : SPONTANEOUS POTENTIAL [BASELINE 0 MV, SPRED]
SRESWS.OHMM  : SHALLOW RESISTIVITY [LL8ED]
~Params ----------------------------------------------------
PD  .                     GL : PERMANENT DATUM
EPD .FT                 2152 : ELEVATION PERMANENT DATUM
LMF .                     KB : LOG MEASURED FROM
DAPD.FT                   14 : FEET ABOVE PERMANENT DATUM
EKB .FT                 2166 : KELLY BUSHING
EGL .FT                 2152 : GROUND LEVEL
DATE.               11/04/70 : RUN DATE
RUN .                      1 : RUN NUMBER
DD  .FT                 1319 : DEPTH DRILLER
DL  .FT                 1318 : DEPTH LOGGER
BLI .FT                12587 : BOTTOM LOG INTERVAL
TLI .FT                 1318 : TOP LOG INTERVAL
CBD .FT                12601 : CASING BOTTOM DRILLER
CBL .FT                12594 : CASING BOTTOM LOGGER
BS  .IN                 8.75 : BIT SIZE
BSD .FT                 1319 : BIT SIZE AT DEPTH
DFT .            MAGOBAR GEL : DRILLING FLUID TYPE
DFD .                   11.1 : DRILLING FLUID DENSITY
DFV .                    435 : DRILLING FLUID VISCOSITY
DFPH.                     11 : DRILLING FLUID PH
DFL .                    6.6 : DRILLING FLUID LOSS
MSS .               FLOWLINE : MUD SAMPLE SOURCE
TCS .HRS                 4.5 : TIME CIRCULATED STOPPED
LUN .                   3702 : LOGGING UNIT NUMBER
LUL .                     DC : LOGGING UNIT LOCATION
ENGI.                 SEAMAN : RECORDING ENGINEER
WITN.               SIMMONDS : WITNESSED BY
CLNT.                A2DTECH : CLIENT CODE
ORIG.            2" 5" PRINT : ORIGIN OF DATA
UWI .       100050806905W600 : UNIQUE WELL ID
DICO. A2D Technologies, Inc. : DIGITIZING COMPANY
~Other -----------------------------------------------------
~ASCII -----------------------------------------------------
# ...
 5350.00000   11.60850   11.60850    -999.25  238.39040    4.19480  102.36240  102.36240   58.05110   58.05110    4.19480    3.71200   13.04120    -999.25    3.71200 -224.82980  -24.11080   13.04120
 5400.00000   11.60270   11.60270    -999.25   36.20030   27.62410   66.82870   66.82870   35.31600   35.31600   27.62410   23.39600   28.23760    -999.25   23.39600 -225.84530  -26.27860   28.23760
 5450.00000   11.65590   11.65590    -999.25   34.13880   29.29220   68.11940   68.11940   58.07870   58.07870   29.29220   23.32480   40.25960    -999.25   23.32480 -208.57790  -10.16350   40.25960
 5500.00000   13.69600   13.69600    -999.25   63.54610   15.73660   80.72110   80.72110   64.47360   64.47360   15.73660   10.92300   25.08970    -999.25   10.92300 -208.32680  -11.06460   25.08970
 5550.00000   11.86400   11.86400    -999.25   26.76270   37.36540   66.56400   66.56400   33.26020   33.26020   37.36540   28.83460   50.17640    -999.25   28.83460 -216.36970  -20.25980   50.17640
 5600.00000   12.22740   12.22740    -999.25   52.94480   18.88760   91.43720   91.43720   72.72000   72.72000   18.88760   14.12360   21.04000    -999.25   14.12360 -204.95740   -9.99970   21.04000
 5650.00000   11.57990   11.57990    -999.25   40.74930   24.54030   65.69360   65.69360   47.49510   47.49510   24.54030   19.19420   50.75630    -999.25   19.19420 -210.78690  -16.98150   50.75630
 5700.00000   11.89880   11.89880    -999.25   36.72890   27.22650  102.88790  102.88790   52.45800   52.45800   27.22650   18.01130   25.07220    -999.25   18.01130 -208.96860  -16.31550   25.07220
 5750.00000   11.55700   11.55700    -999.25   35.60820   28.08340   64.16200   64.16200   59.55560   59.55560   28.08340   26.14410   57.59790    -999.25   26.14410 -200.08860   -8.58770   57.59790
 5800.00000   11.56630   11.56630    -999.25   46.46190   21.52300   68.77830   68.77830   70.50570   70.50570   21.52300   19.10010   26.17320    -999.25   19.10010 -201.50100  -11.15240   26.17320
 5850.00000   11.56370   11.56370    -999.25   22.28950   44.86410   62.18300   62.18300   53.91790   53.91790   44.86410   33.43130   49.89870    -999.25   33.43130 -200.86010  -11.66380   49.89870
 5900.00000   11.40420   11.40420    -999.25   54.15120   18.46680   67.87730   67.87730   56.38670   56.38670   18.46680   16.07750   26.16000    -999.25   16.07750 -208.42880  -20.38470   26.16000
 5950.00000   11.68270   11.68270    -999.25   58.75610   17.01950   63.10730   63.10730   44.71160   44.71160   17.01950   15.82580   21.53350    -999.25   15.82580 -212.44630  -25.55450   21.53350
 6000.00000   11.70500   11.70500    -999.25   43.80820   22.82680   67.65190   67.65190   58.90680   58.90680   22.82680   19.44290   28.74910    -999.25   19.44290 -201.90300  -16.16340   28.74910
 6050.00000   11.80480   11.80480    -999.25   43.89450   22.78190   68.08990   68.08990   74.44480   74.44480   22.78190   19.88500   26.92960    -999.25   19.88500 -198.74010  -14.15280   26.92960
 6100.00000   11.58690   11.58690    -999.25   25.22980   39.63560   63.54640   63.54640   65.47150   65.47150   39.63560   28.49970   48.74860    -999.25   28.49970 -198.66380  -15.22880   48.74860
 6150.00000   11.72610   11.72610    -999.25   62.86580   15.90690   74.03020   74.03020   68.47310   68.47310   15.90690   13.04110   21.46770    -999.25   13.04110 -198.88730  -16.60450   21.46770
 6200.00000   10.85580   10.85580    -999.25   53.37430   18.73560   68.44850   68.44850   61.08100   61.08100   18.73560   14.28690   17.29950    -999.25   14.28690 -224.65100  -43.52050   17.29950
 6250.00000   11.78030   11.78030    -999.25   23.72390   42.15160   77.21170   77.21170   70.95760   70.95760   42.15160   27.70750   60.37570    -999.25   27.70750 -198.98900  -19.01080   60.37570
 6300.00000   11.75250   11.75250    -999.25   45.39100   22.03080   55.81320   55.81320   69.07230   69.07230   22.03080   18.77330   27.72660    -999.25   18.77330 -191.46760  -12.64160   27.72660
 6350.00000   11.72910   11.72910    -999.25   26.86870   37.21800   63.73800   63.73800   68.20670   68.20670   37.21800   31.87140   66.42180    -999.25   31.87140 -191.86000  -14.18630   66.42180
 6400.00000   11.77120   11.77120    -999.25   54.98250   18.18760   77.58490   77.58490   79.62440   79.62440   18.18760   17.43740   29.24410    -999.25   17.43740 -183.41660   -6.89510   29.24410
 6450.00000   10.54350   10.54350    -999.25   41.96730   23.82810   67.77630   67.77630   24.65620   24.65620   23.82810   26.86110   33.93060    -999.25   26.86110 -243.01290  -66.31950   33.93060
 6500.00000   11.50430   11.50430    -999.25   33.23110   30.09230   70.48630   70.48630   73.24680   73.24680   30.09230   28.21290   40.59160    -999.25   28.21290 -185.65840   -8.25220   40.59160
 6550.00000   11.79340   11.79340    -999.25   41.49030   24.10200   64.94210   64.94210   61.67880   61.67880   24.10200   22.34040   25.52720    -999.25   22.34040 -186.19500   -8.07590   25.52720
 6600.00000   11.44720   11.44720    -999.25   20.87780   47.89770   64.03580   64.03580   30.94710   30.94710   47.89770   44.47830   71.91010    -999.25   44.47830 -194.50060  -15.66870   71.91010
 6650.00000   11.28000   11.28000    -999.25   78.87060   12.67900   64.73870   64.73870   26.88380   26.88380   12.67900   11.49160   26.34000    -999.25   11.49160 -230.63460  -51.08990   26.34000
 6700.00000   11.87460   11.87460    -999.25   29.17710   34.27340   69.79140   69.79140   74.16510   74.16510   34.27340   29.16730   40.52230    -999.25   29.16730 -181.47670   -1.83790   40.52230
 6750.00000   11.61350   11.61350    -999.25   23.77290   42.06470   67.23400   67.23400   38.13590   38.13590   42.06470   31.75850   51.61250    -999.25   31.75850 -205.52280  -27.04610   51.61250
 6800.00000   11.89190   11.89190    -999.25   28.61290   34.94930   73.58230   73.58230   68.87990   68.87990   34.94930   34.54480   49.09870    -999.25   34.54480 -183.15700   -5.84240   49.09870
 6850.00000   11.98030   11.98030    -999.25  168.65400    5.92930   85.52270   85.52270   80.11910   80.11910    5.92930    5.65950    7.75350    -999.25    5.65950 -184.36910   -8.21670    7.75350
 6900.00000   12.38850   12.38850    -999.25  252.73590    3.95670   93.93480   93.93480   68.21550   68.21550    3.95670    4.79200    5.23070    -999.25    4.79200 -183.05600   -8.06570    5.23070
 6950.00000    -999.25    -999.25    -999.25  208.54190    4.79520   99.08270   99.08270   63.36370   63.36370    4.79520    4.11870    5.83430    -999.25    4.11870 -178.94720   -5.11900    5.83430
 7000.00000    -999.25    -999.25    -999.25   12.91270   77.44290   78.64510   78.64510   98.11380   98.11380   77.44290   43.48260   95.09720    -999.25   43.48260 -175.12500   -2.45890   95.09720
 7050.00000    -999.25    -999.25    -999.25    0.62660 1595.86540   65.15370   65.15370  242.63980  242.63980 1595.86540   82.11130  806.57110    -999.25   82.11130 -195.14680  -23.27250  806.57110
 7100.00000    -999.25    -999.25    -999.25   18.79050   53.21830   52.30000   52.30000   28.68800   28.68800   53.21830   34.59780  117.03850    -999.25   34.59780 -201.08960  -29.87010  117.03850
 7150.00000    -999.25    -999.25    -999.25    1.06770  936.55400   48.84710   48.84710   24.30960   24.30960  936.55400   74.51100  569.42080    -999.25   74.51100 -199.90710  -29.34240  569.42080
 7200.00000    -999.25    -999.25    -999.25   10.62520   94.11590   57.40460   57.40460   34.59890   34.59890   94.11590   46.24630  133.58540    -999.25   46.24630 -221.32220  -51.41230  133.58540
 7250.00000    -999.25    -999.25    -999.25    8.11980  123.15650   54.09950   54.09950   57.45760   57.45760  123.15650   45.50100  134.28720    -999.25   45.50100 -176.64250   -7.38740  134.28720
 7300.00000    -999.25    -999.25    -999.25    1.42360  702.42170   64.65090   64.65090   95.94940   95.94940  702.42170   59.74590  324.48920    -999.25   59.74590 -167.25210    1.34810  324.48920
 7350.00000    -999.25    -999.25    -999.25    0.55500 1801.83840   57.17510   57.17510   91.85040   91.85040 1801.83840   83.12720  781.33330    -999.25   83.12720 -197.68690  -29.74150  781.33330
