~Version ---------------------------------------------------
VERS.      2.0 : CWLS log ASCII Standard -VERSION 2.0
WRAP.       NO : One line per depth step
CREA. 08/31/17 : LAS Creation Date
~Well ------------------------------------------------------
STRT.FT                        1200.0 : START DEPTH
STOP.FT                       12200.0 : STOP DEPTH
STEP.FT                      50.00000 : STEP LENGTH
NULL.                         -999.25 : NULL VALUE
COMP.                SULPETRO LIMITED : COMPANY
WELL. CAN DELHI ET AL WOLF 6-10-52-16 : WELL
FLD .                                 : FIELD
LOC .                                 : LOCATION
CTRY.                          CANADA : COUNTRY
SRVC.                    Schlumberger : SERVICE COMPANY
DATE.                     19-Apr-1969 : LOGDATE
PROV.                         Alberta : PROVINCE
UWI .                100061005216W500 : UNIQUE WELL ID
SLAT.WGS84              53.4730048794 : SURFACE LATITUDE
SLON.WGS84            -116.2792429971 : SURFACE LONGITUDE
~Curve Information -----------------------------------------
DEPT  .FT    : Depth Curve
CALSED.IN    : CALIPER FROM SLC-GR LOG
CALWS .IN    : CALIPER [CALSED]
CONDWS.MMHO  : CONDUCTIVITY [1000/DRESWS]
DRESWS.OHMM  : DEEP RESISTIVITY [ILDED]
DTED  .US/F  : DELTA-T (INTERVAL TRANSIT TIME) FROM SLC-GR LOG
DTWS  .US/F  : COMPRESSIONAL  SONIC [DTED]
GRSED .GAPI  : GAMMA RAY FROM SLC-GR LOG
GRWS  .GAPI  : GAMMA RAY [GRSED]
ILDED .OHMM  : DEEP INDUCTION RESISTIVITY FROM DIL LOG
ILMED .OHMM  : MEDIUM INDUCTION RESISTIVITY FROM DIL LOG
LL8ED .OHMM  : LATEROLOG 8 FROM DIL LOG
MRESWS.OHMM  : MEDIUM RESISTIVITY [ILMED]
SPRED .MV    : SPONTANEOUS POTENTIAL FROM DIL LOG
SPWS  .MV    : SPONTANEOUS POTENTIAL [BASELINE 0 MV, SPRED]
SRESWS.OHMM  : SHALLOW RESISTIVITY [LL8ED]
~Params ----------------------------------------------------
PD  .                     GL : PERMANENT DATUM
EPD .FT                 3113 : ELEVATION PERMANENT DATUM
LMF .                     KB : LOG MEASURED FROM
DAPD.FT                   14 : FEET ABOVE PERMANENT DATUM
EKB .FT                 3127 : KELLY BUSHING
EGL .FT                 3113 : GROUND LEVEL
DATE.               04/19/69 : RUN DATE
RUN .                      1 : RUN NUMBER
DD  .FT                12226 : DEPTH DRILLER
DL  .FT                12210 : DEPTH LOGGER
BLI .FT                12206 : BOTTOM LOG INTERVAL
TLI .FT                 1240 : TOP LOG INTERVAL
CBD .FT                 1240 : CASING BOTTOM DRILLER
CBL .FT                 1240 : CASING BOTTOM LOGGER
BS  .IN                 8.75 : BIT SIZE
BSD .FT                12226 : BIT SIZE AT DEPTH
DFT .                    GEL : DRILLING FLUID TYPE
DFD .                    9.3 : DRILLING FLUID DENSITY
DFV .                    118 : DRILLING FLUID VISCOSITY
DFPH.                     11 : DRILLING FLUID PH
DFL .                    6.2 : DRILLING FLUID LOSS
MSS .    CIRCULATED FLOWLINE : MUD SAMPLE SOURCE
RMS .OHMM               1.35 : RESISTIVITY MUD SAMPLE
MST .DEGF                 59 : MUD SAMPLE TEMPERATURE
RMF .OHMM               0.95 : RESISTIVITY MUD FILTRATE SAMPLE
MFST.DEGF                 61 : MUD FILTRATE SAMPLE TEMPERATURE
RMC .OHMM               1.16 : RESISTIVITY MUD CAKE
MCST.DEGF                 61 : MUD CAKE SAMPLE TEMPERATURE
TCS .HRS                 330 : TIME CIRCULATED STOPPED
LUN .                   7501 : LOGGING UNIT NUMBER
LUL .                    EDM : LOGGING UNIT LOCATION
ENGI.               CHADDOCK : RECORDING ENGINEER
WITN.                   HALL : WITNESSED BY
CLNT.                A2DTECH : CLIENT CODE
ORIG.            2" 5" PRINT : ORIGIN OF DATA
UWI .       100061005216W500 : UNIQUE WELL ID
DICO. A2D Technologies, Inc. : DIGITIZING COMPANY
~Other -----------------------------------------------------
~ASCII -----------------------------------------------------
# ...
 8100.00000    9.28750    9.28750   55.10700   18.14650   69.74170   69.74170   69.23090   69.23090   18.14650   19.92810   21.48710   19.92810  -86.29990   -5.20970   21.48710
 8150.00000    8.99310    8.99310   20.45180   48.93020   61.27590   61.27590   34.18710   34.18710   48.93020   75.92120   90.75870   75.92120  -99.69420  -19.24450   90.75870
 8200.00000    8.94540    8.94540   54.05730   18.49890   66.40140   66.40140   69.63690   69.63690   18.49890   17.12980   25.49190   17.12980  -85.25410   -5.44910   25.49190
 8250.00000    9.46480    9.46480   56.95210   17.55860   51.52770   51.52770   73.18560   73.18560   17.55860   20.03900   23.24020   20.03900  -85.51900   -6.35450   23.24020
 8300.00000   10.95570   10.95570   80.18160   12.47830   79.87700   79.87700   71.58170   71.58170   12.47830   13.19220   18.53420   13.19220  -79.12630   -0.60220   18.53420
 8350.00000   10.44760   10.44760   59.33700   16.85290   74.48050   74.48050   90.90710   90.90710   16.85290   23.95960   27.89110   23.95960  -81.70880   -3.66420   27.89110
 8400.00000    9.93870    9.93870   48.08510   20.80450   68.53600   68.53600   77.76400   77.76400   20.80450   24.99040   24.95490   24.99040  -93.66350  -16.00300   24.95490
 8450.00000    8.91280    8.91280   35.43310   28.22220   65.30650   65.30650   86.18740   86.18740   28.22220   30.15720   37.58460   30.15720 -100.68460  -23.41080   37.58460
 8500.00000    9.71480    9.71480   33.27980   30.04830   69.55390   69.55390   81.99370   81.99370   30.04830   34.69260   56.13060   34.69260 -104.34010  -27.45040   56.13060
 8550.00000    9.83620    9.83620   47.07200   21.35050   69.37930   69.37930   66.81770   66.81770   21.35050   21.23780   26.96500   21.23780 -104.56050  -28.05490   26.96500
 8600.00000    9.29690    9.29690   52.12870   19.18330   80.91260   80.91260   77.29400   77.29400   19.18330   26.70150   32.69920   26.70150  -98.38010  -22.26120   32.69920
 8650.00000    8.67010    8.67010   18.75180   53.52040   57.57810   57.57810   20.81630   20.81630   53.52040   79.80850  707.61140   79.80850 -165.12540  -89.39070  707.61140
 8700.00000    8.75890    8.75890    8.41940  118.77330   55.60840   55.60840   14.02380   14.02380  118.77330  110.83980  317.62100  110.83980 -175.02440  -99.67630  317.62100
 8750.00000    8.60750    8.60750    8.88090  112.60130   57.70230   57.70230   45.75590   45.75590  112.60130  137.34270 1124.94800  137.34270 -144.88810  -69.92420 1124.94800
 8800.00000    8.64390    8.64390   61.92010   16.14990   58.22680   58.22680   35.35100   35.35100   16.14990   26.32710   62.01900   26.32710 -191.96470 -117.38490   62.01900
 8850.00000    9.39080    9.39080   24.98860   40.01820   52.28190   52.28190   26.17810   26.17810   40.01820   34.78530   58.64820   34.78530 -130.15420  -55.96110   58.64820
 8900.00000    9.05930    9.05930   14.28900   70.01910   52.61770   52.61770   27.57760   27.57760   70.01910   85.78330  175.97820   85.78330 -128.80460  -54.99560  175.97820
 8950.00000    9.39170    9.39170   19.50650   51.26500   52.69350   52.69350    7.45790    7.45790   51.26500   72.86260 1158.82410   72.86260 -130.69610  -57.27380 1158.82410
 9000.00000    9.47870    9.47870    5.26580  189.90420   49.20250   49.20250    6.22030    6.22030  189.90420  157.12270 1145.49540  157.12270 -173.33400 -100.29580 1145.49540
 9050.00000    9.26280    9.26280    2.94050  340.83410   52.75610   52.75610   12.49670   12.49670  340.83410  358.67900 1130.30150  358.67900 -180.04800 -107.39390 1130.30150
 9100.00000    9.01790    9.01790   18.68000   53.53320   54.26780   54.26780   62.99900   62.99900   53.53320   70.43770  128.22260   70.43770 -128.52560  -56.25820  128.22260
 9150.00000    8.68940    8.68940   15.47950   64.61950   52.15200   52.15200   62.63640   62.63640   64.61950   83.28310  122.40410   83.28310 -125.93030  -54.04700  122.40410
 9200.00000   12.85240   12.85240   73.66160   13.57560   72.89790   72.89790   67.32140   67.32140   13.57560   34.96240   41.30180   34.96240  -86.14450  -14.64790   41.30180
 9250.00000    8.99600    8.99600   20.29590   49.27100   57.09490   57.09490   54.97010   54.97010   49.27100   55.02020   89.36580   55.02020  -91.87040  -20.75800   89.36580
 9300.00000    8.99460    8.99460    8.53810  117.14980   51.51910   51.51910    6.85080    6.85080  117.14980  248.62890 1168.30510  248.62890 -112.91130  -42.18300 1168.30510
 9350.00000    8.91580    8.91580   15.45870   64.68850   53.65510   53.65510   18.88330   18.88330   64.68850   75.03140  180.01340   75.03140 -103.68820  -33.34660  180.01340
 9400.00000    8.82180    8.82180   22.19870   45.04830   56.78530   56.78530   41.23460   41.23460   45.04830   53.38100   75.60560   53.38100  -89.13890  -19.18140   75.60560
 9450.00000    8.82650    8.82650   21.76200   45.95170   56.75870   56.75870   39.67630   39.67630   45.95170   55.25270   88.07450   55.25270  -91.10480  -21.53400   88.07450
 9500.00000    8.77560    8.77560   17.13920   58.34570   56.69250   56.69250   46.05710   46.05710   58.34570   76.41240  110.81160   76.41240  -69.04480    0.14190  110.81160
 9550.00000    9.13970    9.13970   30.76540   32.50540   60.11520   60.11520   55.80760   55.80760   32.50540   35.53170   49.95170   35.53170  -78.41490   -9.89450   49.95170
 9600.00000    8.75360    8.75360    6.02110  166.08300   58.90580   58.90580   73.09370   73.09370  166.08300  344.60140 1135.96410  344.60140 -100.40290  -32.57540 1135.96410
 9650.00000    9.19300    9.19300    5.41310  184.74700   49.96030   49.96030   26.91500   26.91500  184.74700  289.83440 1146.74180  289.83440 -123.28690  -56.14770 1146.74180
 9700.00000    9.46400    9.46400    3.77190  265.12150   49.98990   49.98990   11.17260   11.17260  265.12150  642.32390 1119.61000  642.32390 -148.70180  -82.25550 1119.61000
 9750.00000    9.28620    9.28620    3.13520  318.95580   48.76270   48.76270   15.76360   15.76360  318.95580  677.50250 1119.27080  677.50250 -186.41170 -120.65370 1119.27080
 9800.00000    9.42900    9.42900    1.88180  534.92980   49.28950   49.28950    7.25090    7.25090  534.92980 1150.95170  761.08190 1150.95170 -194.53810 -129.46840  761.08190
 9850.00000    8.88100    8.88100   92.72400   10.78470   51.14020   51.14020    8.05730    8.05730   10.78470   13.77120   88.64970   13.77120 -201.16860 -136.79180   88.64970
 9900.00000    9.40800    9.40800    2.47760  407.86210   52.19740   52.19740   11.05370   11.05370  407.86210 1079.69180 1118.11360 1079.69180 -205.05520 -141.36670 1118.11360
 9950.00000    9.19750    9.19750    3.29150  303.81240   54.63570   54.63570   12.29850   12.29850  303.81240  809.88600 1135.25520  809.88600 -184.96270 -121.96710 1135.25520
 10000.00000    8.85930    8.85930    8.41330  118.86010   49.56370   49.56370    8.26620    8.26620  118.86010  106.44570  257.01650  106.44570 -163.17970 -100.87240  257.01650
 10050.00000    9.77080    9.77080    7.87260  127.32110   51.12550   51.12550   10.53410   10.53410  127.32110  650.31520 1126.67670  650.31520 -163.01430 -101.39540 1126.67670
 10100.00000    9.96430    9.96430    8.12750  123.03860   51.35080   51.35080   11.54050   11.54050  123.03860  122.66940 1156.46510  122.66940 -161.16660 -100.24050 1156.46510
 10150.00000   10.29810   10.29810    8.50010  117.68050   50.53040   50.53040   11.60290   11.60290  117.68050  303.14490 1083.59080  303.14490 -128.07780  -67.84000 1083.59080
 10200.00000    9.49650    9.49650    8.42310  118.72140   51.11980   51.11980   12.38340   12.38340  118.72140  167.45410 1122.64870  167.45410 -142.88140  -83.33650 1122.64870
 10250.00000    9.26810    9.26810   12.33680   81.05820   49.69470   49.69470    7.37880    7.37880   81.05820   82.17650  313.79130   82.17650 -150.77210  -91.91550  313.79130
 10300.00000    9.14650    9.14650    5.40440  185.50190   47.05640   47.05640    8.90610    8.90610  185.50190  225.46600 1149.61430  225.46600 -159.93610 -101.76790 1149.61430
 10350.00000    9.50180    9.50180    8.26860  120.93910   48.18600   48.18600   10.46060   10.46060  120.93910  216.49720  339.46360  216.49720 -121.04590  -63.57050  339.46360
