~Version ---------------------------------------------------
VERS. 2.0 : CWLS log ASCII Standard -VERSION 2.0
WRAP.  NO : ONE LINE PER DEPTH STEP
~Well ------------------------------------------------------
STRT.F                             1500.0 : START DEPTH
STOP.F                            12250.0 : STOP DEPTH
STEP.F                           50.00000 : STEP LENGTH
NULL.                             -999.25 : NULL VALUE
COMP.            CHEVRON STANDARD LIMITED : COMPANY
WELL. CHEVRON NORCEN PL BRAZEAU 7-4-49-12 : WELL
FLD .                                     : FIELD
LOC .                                     : LOCATION
CTRY.                              CANADA : COUNTRY
SRVC.                        Schlumberger : SERVICE COMPANY
DATE.                         05-Jun-1978 : LOGDATE
PROV.                             Alberta : PROVINCE
UWI .                    100070404912W500 : UNIQUE WELL ID
SLAT.WGS84                       53.19691 : SURFACE LATITUDE
SLON.WGS84                      -115.6898 : SURFACE LONGITUDE
~Curve Information -----------------------------------------
DEPT   .F     : 
CALD   .IN    : CALIPER FROM DENSITY LOG
DCOR   .G/C3  : DENSITY CORRECTION
GRD    .GAPI  : GAMMA RAY FROM DENSITY LOG
RHOB   .G/C3  : BULK DENSITY
NPHI_SS.DEC   : NEUTRON POROSITY SANDSTONE
DPHI_SS.DEC   : DENSITY POROSITY SANDSTONE
NPHI_LS.DEC   : NEUTRON POROSITY LIMESTONE
DPHI_LS.DEC   : DENSITY POROSITY LIMESTONE
GRS    .GAPI  : GAMMA RAY FROM SONIC LOG
DT     .US/F  : DELTA TIME
CALS   .IN    : CALIPER FROM SONIC LOG
ILD    .OHMM  : DEEP INDUCTION RESISTIVITY
ILM    .OHMM  : INDUCTION MEDIUM RESISTIVITY
LL8    .OHMM  : LATEROLOG-8 RESISTIVITY
SPR    .MV    : SPONTANEOUS POTENTIAL FROM RESISTIVITY LOG
~Params ----------------------------------------------------
PD  .                     GL : PERMANENT DATUM
EPD .FT               3221.1 : ELEVATION PERMANENT DATUM
LMF .                     KB : LOG MEASURED FROM
DAPD.FT                 18.9 : FEET ABOVE PERMANENT DATUM
DMF .                     KB : DRILLING MEASURED FROM
EKB .FT                 3240 : KELLY BUSHING
EGL .FT               3221.1 : GROUND LEVEL
DATE.               06/05/78 : RUN DATE
RUN .                      1 : RUN NUMBER
DD  .FT                12300 : DEPTH DRILLER
DL  .FT                12303 : DEPTH LOGGER
BLI .FT                12297 : BOTTOM LOG INTERVAL
TLI .FT                 1518 : TOP LOG INTERVAL
CBD .FT                 1518 : CASING BOTTOM DRILLER
CBL .FT                 1518 : CASING BOTTOM LOGGER
BS  .IN                 8.75 : BIT SIZE
BSD .FT                12300 : BIT SIZE AT DEPTH
DFT .                    GEL : DRILLING FLUID TYPE
DFD .                     11 : DRILLING FLUID DENSITY
DFV .                     68 : DRILLING FLUID VISCOSITY
DFPH.                   10.5 : DRILLING FLUID PH
MSS .               FLOWLINE : MUD SAMPLE SOURCE
RMS .OHMM               3.34 : RESISTIVITY MUD SAMPLE
MST .DEGF                 68 : MUD SAMPLE TEMPERATURE
TCS .HRS                 350 : TIME CIRCULATED STOPPED
LUN .                   7802 : LOGGING UNIT NUMBER
LUL .                    EDM : LOGGING UNIT LOCATION
ENGI.            STEENBERGEN : RECORDING ENGINEER
WITN.             RICHARDSON : WITNESSED BY
CLNT.                A2DTECH : CLIENT CODE
ORIG.            2" 5" PRINT : ORIGIN OF DATA
UWI .       100070404912W500 : UNIQUE WELL ID
DICO. A2D Technologies, Inc. : DIGITIZING COMPANY
~Other -----------------------------------------------------
~ASCII -----------------------------------------------------
# ...
 6100.00000    -999.25    -999.25    -999.25    -999.25    -999.25    -999.25    -999.25    -999.25  132.06480   81.58570    9.79740    6.87410    7.31760    8.47720  -38.56710
 6150.00000   10.67680    0.12680  101.51480    2.60260    0.31920    0.02620    -999.25    -999.25  126.03490   81.59690    9.71520    6.80820    7.25080    8.15690  -39.65860
 6200.00000    9.92920    0.14800  107.78680    2.38010    0.33310    0.15900    -999.25    -999.25  115.81800   80.86870    9.20020    6.35530    6.76720    7.34600  -40.82950
 6250.00000   10.24090    0.17870  100.07720    2.26750    0.32170    0.23140    -999.25    -999.25  116.12030   83.44950    9.10480    7.87470    8.43840    8.94560  -40.54960
 6300.00000    9.93880    0.21230   76.04220    2.42710    0.18330    0.12610    -999.25    -999.25   75.11060   74.24100    9.00870   20.63840   21.56660   27.36770  -46.83940
 6350.00000   11.46080    0.21140   91.65310    2.48960    0.22010    0.09780    -999.25    -999.25  109.62980   71.22750    9.31980   13.42010   14.41580   15.57700  -42.42370
 6400.00000   11.97830    0.13020  107.67650    2.33140    0.25870    0.23560    -999.25    -999.25  116.40930   77.43640    9.50290    9.16290    9.76640   10.88170  -42.77320
 6450.00000   13.24250    0.06530   86.81880    2.23720    0.30570    0.26480    -999.25    -999.25  104.27120   76.75780    9.81530    9.46380   10.16120   11.11750  -41.78550
 6500.00000   13.21980    0.09720  100.90080    2.20160    0.25180    0.26160    -999.25    -999.25  118.54930   77.55300    9.66990    9.06420    9.64930   10.43340  -42.42160
 6550.00000   13.77120    0.02550   90.23050    1.99700    0.36580    0.45560    -999.25    -999.25  115.46270   78.73870    9.89700    8.11470    8.66040    9.08110  -41.34370
 6600.00000   13.30290    0.05750   97.50460    1.99400    0.34540    0.44360    -999.25    -999.25  117.92970   79.73350    9.88850    8.82290    9.39040    9.89520  -40.05340
 6650.00000   13.03600   -0.03930   99.44880    1.93750    0.42560    0.43500    -999.25    -999.25  120.95460   98.24880   10.79350    7.98890    7.35100    9.77530  -38.90790
 6700.00000   12.77840    0.13500  120.87760    2.42710    0.29950    0.15410    -999.25    -999.25  141.07110   84.77500    9.47870   11.17880   11.90950   14.37860  -39.13620
 6750.00000   11.60250    0.13340  121.61930    2.39770    0.36500    0.15230    -999.25    -999.25  137.21360   85.33170    9.94100    9.71030   10.33630   12.80880  -39.37650
 6800.00000   11.43700    0.12220  121.16480    2.44550    0.31670    0.12810    -999.25    -999.25  136.22890   83.66570    9.48600   11.10060   12.10710   15.81640  -39.15110
 6850.00000   11.01340    0.01110  134.78080    2.59580    0.30550    0.03680    -999.25    -999.25  138.50530   87.05580    9.27030   16.63090   17.64930   24.83160  -39.85170
 6900.00000   10.73700    0.03300  133.53650    2.59190    0.27360    0.03270    -999.25    -999.25  132.55940   86.22280    9.25740   14.36080   15.56540   22.46780  -38.47480
 6950.00000   12.13370    0.06520  104.42850    2.57970    0.32820    0.05240    -999.25    -999.25  115.48780   84.94670    9.49740    9.68310   10.33640   14.16850  -38.76710
 7000.00000   12.18010    0.07580  118.10820    2.49850    0.41120    0.10470    -999.25    -999.25  122.89320   92.70990   10.42230   10.39900   11.30950   14.62280  -37.51730
 7050.00000   11.49390    0.10630   93.56220    2.42910    0.34750    0.14320    -999.25    -999.25  100.59300   87.16310    9.89150    5.44280    5.79690    7.22450  -37.34260
 7100.00000   12.63210    0.01670  104.98650    2.57790    0.24800    0.03380    -999.25    -999.25  123.45410   81.16220   10.48340    6.86170    7.31390    8.21210  -39.34000
 7150.00000   14.62670    0.02790  112.18330    2.56430    0.30710    0.04580    -999.25    -999.25  113.98590   85.58480   11.19610    5.43270    5.80510    6.68630  -37.34260
 7200.00000   13.49010    0.04270  121.02180    2.45960    0.32920    0.11840    -999.25    -999.25  126.88140   91.41210    9.82530    6.22630    6.63210    8.64520  -39.37310
 7250.00000   12.84560    0.09870  120.51020    2.31250    0.34170    0.22340    -999.25    -999.25  121.77520   87.09960   10.27970    6.04140    6.80690    8.32250  -38.62560
 7300.00000   13.85600    0.00910   88.31850    2.05750    0.51690    0.41080    -999.25    -999.25   79.57240   95.52050   11.50750    2.68790    3.00300    4.37780  -38.70420
 7350.00000   14.20020    0.04340  100.25220    2.05370    0.36110    0.36950    -999.25    -999.25  103.11880   89.40470   10.85280    4.76190    5.16920    6.27330  -39.85610
 7400.00000   10.92240    0.01450   79.46240    2.59450    0.13810    0.02580    -999.25    -999.25   79.04650   72.28240    9.78450   11.93480   12.57320   14.27650  -46.98630
 7450.00000   11.57140    0.09050   86.93980    2.58690    0.25070    0.03160    -999.25    -999.25   91.65540   77.87180   10.55900    6.86610    7.25340    7.95150  -42.60040
 7500.00000   12.25860    0.00770   70.60470    2.55400    0.17920    0.06430    -999.25    -999.25   72.07390   72.80670   10.28830    9.14960    9.50880   10.45820  -49.99250
 7550.00000   12.03120    0.02750   73.24500    2.65130    0.19310    0.00810    -999.25    -999.25   83.66380   68.53670   10.03460   11.66240   13.35230   17.07510  -43.49770
 7600.00000   12.00090    0.05250   56.30300    2.59910    0.16670    0.02520    -999.25    -999.25   67.91790   73.15350   10.45870    8.89880    9.29440   10.03000  -50.73490
 7650.00000   13.01380    0.01340   79.13830    2.66020    0.22890   -0.01830    -999.25    -999.25   79.94080   69.74900   10.41410   13.67750   14.29470   19.27360  -42.66750
 7700.00000   13.21270    0.01630   64.92020    2.62130    0.15170    0.02050    -999.25    -999.25   73.13300   68.95230   10.64010   12.13760   12.67990   14.13310  -48.73750
 7750.00000   12.58070   -0.01540   61.57370    2.18770    0.32020    0.17810    -999.25    -999.25   57.53430  106.80810   10.50270   18.49980   15.13570   19.05570  -44.03580
 7800.00000   12.43600    0.13320   93.32440    2.49230    0.24460    0.09380    -999.25    -999.25   96.01830   81.02010   10.35360   10.51080   11.70420   16.07160  -34.14420
 7850.00000   11.52710    0.01620   50.60880    2.49220    0.10190    0.12510    -999.25    -999.25   64.04400   73.38310    9.99970   21.17660   22.38770   29.79670  -46.26070
 7900.00000   11.57440    0.03670   58.77930    2.67740    0.09930   -0.00680    -999.25    -999.25   57.31360   63.94660    9.99670   23.98010   25.11860   26.65560  -50.53970
 7950.00000   11.59450    0.00610   69.63000    2.65250    0.13370   -0.00480    -999.25    -999.25   71.39340   64.98540    9.99000   15.45040   16.23660   18.93000  -37.92380
 8000.00000   11.29110    0.01160   67.39780    2.61680    0.08950    0.02040    -999.25    -999.25   74.70780   63.62320    9.85300   23.67820   24.72480   28.83050  -50.02910
 8050.00000   14.05050    0.09870   82.75040    2.45940    0.24590    0.08520    -999.25    -999.25   75.34580   75.83970   11.65040   25.74860   24.70430   37.28450  -39.67970
 8100.00000   12.93510    0.15780   96.35940    2.34160    0.22360    0.20410    -999.25    -999.25   98.27510   66.90700   10.18450   23.46160   25.15550   27.47900  -48.86180
 8150.00000   12.78980    0.14460   64.85770    2.50120    0.16390    0.10500    -999.25    -999.25   69.25230   73.64420    9.90170   16.04220   12.32090   19.55650  -48.71820
 8200.00000   13.51530    0.13830   70.19070    2.47830    0.14540    0.10580    -999.25    -999.25   63.33720   66.74060    9.62150   40.25330   52.43250   75.30720  -93.59520
 8250.00000   10.27730    0.01530   24.71860    2.52020    0.04120    0.06060    -999.25    -999.25   28.44310   60.00520    8.91430  109.46800  129.21470  184.14490 -110.62810
 8300.00000   14.01540    0.10880   91.21100    2.50240    0.22600    0.05870    -999.25    -999.25   91.62220   74.10430   10.47240   15.02830   13.07350   19.71170  -77.33720
 8350.00000    9.81190    0.00760   27.57750    2.63600    0.00960   -0.00310    -999.25    -999.25   29.21680   60.27070    9.00600  340.92870  235.20060  270.10460  -90.74730
