~Version ---------------------------------------------------
VERS.      2.0 : CWLS log ASCII Standard -VERSION 2.0
WRAP.       NO : One line per depth step
CREA. 10/03/17 : LAS Creation Date
~Well ------------------------------------------------------
STRT.FT                               950.0 : START DEPTH
STOP.FT                              8800.0 : STOP DEPTH
STEP.FT                            50.00000 : STEP LENGTH
NULL.                               -999.25 : NULL VALUE
COMP. CANADA CITIES SERVICE PETROLEUM CORP. : COMPANY
WELL.          CS CPOG KNOB HILL 10-25-46-2 : WELL
FLD .                                       : FIELD
LOC .                                       : LOCATION
CTRY.                                CANADA : COUNTRY
SRVC.                               Unknown : SERVICE COMPANY
DATE.                           04-Jul-1966 : LOGDATE
PROV.                               Alberta : PROVINCE
UWI .                      100102504602W500 : UNIQUE WELL ID
SLAT.WGS84                         52.99806 : SURFACE LATITUDE
SLON.WGS84                        -114.1551 : SURFACE LONGITUDE
~Curve Information -----------------------------------------
DEPT  .FT    : Depth Curve
CALSED.IN    : CALIPER FROM SONIC LOG
CALWS .IN    : CALIPER [CALSED]
CILDED.MMHO  : CONDUCTIVITY FROM RESISTIVITY LOG
CONDWS.MMHO  : CONDUCTIVITY [1000/DRESWS]
DRESWS.OHMM  : DEEP RESISTIVITY [1000/CILDED, IF ILDED<5, ILDED]
DTED  .US/F  : DELTA TIME FROM SONIC LOG
DTWS  .US/F  : COMPRESSIONAL SONIC [DTED]
GRSED .GAPI  : GAMMA RAY FROM SONIC LOG
GRWS  .GAPI  : GAMMA RAY [GRSED]
ILDED .OHMM  : INDUCTION LOG DEEP RESISTIVITY FROM RESISTIVITY LOG
SNED  .OHMM  : 16 INCH SHORT NORMAL RESISTIVITY FROM RESISTIVITY LOG
SPRED .MV    : SPONTANEOUS POTENTIAL FROM RESISTIVITY LOG
SPWS  .MV    : SPONTANEOUS POTENTIAL [BASELINE 0 MV, SPRED]
SRESWS.OHMM  : SHALLOW RESISTIVITY [SNED]
~Params ----------------------------------------------------
PD  .                     GL : PERMANENT DATUM
EPD .FT                 3004 : ELEVATION PERMANENT DATUM
LMF .                     KB : LOG MEASURED FROM
DAPD.FT                   12 : FEET ABOVE PERMANENT DATUM
EKB .FT                 3016 : KELLY BUSHING
EGL .FT                 3004 : GROUND LEVEL
DATE.               07/30/66 : RUN DATE
RUN .                      2 : RUN NUMBER
DD  .FT                 8828 : DEPTH DRILLER
DL  .FT                 8829 : DEPTH LOGGER
BLI .FT                 8828 : BOTTOM LOG INTERVAL
TLI .FT                 5750 : TOP LOG INTERVAL
CBD .FT                  911 : CASING BOTTOM DRILLER
CBL .FT                  913 : CASING BOTTOM LOGGER
BS  .IN                7.875 : BIT SIZE
BSD .FT                 8828 : BIT SIZE AT DEPTH
DFT .                    GEL : DRILLING FLUID TYPE
DFD .                    9.6 : DRILLING FLUID DENSITY
DFV .                     98 : DRILLING FLUID VISCOSITY
DFPH.                    0.5 : DRILLING FLUID PH
DFL .                    8.0 : DRILLING FLUID LOSS
RMS .OHMM               1.02 : RESISTIVITY MUD SAMPLE
MST .DEGF                 76 : MUD SAMPLE TEMPERATURE
RMF .OHMM               0.71 : RESISTIVITY MUD FILTRATE SAMPLE
MFST.DEGF                 72 : MUD FILTRATE SAMPLE TEMPERATURE
RMC .OHMM               1.27 : RESISTIVITY MUD CAKE
MCST.DEGF                 76 : MUD CAKE SAMPLE TEMPERATURE
RMB .OHMM               0.52 : RESISTIVITY MUD AT BHT
TCS .HRS                   2 : TIME CIRCULATED STOPPED
LUN .                   3534 : LOGGING UNIT NUMBER
LUL .                     SL : LOGGING UNIT LOCATION
ENGI.                  DUFFY : RECORDING ENGINEER
WITN.      DEGEMHARDT MOONEY : WITNESSED BY
CLNT.                A2DTECH : CLIENT CODE
ORIG.       2" 5" 2.5" PRINT : ORIGIN OF DATA
UWI .       100102504602W500 : UNIQUE WELL ID
DICO. A2D Technologies, Inc. : DIGITIZING COMPANY
~Other -----------------------------------------------------
IEL-BHC SONIC TOOL RUN
~ASCII -----------------------------------------------------
# ...
 3400.00000    8.35640    8.35640  127.40130  133.71490    7.47860   81.68740   81.68740   59.09900   59.09900    7.47860    8.99690  -37.22040   -6.09650    8.99690
 3450.00000    8.28190    8.28190  108.46720  110.61110    9.04200   86.06190   86.06190   79.89070   79.89070    9.04200    9.80810  -38.31590   -6.94090    9.80810
 3500.00000    8.90590    8.90590  129.57230  131.34050    7.61380   89.58170   89.58170   83.21440   83.21440    7.61380    8.26810  -42.53420  -10.90970    8.26810
 3550.00000    9.02220    9.02220  123.67390  128.67360    7.77160   88.50820   88.50820   84.41150   84.41150    7.77160    8.62050  -43.23200  -11.35800    8.62050
 3600.00000    8.86740    8.86740  122.49900  126.16230    7.92630   88.76820   88.76820   80.54150   80.54150    7.92630    9.27310  -44.39870  -12.27360    9.27310
 3650.00000    8.65400    8.65400  124.33370  126.35200    7.91440   86.22650   86.22650   78.93820   78.93820    7.91440    9.13560  -43.50360  -11.12900    9.13560
 3700.00000    8.77000    8.77000  139.55770  142.94930    6.99560   90.45550   90.45550   86.19340   86.19340    6.99560    8.26780  -41.72410   -9.09840    8.26780
 3750.00000    8.64640    8.64640  132.61880  137.64810    7.26490   93.80060   93.80060   94.99000   94.99000    7.26490    9.10040  -41.43820   -8.56300    9.10040
 3800.00000    8.13510    8.13510   95.10060   98.32070   10.17080   90.29080   90.29080  123.76140  123.76140   10.17080   13.82500  -37.82270   -4.69810   13.82500
 3850.00000    8.20520    8.20520   92.33900   93.83420   10.65710   92.22080   92.22080  127.96220  127.96220   10.65710   15.28780  -36.52510   -3.14930   15.28780
 3900.00000    8.45370    8.45370  108.20000  112.57330    8.88310   95.07240   95.07240  132.96180  132.96180    8.88310   12.36240  -36.88720   -3.34590   12.36240
 3950.00000    8.58340    8.58340  119.38960  123.65160    8.08750   90.44100   90.44100  104.07540  104.07540    8.08750   10.41340  -38.86060   -5.37410   10.41340
 4000.00000    8.51550    8.51550  157.91710  161.70500    6.18410   87.32480   87.32480   95.27140   95.27140    6.18410    7.87530  -40.71160   -7.27940    7.87530
 4050.00000    8.81510    8.81510  146.01390  147.57100    6.77640   89.70680   89.70680  108.16370  108.16370    6.77640    8.68140  -40.10050   -6.72270    8.68140
 4100.00000    8.38200    8.38200  150.57970  153.69950    6.50620   90.84710   90.84710   91.60410   91.60410    6.50620    8.31160  -41.97420   -8.65110    8.31160
 4150.00000    8.52540    8.52540  151.28540  154.48070    6.47330   87.69140   87.69140   99.92520   99.92520    6.47330    7.69250  -42.00650   -8.73780    7.69250
 4200.00000    8.49890    8.49890  126.62340  128.52060    7.78350   86.08950   86.08950   96.24870   96.24870    7.78350    9.01910  -43.80210  -10.58810    9.01910
 4250.00000    8.58590    8.58590  129.86040  132.28390    7.55950   84.96100   84.96100   91.87860   91.87860    7.55950    9.26230  -45.11820  -11.95860    9.26230
 4300.00000    9.54510    9.54510  157.96920  163.00720    6.13470   87.50610   87.50610  101.57000  101.57000    6.13470    8.07110  -45.95560  -12.85040    8.07110
 4350.00000    8.84890    8.84890  109.09530  112.04230    8.92520   81.24660   81.24660   88.54330   88.54330    8.92520   11.14160  -46.05650  -13.00600   11.14160
 4400.00000    8.76260    8.76260  115.63800  118.89480    8.41080   81.03950   81.03950   99.82480   99.82480    8.41080   10.30420  -46.62780  -13.63170   10.30420
 4450.00000    8.64140    8.64140  118.55100  123.04670    8.12810   83.50480   83.50480   95.06590   95.06590    8.12810    9.99950  -47.50880  -14.56740    9.99950
 4500.00000    8.27730    8.27730  105.11720  108.76540    9.19410   78.79310   78.79310  100.32320  100.32320    9.19410   11.26090  -47.78250  -14.89550   11.26090
 4550.00000    8.49000    8.49000  163.13360  169.47720    5.90050   91.87570   91.87570  101.04580  101.04580    5.90050    7.70040  -47.31970  -14.48710    7.70040
 4600.00000    8.12500    8.12500  153.94340  161.19670    6.20360   96.97440   96.97440  105.73560  105.73560    6.20360    8.54600  -45.35940  -12.58150    8.54600
 4650.00000    8.10560    8.10560   90.38610   93.45010   10.70090   83.87580   83.87580   95.52530   95.52530   10.70090   14.96860  -44.21890  -11.49540   14.96860
 4700.00000    8.11100    8.11100   78.83200   79.61820   12.56530   84.22580   84.22580  103.79940  103.79940   12.56530   19.18270  -44.59250  -11.92370   19.18270
 4750.00000    8.07840    8.07840   47.10040   48.65490   20.55290   75.20770   75.20770  114.36060  114.36060   20.55290   36.47690  -45.01540  -12.40100   36.47690
 4800.00000    8.04490    8.04490  103.07890  106.10420    9.42470   92.99880   92.99880  152.00540  152.00540    9.42470   14.42360  -44.26940  -11.70930   14.42360
 4850.00000    8.12760    8.12760   52.50390   54.60900   18.31200   98.06350   98.06350  156.60500  156.60500   18.31200   30.16360  -42.53330  -10.02800   30.16360
 4900.00000    8.20170    8.20170  108.55820  110.90040    9.01710   98.54320   98.54320  159.03070  159.03070    9.01710   13.79180  -42.47460  -10.02370   13.79180
 4950.00000    8.29900    8.29900  230.03080  230.03080    4.34800   99.13980   99.13980  145.19570  145.19570    4.36350    6.38140  -44.08580  -11.68960    6.38140
 5000.00000    8.60830    8.60830  278.90290  278.90290    3.58550   92.10400   92.10400   96.30740   96.30740    3.67720    4.83610  -45.26350  -12.92170    4.83610
 5050.00000    8.55680    8.55680  324.70010  324.70010    3.07980   95.25570   95.25570  124.51740  124.51740    3.34130    4.07360  -46.50750  -14.22000    4.07360
 5100.00000    7.70850    7.70850   56.49950   59.67660   16.75700   70.08210   70.08210   57.47040   57.47040   16.75700   40.16550  -80.36640  -48.13370   40.16550
 5150.00000    7.94860    7.94860   94.62250   97.88180   10.21640   74.18490   74.18490   88.55100   88.55100   10.21640   13.72190  -49.17800  -16.99960   13.72190
 5200.00000    9.00890    9.00890  385.85140  385.85140    2.59200   94.09470   94.09470   80.17950   80.17950    2.77730    3.23170  -52.42930  -20.30570    3.23170
 5250.00000    8.95720    8.95720  357.11960  357.11960    2.80020   93.25450   93.25450   78.60080   78.60080    3.00430    3.78640  -52.67510  -20.60580    3.78640
 5300.00000    8.25980    8.25980  106.84730  107.42750    9.30860   73.88070   73.88070   84.41860   84.41860    9.30860   15.40900  -49.83580  -17.82090   15.40900
 5350.00000    8.28580    8.28580   92.89040   95.55110   10.46560   72.00580   72.00580   56.74160   56.74160   10.46560   18.62260  -71.07460  -39.11440   18.62260
 5400.00000    8.29850    8.29850   69.44150   70.56020   14.17230   72.54270   72.54270   67.24050   67.24050   14.17230   17.72420  -56.42610  -24.52030   17.72420
 5450.00000   10.15670   10.15670    7.58410    7.05640  144.13410  125.59490  125.59490   29.42420   29.42420  144.13410  146.67640  -57.08130  -25.23020  146.67640
 5500.00000    8.14760    8.14760   13.59910   14.31860   69.83930   53.70340   53.70340   47.93590   47.93590   69.83930  124.58080  -43.97190  -12.17520  124.58080
 5550.00000    7.96480    7.96480   79.43580   78.40000   12.75510   68.29810   68.29810   91.41760   91.41760   12.75510   21.01900  -40.67730   -8.93500   21.01900
 5600.00000    7.96580    7.96580   42.44560   42.77250   23.37950   68.50000   68.50000   68.67680   68.67680   23.37950   30.96570  -51.24240  -19.55480   30.96570
 5650.00000    7.94740    7.94740   50.03510   51.12920   19.55830   68.59550   68.59550   55.58100   55.58100   19.55830   26.63670  -57.55290  -25.91970   26.63670
 5700.00000    7.90140    7.90140  106.52670  107.88060    9.27600   75.60310   75.60310   98.98870   98.98870    9.27600   27.08740  -38.19730   -6.61880   27.08740
 5750.00000    8.18630    8.18630   18.03270   18.01020   55.52400   53.98420   53.98420   70.92630   70.92630   55.52400   37.49790  -61.17090  -29.64680   37.49790
 5800.00000    7.89370    7.89370   10.66020   11.21040   89.20270   51.54180   51.54180   45.81030   45.81030   89.20270  114.16340  -47.55520  -16.08550  114.16340
