~Version ---------------------------------------------------
VERS.      2.0 : CWLS log ASCII Standard -VERSION 2.0
WRAP.       NO : One line per depth step
CREA. 12/18/17 : LAS Creation Date
~Well ------------------------------------------------------
STRT.FT                         300.0 : START DEPTH
STOP.FT                       11750.0 : STOP DEPTH
STEP.FT                      50.00000 : STEP LENGTH
NULL.                         -999.25 : NULL VALUE
COMP.            MOBIL OIL CANADA LTD : COMPANY
WELL. MOBIL OIL LESLIEVILLE 4-19-39-5 : WELL
FLD .                                 : FIELD
LOC .                                 : LOCATION
CTRY.                          CANADA : COUNTRY
SRVC.          Schlumberger of Canada : SERVICE COMPANY
DATE.                     02-Feb-1958 : LOGDATE
PROV.                         Alberta : PROVINCE
UWI .                100041903905W500 : UNIQUE WELL ID
SLAT.WGS84                   52.36478 : SURFACE LATITUDE
SLON.WGS84                  -114.7174 : SURFACE LONGITUDE
~Curve Information -----------------------------------------
DEPT  .FT     : Depth Curve
CALMED.IN     : CALIPER FROM MICRO LATEROLOG [ADJ. TO IEL LOG]
CALWS .IN     : CALIPER [MCALED SPL. TO CALMED @ 8500']
CILDED.MMHO   : CONDUCTIVITY INDUCTION LOG FROM IEL LOG
CONDWS.MMHO   : CONDUCTIVITY [1000/DRESWS]
DRESWS.OHMM   : DEEP RESISTIVITY [1000/CILDED,IF ILDED<2,ILDED]
GR1ED .GAPI   : GAMMA RAY FROM GR LOG [ADJ. TO IEL LOG]
GRED  .GAPI   : GAMMA RAY FROM GR-CCL LOG [ADJ. TO IEL LOG]
GRNED .UR/HR  : GAMMA RAY FROM GRN LOG [ADJ. TO IEL & LATEROLOG LOG]
GRWS  .GAPI   : GAMMA RAY [GRNED*10.4 SPL. TO GR1ED @ 7038'-7122']
ILDED .OHMM   : INDUCTION LOG RESISTIVITY FROM IEL LOG
LL7ED .OHMM   : LATEROLOG-7 RES. FROM LATEROLOG [ADJ. TO IEL LOG]
MCALED.IN     : MLT CALIPER FROM MICROLOG [ADJ. TO IEL LOG]
MLLED .OHMM   : MICRO-LATEROLOG RESISTIVITY FROM MICRO LATEROLOG [ADJ. TO IEL LOG]
MRESWS.OHMM   : MEDIUM RESISTIVITY [LL7ED]
NEUTED.NAPI   : NEUTRON FROM GRN LOG [ADJ. TO IEL & LATEROLOG LOG]
NEUTWS.NAPI   : NEUTRON [NEUTED]
SNED  .OHMM   : SHORT NORMAL 16" FROM IEL LOG
SPMED .MV     : SPONTAEOUS POTENTIAL FROM MICRO LATEROLOG [ADJ. TO IEL LOG]
SPR1ED.MV     : SPONTANEOUS POTENTIAL FROM LATEROLOG [ADJ. TO IEL LOG]
SPRED .MV     : SPONTANEOUS POTENTIAL FROM IEL LOG
SPWS  .MV     : SPONTANEOUS POTENTIAL [BASELINE 0MV, SPRED SPL. TO SPR1ED @ 7480']
SRESWS.OHMM   : SHALLOW RESISTIVITY [SNED]
TENED .LBF    : TENSION FROM GR LOG [ADJ. TO IEL LOG]
~Params ----------------------------------------------------
PD  .           GROUND LEVEL : PERMANENT DATUM
EPD .FT                 3169 : ELEVATION PERMANENT DATUM
LMF .                     KB : LOG MEASURED FROM
DMF .                     KB : DRILLING MEASURED FROM
EKB .FT                 3181 : KELLY BUSHING
EGL .FT                 3169 : GROUND LEVEL
DATE.             02/02/1958 : RUN DATE
RUN .                      1 : RUN NUMBER
DD  .FT                11765 : DEPTH DRILLER
DL  .FT                11766 : DEPTH LOGGER
BLI .FT                11762 : BOTTOM LOG INTERVAL
TLI .FT                 6000 : TOP LOG INTERVAL
CBD .FT                  886 : CASING BOTTOM DRILLER
CBL .FT                  885 : CASING BOTTOM LOGGER
BS  .IN                    9 : BIT SIZE
BSD .FT                11766 : BIT SIZE AT DEPTH
DFT .              LIME BASE : DRILLING FLUID TYPE
DFD .                   11.4 : DRILLING FLUID DENSITY
DFV .                    100 : DRILLING FLUID VISCOSITY
DFPH.                   13.0 : DRILLING FLUID PH
DFL .                    4.6 : DRILLING FLUID LOSS
RMS .OHMM                0.5 : RESISTIVITY MUD SAMPLE
MST .DEGF                 47 : MUD SAMPLE TEMPERATURE
RMF .OHMM                0.2 : RESISTIVITY MUD FILTRATE SAMPLE
MFST.DEGF                 70 : MUD FILTRATE SAMPLE TEMPERATURE
RMC .OHMM                0.6 : RESISTIVITY MUD CAKE
MCST.DEGF                 66 : MUD CAKE SAMPLE TEMPERATURE
RMB .OHMM               0.14 : RESISTIVITY MUD AT BHT
MRT .DEGF                212 : MAXIMUM RECORDED TEMPERATURE
LUN .                  1729C : LOGGING UNIT NUMBER
LUL .                     RD : LOGGING UNIT LOCATION
ENGI.                  CHASE : RECORDING ENGINEER
WITN.                 CARSON : WITNESSED BY
CLNT.                A2DTECH : CLIENT CODE
ORIG.           2", 5" PRINT : ORIGIN OF DATA
UWI .       100041903905W500 : UNIQUE WELL ID
DICO. A2D Technologies, Inc. : DIGITIZING COMPANY
~Other -----------------------------------------------------
~ASCII -----------------------------------------------------
# ...
 4950.00000    -999.25   11.69270   57.19610   57.17780   17.48930    -999.25    -999.25   11.28460  117.35980   17.48930    -999.25   11.69270    -999.25    -999.25 1043.91010 1043.91010   15.38660    -999.25    -999.25 -213.10380  -19.39740   15.38660    -999.25
 5000.00000    -999.25   14.02120  135.19300  128.11480    7.80550    -999.25    -999.25   11.81020  122.82560    7.80550    -999.25   14.02120    -999.25    -999.25  881.98110  881.98110    6.98190    -999.25    -999.25 -204.19190  -10.84790    6.98190    -999.25
 5050.00000    -999.25   11.70270  213.78550  175.63580    5.69360    -999.25    -999.25   11.77690  122.47980    5.69360    -999.25   11.70270    -999.25    -999.25  843.60130  843.60130    5.25180    -999.25    -999.25 -208.73960  -15.75800    5.25180    -999.25
 5100.00000    -999.25   11.76760  102.18030  100.75670    9.92490    -999.25    -999.25   12.59720  131.01090    9.92490    -999.25   11.76760    -999.25    -999.25  816.39660  816.39660    9.27650    -999.25    -999.25 -210.00880  -17.39200    9.27650    -999.25
 5150.00000    -999.25    -999.25  105.05550  101.72840    9.83010    -999.25    -999.25   12.25000  127.40000    9.83010    -999.25    -999.25    -999.25    -999.25  890.22930  890.22930    9.13470    -999.25    -999.25 -210.98900  -18.73470    9.13470    -999.25
 5200.00000    -999.25    -999.25  108.00490  105.07180    9.51730    -999.25    -999.25   13.34550  138.79320    9.51730    -999.25    -999.25    -999.25    -999.25  810.69000  810.69000    8.65940    -999.25    -999.25 -210.63980  -18.75030    8.65940    -999.25
 5250.00000    -999.25    -999.25  111.23760  104.58280    9.56180    -999.25    -999.25   11.97640  124.55460    9.56180    -999.25    -999.25    -999.25    -999.25  890.05920  890.05920    9.24960    -999.25    -999.25 -204.94660  -13.41950    9.24960    -999.25
 5300.00000    -999.25    -999.25  106.67770  106.84330    9.35950    -999.25    -999.25   11.96030  124.38710    9.35950    -999.25    -999.25    -999.25    -999.25  858.12630  858.12630    9.80030    -999.25    -999.25 -208.74240  -17.57770    9.80030    -999.25
 5350.00000    -999.25    -999.25  103.91080  100.29180    9.97090    -999.25    -999.25   13.46770  140.06410    9.97090    -999.25    -999.25    -999.25    -999.25  857.73930  857.73930    9.74790    -999.25    -999.25 -208.06270  -17.26290    9.74790    -999.25
 5400.00000    -999.25    -999.25  109.13720  103.38050    9.67300    -999.25    -999.25   12.48250  129.81800    9.67300    -999.25    -999.25    -999.25    -999.25  841.84420  841.84420    9.25150    -999.25    -999.25 -211.52380  -21.08640    9.25150    -999.25
 5450.00000    -999.25    -999.25   92.66540   90.99260   10.98990    -999.25    -999.25   12.86680  133.81470   10.98990    -999.25    -999.25    -999.25    -999.25  686.20380  686.20380   12.28030    -999.25    -999.25 -212.29500  -22.22240   12.28030    -999.25
 5500.00000    -999.25    -999.25   67.20440   69.13860   14.46370    -999.25    -999.25   13.18250  137.09800   14.46370    -999.25    -999.25    -999.25    -999.25  893.70230  893.70230   14.72920    -999.25    -999.25 -213.95790  -24.24770   14.72920    -999.25
 5550.00000    -999.25    -999.25   66.86470   66.61740   15.01110    -999.25    -999.25   12.86280  133.77310   15.01110    -999.25    -999.25    -999.25    -999.25  825.44460  825.44460   16.13030    -999.25    -999.25 -212.78960  -23.44190   16.13030    -999.25
 5600.00000    -999.25    -999.25   90.04340   90.48870   11.05110    -999.25    -999.25   12.38100  128.76240   11.05110    -999.25    -999.25    -999.25    -999.25  798.67900  798.67900   11.86160    -999.25    -999.25 -211.85740  -22.87450   11.86160    -999.25
 5650.00000    -999.25    -999.25   98.71590   99.05210   10.09570    -999.25    -999.25   11.64400  121.09760   10.09570    -999.25    -999.25    -999.25    -999.25  839.54810  839.54810   10.51570    -999.25    -999.25 -214.38130  -25.76080   10.51570    -999.25
 5700.00000    -999.25    -999.25  141.80700  132.00800    7.57530    -999.25    -999.25   11.80800  122.80320    7.57530    -999.25    -999.25    -999.25    -999.25  688.23640  688.23640    7.88790    -999.25    -999.25 -208.94680  -20.69110    7.88790    -999.25
 5750.00000    -999.25    -999.25  109.34880  105.22220    9.50370    -999.25    -999.25   11.77940  122.50580    9.50370    -999.25    -999.25    -999.25    -999.25  772.19770  772.19770    9.14470    -999.25    -999.25 -209.90280  -22.00960    9.14470    -999.25
 5800.00000    -999.25    -999.25  134.26790  124.86580    8.00860    -999.25    -999.25   11.80280  122.74910    8.00860    -999.25    -999.25    -999.25    -999.25  732.55290  732.55290    8.06360    -999.25    -999.25 -209.93090  -22.40010    8.06360    -999.25
 5850.00000    -999.25    -999.25  123.17040  120.04510    8.33020    -999.25    -999.25   11.91780  123.94510    8.33020    -999.25    -999.25    -999.25    -999.25  809.94730  809.94730    8.62750    -999.25    -999.25 -211.46950  -24.30350    8.62750    -999.25
 5900.00000    -999.25    -999.25  111.43040  104.61350    9.55900    -999.25    -999.25   11.38820  118.43730    9.55900    -999.25    -999.25    -999.25    -999.25  761.62210  761.62210    9.42080    -999.25    -999.25 -208.52710  -21.72360    9.42080    -999.25
 5950.00000    -999.25    -999.25  103.86560  100.42680    9.95750    -999.25    -999.25   11.79660  122.68460    9.95750    -999.25    -999.25    -999.25    -999.25  844.12930  844.12930    9.63200    -999.25  -81.08180 -211.13250  -24.69380    9.63200    -999.25
 6000.00000    -999.25   12.80260  110.77740  107.84000    9.27300    -999.25    -999.25   12.08840  125.71940    9.27300   11.88480   12.80260    -999.25   11.88480  765.19270  765.19270    9.31510    -999.25  -79.51510 -207.69720  -21.62090    9.31510    -999.25
 6050.00000   15.38160   13.07880  139.10880  126.56470    7.90110    -999.25    -999.25   11.79220  122.63890    7.90110    8.95220   13.07880    3.96770    8.95220  735.05440  735.05440    7.50710  -87.17730  -79.34790 -204.92280  -19.20890    7.50710    -999.25
 6100.00000   15.34980   13.77400  136.04590  123.95260    8.06760    -999.25    -999.25   11.52420  119.85170    8.06760    9.48430   13.77400    2.52840    9.48430  709.71640  709.71640    7.46660  -88.01900  -78.46740 -207.19730  -21.84830    7.46660    -999.25
 6150.00000   15.23340   12.62580  111.07080  105.26650    9.49970    -999.25    -999.25   11.38480  118.40190    9.49970   11.26350   12.62580    2.46310   11.26350  833.97350  833.97350    9.04920  -87.36900  -79.94040 -209.22640  -24.23980    9.04920    -999.25
 6200.00000   14.33050   11.17870   67.78460   70.06870   14.27170    -999.25    -999.25   11.83280  123.06110   14.27170   18.87860   11.17870    3.28380   18.87860 1023.89330 1023.89330   14.59450  -95.04950  -83.56610 -216.36910  -31.74730   14.59450    -999.25
 6250.00000   13.17750   10.72110   86.46580   84.68050   11.80910    -999.25    -999.25   10.98590  114.25340   11.80910   14.40240   10.72110    4.32160   14.40240  868.89710  868.89710   11.39770  -88.66270  -80.92150 -207.69300  -23.43360   11.39770    -999.25
 6300.00000   13.73180   11.36150  104.56170  100.81360    9.91930    -999.25    -999.25   11.68320  121.50580    9.91930   10.27570   11.36150    3.63540   10.27570  820.29150  820.29150    9.39070  -85.35100  -79.41730 -203.39110  -19.49420    9.39070    -999.25
 6350.00000   13.19590   11.84450   88.37970   88.50810   11.29840    -999.25    -999.25   10.65260  110.78700   11.29840   13.20980   11.84450    4.82100   13.20980  780.66020  780.66020   10.28600  -78.68930  -79.74570 -199.54430  -16.01220   10.28600    -999.25
 6400.00000   11.68160   11.27590  104.79490  104.15800    9.60080    -999.25    -999.25   10.20740  106.15700    9.60080   11.47720   11.27590    2.62990   11.47720  757.21950  757.21950    9.93630  -78.36180  -78.83400 -199.70090  -16.53120    9.93630    -999.25
 6450.00000   12.00750   11.96680   97.78240   95.11670   10.51340    -999.25    -999.25   11.38010  118.35300   10.51340   12.73440   11.96680    3.71410   12.73440  701.38070  701.38070   10.01660  -81.84070  -78.82480 -200.51460  -17.70970   10.01660    -999.25
