~Version ---------------------------------------------------
VERS. 2.0 : CWLS log ASCII Standard -VERSION 2.0
WRAP.  NO : ONE LINE PER DEPTH STEP
~Well ------------------------------------------------------
STRT.F                                   347.3 : START DEPTH
STOP.F                                  9458.8 : STOP DEPTH
STEP.F                                 0.50000 : STEP LENGTH
NULL.                                  -999.25 : NULL VALUE
COMP. THE BRITISH AMERICAN OIL COMPANY LIMITED : COMPANY
WELL.              B.A. GOOSE RIVER 4-32-66-18 : WELL
FLD .                                          : FIELD
LOC .                                          : LOCATION
CTRY.                                   CANADA : COUNTRY
SRVC.                             Schlumberger : SERVICE COMPANY
DATE.                              02-Dec-1964 : LOGDATE
PROV.                                  Alberta : PROVINCE
UWI .                         100043206618W500 : UNIQUE WELL ID
SLAT.WGS84                            54.75185 : SURFACE LATITUDE
SLON.WGS84                           -116.6939 : SURFACE LONGITUDE
~Curve Information -----------------------------------------
DEPT.F    0   1   0  0 : 1 MEASURED DEPTH
GRN .GAPI 35 310 01 00 : GAMMA RAY FROM GRN LOG
NEUT.NAPI 35 330 01 00 : NEUTRON
GR  .GAPI 30 310 00 00 : GAMMA RAY
CILD.MMHO 05 110 46 00 : INDUCTION DEEP CONDUCTIVITY
ILD .OHMM 05 120 46 00 : INDUCTION DEEP RESISTIVITY
SN  .OHMM 05 040 16 00 : SHORT NORMAL RESISTIVITY
SPR .MV   05 010 01 00 : SPONTANEOUS POTENTIAL FROM RESISTIVITY LOG
GRS .GAPI 60 310 01 00 : GAMMA RAY FROM SONIC LOG
DT  .US/F 60 500 00 00 : DELTA-T (INTERVAL TRANSIT TIME)
CALS.IN   60 280 50 00 : CALIPER FROM SONIC LOG
DT_1.US/F 60 500 31 00 : DELTA-T (INTERVAL TRANSIT TIME)
~Params ----------------------------------------------------
PD  .                     GL : PERMANENT DATUM
EPD .FT                 2485 : ELEVATION PERMANENT DATUM
LMF .                     KB : LOG MEASURED FROM
DAPD.FT                   15 : FEET ABOVE PERMANENT DATUM
EKB .FT                 2500 : KELLY BUSHING
EGL .FT                 2485 : GROUND LEVEL
DATE.               12/02/64 : RUN DATE
RUN .                      1 : RUN NUMBER
DD  .FT                 9461 : DEPTH DRILLER
DL  .FT                 9460 : DEPTH LOGGER
BLI .FT                 9459 : BOTTOM LOG INTERVAL
TLI .FT                  781 : TOP LOG INTERVAL
CBD .FT                  784 : CASING BOTTOM DRILLER
CBL .FT                  781 : CASING BOTTOM LOGGER
BS  .IN                7.625 : BIT SIZE
BSD .FT                 9461 : BIT SIZE AT DEPTH
DFT .               GEL CHEM : DRILLING FLUID TYPE
DFD .                    9.8 : DRILLING FLUID DENSITY
DFV .                     95 : DRILLING FLUID VISCOSITY
DFPH.                    9.5 : DRILLING FLUID PH
DFL .                    7.4 : DRILLING FLUID LOSS
RMS .OHMM               2.38 : RESISTIVITY MUD SAMPLE
MST .DEGF                 64 : MUD SAMPLE TEMPERATURE
RMF .OHMM                2.1 : RESISTIVITY MUD FILTRATE SAMPLE
MFST.DEGF                 66 : MUD FILTRATE SAMPLE TEMPERATURE
RMC .OHMM               2.32 : RESISTIVITY MUD CAKE
MCST.DEGF                 66 : MUD CAKE SAMPLE TEMPERATURE
RMB .OHMM               0.84 : RESISTIVITY MUD AT BHT
TCS .HRS                   6 : TIME CIRCULATED STOPPED
LUN .                   3534 : LOGGING UNIT NUMBER
LUL .                    V V : LOGGING UNIT LOCATION
ENGI.               CHENOSKY : RECORDING ENGINEER
WITN.                  WEISS : WITNESSED BY
CLNT.                A2DTECH : CLIENT CODE
ORIG.            2" 5" PRINT : ORIGIN OF DATA
UWI .       100043206618W500 : UNIQUE WELL ID
DICO. A2D Technologies, Inc. : DIGITIZING COMPANY
~Other -----------------------------------------------------
~ASCII -----------------------------------------------------
# ...
 8856.80000    -999.25    -999.25    -999.25    8.25200  148.42610  148.22420  -26.25550   93.32700   71.46790    8.11350    -999.25
 8857.30000    -999.25    -999.25    -999.25    7.71650  158.02840  148.99430  -26.70710   88.76500   71.42630    8.10910    -999.25
 8857.80000    -999.25    -999.25    -999.25    7.66580  167.63060  149.76440  -27.28570   88.25230   70.67000    8.10470    -999.25
 8858.30000    -999.25    -999.25    -999.25    7.26920  178.68190  149.56080  -27.83700   90.42800   69.87760    8.10030    -999.25
 8858.80000    -999.25    -999.25    -999.25    7.15570  188.13180  149.20810  -28.10840   90.41870   70.09390    8.09590    -999.25
 8859.30000    -999.25    -999.25    -999.25    7.04210  193.31810  148.17300  -28.12620   93.53830   70.62090    8.09150    -999.25
 8859.80000    -999.25    -999.25    -999.25    6.92850  190.83150  146.90580  -28.05700  101.07060   70.94120    8.08700    -999.25
 8860.30000    -999.25    -999.25    -999.25    6.90860  191.33390  145.63850  -28.06720  111.11070   71.92000    8.08260    -999.25
 8860.80000    -999.25    -999.25    -999.25    7.03280  193.15770  143.57470  -28.11860  119.46920   72.33540    8.07820    -999.25
 8861.30000    -999.25    -999.25    -999.25    7.17070  186.73320  141.02700  -28.12940  120.90180   73.22130    8.07380    -999.25
 8861.80000    -999.25    -999.25    -999.25    7.30850  178.88920  138.09160  -28.09140  115.29450   73.30290    8.06940    -999.25
 8862.30000    -999.25    -999.25    -999.25    7.44630  170.03970  134.94020  -28.07830  108.28580   73.36730    8.06500    -999.25
 8862.80000    -999.25    -999.25    -999.25    7.58420  162.60020  131.84870  -28.04870  107.43270   73.68690    8.06060    -999.25
 8863.30000    -999.25    -999.25    -999.25    7.72200  157.71670  128.24600  -27.84330  111.56890   74.28410    8.05620    -999.25
 8863.80000    -999.25    -999.25    -999.25    7.85980  152.75800  125.11760  -27.73990  110.74170   74.82920    8.05170    -999.25
 8864.30000    -999.25    -999.25    -999.25    7.99760  147.79920  122.16670  -27.74980  110.02000   75.09740    8.04730    -999.25
 8864.80000    -999.25    -999.25    -999.25    8.44240  142.84050  119.51520  -27.76940  110.28180   75.01890    8.04290    -999.25
 8865.30000    -999.25    -999.25    -999.25    8.98120  134.76740  116.55670  -27.78910  107.33240   74.09140    8.03850    -999.25
 8865.80000    -999.25    -999.25    -999.25    9.41460  126.54690  113.59810  -27.77890   98.85610   72.49360    8.03410    -999.25
 8866.30000    -999.25    -999.25    -999.25    9.84530  118.32650  110.63950  -27.89390   96.77120   70.51030    8.02970    -999.25
 8866.80000    -999.25    -999.25    -999.25   10.29060  110.21610  107.68100  -28.10450   97.53330   68.55230    8.02530    -999.25
 8867.30000    -999.25    -999.25    -999.25   10.81900  108.25720  104.72240  -28.12330   86.99190   67.12570    8.02090    -999.25
 8867.80000    -999.25    -999.25    -999.25   11.04450  106.29830  102.02060  -27.91810   76.63760   65.71080    8.01640    -999.25
 8868.30000    -999.25    -999.25    -999.25   11.24140  104.33940  100.46960  -27.72440   72.05750   65.24960    8.01200    -999.25
 8868.80000    -999.25    -999.25    -999.25   10.95540  104.61020  100.45420  -27.59250   77.83390   66.10770    8.00760    -999.25
 8869.30000    -999.25    -999.25    -999.25   11.06940  104.98100  100.50300  -27.35630   80.62660   68.71200    8.00320    -999.25
 8869.80000    -999.25    -999.25    -999.25   11.36740  105.35180  100.64960  -26.82240   84.64910   70.33720    7.99880    -999.25
 8870.30000    -999.25    -999.25    -999.25   11.21570  105.72270  101.04590  -26.12780   97.67020   72.05280    7.99440    -999.25
 8870.80000    -999.25    -999.25    -999.25   10.93660  106.09350  101.28950  -25.43350  104.65090   72.92850    7.99000    -999.25
 8871.30000    -999.25    -999.25    -999.25   10.93840  106.46430  101.57830  -24.90360  114.20050   73.03200    7.98550    -999.25
 8871.80000    -999.25    -999.25    -999.25   11.26330  106.83520  102.20760  -24.24530  110.87090   73.19120    7.98110    -999.25
 8872.30000    -999.25    -999.25    -999.25   11.32710  107.20600  102.83690  -23.76560   98.90570   72.71920    7.97670    -999.25
 8872.80000    -999.25    -999.25    -999.25   10.92850  107.57680  103.46620  -23.28130   91.17390   72.53400    7.97230    -999.25
 8873.30000    -999.25    -999.25    -999.25   10.78870  107.94770  103.91050  -22.90030   88.58940   72.41700    7.96790    -999.25
 8873.80000    -999.25    -999.25    -999.25   10.76020  109.67840  105.93170  -22.61910   90.51480   73.01270    7.96350    -999.25
 8874.30000    -999.25    -999.25    -999.25   10.86540  114.04760  108.13290  -22.32670   93.10280   73.73150    7.95910    -999.25
 8874.80000    -999.25    -999.25    -999.25   10.17230  124.13890  110.37300  -22.09580   93.66010   73.61050    7.95470    -999.25
 8875.30000    -999.25    -999.25    -999.25    9.28180  136.99260  113.43250  -21.95040   89.21330   73.18470    7.94890    -999.25
 8875.80000    -999.25    -999.25    -999.25    8.20460  164.47260  116.30860  -21.79040   89.52600   72.61280    7.94140    -999.25
 8876.30000    -999.25    -999.25    -999.25    7.12170  179.56000  119.46690  -21.63040   90.69560   72.06670    7.93390    -999.25
 8876.80000    -999.25    -999.25    -999.25    6.09480  203.51950  122.83860  -21.47030   93.63070   71.70110    7.92650    -999.25
 8877.30000    -999.25    -999.25    -999.25    5.89760  216.73560  126.49960  -21.34610   97.45510   71.76230    7.91900    -999.25
 8877.80000    -999.25    -999.25    -999.25    5.78420  237.55190  129.90450  -21.16040   97.13390   72.16790    7.91150    -999.25
 8878.30000    -999.25    -999.25    -999.25    5.12110  260.01200  132.94280  -20.95900   93.58300   72.45640    7.90400    -999.25
 8878.80000    -999.25    -999.25    -999.25    5.11120  279.37260  135.50940  -20.95930   97.41580   72.76970    7.89650    -999.25
 8879.30000    -999.25    -999.25    -999.25    5.34280  297.08100  137.51430  -20.95950  103.58990   73.16950    7.88900    -999.25
 8879.80000    -999.25    -999.25    -999.25    5.57440  309.21440  138.20220  -20.95980  104.97770   73.82840    7.88150    -999.25
 8880.30000    -999.25    -999.25    -999.25    5.80600  316.21730  138.66190  -21.15860  106.31510   74.43190    7.87540    -999.25
 8880.80000    -999.25    -999.25    -999.25    6.03760  313.17930  137.52490  -21.01580  111.09290   74.49650    7.88000    -999.25
 8881.30000    -999.25    -999.25    -999.25    6.26920  287.75560  136.28110  -21.00390  114.32000   74.39980    7.88460    -999.25
 8881.80000    -999.25    -999.25    -999.25    6.47150  261.68330  134.47750  -20.98270  116.12590   74.25170    7.88920    -999.25
 8882.30000    -999.25    -999.25    -999.25    6.64800  239.00910  132.29320  -20.89080  109.93610   74.24670    7.89380    -999.25
 8882.80000    -999.25    -999.25    -999.25    6.82450  218.57590  129.90270  -20.79120  103.34490   74.31850    7.89840    -999.25
 8883.30000    -999.25    -999.25    -999.25    7.00100  209.97950  126.91900  -20.75610   98.44950   74.45880    7.90310    -999.25
 8883.80000    -999.25    -999.25    -999.25    7.17750  196.98480  123.68760  -20.75610  100.85800   74.59900    7.90770    -999.25
 8884.30000    -999.25    -999.25    -999.25    7.02000  182.85170  120.33440  -20.75610  104.28230   75.10210    7.91230    -999.25
 8884.80000    -999.25    -999.25    -999.25    6.58700  163.52550  116.72500  -20.75610  106.20020   75.66800    7.91690    -999.25
 8885.30000    -999.25    -999.25    -999.25    7.54530  143.21280  112.95410  -20.75610  111.23050   75.73230    7.92150    -999.25
 8885.80000    -999.25    -999.25    -999.25    8.47550  128.19970  108.76060  -20.75610  119.82870   75.83670    7.92550    -999.25
 8886.30000    -999.25    -999.25    -999.25    9.08740  112.76580  104.14410  -20.85210  120.11910   75.97250    7.92690    -999.25
 8886.80000    -999.25    -999.25    -999.25   10.31560   98.75070   99.52760  -20.84680  116.65880   75.94980    7.92820    -999.25
