~Version ---------------------------------------------------
VERS.      2.0 : CWLS log ASCII Standard -VERSION 2.0
WRAP.       NO : One line per depth step
CREA. 07/01/13 : LAS Creation Date
~Well ------------------------------------------------------
STRT.M                         350.0 : START DEPTH
STOP.M                        2450.0 : STOP DEPTH
STEP.M                      50.00000 : STEP LENGTH
NULL.                        -999.25 : NULL VALUE
COMP.     MURPHY OIL COMPANY LIMITED : COMPANY
WELL. MURPHY ET AL THREEHCK 8-34-34- : WELL
FLD .                                : FIELD
LOC .                                : LOCATION
CTRY.                         CANADA : COUNTRY
SRVC.                        Unknown : SERVICE COMPANY
DATE.                    27-May-1984 : LOGDATE
PROV.                        Alberta : PROVINCE
UWI .               100083403425W400 : UNIQUE WELL ID
SLAT.WGS84                  51.95936 : SURFACE LATITUDE
SLON.WGS84                 -113.4571 : SURFACE LONGITUDE
~Curve Information -----------------------------------------
DEPT    .M      : DEPTH METER
CALDED  .MM     : CALIPER FROM DENSITY LOG [ADJ. TO RESISTIVITY LOG]
CALSED  .MM     : CALIPER FROM SONIC LOG
CALWS   .MM     : CALIPER [CALDED]
CILDED  .MMHO   : CONDUCTIVITY FROM RESISTIVITY LOG
CONDWS  .MMHO   : CONDUCTIVITY [1000/DRESWS]
DCORWS  .KG/M3  : DENSITY CORRECTION [DRHOED]
DENWS   .KG/M3  : FORMATION BULK DENSITY [CALC FROM DPOLSWS, M=2710,F=1000]
DPHILSED.V/V    : DENSITY POROSITY LIMESTONE [M=2710, F=1000] FROM DENSITY LOG [ADJ. TO RESISTIVITY LOG]
DPHISSED.V/V    : DENSITY POROSITY SANDSTONE [M=2650, F=1000] FROM DENSITY LOG [ADJ. TO RESISTIVITY LOG]
DPOLSWS .V/V    : DENSITY POROSITY LIMESTONE [DPHISSED MATRIX CONVERTED TO LS & SPL TO DPHILSED @ 1764M]
DRESWS  .OHMM   : DEEP RESISTIVITY [1000/CILDED IF ILDED <=2, ILDED & SPL TO ILDED @ 1145M]
DRHOED  .KG/M3  : DENSITY CORRECTION FROM DENSITY LOG [ADJ. TO RESISTIVITY LOG]
DTED    .US/M   : DELTA TIME FROM SONIC LOG
DTWS    .US/M   : COMPRESSIONAL SONIC [DTED]
GRDED   .GAPI   : GAMMA RAY FROM DENSITY LOG [ADJ. TO RESISTIVITY LOG]
GRSED   .GAPI   : GAMMA RAY FROM SONIC LOG
GRWS    .GAPI   : GAMMA RAY [GRSED SPL TO GRDED @ 2451.5M]
ILDED   .OHMM   : DEEP INDUCTION RESISTIVITY FROM RESISTIVITY LOG
ILMED   .OHMM   : MEDIUM INDUCTION RESISTIVITY FROM RESISTIVITY LOG
LAED    .MM     : LONG AXIS ULTRASONIC CALIPER FROM DENSITY LOG [ADJ. TO RESISTIVITY LOG]
MRESWS  .OHMM   : MEDIUM RESISTIVITY [ILMED]
NPHILSED.V/V    : NEUTRON POROSITY LIMESTONE FROM DENSITY LOG [ADJ. TO RESISTIVITY LOG]
NPHISSED.V/V    : NEUTRON POROSITY SANDSTONE FROM DENSITY LOG [ADJ. TO RESISTIVITY LOG]
NPOLSWS .V/V    : NEUTRON POROSITY LIMESTONE [NPHISSED MATRIX CONVERTED TO LS & SPL TO NPHILSED @ 1716M]
PEFED   .B/E    : PHOTOELECTRIC FACTOR FROM DENSITY LOG [ADJ. TO RESISTIVITY LOG]
PEFWS   .B/E    : PHOTOELECTRIC FACTOR [PEFED]
RHOBED  .KG/M3  : BULK DENSITY FROM DENSITY LOG [ADJ. TO RESISTIVITY LOG]
SFLUED  .OHMM   : SPHERICALLY FOCUSED LOG RESISTIVITY FROM RESISTIVITY LOG
SPRED   .MV     : SPONTANEOUS POTENTIAL FROM RESISTIVITY LOG
SPWS    .MV     : SPONTANEOUS POTENTIAL [BASELINE 0 MV, SPRED]
SRESWS  .OHMM   : SHALLOW RESISTIVITY [SFLUED]
TENDED  .N      : TENSION FROM DENSITY LOG [ADJ. TO RESISTIVITY LOG]
TENSED  .N      : TENSION FROM SONIC LOG
~Params ----------------------------------------------------
PD  .                         GL : PERMANENT DATUM
EPD .M                    938.51 : ELEVATION PERMANENT DATUM
LMF .                         KB : LOG MEASURED FROM
DAPD.M                      5.45 : FEET ABOVE PERMANENT DATUM
DMF .                         KB : DRILLING MEASURED FROM
EKB .M                    943.96 : KELLY BUSHING
EDF .M                    943.66 : DRILLING FLOOR
EGL .M                    938.51 : GROUND LEVEL
DATE.                   05/27/84 : RUN DATE
RUN .                          1 : RUN NUMBER
DD  .M                      2471 : DEPTH DRILLER
DL  .M                    2471.2 : DEPTH LOGGER
BLI .M                    2469.3 : BOTTOM LOG INTERVAL
TLI .M                       381 : TOP LOG INTERVAL
CS  .MM                      219 : CASING SIZE
CBD .M                       381 : CASING BOTTOM DRILLER
CBL .M                       381 : CASING BOTTOM LOGGER
BS  .MM                      200 : BIT SIZE
BSD .M                      2471 : BIT SIZE AT DEPTH
DFT .                   GEL CHEM : DRILLING FLUID TYPE
DFD .                       1170 : DRILLING FLUID DENSITY
DFV .                        115 : DRILLING FLUID VISCOSITY
DFPH.                       11.5 : DRILLING FLUID PH
DFL .                        7.5 : DRILLING FLUID LOSS
MSS .                   FLOWLINE : MUD SAMPLE SOURCE
RMS .OHMM                  0.538 : RESISTIVITY MUD SAMPLE
MST .DEGC                   22.2 : MUD SAMPLE TEMPERATURE
RMF .OHMM                  0.395 : RESISTIVITY MUD FILTRATE SAMPLE
MFST.DEGC                   22.2 : MUD FILTRATE SAMPLE TEMPERATURE
RMC .OHMM                  0.199 : RESISTIVITY MUD CAKE
MCST.DEGC                     65 : MUD CAKE SAMPLE TEMPERATURE
MFSS.                     FILTER : MUD FILTRATE SAMPLE SOURCE
RMB .OHMM                  0.272 : RESISTIVITY MUD AT BHT
TCS .HRS                    1100 : TIME CIRCULATED STOPPED
TLAB.HRS                    1500 : TIME LOGGER AT BOTTOM
LUN .                       8059 : LOGGING UNIT NUMBER
LUL .                         RD : LOGGING UNIT LOCATION
ENGI.                     ROBERT : RECORDING ENGINEER
WITN.                     PLAYER : WITNESSED BY
CLNT.                    A2DTECH : CLIENT CODE
ORIG. 6.5"/100M 16.5"/100M PRINT : ORIGIN OF DATA
UWI .           100083403425W400 : UNIQUE WELL ID
DICO.     A2D Technologies, Inc. : DIGITIZING COMPANY
~Other -----------------------------------------------------
DIL-SFL-BHC RUN IN COMBO & CNL-LDT LOG RUN
CILD,ILD,SFLU,SPR FROM TOP TO 1305M AND RHOB & DRHO FROM SMALL SCALE LOG
NEUTRON CONVERSION[SS TO LS]: SCHLUMBERGER & DESCRIPTION: CNL(NPHI)
~ASCII -----------------------------------------------------
  350.00000    -999.25    -999.25    -999.25    -999.25    -999.25    -999.25    -999.25    -999.25    -999.25    -999.25    -999.25    -999.25    -999.25    -999.25    -999.25   66.04400   66.04400    -999.25    -999.25    -999.25    -999.25    -999.25    -999.25    -999.25    -999.25    -999.25    -999.25    -999.25    -999.25    -999.25    -999.25    -999.25    -999.25
  400.00000  266.79950  234.52460  266.79950  375.71990  362.88420   70.54180 2424.77500    -999.25    0.13650    0.16680    2.75570   70.54180  299.58090  299.58090   75.11280   75.51010   75.51010    2.75570    -999.25  219.26300    -999.25    -999.25    0.29870    0.25470    2.41280    2.41280 2440.95730    2.50820  -66.97490    0.21570    2.50820 8271.83110 7332.19040
  450.00000  263.36260  266.99670  263.36260  328.96480  329.14230   68.43540 1933.90000    -999.25    0.43400    0.45390    3.03820   68.43540  355.68320  355.68320   79.22270   85.91070   85.91070    3.03820    -999.25  239.70650    -999.25    -999.25    0.49320    0.45150    2.22540    2.22540 1944.93360    2.66210  -63.22500    3.90440    2.66210 8780.55570 7605.65480
  500.00000  243.13620  216.97640  243.13620  457.19020  445.47400  219.24710 2383.03000    -999.25    0.16180    0.19120    2.24480  219.24710  316.85280  316.85280   69.18660   76.79250   76.79250    2.24480    -999.25  208.53990    -999.25    -999.25    0.31220    0.26830    2.38830    2.38830 2386.30520    2.01900  -64.96650    1.79420    2.01900 8915.11720 7885.10990
  550.00000  278.97320  230.45610  278.97320  425.43030  425.42330   97.59590 2199.05500    -999.25    0.27330    0.29880    2.35060   97.59590  326.28200  326.28200   83.78450   90.43730   90.43730    2.35060    -999.25  199.64300    -999.25    -999.25    0.35050    0.30690    2.43620    2.43620 2224.73680    2.11830  -65.59470    0.79730    2.11830 9246.43650 8050.62260
  600.00000  235.83170  230.02210  235.83170  303.93700  303.90520   -8.36380 2463.38500    -999.25    0.11310    0.14420    3.29050   -8.36380  294.30910  294.30910   84.99280   86.64740   86.64740    3.29050    -999.25  216.32270    -999.25    -999.25    0.33540    0.29160    2.93750    2.93750 2458.38940    2.68600  -62.17370    3.84970    2.68600 9400.35740 8470.30180
  650.00000  245.46950  228.37350  245.46950  453.07050  453.06270  206.25430 2375.60500    -999.25    0.16630    0.19560    2.20720  206.25430  302.46060  302.46060   87.83430   91.76730   91.76730    2.20720    -999.25  202.11980    -999.25    -999.25    0.32430    0.28040    2.17080    2.17080 2377.06590    2.05820  -64.04540    1.60930    2.05820 9420.22950 8711.88870
  700.00000  232.68270  217.85660  232.68270  446.04830  445.97070   12.57950 2376.26500    -999.25    0.16590    0.19520    2.24230   12.57950  299.14430  299.14430   99.46580   93.31970   93.31970    2.24230    -999.25  207.18660    -999.25    -999.25    0.33610    0.29230    2.33060    2.33060 2379.75660    2.39130  -62.70440    2.58160    2.39130 10089.04490 8942.30080
  750.00000  196.26540  195.44920  196.26540  269.82170  269.79630  -29.10500 2276.27500    -999.25    0.22650    0.25360    3.70650  -29.10500  299.54890  299.54890   50.46980   57.22980   57.22980    3.70650    -999.25  199.95180    -999.25    -999.25    0.31650    0.27260    2.39740    2.39740 2277.69970    3.26230  -56.68060    9.09440    3.26230 9748.58400 9204.11040
  800.00000  208.35600  205.70530  208.35600  243.40100  243.43340   -5.88670 2412.56500    -999.25    0.14390    0.17390    4.10790   -5.88670  275.14940  275.14940   51.30460   58.57020   58.57020    4.10790    -999.25  193.52780    -999.25    -999.25    0.29970    0.25570    2.53630    2.53630 2417.01930    3.45090  -56.39730   10.50840    3.45090 10301.95020 9275.11230
  850.00000  205.44910  214.11380  205.44910  269.77310  266.75910   34.25740 2496.88000    -999.25    0.09280    0.12460    3.74870   34.25740  302.36280  302.36280   71.28040   75.94460   75.94460    3.74870    -999.25  217.18230    -999.25    -999.25    0.36990    0.32650    2.37150    2.37150 2498.18600    3.64930  -58.08900    9.94740    3.64930 10633.58980 9694.21480
  900.00000  193.60360  202.30230  193.60360  209.54660  211.56860   15.33430 2488.79500    -999.25    0.09770    0.12940    4.72660   15.33430  238.01450  238.01450   39.46760   42.76040   42.76040    4.72660    -999.25  204.72980    -999.25    -999.25    0.28690    0.24290    2.69370    2.69370 2492.68920    5.74360  -62.39000    6.77710    5.74360 10743.14750 10018.22560
  950.00000  205.09480  226.76090  205.09480  683.94460  683.94460   55.04680 2337.65500    -999.25    0.18930    0.21770    1.46210   55.04680  305.97970  305.97970   80.98080   72.67620   72.67620    1.37690    -999.25  227.41150    -999.25    -999.25    0.40970    0.36700    2.59290    2.59290 2349.84130    1.59640  -66.12230    4.17560    1.59640 11257.39360 10288.09180
 1000.00000  257.81910  226.51410  257.81910  476.58730  476.57630   17.92130 2380.55500    -999.25    0.16330    0.19270    2.09830   17.92130  315.81820  315.81820   69.38580   77.58750   77.58750    2.09830    -999.25  222.87420    -999.25    -999.25    0.37970    0.33650    2.79420    2.79420 2385.07400    2.72540  -69.72270    1.63900    2.72540 11253.65720 10425.90430
 1050.00000  203.05070  234.37040  203.05070  339.20590  288.85040  120.24230 2381.54500    -999.25    0.16270    0.19210    3.46200  120.24230  274.18660  274.18660   89.10540   99.03330   99.03330    3.46200    -999.25  290.03410    -999.25    -999.25    0.35060    0.30700    2.45480    2.45480 2382.62570    2.98660  -37.40230   34.42110    2.98660 11441.92770 10691.03910
 1100.00000  201.93770  224.88560  201.93770  320.26970  326.20040   59.91770 2511.56500    -999.25    0.08390    0.11600    3.06560   59.91770  297.21190  297.21190  116.62260  126.52510  126.52510    3.06560    -999.25  230.75060    -999.25    -999.25    0.37530    0.33200    2.74870    2.74870 2515.85500    3.61680  -63.35820    8.92700    3.61680 11730.94430 10843.01760
 1150.00000  224.83290  225.59100  224.83290    -999.25  236.57440   47.40390 2564.20000    -999.25    0.05200    0.08530    4.22700   47.40390  301.62190  301.62190  112.88950  134.42970  134.42970    4.22700    3.88560  211.50330    3.88560    -999.25    0.39210    0.34910    3.02130    3.02130 2567.80980    3.65620  -61.49480   11.25210    3.65620 11872.71780 11322.96090
 1200.00000  222.86630  222.92840  222.86630    -999.25  359.81580   49.28110 2553.97000    -999.25    0.05820    0.09120    2.77920   49.28110  262.52540  262.52540  102.48140  114.70380  114.70380    2.77920    2.61250  202.80870    2.61250    -999.25    0.25140    0.20750    2.58550    2.58550 2552.93920    2.55650  -25.95070   47.25790    2.55650 12272.44820 11408.28810
 1250.00000  274.41630  234.95380  274.41630    -999.25  235.29410  111.20600 2484.01000    -999.25    0.10060    0.13220    4.25000  111.20600  271.82790  271.82790  105.39100  116.77770  116.77770    4.25000    3.94550  209.01550    3.94550    -999.25    0.30510    0.26110    2.81330    2.81330 2487.63570    4.10480  -54.82880   18.84160    4.10480 12391.11430 11606.11620
 1300.00000  265.42790  221.90190  265.42790  733.87510  801.47470  163.02490 2601.82000    -999.25    0.02920    0.06330    1.24770  163.02490  245.12890  245.12890  102.76910  100.84170  100.84170    1.24770    -999.25  175.49940    -999.25    -999.25    0.21530    0.17170    2.60040    2.60040 2597.84010    1.54520  -67.69600    6.43610    1.54520 12698.90630 11908.66310
 1350.00000  229.99000  229.06530  229.99000    -999.25  364.56430  151.34430 2479.88500    -999.25    0.10310    0.13460    2.74300  151.34430  269.18460  269.18460  120.58570  133.14320  133.14320    2.74300    9.26070  213.27120    9.26070    -999.25    0.30190    0.25790    2.47940    2.47940 2468.48750    2.86480  -68.79420    5.86970    2.86480 13035.71580 11967.43160
 1400.00000  209.13270  215.19270  209.13270    -999.25  305.15720  -31.63680 2576.41000    -999.25    0.04460    0.07810    3.27700  -31.63680  274.52390  274.52390  144.44310  150.22920  150.22920    3.27700    3.21380  228.23150    3.21380    -999.25    0.31330    0.26940    3.11460    3.11460 2576.76900    3.51440  -67.03530    8.26540    3.51440 12999.49220 12330.52830
