~Version ---------------------------------------------------
VERS.      2.0 : CWLS log ASCII Standard -VERSION 2.0
WRAP.       NO : One line per depth step
CREA. 08/02/17 : LAS Creation Date
~Well ------------------------------------------------------
STRT.FT                        1050.0 : START DEPTH
STOP.FT                       10700.0 : STOP DEPTH
STEP.FT                      50.00000 : STEP LENGTH
NULL.                         -999.25 : NULL VALUE
COMP.            CHEVRON STANDARD LTD : COMPANY
WELL. CHEVRON GULF KAYBOBS 13-8-63-20 : WELL
FLD .                                 : FIELD
LOC .                                 : LOCATION
CTRY.                          CANADA : COUNTRY
SRVC.                    Schlumberger : SERVICE COMPANY
DATE.                     07-Dec-1977 : LOGDATE
PROV.                         Alberta : PROVINCE
UWI .                100130806320W500 : UNIQUE WELL ID
SLAT.WGS84                   54.44033 : SURFACE LATITUDE
SLON.WGS84                   -116.995 : SURFACE LONGITUDE
~Curve Information -----------------------------------------
DEPT    .FT    : Depth Curve
C13ED   .IN    : CALIPER 1-3 PAD ELECTRODE
C24ED   .IN    : CALIPER 2-4 PAD ELECTRODE
CALDED  .IN    : CALIPER FROM DENSITY LOG
CALSED  .IN    : CALIPER FROM SONIC LOG
CALWS   .IN    : CALIPER [CALSED]
CONDWS  .MMHO  : CONDUCTIVITY [1000/DRESWS]
DCORWS  .G/C3  : DENSITY CORRECTION [DRHOED]
DENWS   .G/C3  : BULK DENSITY [RHOBED]
DPHILSED.V/V   : DENSITY POROSITY [M=2.71 F=1.00] FROM DENSITY LOG
DPHISSED.V/V   : DENSITY POROSITY [M=2.65 F=1.00] FROM DENSITY LOG
DPOLSWS .V/V   : DENSITY POROSITY LIMESTONE  {CALCUKLATED FROM RHOBED]
DRESWS  .OHMM  : DEEP RESISTIVITY [ILDED]
DRHOED  .G/C3  : DENSITY CORRECTION FROM DENSITY LOG
DTED    .US/F  : DELTA TIME FROM SONIC LOG
DTWS    .US/F  : DELTA TIME [DTED]
GRDED   .GAPI  : GAMMA RAY FROM DENSITY LOG
GRSED   .GAPI  : GAMMA RAY FROM SONIC LOG
GRWS    .GAPI  : GAMMA RAY [GRSED]
ILDED   .OHMM  : INDUCTION LOG DEEP RESISTIVITY
ILMED   .OHMM  : INDUCTION LOG MEDIUM RESISTIVITY
LL8ED   .OHMM  : 8 INCH LATEROLOG RESISTIVITY
MRESWS  .OHMM  : MEDIUM RESISTIVITY [ILMED]
NPHILSED.V/V   : NEUTRON POROSITY LIMESTONE FROM DENSITY LOG
NPHISSED.V/V   : NEUTRON POROSITY SANDSTONE FROM DENSITY LOG
NPOLSWS .V/V   : NEUTRON POROSITY LIMESTONE [NPHILSED], SPLICED WITH CONVERTED MATRIX FROM SANDSTONE TO LIMESTONE FROM 2180'-6857'
RHOBED  .G/C3  : BULK DENSITY FROM DENSITY LOG
SPRED   .MV    : SPONTANEOUS POTENTIAL FROM RESISTIVITY LOG
SPWS    .MV    : SPONTANEOUS POTENTIAL [BASELINE 0 MV] [SPRED]
SRESWS  .OHMM  : SHALLOW RESISTIVITY [LL8ED]
TENDED  .LBF   : TENSION FROM DENSITY LOG
TENSED  .LBF   : TENSION FROM SONIC LOG
~Params ----------------------------------------------------
PD  .                     GL : PERMANENT DATUM
EPD .FT               2595.6 : ELEVATION PERMANENT DATUM
LMF .                     KB : LOG MEASURED FROM
DAPD.FT                 17.4 : FEET ABOVE PERMANENT DATUM
EKB .FT                 2613 : KELLY BUSHING
EGL .FT               2595.6 : GROUND LEVEL
DATE.               01/05/77 : RUN DATE
RUN .                      2 : RUN NUMBER
DD  .FT                10720 : DEPTH DRILLER
DL  .FT                10709 : DEPTH LOGGER
BLI .FT                10706 : BOTTOM LOG INTERVAL
TLI .FT                 6500 : TOP LOG INTERVAL
CBD .FT                 1090 : CASING BOTTOM DRILLER
CBL .FT                 1091 : CASING BOTTOM LOGGER
BS  .IN                 8.75 : BIT SIZE
BSD .FT                10720 : BIT SIZE AT DEPTH
DFT .         FGM MLGARD OIL : DRILLING FLUID TYPE
DFD .                    9.2 : DRILLING FLUID DENSITY
DFV .                     80 : DRILLING FLUID VISCOSITY
DFPH.                   10.5 : DRILLING FLUID PH
MSS .               FLOWLINE : MUD SAMPLE SOURCE
RMS .OHMM               1.43 : RESISTIVITY MUD SAMPLE
MST .DEGF                 70 : MUD SAMPLE TEMPERATURE
RMF .OHMM               1.08 : RESISTIVITY MUD FILTRATE SAMPLE
MFST.DEGF                 74 : MUD FILTRATE SAMPLE TEMPERATURE
LUN .                   7800 : LOGGING UNIT NUMBER
LUL .                    EDM : LOGGING UNIT LOCATION
ENGI.               FEINGOLD : RECORDING ENGINEER
WITN.             RICHARDSON : WITNESSED BY
CLNT.                A2DTECH : CLIENT CODE
ORIG.            2" 5" PRINT : ORIGIN OF DATA
UWI .       100130806320W500 : UNIQUE WELL ID
DICO. A2D Technologies, Inc. : DIGITIZING COMPANY
~Other -----------------------------------------------------
~ASCII -----------------------------------------------------
# ...
 6800.00000    8.60700    8.41740    8.91900    9.07660    9.07660   49.03330    0.03500    2.69810    -999.25   -0.04030    0.00700   20.39430    0.03500   59.67200   59.67200   85.46090   76.60330   76.60330   20.39430   22.53780   29.70220   22.53780    -999.25    0.10900    0.06990    2.69810  -55.20500  -59.10160   29.70220 1950.44180 5516.60610
 6850.00000    8.63180    8.83440    8.92320    9.15720    9.15720   26.56740    0.00520    2.67460    0.00870    -999.25    0.02070   37.64000    0.00520   60.29820   60.29820   91.53110   83.08280   83.08280   37.64000   41.59070   46.56450   41.59070    0.07070    -999.25    0.05390    2.67460  -43.28660  -47.28630   46.56450 1987.65560 5642.06130
 6900.00000    8.29560    8.85300   10.22760    9.27170    9.27170   33.11540    0.25020    2.55110    0.05920    -999.25    0.09290   30.19740    0.25020   50.66800   50.66800   50.80470   32.90790   32.90790   30.19740   34.71330   34.66900   34.71330    0.08210    -999.25    0.08210    2.55110 -113.26930 -117.37100   34.66900 1962.49040 5756.44040
 6950.00000    -999.25    -999.25   10.86200    9.18410    9.18410   16.69790    0.05360    2.72720    0.03270    -999.25   -0.01010   59.91460    0.05360   48.38240   48.38240   22.05590   22.69610   22.69610   59.91460   66.10500  106.59900   66.10500    0.07250    -999.25    0.07250    2.72720 -126.53290 -130.73760  106.59900 5475.02780 5736.88550
 7000.00000    -999.25    -999.25   14.20030    9.44240    9.44240   62.09560    0.18060    2.26720    0.24190    -999.25    0.25890   16.10420    0.18060   56.07860   56.07860   23.31770   26.02610   26.02610   16.10420   17.50830   38.29400   17.50830    0.15960    -999.25    0.15960    2.26720 -173.84570 -178.15250   38.29400 5469.70970 5945.44550
 7050.00000    -999.25    -999.25   15.47030    9.55920    9.55920    6.72830    0.24220    2.23870    0.26280    -999.25    0.27560  148.62680    0.24220   50.98530   50.98530   18.59920   18.99440   18.99440  148.62680  172.80640  746.21300  172.80640    0.00930    -999.25    0.00930    2.23870  -94.46160  -98.87090  746.21300 6193.26840 6022.97210
 7100.00000    -999.25    -999.25    9.81320    9.14270    9.14270   11.24890    0.00010    2.70440   -0.01620    -999.25    0.00330   88.91040    0.00010   54.45910   54.45910   39.50950   38.54930   38.54930   88.91040   94.49660  121.22200   94.49660    0.01760    -999.25    0.01760    2.70440  -64.60680  -69.11910  121.22200 6400.41280 3933.28900
 7150.00000    -999.25    -999.25   10.06370    9.31530    9.31530   20.08460   -0.01320    2.69870   -0.01180    -999.25    0.00660   49.78940   -0.01320   56.41720   56.41720   55.46260   55.50200   55.50200   49.78940   53.93730   96.23350   53.93730    0.03340    -999.25    0.03340    2.69870  -53.84920  -58.46360   96.23350 6752.76800 4108.58560
 7200.00000    -999.25    -999.25   10.10240    9.18850    9.18850   42.33260    0.00780    2.73130   -0.02200    -999.25   -0.01250   23.64050    0.00780   57.09490   57.09490   57.56130   61.93290   61.93290   23.64050   28.98450   38.52490   28.98450    0.06550    -999.25    0.06550    2.73130  -99.39820 -104.11570   38.52490 7009.51520 4232.23970
 7250.00000    -999.25    -999.25   10.12760    9.39820    9.39820   31.74640    0.14450    2.75020   -0.01170    -999.25   -0.02350   31.49960    0.14450   56.77180   56.77180   43.95290   47.00000   47.00000   31.49960   41.85330   97.29560   41.85330    0.06690    -999.25    0.06690    2.75020  -84.78880  -89.60830   97.29560 7036.63630 4336.67270
 7300.00000    -999.25    -999.25   10.28000    9.30310    9.30310   43.95410    0.01940    2.73990   -0.01170    -999.25   -0.01750   22.75100    0.01940   55.41090   55.41090   44.11010   46.79660   46.79660   22.75100   26.70010   30.02120   26.70010    0.04640    -999.25    0.04640    2.73990  -62.73660  -67.65870   30.02120 7413.42980 4445.36570
 7350.00000    -999.25    -999.25   12.42360    9.69090    9.69090    0.75150    0.18230    2.59930    0.05240    -999.25    0.06480 1341.34880    0.18230   52.34960   52.34960   12.53830   12.17380   12.17380 1341.34880  689.56960  935.64630  689.56960    0.00430    -999.25    0.00430    2.59930 -104.96880 -109.99400  935.64630 7259.01670 4665.90770
 7400.00000    -999.25    -999.25   10.56650    9.42970    9.42970   25.19130    0.01050    2.66650    0.01580    -999.25    0.02540   39.69620    0.01050   50.05780   50.05780   14.45220   14.56380   14.56380   39.69620   62.67190  105.65120   62.67190    0.00670    -999.25    0.00670    2.66650 -102.73340 -107.86060  105.65120 7926.05760 4722.61360
 7450.00000    -999.25    -999.25   10.85330    9.46580    9.46580    5.26810    0.06710    2.69790   -0.00970    -999.25    0.00700  190.07250    0.06710   49.43760   49.43760   10.53950   11.68270   11.68270  190.07250  209.84140  244.92450  209.84140    0.00280    -999.25    0.00280    2.69790 -107.00350 -112.23370  244.92450 8179.79490 4872.82030
 7500.00000    -999.25    -999.25    9.57560    8.96020    8.96020   70.34280    0.17250    2.60710    0.00420    -999.25    0.06020   14.21610    0.17250   62.59610   62.59610   88.81030   92.86150   92.86150   14.21610   17.97200   20.42470   17.97200    0.11460    -999.25    0.11460    2.60710   -6.83710  -12.12880   20.42470 8162.02970 4947.78350
 7550.00000    -999.25    -999.25    9.52670    9.08520    9.08520  103.43400    0.00650    2.67810    0.02010    -999.25    0.01870    9.66800    0.00650   59.85540   59.85540   58.69040   57.12090   57.12090    9.66800   10.79060   11.94800   10.79060    0.13690    -999.25    0.13690    2.67810  -29.67120  -34.92060   11.94800 8324.88980 5122.37490
 7600.00000    -999.25    -999.25    -999.25    9.42510    9.42510  207.14900    -999.25    -999.25    -999.25    -999.25    -999.25    4.85910    -999.25   60.56930   60.56930    -999.25   37.83230   37.83230    4.85910    5.93520   12.48730    5.93520    -999.25    -999.25    -999.25    -999.25  -21.42740  -26.63430   12.48730    -999.25 5272.62200
 7650.00000    -999.25    -999.25    -999.25    9.99900    9.99900   18.34890    -999.25    -999.25    -999.25    -999.25    -999.25   54.49910    -999.25   54.41470   54.41470    -999.25   29.72760   29.72760   54.49910   59.83840   86.45500   59.83840    -999.25    -999.25    -999.25    -999.25   -4.75070   -9.91550   86.45500    -999.25 5306.29770
 7700.00000    -999.25    -999.25    -999.25   10.09460   10.09460    3.56610    -999.25    -999.25    -999.25    -999.25    -999.25  281.20830    -999.25   52.74570   52.74570    -999.25   14.88560   14.88560  281.20830  376.31540  158.45460  376.31540    -999.25    -999.25    -999.25    -999.25  -20.50250  -25.62470  158.45460    -999.25 5535.35830
 7750.00000    -999.25    -999.25    -999.25    9.28070    9.28070   10.62010    -999.25    -999.25    -999.25    -999.25    -999.25   94.16150    -999.25   53.19090   53.19090    -999.25   27.39070   27.39070   94.16150  105.96640  128.83040  105.96640    -999.25    -999.25    -999.25    -999.25   -8.57900  -13.65910  128.83040    -999.25 5652.14830
 7800.00000    -999.25    -999.25    -999.25    9.05710    9.05710   14.61950    -999.25    -999.25    -999.25    -999.25    -999.25   68.40170    -999.25   55.80780   55.80780    -999.25   31.12210   31.12210   68.40170   72.79470   75.93990   72.79470    -999.25    -999.25    -999.25    -999.25   -8.53880  -13.57660   75.93990    -999.25 5950.92470
 7850.00000    -999.25    -999.25    -999.25    8.76680    8.76680    5.45930    -999.25    -999.25    -999.25    -999.25    -999.25  183.73240    -999.25   54.06070   54.06070    -999.25   24.44570   24.44570  183.73240  197.69870  166.95460  197.69870    -999.25    -999.25    -999.25    -999.25  -29.26640  -34.26170  166.95460    -999.25 5960.07040
 7900.00000    -999.25    -999.25    -999.25    8.77260    8.77260    8.07030    -999.25    -999.25    -999.25    -999.25    -999.25  123.91070    -999.25   56.00480   56.00480    -999.25   44.37170   44.37170  123.91070  139.47750  128.18850  139.47750    -999.25    -999.25    -999.25    -999.25  -30.85330  -35.80640  128.18850    -999.25 3898.19770
