~Version ---------------------------------------------------
VERS.      2.0 : CWLS log ASCII Standard -VERSION 2.0
WRAP.       NO : One line per depth step
CREA. 01/04/18 : LAS Creation Date
~Well ------------------------------------------------------
STRT.FT                               300.0 : START DEPTH
STOP.FT                             11400.0 : STOP DEPTH
STEP.FT                            50.00000 : STEP LENGTH
NULL.                               -999.25 : NULL VALUE
COMP.                  CHEVRON STANDARD LTD : COMPANY
WELL. CHEVRON CLARK 14-34-58-18 10-34-58-18 : WELL
FLD .                          KAYBOB SOUTH : FIELD
LOC .                                       : LOCATION
CTRY.                                CANADA : COUNTRY
SRVC.                          Schlumberger : SERVICE COMPANY
DATE.                           26-Oct-1968 : LOGDATE
PROV.                               Alberta : PROVINCE
UWI .                      100103405818W500 : UNIQUE WELL ID
SLAT.WGS84                         54.05952 : SURFACE LATITUDE
SLON.WGS84                        -116.5853 : SURFACE LONGITUDE
~Curve Information -----------------------------------------
DEPT   .FT    : Depth Curve
CALNED .IN    : CALIPER SIDEWALL NEUTRON  LOG (ADJ TO RES.)
CALSED .IN    : CALIPER  SONIC (ADJ TO RES.)
CALWS  .IN    : CALIPER (CALSED)
CONDWS .MMHO  : CONDUCTIVITY (1000/DRESWS)
DRESWS .OHMM  : DEEP RESISTIVITY (ILDED)
DTED   .US/F  : DELTA TIME (ADJ TO RES.)
DTWS   .US/F  : DELTA TIME
GR1ED  .GAPI  : GAMMA RAY GAMMA RAY LOG (ADJ TO RES.)
GRED   .GAPI  : GAMMA RAY GAMMA RAY LOG (ADJ TO RES.)
GRSED  .GAPI  : GAMMA RAY  SONIC (ADJ TO RES.)
GRWS   .GAPI  : GAMMA RAY (GR1ED/GRSED @ 1957')
ILDED  .OHMM  : DEEP INDUCTION RESISTIVITY
ILMED  .OHMM  : MEDIUM INDUCTION RESISTIVITY
LL8ED  .OHMM  : LATEROLOG-8 RESISTIVITY
MRESWS .OHMM  : MEDIUM RESISTIVITY (ILMED)
NPODLWS.V/V   : NEUTRON POROSITY DOLOMITE (SNPDMED)
SNPDMED.V/V   : SIDEWALL NEUTRON  DOLOMITE (ADJ TO RES.)
SPRED  .MV    : Spontaneous Potential  DIL
SPWS   .MV    : SPONTANEOUS POTENTIAL BASELINE 0 MV (SPRED)
SRESWS .OHMM  : SHALLOW RESISTIVITY (LL8ED)
~Params ----------------------------------------------------
PD  .                     GL : PERMANENT DATUM
EPD .FT               3407.1 : ELEVATION PERMANENT DATUM
LMF .                     KB : LOG MEASURED FROM
DAPD.FT                 13.9 : FEET ABOVE PERMANENT DATUM
DMF .                     KB : DRILLING MEASURED FROM
EKB .FT                 3421 : KELLY BUSHING
EDF .FT                 3407 : DRILLING FLOOR
EGL .FT               3407.1 : GROUND LEVEL
DATE.               10/26/68 : RUN DATE
RUN .                      1 : RUN NUMBER
DD  .FT                11418 : DEPTH DRILLER
DL  .FT                11421 : DEPTH LOGGER
BLI .FT                11420 : BOTTOM LOG INTERVAL
TLI .FT                10900 : TOP LOG INTERVAL
CBD .FT                 2021 : CASING BOTTOM DRILLER
CBL .FT                 2021 : CASING BOTTOM LOGGER
BS  .IN                 8.75 : BIT SIZE
BSD .FT                11418 : BIT SIZE AT DEPTH
DFT .                    GEL : DRILLING FLUID TYPE
DFD .                    9.4 : DRILLING FLUID DENSITY
DFV .                    148 : DRILLING FLUID VISCOSITY
DFPH.                   11.5 : DRILLING FLUID PH
DFL .                    6.4 : DRILLING FLUID LOSS
RMS .OHMM                1.0 : RESISTIVITY MUD SAMPLE
MST .DEGF                 62 : MUD SAMPLE TEMPERATURE
RMF .OHMM               0.84 : RESISTIVITY MUD FILTRATE SAMPLE
MFST.DEGF                 70 : MUD FILTRATE SAMPLE TEMPERATURE
RMC .OHMM               1.22 : RESISTIVITY MUD CAKE
MCST.DEGF                 70 : MUD CAKE SAMPLE TEMPERATURE
TCS .HRS                 300 : TIME CIRCULATED STOPPED
LUN .                   7501 : LOGGING UNIT NUMBER
LUL .                    EDM : LOGGING UNIT LOCATION
ENGI.               STUEHMER : RECORDING ENGINEER
WITN.                HOVDEBO : WITNESSED BY
CLNT.                A2DTECH : CLIENT CODE
ORIG.        2" 5" 10" PRINT : ORIGIN OF DATA
UWI .       100103405818W500 : UNIQUE WELL ID
DICO. A2D Technologies, Inc. : DIGITIZING COMPANY
~Other -----------------------------------------------------
~ASCII -----------------------------------------------------
# ...
 7300.00000    -999.25   14.09890   14.09890   93.23400   10.72570   77.02310   77.02310   73.28380   40.97200   51.02920   51.02920   10.72570   13.89750    9.92320   13.89750    -999.25    -999.25 -101.12480   -6.16950    9.92320
 7350.00000    -999.25   10.91870   10.91870   75.53270   13.23930   74.58020   74.58020  111.73400   58.34320   77.40180   77.40180   13.23930   11.37630   13.31710   11.37630    -999.25    -999.25 -107.49000  -13.50270   13.31710
 7400.00000    -999.25    9.96520    9.96520   35.72300   27.99320   64.99340   64.99340   73.69920   36.07010   49.59260   49.59260   27.99320   27.28190   29.32140   27.28190    -999.25    -999.25 -109.70050  -16.68110   29.32140
 7450.00000    -999.25    9.81030    9.81030   35.60730   28.08410   71.66120   71.66120   83.10460   58.82550   76.04510   76.04510   28.08410   22.50590   41.32360   22.50590    -999.25    -999.25  -96.01790   -3.96640   41.32360
 7500.00000    -999.25    9.82920    9.82920   36.70630   27.24330   70.53500   70.53500   87.08060   48.46000   71.40540   71.40540   27.24330   22.72110   29.62090   22.72110    -999.25    -999.25 -112.69770  -21.61410   29.62090
 7550.00000    -999.25   10.48140   10.48140   42.23220   23.67860   70.30180   70.30180   84.25580   55.39540   72.12000   72.12000   23.67860   20.43470   24.96230   20.43470    -999.25    -999.25  -97.33190   -7.21620   24.96230
 7600.00000    -999.25   10.64320   10.64320   50.12960   19.94830   71.38600   71.38600   78.45880   47.77370   63.24030   63.24030   19.94830   17.83440   23.57430   17.83440    -999.25    -999.25  -97.09240   -8.09040   23.57430
 7650.00000    -999.25   14.01450   14.01450  105.23990    9.50210   87.64860   87.64860   80.44030   45.05110   66.18260   66.18260    9.50210    6.47220    6.83190    6.47220    -999.25    -999.25  -88.62750   -1.91770    6.83190
 7700.00000    -999.25   14.72150   14.72150  265.59720    3.76510   92.48330   92.48330   89.49990   47.38620   68.44680   68.44680    3.76510    3.47660    4.12070    3.47660    -999.25    -999.25  -90.75350   -6.33600    4.12070
 7750.00000    -999.25   11.09460   11.09460   12.70710   78.69630   90.75380   90.75380   85.68580   43.24400   67.98880   67.98880   78.69630   51.01760   18.31280   51.01760    -999.25    -999.25  -95.01260   -9.59630   18.31280
 7800.00000    -999.25    8.94820    8.94820    0.58560 1707.56580   58.87870   58.87870   38.77170   19.07150   36.77830   36.77830 1707.56580  610.80930  311.24080  610.80930    -999.25    -999.25 -104.57980  -16.54380  311.24080
 7850.00000    -999.25    9.21580    9.21580    0.58570 1707.25930   72.59790   72.59790  282.73910  202.95260  149.64950  149.64950 1707.25930  794.17070  379.67680  794.17070    -999.25    -999.25 -113.80960  -23.15380  379.67680
 7900.00000    -999.25    9.57750    9.57750   24.90670   40.14990   64.95360   64.95360   92.72220   51.37340   77.49840   77.49840   40.14990   34.88280   38.56380   34.88280    -999.25    -999.25 -116.07470  -22.79910   38.56380
 7950.00000    -999.25    8.98920    8.98920  545.07790    1.83460   74.35760   74.35760   88.55730   49.59440   27.84290   27.84290    1.83460    3.67920   12.57460    3.67920    -999.25    -999.25 -203.11600 -108.70290   12.57460
 8000.00000    -999.25    9.54500    9.54500   26.11100   38.29810   53.53170   53.53170   36.17510   17.79240   31.14040   31.14040   38.29810   34.54980   69.98320   34.54980    -999.25    -999.25 -123.07400  -29.74700   69.98320
 8050.00000    -999.25   11.43690   11.43690  103.48650    9.66310   63.50030   63.50030   42.52840   18.12530   25.63240   25.63240    9.66310    9.32960    7.74370    9.32960    -999.25    -999.25 -139.65440  -47.41350    7.74370
 8100.00000    -999.25   10.23980   10.23980    0.76050 1314.91280   55.34810   55.34810   32.19630   23.62390   27.98360   27.98360 1314.91280   96.39560  198.24270   96.39560    -999.25    -999.25 -129.55200  -38.39710  198.24270
 8150.00000    -999.25    8.91680    8.91680    6.11580  163.51210   53.46540   53.46540   63.53860   38.27810   56.50440   56.50440  163.51210  118.24000  106.42870  118.24000    -999.25    -999.25 -100.68300  -10.61420  106.42870
 8200.00000    -999.25   10.92420   10.92420   17.38560   57.51890   52.39290   52.39290   16.41920   10.48920   23.63090   23.63090   57.51890   51.37110   41.12310   51.37110    -999.25    -999.25 -166.50420  -77.52140   41.12310
 8250.00000    -999.25    9.99190    9.99190    6.23600  160.35980   51.40820   51.40820   12.13660    6.42530   23.90230   23.90230  160.35980   70.87430   77.80040   70.87430    -999.25    -999.25 -155.57870  -67.68200   77.80040
 8300.00000    -999.25    9.58180    9.58180  246.11750    4.06310   62.86940   62.86940   58.29570   34.14530   56.41140   56.41140    4.06310    3.98430    5.15440    3.98430    -999.25    -999.25 -109.93400  -23.12340    5.15440
 8350.00000    -999.25    9.13790    9.13790   81.44850   12.27770   56.01310   56.01310   55.97530   32.11820   57.95870   57.95870   12.27770   12.93600   20.58070   12.93600    -999.25    -999.25 -110.79230  -25.06770   20.58070
 8400.00000    -999.25    9.46830    9.46830   58.99670   16.95010   59.84990   59.84990   68.95390   40.77560   66.23960   66.23960   16.95010   15.79620   19.61940   15.79620    -999.25    -999.25  -93.75990   -9.98700   19.61940
 8450.00000    -999.25    9.44420    9.44420   29.08580   34.38100   58.58120   58.58120   67.19470   36.98180   54.98310   54.98310   34.38100   31.44020   36.32300   31.44020    -999.25    -999.25  -73.94860    2.07990   36.32300
 8500.00000    -999.25   10.20850   10.20850    0.58870 1698.58250   50.89450   50.89450   10.34070    4.60540   20.17150   20.17150 1698.58250  116.92020  268.58010  116.92020    -999.25    -999.25  -92.50210  -24.21810  268.58010
 8550.00000    -999.25    9.43710    9.43710   15.34270   65.17740   54.89830   54.89830   31.68690   19.45170   47.44430   47.44430   65.17740   51.32960   63.21410   51.32960    -999.25    -999.25  -76.48450  -12.33780   63.21410
 8600.00000    -999.25    9.21310    9.21310    0.91880 1088.34050   52.60320   52.60320   17.94990    9.90560   37.64460   37.64460 1088.34050  276.93770  178.19840  276.93770    -999.25    -999.25  -89.33730  -26.12910  178.19840
 8650.00000    -999.25    9.04090    9.04090    0.61940 1614.57840   52.76850   52.76850   21.49650   14.38750   41.61790   41.61790 1614.57840  234.13090  146.00670  234.13090    -999.25    -999.25  -82.86990  -20.60010  146.00670
 8700.00000    -999.25    9.30690    9.30690   10.81800   92.43820   55.08220   55.08220   42.48600   24.17850   49.09980   49.09980   92.43820   72.98260   58.96820   72.98260    -999.25    -999.25  -68.11150   -6.78020   58.96820
 8750.00000    -999.25    9.17040    9.17040   16.32020   61.27390   56.30380   56.30380   49.70320   31.57340   56.59340   56.59340   61.27390   48.66170   52.96950   48.66170    -999.25    -999.25  -66.36030   -5.96750   52.96950
 8800.00000    -999.25    8.95040    8.95040    1.52280  656.67190   57.90240   57.90240   58.35790   38.02930   59.78890   59.78890  656.67190  145.61570  175.93080  145.61570    -999.25    -999.25  -66.43860   -6.98430  175.93080
 8850.00000    -999.25    8.74750    8.74750    7.44030  134.40400   56.64010   56.64010   61.37930   30.25860   45.27220   45.27220  134.40400   84.94080   71.13830   84.94080    -999.25    -999.25  -88.17810  -29.32780   71.13830
 8900.00000    -999.25    9.10910    9.10910    0.59140 1690.91980   51.96730   51.96730   40.94500   21.66890   32.74840   32.74840 1690.91980  192.53390  150.79640  192.53390    -999.25    -999.25  -92.89830  -34.39980  150.79640
 8950.00000    -999.25    9.68700    9.68700    0.53470 1870.21670   49.81170   49.81170   12.39730    9.57060   17.52440   17.52440 1870.21670  685.96650  256.23020  685.96650    -999.25    -999.25 -126.56940  -68.42270  256.23020
 9000.00000    -999.25   10.37370   10.37370    0.54180 1845.75380   50.60090   50.60090   15.04620    8.17890   14.52230   14.52230 1845.75380  308.44790  207.93630  308.44790    -999.25    -999.25 -140.09560  -82.30060  207.93630
