~Version ---------------------------------------------------
VERS.      2.0 : CWLS log ASCII Standard -VERSION 2.0
WRAP.       NO : One line per depth step
CREA. 11/17/17 : LAS Creation Date
~Well ------------------------------------------------------
STRT.FT                           1050.0 : START DEPTH
STOP.FT                           9750.0 : STOP DEPTH
STEP.FT                         50.00000 : STEP LENGTH
NULL.                            -999.25 : NULL VALUE
COMP.                TENNECO OIL COMPANY : COMPANY
WELL. TENN SUN A1 SAKWATAMAU 10-25-64-15 : WELL
FLD .                                    : FIELD
LOC .                                    : LOCATION
CTRY.                             CANADA : COUNTRY
SRVC.                       Schlumberger : SERVICE COMPANY
DATE.                        21-Feb-1963 : LOGDATE
PROV.                            Alberta : PROVINCE
UWI .                   100102506415W500 : UNIQUE WELL ID
SLAT.WGS84                      54.56867 : SURFACE LATITUDE
SLON.WGS84                     -116.1264 : SURFACE LONGITUDE
~Curve Information -----------------------------------------
DEPT  .FT    : Depth Curve
CALSED.IN    : CALIPER FROM SONIC LOG [ADJ. TO RESISTIVITY LOG]
CALWS .IN    : CALIPER [CALSED]
CILDED.MMHO  : CONDUCTIVITY FROM RESISTIVITY LOG
CONDWS.MMHO  : CONDUCTIVITY [1000/DRESWS]
DRESWS.OHMM  : DEEP RESISTIVITY [1000/CILDED IF ILDED < 1, ILDED]
DT1ED .US/F  : DELTA-T 1' SPAN FROM SONIC LOG [ADJ. TO RESISTIVITY LOG]
DTED  .US/F  : DELTA-T 3' SPAN FROM SONIC LOG [ADJ. TO RESISTIVITY LOG]
DTWS  .US/F  : COMPRESSIONAL SONIC [DTED]
GRSED .GAPI  : GAMMA RAY FROM SONIC LOG [ADJ. TO RESISTIVITY LOG]
GRWS  .GAPI  : GAMMA RAY [GRSED]
ILDED .OHMM  : DEEP INDUCTION FROM RESISTIVITY LOG
SNED  .OHMM  : SHORT NORMAL FROM RESISTIVITY LOG
SPRED .MV    : SPONTANEOUS POTENTIAL FROM RESISTIVITY LOG
SPWS  .MV    : SPONTANEOUS POTENTIAL [BASELINE 0 MV, SPRED]
SRESWS.OHMM  : SHALLOW RESISTIVITY [SNED]
~Params ----------------------------------------------------
PD  .                     GL : PERMANENT DATUM
EPD .FT              3480.18 : ELEVATION PERMANENT DATUM
LMF .                     KB : LOG MEASURED FROM
DAPD.FT                 11.6 : FEET ABOVE PERMANENT DATUM
DMF .                     KB : DRILLING MEASURED FROM
EKB .FT              3491.78 : KELLY BUSHING
EGL .FT              3490.18 : GROUND LEVEL
DATE.               02/21/63 : RUN DATE
RUN .                      1 : RUN NUMBER
DD  .FT                 9800 : DEPTH DRILLER
DL  .FT                 9804 : DEPTH LOGGER
BLI .FT                 9803 : BOTTOM LOG INTERVAL
TLI .FT                 1027 : TOP LOG INTERVAL
CBD .FT                 1024 : CASING BOTTOM DRILLER
CBL .FT                 1027 : CASING BOTTOM LOGGER
BS  .IN                 8.75 : BIT SIZE
BSD .FT                 9800 : BIT SIZE AT DEPTH
DFT .           OIL EMULSION : DRILLING FLUID TYPE
DFD .                    9.6 : DRILLING FLUID DENSITY
DFV .                     90 : DRILLING FLUID VISCOSITY
DFPH.                   10.5 : DRILLING FLUID PH
DFL .                    8.8 : DRILLING FLUID LOSS
RMS .OHMM               1.35 : RESISTIVITY MUD SAMPLE
MST .DEGF                 74 : MUD SAMPLE TEMPERATURE
RMF .OHMM              0.895 : RESISTIVITY MUD FILTRATE SAMPLE
MFST.DEGF                 74 : MUD FILTRATE SAMPLE TEMPERATURE
RMC .OHMM               1.92 : RESISTIVITY MUD CAKE
MCST.DEGF                 74 : MUD CAKE SAMPLE TEMPERATURE
RMB .OHMM              0.895 : RESISTIVITY MUD AT BHT
TCS .HRS                   3 : TIME CIRCULATED STOPPED
LUN .                   1572 : LOGGING UNIT NUMBER
LUL .                    EDM : LOGGING UNIT LOCATION
ENGI.                 HAINES : RECORDING ENGINEER
WITN.                 MORGAN : WITNESSED BY
CLNT.                A2DTECH : CLIENT CODE
ORIG.            2" 5" PRINT : ORIGIN OF DATA
UWI .       100102506415W500 : UNIQUE WELL ID
DICO. A2D Technologies, Inc. : DIGITIZING COMPANY
~Other -----------------------------------------------------
IEL-BHC LOG RUN
ALL DATA VERIFY FROM TOP - 5978' & 6430' - 9114' FROM 2" SCALE LOG
~ASCII -----------------------------------------------------
# ...
 7950.00000   10.50910   10.50910   13.94750   11.83120   84.52260    -999.25   49.05930   49.05930   24.07210   24.07210   84.52260   76.97020 -125.94570 -102.06440   76.97020
 8000.00000   10.95890   10.95890   15.31490   20.56810   48.61890    -999.25   52.59910   52.59910   25.13390   25.13390   48.61890   43.25460 -100.79130  -77.47610   43.25460
 8050.00000   10.42490   10.42490   57.67240   54.20910   18.44710    -999.25   55.36330   55.36330   32.68390   32.68390   18.44710   23.53280  -87.42390  -64.67190   23.53280
 8100.00000   11.06610   11.06610   12.22330   10.52550   95.00710    -999.25   52.37000   52.37000   38.91920   38.91920   95.00710   61.40950  -41.95390  -19.77070   61.40950
 8150.00000   12.25500   12.25500   36.27260   33.60070   29.81620    -999.25   57.03450   57.03450   42.91810   42.91810   29.81620   28.22180  -27.58810   -5.74960   28.22180
 8200.00000   11.46790   11.46790   38.14590   34.16890   29.26640    -999.25   58.90470   58.90470   51.13050   51.13050   29.26640   29.84060  -26.12560   -4.46740   29.84060
 8250.00000   11.40540   11.40540   76.19880   69.47190   14.39430    -999.25   62.86910   62.86910   65.57920   65.57920   14.39430   16.96310  -27.94360   -6.46480   16.96310
 8300.00000   15.76000   15.76000  227.10710  202.84230    4.92990    -999.25   76.32590   76.32590   98.76270   98.76270    4.92990    4.97860  -30.04490   -8.74450    4.97860
 8350.00000   13.82110   13.82110  159.58620  146.66630    6.81820    -999.25   69.39310   69.39310   77.11890   77.11890    6.81820    7.55890  -22.55630   -1.43620    7.55890
 8400.00000   12.13990   12.13990   82.35850   75.91590   13.17370    -999.25   63.79450   63.79450   64.56850   64.56850   13.17370   14.83290  -25.10290   -4.16130   14.83290
 8450.00000   12.34330   12.34330  121.25660  113.74620    8.79150    -999.25   67.86980   67.86980   67.06080   67.06080    8.79150   11.13990  -26.41770   -5.65640   11.13990
 8500.00000   12.59480   12.59480  124.07560  116.00390    8.62040    -999.25   75.12260   75.12260   89.08360   89.08360    8.62040    9.56320  -29.79720   -9.21530    9.56320
 8550.00000   12.04810   12.04810  108.55840   98.73880   10.12970    -999.25   66.98490   66.98490   62.69490   62.69490   10.12970   11.84250  -24.88550   -4.48210   11.84250
 8600.00000   11.28880   11.28880   32.33550   33.71500   29.66040    -999.25   55.91540   55.91540   37.09540   37.09540   29.66040   19.31340  -35.34720  -15.12400   19.31340
 8650.00000   16.07010   16.07010  273.41320  251.61430    3.97830    -999.25  101.48410  101.48410   86.14060   86.14060    3.97830    4.91990  -37.68850  -17.64380    4.91990
 8700.00000   15.93520   15.93520  202.56640  193.37500    5.17130    -999.25   83.30330   83.30330   87.76390   87.76390    5.17130    5.89420  -27.30260   -7.43810    5.89420
 8750.00000   10.95040   10.95040   96.15730   88.86760   11.25270    -999.25   63.77440   63.77440   65.44420   65.44420   11.25270   13.78710  -26.80440   -7.11930   13.78710
 8800.00000   11.96510   11.96510  138.45090  128.33650    7.79330    -999.25   71.77230   71.77230   89.82100   89.82100    7.79330    9.63280  -32.71690  -13.21020    9.63280
 8850.00000   11.60680   11.60680  114.77190  106.24170    9.41250    -999.25   68.39640   68.39640   89.71970   89.71970    9.41250   11.68450  -30.03060  -10.70430   11.68450
 8900.00000   10.69210   10.69210   93.31840   84.47790   11.83960    -999.25   66.10770   66.10770   81.48350   81.48350   11.83960   14.27240  -36.15190  -17.00400   14.27240
 8950.00000   14.64180   14.64180  180.85880  165.83750    6.03000    -999.25   78.15250   78.15250   98.22330   98.22330    6.03000    7.41570  -48.49710  -29.52950    7.41570
 9000.00000   13.65100   13.65100  172.91790  161.12920    6.20620    -999.25   81.58930   81.58930  111.52510  111.52510    6.20620    7.78130  -50.25520  -31.46700    7.78130
 9050.00000   13.97520   13.97520  163.91690  148.59070    6.73040    -999.25   79.25660   79.25660   94.88420   94.88420    6.73040    8.02730  -46.77290  -28.16310    8.02730
 9100.00000   11.26260   11.26260  155.65400  141.54880    7.06470    -999.25   70.01250   70.01250   76.72860   76.72860    7.06470    9.21270  -39.25660  -20.82710    9.21270
 9150.00000   15.18510   15.18510  167.45660  153.45260    6.52030    -999.25  104.06240  104.06240   98.30960   98.30960    6.52030    7.88760  -47.23540  -28.98440    7.88760
 9200.00000    9.09080    9.09080    9.39680    6.98960  143.07060    -999.25   74.08010   74.08010  145.01900  145.01900  143.07060  105.64840  -21.40200   -3.19710  105.64840
 9250.00000   10.04310   10.04310   33.19130   28.39480   35.21770    -999.25   63.64860   63.64860   66.68350   66.68350   35.21770   35.19910  -25.41880   -6.68710   35.19910
 9300.00000   13.07200   13.07200  115.71070  104.42580    9.57780    -999.25   81.22870   81.22870   88.95230   88.95230    9.57780   11.95260  -38.94800  -19.69210   11.95260
 9350.00000    9.53460    9.53460   17.10620   13.33200   75.00770   59.72790   53.76460   53.76460   25.33060   25.33060   75.00770   62.33690  -25.56300   -5.77780   62.33690
 9400.00000    9.16080    9.16080    7.23540    4.04580  247.19560   51.82320   53.60200   53.60200   27.49720   27.49720  247.19560  144.11800  -35.03420  -15.01190  144.11800
 9450.00000    9.72120    9.72120   11.61860    7.24940  137.94310   49.49760   52.56830   52.56830   31.55550   31.55550  137.94310  104.41840  -93.82790  -73.80560  104.41840
 9500.00000    8.73750    8.73750    9.02680    4.45570  224.43240   49.54510   51.96100   51.96100   14.19860   14.19860  224.43240  124.55030 -127.36980 -107.34750  124.55030
 9550.00000    8.69240    8.69240   35.37720   29.28900   34.14820   50.07960   53.69840   53.69840   11.37360   11.37360   34.14820   78.62140 -173.61880 -153.59660   78.62140
 9600.00000    9.02980    9.02980    9.60740    4.98720  200.51150   51.50180   51.03360   51.03360   12.78800   12.78800  200.51150  119.61770 -109.58300  -89.56070  119.61770
 9650.00000    9.72240    9.72240    6.09090    2.00000  500.00000   57.01580   53.14500   53.14500   20.73060   20.73060  500.00000  215.61760  -89.43010  -69.40790  215.61760
 9700.00000    8.95910    8.95910    3.88420    2.00000  500.00000   49.21710   48.44200   48.44200   15.63470   15.63470  500.00000  227.20490  -78.22070  -58.19840  227.20490
 9750.00000    9.01010    9.01010    6.74820    2.00000  500.00000   45.95830   51.38020   51.38020   19.63100   19.63100  500.00000  156.39940  -64.51070  -44.48840  156.39940
