~Version ---------------------------------------------------
VERS.      2.0 : CWLS log ASCII Standard -VERSION 2.0
WRAP.       NO : One line per depth step
CREA. 09/25/17 : LAS Creation Date
~Well ------------------------------------------------------
STRT.FT                               300.0 : START DEPTH
STOP.FT                              8350.0 : STOP DEPTH
STEP.FT                            50.00000 : STEP LENGTH
NULL.                               -999.25 : NULL VALUE
COMP. CANADA CITIES SERVICE PETROLEUM CORP. : COMPANY
WELL.          CITIES SERVICE KEYSTONE 8-15 : WELL
FLD .                                       : FIELD
LOC .                                       : LOCATION
CTRY.                                CANADA : COUNTRY
SRVC.                               Unknown : SERVICE COMPANY
DATE.                           07-May-1956 : LOGDATE
PROV.                               Alberta : PROVINCE
UWI .                      100081504804W500 : UNIQUE WELL ID
SLAT.WGS84                         53.13956 : SURFACE LATITUDE
SLON.WGS84                         -114.492 : SURFACE LONGITUDE
~Curve Information -----------------------------------------
DEPT   .FT         : Depth Curve
CALMED .IN         : CALIPER FROM MICROLATEROLOG [ADJ TO SLB EL LOG]
CALWS  .IN         : CALIPER [MCALED SPL. @6414' TO CALMED]
CONDWS .MMHO       : CONDUCTIVITY [1000/DRESWS]
DRESWS .OHMM       : DEEP RESISTIVITY [LNED]
GRN1ED .UgRa-Eq/T  : GAMMA RAY FROM SLB GRN-RADIATION LOG
GRN2ED .GAPI       : GAMMA RAY FROM GRN LOG [ADJ TO SLB EL LOG]
GRNED  .UR/HR      : GAMMA RAY FROM McCULLOUGH GRN RADIATION LOG
GRWS   .GAPI       : GAMMA RAY [GRNED*10.4 SPL @ 5170' TO GRN1ED*16.50]
LAT9ED .OHMM       : LATERAL 9' FROM HLB EL LOG [ADJ TO SLB EL LOG]
LNED   .OHMM       : LONG NORMAL RESISTIVITY FROM SLB EL LOG
LT16ED .OHMM       : 16 INCH LATERAL  FROM HLB EL LOG [ADJ TO SLB EL LOG]
LT18ED .OHMM       : 18 INCH LATERAL  FROM SLB EL LOG
MCALED .IN         : CALIPER CONTACT TOOL FROM HLB EL LOG
MLLED  .OHMM       : MICRO FOCUSED LATEROLOG RESISTIVITY  FROM MICROLATEROLOG [ADJ TO SLB EL LOG]
NEUT1ED.NAPI       : NEUTRON FROM SLB GRN-RADIATION LOG
NEUT2ED.NAPI       : NEUTRON FROM GRN LOG [ADJ TO SLB EL LOG]
NEUTED .NAPI       : NEUTRON FROM McCULLOUGH GRN RADIATION LOG
NEUTWS .NAPI       : NEUTRON [NEUTED SPL @5182' TO NEUT1ED]
SN1ED  .OHMM       : SHORT NORMAL 18 INCH FROM HLB EL LOG [ADJ TO SLB EL LOG]
SNED   .OHMM       : SHORT NORMAL RESISTIVITY FROM SLB EL LOG
SPR1ED .MV         : SPONTANEOUS POTENTIAL FROM HLB EL LOG [ADJ TO SLB EL LOG]
SPRED  .MV         : SPONTANEOUS POTENTIAL FROM SLB EL LOG
SPWS   .MV         : SPONTANEOUS POTENTIAL [BASELINE 0MV, SPRED]
SRESWS .OHMM       : SHALLOW RESISTIVITY [SNED]
~Params ----------------------------------------------------
LMF .                     KB : LOG MEASURED FROM
DMF .                     KB : DRILLING MEASURED FROM
EKB .FT                 2813 : KELLY BUSHING
DATE.               05/07/56 : RUN DATE
RUN .                      1 : RUN NUMBER
DD  .FT                 8499 : DEPTH DRILLER
DL  .FT                 8499 : DEPTH LOGGER
BLI .FT                 8498 : BOTTOM LOG INTERVAL
TLI .FT                  610 : TOP LOG INTERVAL
CBL .FT                  610 : CASING BOTTOM LOGGER
BS  .IN                    9 : BIT SIZE
BSD .FT                 8499 : BIT SIZE AT DEPTH
DFT .              LIME BASE : DRILLING FLUID TYPE
DFD .                   11.1 : DRILLING FLUID DENSITY
DFV .                     98 : DRILLING FLUID VISCOSITY
DFPH.                     13 : DRILLING FLUID PH
DFL .                     48 : DRILLING FLUID LOSS
RMS .OHMM               0.72 : RESISTIVITY MUD SAMPLE
MST .DEGF                 85 : MUD SAMPLE TEMPERATURE
RMB .OHMM               0.39 : RESISTIVITY MUD AT BHT
TCS .HRS                 2.5 : TIME CIRCULATED STOPPED
LUN .                   2786 : LOGGING UNIT NUMBER
LUL .                    EDM : LOGGING UNIT LOCATION
ENGI.                 TAYLOR : RECORDING ENGINEER
WITN.              ARMSTRONG : WITNESSED BY
CLNT.                A2DTECH : CLIENT CODE
ORIG.            2" 5" PRINT : ORIGIN OF DATA
UWI .       100081504804W500 : UNIQUE WELL ID
DICO. A2D Technologies, Inc. : DIGITIZING COMPANY
~Other -----------------------------------------------------
EL-MLL-GR-NEU LOG RAN
~ASCII -----------------------------------------------------
# ...
 7550.00000    -999.25    -999.25   42.92750   23.29520    7.71420    -999.25    -999.25  127.28510    -999.25   23.29520    -999.25   25.09550    -999.25    -999.25  192.81740    -999.25    -999.25  192.81740    -999.25   16.27060    -999.25  -32.87290  -13.78120   16.27060
 7600.00000    -999.25    -999.25   46.95120   21.29870    7.45290    -999.25    -999.25  122.97280    -999.25   21.29870    -999.25   22.72590    -999.25    -999.25  177.29340    -999.25    -999.25  177.29340    -999.25   15.62060    -999.25  -32.34120  -13.62940   15.62060
 7650.00000    -999.25    -999.25   28.36840   35.25050    5.41690    -999.25    -999.25   89.37890    -999.25   35.25050    -999.25   28.33660    -999.25    -999.25  213.33500    -999.25    -999.25  213.33500    -999.25   23.50390    -999.25  -31.48280  -13.14900   23.50390
 7700.00000    -999.25    -999.25   35.81650   27.92010    6.19920    -999.25    -999.25  102.28680    -999.25   27.92010    -999.25   27.48910    -999.25    -999.25  209.03440    -999.25    -999.25  209.03440    -999.25   19.27850    -999.25  -30.89770  -12.94200   19.27850
 7750.00000    -999.25    -999.25   52.20320   19.15590    6.53380    -999.25    -999.25  107.80770    -999.25   19.15590    -999.25   20.45390    -999.25    -999.25  193.23380    -999.25    -999.25  193.23380    -999.25   15.17210    -999.25  -32.38900  -14.81130   15.17210
 7800.00000    -999.25    -999.25   38.54710   25.94280    6.56900    -999.25    -999.25  108.38930    -999.25   25.94280    -999.25   24.10270    -999.25    -999.25  199.37020    -999.25    -999.25  199.37020    -999.25   18.55890    -999.25  -31.90970  -14.70810   18.55890
 7850.00000    -999.25    -999.25   36.70140   27.24690    6.53910    -999.25    -999.25  107.89520    -999.25   27.24690    -999.25   26.44550    -999.25    -999.25  184.78420    -999.25    -999.25  184.78420    -999.25   19.19280    -999.25  -30.95570  -14.13410   19.19280
 7900.00000    -999.25    -999.25   47.18180   21.19460    6.49280    -999.25    -999.25  107.13120    -999.25   21.19460    -999.25   16.06370    -999.25    -999.25  192.26710    -999.25    -999.25  192.26710    -999.25   16.09320    -999.25  -29.31160  -12.86800   16.09320
 7950.00000    -999.25    -999.25   17.19940   58.14160    4.57600    -999.25    -999.25   75.50400    -999.25   58.14160    -999.25   37.91200    -999.25    -999.25  214.48720    -999.25    -999.25  214.48720    -999.25   31.98600    -999.25  -28.52600  -12.46050   31.98600
 8000.00000    -999.25    -999.25   16.19280   61.75590    5.15230    -999.25    -999.25   85.01300    -999.25   61.75590    -999.25   84.74510    -999.25    -999.25  217.20850    -999.25    -999.25  217.20850    -999.25   30.57770    -999.25  -25.88840  -10.20090   30.57770
 8050.00000    -999.25    -999.25    3.05520  327.31600    2.92610    -999.25    -999.25   48.27980    -999.25  327.31600    -999.25  543.43200    -999.25    -999.25  286.17170    -999.25    -999.25  286.17170    -999.25   81.76390    -999.25  -23.06270   -7.75140   81.76390
 8100.00000    -999.25    -999.25    7.56580  132.17390    6.55420    -999.25    -999.25  108.14430    -999.25  132.17390    -999.25  401.62030    -999.25    -999.25  191.65300    -999.25    -999.25  191.65300    -999.25   38.90270    -999.25  -17.43000   -2.49860   38.90270
 8150.00000    -999.25    -999.25    5.91540  169.04910    2.93270    -999.25    -999.25   48.38960    -999.25  169.04910    -999.25  221.78130    -999.25    -999.25  300.46380    -999.25    -999.25  300.46380    -999.25   57.59730    -999.25  -25.29870  -10.74540   57.59730
 8200.00000    -999.25    -999.25   29.21350   34.23080    7.54070    -999.25    -999.25  124.42160    -999.25   34.23080    -999.25  287.45650    -999.25    -999.25  173.82620    -999.25    -999.25  173.82620    -999.25   12.47780    -999.25  -30.03300  -15.76320   12.47780
 8250.00000    -999.25    -999.25  121.90660    8.20300    6.28750    -999.25    -999.25  103.74370    -999.25    8.20300    -999.25    9.48320    -999.25    -999.25  177.39010    -999.25    -999.25  177.39010    -999.25    6.81000    -999.25  -37.74940  -23.47960    6.81000
 8300.00000    -999.25    -999.25   58.21990   17.18350    7.06700    -999.25    -999.25  116.60550    -999.25   17.18350    -999.25    8.39660    -999.25    -999.25  193.32080    -999.25    -999.25  193.32080    -999.25   16.47350    -999.25  -26.80100  -12.53120   16.47350
 8350.00000    -999.25    -999.25   17.49380   57.16310    4.36160    -999.25    -999.25   71.96640    -999.25   57.16310    -999.25   61.63900    -999.25    -999.25  259.30360    -999.25    -999.25  259.30360    -999.25   32.08870    -999.25  -29.98490  -15.71510   32.08870
