~Version ---------------------------------------------------
VERS.      2.0 : CWLS log ASCII Standard -VERSION 2.0
WRAP.       NO : One line per depth step
CREA. 11/21/17 : LAS Creation Date
~Well ------------------------------------------------------
STRT.FT                             1050.0 : START DEPTH
STOP.FT                            10400.0 : STOP DEPTH
STEP.FT                           50.00000 : STEP LENGTH
NULL.                              -999.25 : NULL VALUE
COMP.               CHEVRON CANADA LIMITED : COMPANY
WELL. CHEVRON GULF ET AL FOXCK 10-21-62-18 : WELL
FLD .                                      : FIELD
LOC .                                      : LOCATION
CTRY.                               CANADA : COUNTRY
SRVC.                         Schlumberger : SERVICE COMPANY
DATE.                          28-Apr-1976 : LOGDATE
PROV.                              Alberta : PROVINCE
UWI .                     102102106218W500 : UNIQUE WELL ID
SLAT.WGS84                        54.37974 : SURFACE LATITUDE
SLON.WGS84                       -116.6321 : SURFACE LONGITUDE
~Curve Information -----------------------------------------
DEPT    .FT    : Depth Curve
CALDED  .IN    : CALIPER FROM DENSITY LOG
CALSED  .IN    : CALIPER FROM SONIC LOG
CALWS   .IN    : CALIPER [CALSED SPL. TO CALDED @ 10384']
CONDWS  .MMHO  : CONDUCTIVITY [1000/DRESWS]
DCORED  .G/C3  : DENSITY CORRECTION FROM DENSITY LOG
DCORWS  .G/C3  : DENSITY CORRECTION [DCORED]
DENWS   .G/C3  : FORMATION BULK DENSITY [RHOBED]
DPHILSED.V/V   : DENSITY POROSITY LIMESTONE [M=2.71, F=1.00] FROM DENSITY LOG
DPHISSED.V/V   : DENSITY POROSITY SANDSTONE [M=2.65, F=1.00] FROM DENSITY LOG
DPOLSWS .V/V   : DENSITY POROSITY LIMESTONE [CALC. FROM DENWS M=2.71, F=1.00]
DRESWS  .OHMM  : DEEP RESISTIVITY [ILDED]
DTED    .US/F  : DELTA-T FROM SONIC LOG
DTWS    .US/F  : COMPRESSIONAL SONIC [DTED]
GRDED   .GAPI  : GAMMA RAY FROM DENSITY LOG
GRSED   .GAPI  : GAMMA RAY FROM SONIC LOG
GRWS    .GAPI  : GAMMA RAY [GRSED SPL. TO GRDED@3031M]
ILDED   .OHMM  : DEEP INDUCTION FROM RESISTIVITY LOG
ILMED   .OHMM  : MEDIUM INDUCTION FROM RESISTIVITY LOG
LL8ED   .OHMM  : LATEROLOG-8 FROM RESISTIVITY LOG
MRESWS  .OHMM  : MEDIUM RESISTIVITY [ILMED]
NPHILSED.V/V   : NEUTRON POROSITY  SANDSTONE FROM DENSITY LOG
NPHISSED.V/V   : NEUTRON POROSITY SANDSTONE FROM DENSITY LOG
NPOLSWS .V/V   : NEUTRON POROSITY LIMESTONE [NPHISSED MATRIX CONVERSION FOR LIMESTONE, SPL. TO NPHILSED @ 6545']
RHOBED  .G/C3  : BULK DENSITY FROM DENSITY LOG
SPRED   .MV    : SPONTANEOUS POTENTIAL FROM RESISTIVITY LOG
SPWS    .MV    : SPONTANEOUS POTENTIAL [BASELINE 0 MV,SPRED]
SRESWS  .OHMM  : SHALLOW EWSISTIVITY [LL8ED]
TENDED  .LBF   : TENSION FROM DENSITY LOG
TENSED  .LBF   : TENSION FROM SONIC LOG
~Params ----------------------------------------------------
PD  .                     GL : PERMANENT DATUM
EPD .FT               2869.5 : ELEVATION PERMANENT DATUM
LMF .                     KB : LOG MEASURED FROM
DAPD.FT                 14.5 : FEET ABOVE PERMANENT DATUM
EKB .FT                 2884 : KELLY BUSHING
EGL .FT               2869.5 : GROUND LEVEL
DATE.               04/28/76 : RUN DATE
RUN .                      1 : RUN NUMBER
DD  .FT                10415 : DEPTH DRILLER
DL  .FT                10422 : DEPTH LOGGER
BLI .FT                10416 : BOTTOM LOG INTERVAL
TLI .FT                 1107 : TOP LOG INTERVAL
CBD .FT                 1108 : CASING BOTTOM DRILLER
CBL .FT                 1107 : CASING BOTTOM LOGGER
BS  .IN                 8.75 : BIT SIZE
BSD .FT                10415 : BIT SIZE AT DEPTH
DFT .               GEL CHEM : DRILLING FLUID TYPE
DFD .                    9.4 : DRILLING FLUID DENSITY
DFV .                     72 : DRILLING FLUID VISCOSITY
DFPH.                   10.5 : DRILLING FLUID PH
DFL .                   10.8 : DRILLING FLUID LOSS
MSS .             CIRCULATED : MUD SAMPLE SOURCE
RMS .OHMM               1.66 : RESISTIVITY MUD SAMPLE
MST .DEGF                 60 : MUD SAMPLE TEMPERATURE
RMF .OHMM                1.2 : RESISTIVITY MUD FILTRATE SAMPLE
MFST.DEGF                 60 : MUD FILTRATE SAMPLE TEMPERATURE
RMB .OHMM               0.52 : RESISTIVITY MUD AT BHT
TCS .HRS                 3.5 : TIME CIRCULATED STOPPED
LUN .                   7691 : LOGGING UNIT NUMBER
LUL .                    EDM : LOGGING UNIT LOCATION
ENGI.   CROCKFORD KREZANOSKI : RECORDING ENGINEER
WITN.                   WONG : WITNESSED BY
CLNT.                A2DTECH : CLIENT CODE
ORIG.            2" 5" PRINT : ORIGIN OF DATA
UWI .       102102106218W500 : UNIQUE WELL ID
DICO. A2D Technologies, Inc. : DIGITIZING COMPANY
~Other -----------------------------------------------------
DIL-LL-BHC-CNL-FDC LOG RUN
SCH.- CNL(NPHI) USED FOR NEUTRON MATRIX CONVERSION
~ASCII -----------------------------------------------------
# ...
 7300.00000    9.54860    9.19370    9.19370   11.15400    0.04200    0.04200    2.75680   -0.02900    -999.25   -0.02740   89.65400   53.33700   53.33700   31.72310   27.08380   27.08380   89.65400   96.78720  185.06330   96.78720    0.00710    -999.25    0.00710    2.75680  -55.67700  -28.01710  185.06330 2194.14760  788.44640
 7350.00000    9.44490    9.52240    9.52240    9.67050    0.00710    0.00710    2.70900    0.00490    -999.25    0.00060  103.40740   53.63190   53.63190   25.76870   26.63450   26.63450  103.40740  109.98850  169.93840  109.98850    0.00880    -999.25    0.00880    2.70900  -56.68880  -28.60560  169.93840 2546.91170  923.57340
 7400.00000    9.45560    9.40110    9.40110   10.24470    0.01400    0.01400    2.68010    0.02080    -999.25    0.01750   97.61190   52.78780   52.78780   25.70910   29.18070   29.18070   97.61190  102.00030  177.23960  102.00030    0.00640    -999.25    0.00640    2.68010  -52.30040  -23.79670  177.23960  577.24740 1223.30630
 7450.00000    9.33470    9.28260    9.28260   17.61180    0.00100    0.00100    2.66860    0.02730    -999.25    0.02420   56.78140   54.95470   54.95470   37.21820   35.54570   35.54570   56.78140   58.98730   83.62720   58.98730    0.02560    -999.25    0.02560    2.66860  -45.26320  -16.59360   83.62720  714.68650 1390.84030
 7500.00000    9.35480    9.20420    9.20420    8.24550    0.00800    0.00800    2.70380    0.00440    -999.25    0.00360  121.27780   52.84740   52.84740   27.57520   26.19090   26.19090  121.27780  141.44710  282.96690  141.44710    0.00340    -999.25    0.00340    2.70380  -51.56590  -23.11680  282.96690  998.48020 1520.31380
 7550.00000    9.23220    9.11800    9.11800    5.91110    0.01450    0.01450    2.69830    0.00150    -999.25    0.00680  169.17200   52.41930   52.41930   20.77720   21.22900   21.22900  169.17200  212.01060  385.34140  212.01060    0.00640    -999.25    0.00640    2.69830  -70.66850  -42.44010  385.34140 1451.65230 1713.78250
 7600.00000    9.19270    9.14340    9.14340   10.61400    0.02260    0.02260    2.69680    0.01180    -999.25    0.00770   94.21510   54.01970   54.01970   33.49750   34.14910   34.14910   94.21510  105.27810  192.25030  105.27810    0.01080    -999.25    0.01080    2.69680  -67.11160  -39.10520  192.25030 1878.64670  822.92260
 7650.00000    9.29570    9.13690    9.13690    4.32290   -0.00100   -0.00100    2.67490    0.01870    -999.25    0.02050  231.32730   53.37440   53.37440   50.08500   45.36160   45.36160  231.32730  294.64360  919.56210  294.64360    0.00940    -999.25    0.00940    2.67490  -82.16200  -54.37620  919.56210 2262.40420  918.51710
 7700.00000   12.63560   10.11640   10.11640    6.00570    0.17400    0.17400    2.51780    0.11630    -999.25    0.11240  166.62740   50.51970   50.51970   15.76980   18.16660   18.16660  166.62740  178.45990 1157.06460  178.45990    0.00180    -999.25    0.00180    2.51780 -113.67890  -86.11530 1157.06460 2241.82400 1088.39090
 7750.00000    9.27770    9.25920    9.25920    5.47540    0.05200    0.05200    2.58160    0.08290    -999.25    0.07510  182.63380   51.81390   51.81390    9.65500    9.33430    9.33430  182.63380  119.58690 1444.92270  119.58690   -0.00020    -999.25   -0.00020    2.58160  -96.10290  -68.75980 1444.92270  676.75760 1368.23890
 7800.00000   10.46010    9.48370    9.48370    4.27610    0.21890    0.21890    2.72100    0.00180    -999.25   -0.00640  233.85750   49.69110   49.69110   12.14420   12.31230   12.31230  233.85750  328.61140  560.59920  328.61140   -0.00520    -999.25   -0.00520    2.72100 -146.75990 -119.63740  560.59920  467.24410 1428.25610
 7850.00000   10.84650    9.58880    9.58880    5.02140    0.24450    0.24450    2.68670    0.01630    -999.25    0.01360  199.14880   50.47240   50.47240   12.30560   11.91280   11.91280  199.14880  325.82240  470.33640  325.82240   -0.00310    -999.25   -0.00310    2.68670 -130.09950 -103.19910  470.33640  975.29010 1591.85950
 7900.00000    8.37050    8.33940    8.33940    3.82130    0.12590    0.12590    2.63740    0.04140    -999.25    0.04250  261.69040   51.86140   51.86140    9.79360    9.77230    9.77230  261.69040 1351.00280  996.93590 1351.00280    0.01440    -999.25    0.01440    2.63740 -137.56180 -110.88200  996.93590  852.17970 1500.22750
 7950.00000   10.75280    9.44590    9.44590    4.62400    0.21570    0.21570    2.56640    0.08590    -999.25    0.08400  216.26240   49.67730   49.67730    8.90800    7.73020    7.73020  216.26240  338.56660  385.37420  338.56660   -0.00300    -999.25   -0.00300    2.56640 -129.38340 -102.92560  385.37420 1527.20350 1886.60080
 8000.00000   10.92990    9.50760    9.50760    4.05040    0.24730    0.24730    2.49620    0.13020    -999.25    0.12500  246.89050   49.75810   49.75810   10.14590   10.83880   10.83880  246.89050  276.46070  282.73680  276.46070    0.00070    -999.25    0.00070    2.49620 -122.05220  -95.81510  282.73680 1920.88760 1093.00860
 8050.00000   11.58260    9.85280    9.85280    4.22510    0.14710    0.14710    2.50090    0.12940    -999.25    0.12230  236.68100   51.00860   51.00860    8.30800    8.42590    8.42590  236.68100  164.39540  334.36840  164.39540    0.00120    -999.25    0.00120    2.50090 -133.91600 -107.89950  334.36840 1082.02450  999.65560
 8100.00000   10.78450    9.62410    9.62410    6.32210    0.23000    0.23000    2.64140    0.03630    -999.25    0.04010  158.17610   52.45530   52.45530    9.81150    8.08360    8.08360  158.17610  132.03780  200.43180  132.03780    0.00850    -999.25    0.00850    2.64140 -134.22220 -108.42780  200.43180  781.87360 1095.77590
 8150.00000   11.30930    9.62010    9.62010    4.29870    0.21560    0.21560    2.51120    0.10610    -999.25    0.11630  232.63060   52.01210   52.01210    9.46600    8.71570    8.71570  232.63060  726.39710  354.81800  726.39710   -0.00010    -999.25   -0.00010    2.51120 -130.23740 -104.66360  354.81800 1156.60150 1316.74850
 8200.00000   11.76170    9.66820    9.66820    3.90970    0.17570    0.17570    2.51530    0.11370    -999.25    0.11390  255.77660   49.36540   49.36540   11.88090   11.48180   11.48180  255.77660 1370.50410  696.62890 1370.50410    0.00100    -999.25    0.00100    2.51530 -133.01380 -107.66200  696.62890 1243.04380 1361.58460
 8250.00000   11.88600    9.65380    9.65380    4.95610    0.14120    0.14120    2.54070    0.08950    -999.25    0.09900  201.77020   49.32690   49.32690    9.04950   10.94990   10.94990  201.77020  189.40340  229.59320  189.40340   -0.00070    -999.25   -0.00070    2.54070 -126.18570 -101.05460  229.59320 1651.98450 1665.68390
 8300.00000   11.17010    9.43960    9.43960    2.80410    0.17890    0.17890    2.47090    0.14700    -999.25    0.13980  356.62520   48.48900   48.48900   12.56480   13.53840   13.53840  356.62520 1346.15210  706.79690 1346.15210   -0.00420    -999.25   -0.00420    2.47090 -106.98820  -82.07770  706.79690 2092.75340 1833.64560
 8350.00000   11.47740    9.56680    9.56680    6.30860    0.24160    0.24160    2.58290    0.08680    -999.25    0.07430  158.51440   49.75510   49.75510   10.89780   10.32690   10.32690  158.51440  126.74900  139.66930  126.74900   -0.00350    -999.25   -0.00350    2.58290 -120.24940  -95.56090  139.66930 2497.22330 1946.11990
 8400.00000   10.90360    9.62510    9.62510    6.85100    0.25260    0.25260    2.69530    0.01610    -999.25    0.00860  145.96380   49.10190   49.10190    9.52800   10.02930   10.02930  145.96380  239.38980  239.75120  239.38980   -0.00380    -999.25   -0.00380    2.69530 -108.16650  -83.69860  239.75120 1364.84280  864.08400
 8450.00000    9.18220    8.92160    8.92160   18.99140    0.03520    0.03520    2.65100    0.04690    -999.25    0.03450   52.65550   50.20340   50.20340    9.15590    7.53360    7.53360   52.65550   63.84400  219.93290   63.84400    0.01470    -999.25    0.01470    2.65100 -115.49470  -91.24890  219.93290 1089.80070 1114.76390
 8500.00000    9.87260    9.40280    9.40280    9.72560    0.05190    0.05190    2.82230   -0.07040    -999.25   -0.06570  102.82190   46.91190   46.91190   12.96800   14.25980   14.25980  102.82190  237.66380  496.89050  237.66380    0.01280    -999.25    0.01280    2.82230  -88.38770  -64.36250  496.89050 1586.48970 1196.19700
