~Version ---------------------------------------------------
VERS.      2.0 : CWLS log ASCII Standard -VERSION 2.0
WRAP.       NO : One line per depth step
CREA. 10/19/17 : LAS Creation Date
~Well ------------------------------------------------------
STRT.FT                     1150.0 : START DEPTH
STOP.FT                    11800.0 : STOP DEPTH
STEP.FT                   50.00000 : STEP LENGTH
NULL.                      -999.25 : NULL VALUE
COMP.         PETROFINA CANADA LTD : COMPANY
WELL. PCI AMMIN ECONOMY 11-15-68-2 : WELL
FLD .                              : FIELD
LOC .                              : LOCATION
CTRY.                       CANADA : COUNTRY
SRVC.                      Unknown : SERVICE COMPANY
DATE.                  01-Jan-1900 : LOGDATE
PROV.                      Alberta : PROVINCE
UWI .             100111506802W600 : UNIQUE WELL ID
SLAT.WGS84                54.88852 : SURFACE LATITUDE
SLON.WGS84               -118.2198 : SURFACE LONGITUDE
~Curve Information -----------------------------------------
DEPT    .FT    : Depth Curve
CALDED  .IN    : CALIPER FROM DENSITY LOG [ADJ.TO RESISTIVITY LOG]
CALSED  .IN    : CALIPER FROM SONIC LOG [ADJ.TO RESISTIVITY LOG]
CALWS   .IN    : CALIPER [CALSED]
CONDWS  .MMHO  : CONDUCTIVITY [1000/DRESWS]
DCORWS  .G/C3  : DENSITY CORRECTION [DRHOED]
DENWS   .G/C3  : FORMATION BULK DENSITY [CALC. FROM DPOLSWS, M=2.71, F=1.00]
DPHILSED.V/V   : DENSITY POROSITY LIMESTONE [ASSUMED, M=2.71, F=1.00] FROM DENSITY LOG [ADJ.TO RESISTIVITY LOG]
DPHISSED.V/V   : DENSITY POROSITY SANDSTONE [ASSUMED, M=2.65, F=1.00] FROM DENSITY LOG [ADJ.TO RESISTIVITY LOG]
DPOLSWS .V/V   : DENSITY POROSITY LIMESTONE [DPHISSED CONVERTED TO LIMESTONE MATRIX, M=2.71, F=1.00 SPL.TO DPHILSED @ 6552']
DRESWS  .OHMM  : DEEP RESISTIVITY [ILDED]
DRHOED  .G/C3  : DENSITY CORRECTION FROM DENSITY LOG [ADJ.TO RESISTIVITY LOG]
DTED    .US/F  : DELTA TIME FROM SONIC LOG [ADJ.TO RESISTIVITY LOG]
DTWS    .US/F  : COMPRESSIONAL SONIC [DTED]
GRDED   .GAPI  : GAMMA RAY FROM DENSITY LOG [ADJ.TO RESISTIVITY LOG]
GRSED   .GAPI  : GAMMA RAY FROM SONIC LOG [ADJ.TO RESISTIVITY LOG]
GRWS    .GAPI  : GAMMA RAY [GRSED SPL.TO GRDED @ 11698']
ILDED   .OHMM  : DEEP INDUCTION FROM RESISTIVITY LOG
ILMED   .OHMM  : MEDIUM INDUCTION FROM RESISTIVITY LOG
LL8ED   .OHMM  : LATEROLOG-8 FROM RESISTIVITY LOG
MRESWS  .OHMM  : MEDIUM RESISTIVITY [ILMED]
NPHILSED.V/V   : NEUTRON POROSITY LIMESTONE FROM DENSITY LOG [ADJ.TO RESISTIVITY LOG]
NPHISSED.V/V   : NEUTRON POROSITY SANDSTONE FROM DENSITY LOG [ADJ.TO RESISTIVITY LOG]
NPOLSWS .V/V   : NEUTRON POROSITY LIMESTONE [NPHISSED MATRIX (SLB) CONVERSION FOR LIMESTONE, SPL.TO NPHILSED @ 6552']
RHOBED  .G/C3  : BULK DENSITY FROM DENSITY LOG [ADJ.TO RESISTIVITY LOG]
SPRED   .MV    : SPONTANEOUS POTENTIAL FROM RESISTIVITY LOG
SPWS    .MV    : SPONTANEOUS POTENTIAL [BASELINE 0 MV, SPRED]
SRESWS  .OHMM  : SHALLOW RESISTIVITY [LL8ED]
~Params ----------------------------------------------------
PD  .                     GL : PERMANENT DATUM
EPD .FT               2259.3 : ELEVATION PERMANENT DATUM
LMF .                     KB : LOG MEASURED FROM
DAPD.FT                 13.7 : FEET ABOVE PERMANENT DATUM
EKB .FT                 2273 : KELLY BUSHING
EGL .FT               2259.3 : GROUND LEVEL
DATE.               10/12/76 : RUN DATE
RUN .                      1 : RUN NUMBER
DD  .FT                11825 : DEPTH DRILLER
DL  .FT                11801 : DEPTH LOGGER
BLI .FT                11795 : BOTTOM LOG INTERVAL
TLI .FT                 1228 : TOP LOG INTERVAL
CBD .FT                 1232 : CASING BOTTOM DRILLER
CBL .FT                 1228 : CASING BOTTOM LOGGER
BS  .IN                 8.75 : BIT SIZE
BSD .FT                11825 : BIT SIZE AT DEPTH
DFT .                    GEL : DRILLING FLUID TYPE
DFD .                    8.9 : DRILLING FLUID DENSITY
DFV .                    150 : DRILLING FLUID VISCOSITY
DFPH.                   10.5 : DRILLING FLUID PH
DFL .                    5.8 : DRILLING FLUID LOSS
MSS .               FLOWLINE : MUD SAMPLE SOURCE
RMF .OHMM               0.71 : RESISTIVITY MUD FILTRATE SAMPLE
MFST.DEGF                 76 : MUD FILTRATE SAMPLE TEMPERATURE
RMB .OHMM               0.28 : RESISTIVITY MUD AT BHT
TCS .HRS                 4.5 : TIME CIRCULATED STOPPED
LUN .                   7803 : LOGGING UNIT NUMBER
LUL .                     OC : LOGGING UNIT LOCATION
ENGI.                STADNYK : RECORDING ENGINEER
WITN.                  CLARK : WITNESSED BY
CLNT.                A2DTECH : CLIENT CODE
ORIG.          1" 2.5" PRINT : ORIGIN OF DATA
UWI .       100111506802W600 : UNIQUE WELL ID
DICO. A2D Technologies, Inc. : DIGITIZING COMPANY
~Other -----------------------------------------------------
DI-LL-FDC-CNL-BHC LOG RUN.
~ASCII -----------------------------------------------------
# ...
 8950.00000   11.17320   10.09880   10.09880   26.62050    0.26030    2.65250    0.03360    -999.25    0.03360   37.56500    0.26030   54.24970   54.24970   52.88630   50.03310   50.03310   37.56500   42.47100  158.47670   42.47100    0.02120    -999.25    0.02120    2.65620  -82.56300  -12.90640  158.47670
 9000.00000   12.34050   10.13590   10.13590   14.55640    0.24600    2.51130    0.11620    -999.25    0.11620   68.69820    0.24600   52.64770   52.64770   33.66680   28.15750   28.15750   68.69820   76.36010  543.58040   76.36010    0.01150    -999.25    0.01150    2.52610  -88.60380  -19.80570  543.58040
 9050.00000   11.48720    9.99430    9.99430   22.96870    0.24880    2.67270    0.02180    -999.25    0.02180   43.99630    0.24880   52.44400   52.44400   39.65330   31.53800   31.53800   43.99630   45.23070  170.99250   45.23070    0.02540    -999.25    0.02540    2.67440  -80.23980  -12.30010  170.99250
 9100.00000    9.62490    9.50770    9.50770   25.22700    0.09140    2.74040   -0.01780    -999.25   -0.01780   39.64010    0.09140   55.24780   55.24780   44.69130   48.25800   48.25800   39.64010   44.69780  110.35100   44.69780    0.03220    -999.25    0.03220    2.73450  -90.11580  -23.04030  110.35100
 9150.00000    9.49240    9.40050    9.40050   32.79300    0.05200    2.71450   -0.00270    -999.25   -0.00270   30.49580    0.05200   57.98690   57.98690   62.59730   52.07940   52.07940   30.49580   31.88160   69.60690   31.88160    0.05030    -999.25    0.05030    2.71620  -74.37120   -8.15410   69.60690
 9200.00000    9.51140    9.37080    9.37080   19.55780    0.04070    2.69140    0.01090    -999.25    0.01090   51.13050    0.04070   54.89710   54.89710   48.39220   44.52900   44.52900   51.13050   53.71340  140.51750   53.71340    0.02740    -999.25    0.02740    2.68520  -97.32610  -31.97320  140.51750
 9250.00000    9.71210    9.45210    9.45210   22.95870    0.10620    2.70380    0.00360    -999.25    0.00360   43.55640    0.10620   55.32540   55.32540   53.35350   48.91300   48.91300   43.55640   49.68690  118.12820   49.68690    0.03880    -999.25    0.03880    2.69500  -71.07730   -6.58280  118.12820
 9300.00000    9.56560    9.38550    9.38550    5.75440    0.12440    2.72110   -0.00650    -999.25   -0.00650  173.79430    0.12440   51.13260   51.13260   36.80410   29.86720   29.86720  173.79430  271.26820  850.93880  271.26820    0.00770    -999.25    0.00770    2.71450  -78.77690  -15.14090  850.93880
 9350.00000   10.77530   10.07440   10.07440   39.99760    0.24640    2.66450    0.02660    -999.25    0.02660   25.00150    0.24640   64.14590   64.14590  102.57010   96.26020   96.26020   25.00150   26.64580   63.65220   26.64580    0.12160    -999.25    0.12160    2.66160  -63.92210   -1.15520   63.65220
 9400.00000   11.07110   10.09570   10.09570   24.60770    0.24810    2.50510    0.11990    -999.25    0.11990   40.63840    0.24810   69.37140   69.37140  122.75300  115.61250  115.61250   40.63840   38.01790  153.60420   38.01790    0.14120    -999.25    0.14120    2.50190  -82.51900  -20.65220  153.60420
 9450.00000    9.64460    9.37850    9.37850   54.51340    0.09590    2.69730    0.00740    -999.25    0.00740   18.34410    0.09590   60.25900   60.25900  120.21810  115.16200  115.16200   18.34410   17.95510   69.57230   17.95510    0.12360    -999.25    0.12360    2.69370  -73.25650  -12.29570   69.57230
 9500.00000   10.76470    9.64470    9.64470    1.01710    0.29100    2.64930    0.03550    -999.25    0.03550  983.15590    0.29100   48.22460   48.22460   21.05330   19.39390   19.39390  983.15590  472.82400 1428.67350  472.82400    0.00350    -999.25    0.00350    2.64750 -121.47730  -61.41670 1428.67350
 9550.00000   11.00310    9.95510    9.95510    1.27210    0.29540    2.58020    0.07590    -999.25    0.07590  810.94340    0.29540   48.78450   48.78450   22.47360   21.20300   21.20300  810.94340  640.78060 1434.14910  640.78060    0.00000    -999.25    0.00000    2.58030 -136.56250  -77.40200 1434.14910
 9600.00000   11.18400    9.99410    9.99410    0.92010    0.24620    2.63730    0.04250    -999.25    0.04250 1086.84080    0.24620   48.11610   48.11610   18.82390   16.25320   16.25320 1086.84080 2000.00000 1456.46410 2000.00000   -0.00030    -999.25   -0.00030    2.64330 -142.33730  -84.08280 1456.46410
 9650.00000   11.11590    9.96510    9.96510    0.85690    0.28990    2.64990    0.03510    -999.25    0.03510 1167.27420    0.28990   48.05670   48.05670   18.68080   16.59610   16.59610 1167.27420 2000.00000 1472.36950 2000.00000    0.00100    -999.25    0.00100    2.64800 -134.30940  -76.95510 1472.36950
 9700.00000   11.54380   10.06910   10.06910    0.68650    0.28270    2.62770    0.04810    -999.25    0.04810 1456.56160    0.28270   48.05840   48.05840   16.07830   16.17030   16.17030 1456.56160 2000.00000 1474.54740 2000.00000   -0.00170    -999.25   -0.00170    2.63670 -166.18660 -109.73830 1474.54740
 9750.00000   11.14560    9.92250    9.92250    8.89680    0.29610    2.59570    0.06680    -999.25    0.06680  112.40050    0.29610   49.65410   49.65410   11.83760   11.50670   11.50670  112.40050 1417.89310  363.25090 1417.89310    0.00010    -999.25    0.00010    2.60110 -184.86810 -129.31990  363.25090
 9800.00000   11.14950    9.78580    9.78580    0.73900    0.31240    2.70480    0.00300    -999.25    0.00300 1353.59580    0.31240   48.06680   48.06680   16.77470   13.76230   13.76230 1353.59580 1481.89870 1458.29730 1481.89870   -0.00350    -999.25   -0.00350    2.69480 -180.60870 -125.96060 1458.29730
 9850.00000   11.67980    9.97090    9.97090    0.99780    0.27650    2.64910    0.03560    -999.25    0.03560 1002.24070    0.27650   47.79950   47.79950   16.35520   11.30390   11.30390 1002.24070 1565.53600 1445.71860 1565.53600   -0.00330    -999.25   -0.00330    2.64370 -183.28290 -129.54090 1445.71860
 9900.00000   11.45490    9.91440    9.91440    1.09120    0.29360    2.68480    0.01470    -999.25    0.01470  918.55130    0.29360   48.57500   48.57500   17.22320   14.30870   14.30870  918.55130  878.41680 1274.83350  878.41680   -0.00430    -999.25   -0.00430    2.68290 -183.33300 -130.49110 1274.83350
 9950.00000   12.33550    9.98220    9.98220    0.66950    0.30360    2.45520    0.14900    -999.25    0.14900 1493.74550    0.30360   48.78080   48.78080   17.95980   18.57300   18.57300 1493.74550  815.09170 1405.92550  815.09170   -0.00210    -999.25   -0.00210    2.45820 -179.14290 -127.20710 1405.92550
 10000.00000   11.34460    9.87510    9.87510    1.02720    0.31720    2.55290    0.09190    -999.25    0.09190  973.54940    0.31720   48.90790   48.90790   21.67630   19.10020   19.10020  973.54940  524.27330 1428.04540  524.27330   -0.00390    -999.25   -0.00390    2.55470 -166.12840 -115.09270 1428.04540
 10050.00000   11.54900    9.72810    9.72810    0.65810    0.29990    2.58880    0.07090    -999.25    0.07090 1519.90140    0.29990   48.98600   48.98600   18.77460   19.58400   19.58400 1519.90140    -999.25 1461.75290    -999.25   -0.00190    -999.25   -0.00190    2.58400 -177.45850 -127.32290 1461.75290
 10100.00000   12.39810    9.99230    9.99230    0.67040    0.29840    2.48240    0.13310    -999.25    0.13310 1491.68200    0.29840   49.27650   49.27650   17.96130   16.63060   16.63060 1491.68200  719.98690 1438.69430  719.98690   -0.00560    -999.25   -0.00560    2.49440 -174.00220 -124.77260 1438.69430
 10150.00000    9.80520    9.65810    9.65810    2.60370    0.07720    2.75500   -0.02630    -999.25   -0.02630  389.96410    0.07720   48.72670   48.72670   18.17070   18.01230   18.01230  389.96410  522.82030 1240.44690  522.82030   -0.00240    -999.25   -0.00240    2.74860 -202.93890 -154.60950 1240.44690
 10200.00000    9.34820    9.76300    9.76300    0.82530    0.03760    2.70900    0.00060    -999.25    0.00060 1211.64590    0.03760   47.85340   47.85340   15.66840   16.61030   16.61030 1211.64590 1626.77340 1457.06800 1626.77340    0.00020    -999.25    0.00020    2.70930 -184.37140 -136.94800 1457.06800
