~Version ---------------------------------------------------
VERS. 2.0 : CWLS log ASCII Standard -VERSION 2.0
WRAP. YES : Multiple lines per depth step
~Well ------------------------------------------------------
STRT.m                             450.0 : START DEPTH
STOP.m                            2700.0 : STOP DEPTH
STEP.m                          50.00000 : STEP LENGTH
NULL.                            -999.25 : NULL VALUE
COMP.           PENN WEST PETROLEUM LTD. : COMPANY
WELL. PENN WEST ET AL TOMAHAWK 8-30-52-5 : WELL
FLD .                                    : FIELD
LOC .                                    : LOCATION
CTRY.                             CANADA : COUNTRY
SRVC.             Schlumberger of Canada : SERVICE COMPANY
DATE.                        19-Sep-1984 : LOGDATE
PROV.                            Alberta : PROVINCE
UWI .                   100083005205W500 : UNIQUE WELL ID
SLAT.WGS84                      53.51595 : SURFACE LATITUDE
SLON.WGS84                     -114.7188 : SURFACE LONGITUDE
~Curve Information -----------------------------------------
DEPT    .m      : Depth Curve
CALDED  .MM     : CALIPER  CNLD
CALSED  .MM     : CALIPER  SONIC
CALWS   .MM     : CALIPER (CALSED/CALDED/CALSED @ 1248,1688)
CONDWS  .MMHO   : CONDUCTIVITY (1000/DRESWS)
DCORWS  .KG/M3  : DENSITY CORRECTION (DRHOED)
DENWS   .KG/M3  : BULK DENSITY  (RHOBED)
DPHISSED.V/V    : DENSITY POROSITY SANDSTONE
DPOLSWS .V/V    : DENSITY POROSITY (M=2710 F=1000 FROM DENWS)
DRESWS  .OHMM   : DEEP RESISTIVITY (ILDED)
DRHOED  .KG/M3  : DENSITY CORRECTION
DTED    .US/M   : DELTA TIME
DTWS    .US/M   : DELTA TIME  (DTED)
GRDED   .GAPI   : GAMMA RAY  CNLD
GRSED   .GAPI   : GAMMA RAY  SONIC
GRWS    .GAPI   : GAMMA RAY (GRSED/GRDED/GRSED @ 1189,1686)
ILDED   .OHMM   : DEEP INDUCTION RESISTIVITY
ILMED   .OHMM   : MEDIUM INDUCTION RESISTIVITY
MRESWS  .OHMM   : MEDIUM RESISTIVITY (ILMED)
NPHISSED.V/V    : NEUTRON POROSITY SANDSTONE
NPOLSWS .V/V    : NEUTRON POROSITY LIMESTONE (NPHISSED CONVERTED TO LS)
RHOBED  .KG/M3  : BULK DENSITY
SFLUED  .OHMM   : SPHERICALLY FOCUSED RESISTIVITY
SPRED   .MV     : Spontaneous Potential  DIL
SPWS    .MV     : SPONTANEOUS POTENTIAL (SPRED) BASELINE 0 MV
SRESWS  .OHMM   : SHALLOW RESISTIVITY (SFLUED)
~Params ----------------------------------------------------
PD  .                         GL : PERMANENT DATUM
EPD .M                    799.64 : ELEVATION PERMANENT DATUM
LMF .                         KB : LOG MEASURED FROM
DAPD.M                      4.62 : FEET ABOVE PERMANENT DATUM
DMF .                         KB : DRILLING MEASURED FROM
EKB .M                    804.26 : KELLY BUSHING
EGL .M                    799.64 : GROUND LEVEL
DATE.                   09/19/84 : RUN DATE
RUN .                          1 : RUN NUMBER
DD  .M                    2714.5 : DEPTH DRILLER
DL  .M                    2714.8 : DEPTH LOGGER
BLI .M                    2713.8 : BOTTOM LOG INTERVAL
TLI .M                     426.3 : TOP LOG INTERVAL
CS  .MM                      244 : CASING SIZE
CBD .M                       426 : CASING BOTTOM DRILLER
CBL .M                       426 : CASING BOTTOM LOGGER
BS  .MM                      222 : BIT SIZE
BSD .M                    2714.5 : BIT SIZE AT DEPTH
DFT .                        GEL : DRILLING FLUID TYPE
DFD .                       1140 : DRILLING FLUID DENSITY
DFV .                         90 : DRILLING FLUID VISCOSITY
DFPH.                         10 : DRILLING FLUID PH
DFL .                        8.8 : DRILLING FLUID LOSS
MSS .                   FLOWLINE : MUD SAMPLE SOURCE
RMS .OHMM                   1.18 : RESISTIVITY MUD SAMPLE
MST .DEGC                   28.9 : MUD SAMPLE TEMPERATURE
RMF .OHMM                   0.99 : RESISTIVITY MUD FILTRATE SAMPLE
MFST.DEGC                   21.1 : MUD FILTRATE SAMPLE TEMPERATURE
MFSS.                       MEAS : MUD FILTRATE SAMPLE SOURCE
RMB .OHMM                  0.688 : RESISTIVITY MUD AT BHT
TCS .HRS                    1600 : TIME CIRCULATED STOPPED
TLAB.HRS                    2330 : TIME LOGGER AT BOTTOM
LUN .                       8110 : LOGGING UNIT NUMBER
LUL .                        EDM : LOGGING UNIT LOCATION
ENGI.          TRUSEVYCH CORNISH : RECORDING ENGINEER
WITN.                      URBAN : WITNESSED BY
CLNT.                    A2DTECH : CLIENT CODE
ORIG. 6.5"/100M 16.5"/100M PRINT : ORIGIN OF DATA
UWI .           100083005205W500 : UNIQUE WELL ID
DICO.     A2D Technologies, Inc. : DIGITIZING COMPANY
~Other -----------------------------------------------------
~ASCII -----------------------------------------------------
# ...
 1850.00000    -999.25  210.92410  210.92410  160.41840    -999.25    -999.25    -999.25    -999.25    6.23370    -999.25  179.54590  179.54590    -999.25   13.29860   13.29860    6.23370   10.06000   10.06000    -999.25    -999.25    -999.25   42.03990 -154.65000 -143.62890   42.03990
 1900.00000    -999.25  211.85690  211.85690  139.77800    -999.25    -999.25    -999.25    -999.25    7.15420    -999.25  168.05130  168.05130    -999.25   16.81630   16.81630    7.15420   10.78610   10.78610    -999.25    -999.25    -999.25  149.27810 -159.92390 -144.79580  149.27810
 1950.00000    -999.25  213.48980  213.48980  132.86920    -999.25    -999.25    -999.25    -999.25    7.52620    -999.25  181.25190  181.25190    -999.25   16.23710   16.23710    7.52620   11.13500   11.13500    -999.25    -999.25    -999.25   36.33530 -143.62230 -124.38710   36.33530
 2000.00000    -999.25  216.86890  216.86890   89.30170    -999.25    -999.25    -999.25    -999.25   11.19800    -999.25  171.63510  171.63510    -999.25   20.07380   20.07380   11.19800   14.30700   14.30700    -999.25    -999.25    -999.25   44.94810 -140.89280 -117.55060   44.94810
 2050.00000    -999.25  253.08630  253.08630   79.21610    -999.25    -999.25    -999.25    -999.25   12.62370    -999.25  219.34340  219.34340    -999.25   67.42360   67.42360   12.62370   12.98860   12.98860    -999.25    -999.25    -999.25   14.27060  -32.38970   -4.94040   14.27060
 2100.00000    -999.25  236.27820  236.27820    8.19330    -999.25    -999.25    -999.25    -999.25  122.05030    -999.25  170.09830  170.09830    -999.25   31.95740   31.95740  122.05030  163.11690  163.11690    -999.25    -999.25    -999.25  249.85970  -56.40530  -30.18620  249.85970
 2150.00000    -999.25  251.62800  251.62800   91.09460    -999.25    -999.25    -999.25    -999.25   10.97760    -999.25  228.66900  228.66900    -999.25   79.91610   79.91610   10.97760   11.32190   11.32190    -999.25    -999.25    -999.25   12.71460  -30.11870   -5.28350   12.71460
 2200.00000    -999.25  256.59490  256.59490  159.66530    -999.25    -999.25    -999.25    -999.25    6.26310    -999.25  262.00320  262.00320    -999.25   81.88700   81.88700    6.26310    6.07450    6.07450    -999.25    -999.25    -999.25    6.63730  -37.15770  -13.70640    6.63730
 2250.00000    -999.25  255.51770  255.51770  143.27670    -999.25    -999.25    -999.25    -999.25    6.97950    -999.25  248.57370  248.57370    -999.25   75.72200   75.72200    6.97950    6.58660    6.58660    -999.25    -999.25    -999.25    7.66470  -39.13770  -17.07040    7.66470
 2300.00000    -999.25  227.30600  227.30600  114.49110    -999.25    -999.25    -999.25    -999.25    8.73430    -999.25  239.15290  239.15290    -999.25   69.77420   69.77420    8.73430    8.48680    8.48680    -999.25    -999.25    -999.25   10.86870  -29.50350   -8.82010   10.86870
 2350.00000    -999.25  216.94060  216.94060   19.68310    -999.25    -999.25    -999.25    -999.25   50.80500    -999.25  184.91240  184.91240    -999.25   36.56960   36.56960   50.80500   72.06840   72.06840    -999.25    -999.25    -999.25  132.08810  -32.23460  -12.93510  132.08810
 2400.00000    -999.25  257.81920  257.81920  187.58910    -999.25    -999.25    -999.25    -999.25    5.33080    -999.25  285.02710  285.02710    -999.25   84.25020   84.25020    5.33080    5.18030    5.18030    -999.25    -999.25    -999.25    6.56320  -33.05450  -16.72050    6.56320
 2450.00000    -999.25  221.76500  221.76500   44.94710    -999.25    -999.25    -999.25    -999.25   22.24840    -999.25  196.69520  196.69520    -999.25   47.72960   47.72960   22.24840   23.10510   23.10510    -999.25    -999.25    -999.25   25.01430  -36.54460  -23.92030   25.01430
 2500.00000    -999.25  216.20550  216.20550   56.62580    -999.25    -999.25    -999.25    -999.25   17.65980    -999.25  193.46480  193.46480    -999.25   42.47070   42.47070   17.65980   18.49320   18.49320    -999.25    -999.25    -999.25   17.97530  -27.38500  -18.47040   17.97530
 2550.00000    -999.25  216.08780  216.08780   63.88350    -999.25    -999.25    -999.25    -999.25   15.65350    -999.25  197.28580  197.28580    -999.25   46.61080   46.61080   15.65350   16.30100   16.30100    -999.25    -999.25    -999.25   19.19700  -31.01090  -25.80600   19.19700
 2600.00000    -999.25  223.03950  223.03950  172.77130    -999.25    -999.25    -999.25    -999.25    5.78800    -999.25  179.04860  179.04860    -999.25   72.53390   72.53390    5.78800    8.36370    8.36370    -999.25    -999.25    -999.25   23.64120  -33.25870  -31.14770   23.64120
 2650.00000    -999.25  218.90830  218.90830   97.65530    -999.25    -999.25    -999.25    -999.25   10.24010    -999.25  208.12670  208.12670    -999.25   83.05590   83.05590   10.24010   10.51260   10.51260    -999.25    -999.25    -999.25   13.88610   -2.82800   -0.71700   13.88610
 2700.00000    -999.25  212.99550  212.99550  196.08610    -999.25    -999.25    -999.25    -999.25    5.09980    -999.25  174.65500  174.65500    -999.25    -999.25    -999.25    5.09980    6.14500    6.14500    -999.25    -999.25    -999.25   15.39180  -97.96010  -95.84910   15.39180
