~Version ---------------------------------------------------
VERS.      2.0 : CWLS log ASCII Standard -VERSION 2.0
WRAP.       NO : One line per depth step
CREA. 08/02/17 : LAS Creation Date
~Well ------------------------------------------------------
STRT.FT                       950.0 : START DEPTH
STOP.FT                     10400.0 : STOP DEPTH
STEP.FT                    50.00000 : STEP LENGTH
NULL.                       -999.25 : NULL VALUE
COMP.    THE CALIFORNIA STANDARD CO : COMPANY
WELL. CALSTAN BA KAYBOB 10-26-64-20 : WELL
FLD .                               : FIELD
LOC .                               : LOCATION
CTRY.                        CANADA : COUNTRY
SRVC.        Schlumberger of Canada : SERVICE COMPANY
DATE.                   15-Dec-1959 : LOGDATE
PROV.                       Alberta : PROVINCE
UWI .              100102606420W500 : UNIQUE WELL ID
SLAT.WGS84                 54.56885 : SURFACE LATITUDE
SLON.WGS84                -116.9082 : SURFACE LONGITUDE
~Curve Information -----------------------------------------
DEPT  .FT         : Depth Curve
CALWS .IN         : CALIPER [MCALED]
CILDED.MMHO       : DEEP INDUCTION CONDUCTIVITY FROM RESISTIVITY LOG
CONDWS.MMHO       : CONDUCTIVITY [1000/DRESWS]
DRESWS.OHMM       : DEEP RESISTIVITY [CALC FROM 1000/CILDED, IF ILDED<1, ILDED]
DTED  .US/F       : DELTA-T (INTERVAL TRANSIT TIME) FROM SONIC LOG
DTWS  .US/F       : COMPRESSIONAL SONIC [DTED]
GRSED .UgRa-Eq/T  : GAMMA RAY FROM SONIC LOG
GRWS  .GAPI       : GAMMA RAY [GRSED*16.5]
ILDED .OHMM       : DEEP INDUCTION FROM RESISTIVITY LOG
MCALED.IN         : MLT (MICROLOG) CALIPER FROM MICROLOG
SNED  .OHMM       : SHORT NORMAL FROM RESISTIVITY LOG
SPRED .MV         : SPONTANEOUS POTENTIAL FROM RESISTIVITY LOG
SPWS  .MV         : SPONTANEOUS POTENTIAL [BASELINE 0 MV, SPRED]
SRESWS.OHMM       : SHALLOW RESISTIVITY [SNED]
~Params ----------------------------------------------------
LMF .                     KB : LOG MEASURED FROM
DMF .                     KB : DRILLING MEASURED FROM
EKB .FT                 2600 : KELLY BUSHING
EGL .FT                 2587 : GROUND LEVEL
DATE.               12/15/59 : RUN DATE
RUN .                      2 : RUN NUMBER
DD  .FT                10482 : DEPTH DRILLER
DL  .FT                10441 : DEPTH LOGGER
BLI .FT                10436 : BOTTOM LOG INTERVAL
TLI .FT                 6426 : TOP LOG INTERVAL
CBD .FT                  998 : CASING BOTTOM DRILLER
CBL .FT                  994 : CASING BOTTOM LOGGER
BS  .IN                    9 : BIT SIZE
BSD .FT                10482 : BIT SIZE AT DEPTH
DFT .                    GEL : DRILLING FLUID TYPE
DFD .                   10.3 : DRILLING FLUID DENSITY
DFV .                    108 : DRILLING FLUID VISCOSITY
DFPH.                   10.5 : DRILLING FLUID PH
DFL .                    5.7 : DRILLING FLUID LOSS
MSS .            CIRCULATION : MUD SAMPLE SOURCE
RMS .OHMM               2.35 : RESISTIVITY MUD SAMPLE
MST .DEGF                 72 : MUD SAMPLE TEMPERATURE
RMF .OHMM               1.55 : RESISTIVITY MUD FILTRATE SAMPLE
MFST.DEGF                 67 : MUD FILTRATE SAMPLE TEMPERATURE
RMC .OHMM               2.81 : RESISTIVITY MUD CAKE
MCST.DEGF                 77 : MUD CAKE SAMPLE TEMPERATURE
RMB .OHMM               0.87 : RESISTIVITY MUD AT BHT
TCS .HRS                 300 : TIME CIRCULATED STOPPED
LUN .                  15730 : LOGGING UNIT NUMBER
LUL .                     WC : LOGGING UNIT LOCATION
ENGI.              HAUSEGGER : RECORDING ENGINEER
WITN.                  CHANT : WITNESSED BY
CLNT.                A2DTECH : CLIENT CODE
ORIG.            2" 5" PRINT : ORIGIN OF DATA
UWI .       100102606420W500 : UNIQUE WELL ID
DICO. A2D Technologies, Inc. : DIGITIZING COMPANY
~Other -----------------------------------------------------
~ASCII -----------------------------------------------------
# ...
 5850.00000   10.00100  152.25720  140.40610    7.12220   74.49360   74.49360    4.42370   72.99110    7.12220   10.00100   11.81960  -59.34150  -13.16760   11.81960
 5900.00000   12.20870  327.15520  348.63860    2.86830   95.45140   95.45140    4.88820   80.65530    2.86830   12.20870    4.29580  -68.26760  -12.46980    4.29580
 5950.00000   10.98930  246.15980  269.15730    3.71530   94.04280   94.04280    4.70230   77.58800    3.71530   10.98930    5.40270  -83.48380  -24.20590    5.40270
 6000.00000    9.41860   43.01790   39.75340   25.15510  103.80410  103.80410    9.09810  150.11870   25.15510    9.41860   48.18950  -63.60220  -11.73880   48.18950
 6050.00000    9.30050   35.48520   30.56640   32.71570   86.69880   86.69880    9.45490  156.00580   32.71570    9.30050   63.45760  -41.21470  -10.07010   63.45760
 6100.00000    9.07700    6.60150    2.70720  369.37980   75.98960   75.98960   15.00550  247.59070  369.37980    9.07700  216.66390 -116.81010  -93.10580  216.66390
 6150.00000    9.38130   81.16770   78.49720   12.73930   66.65090   66.65090    4.87710   80.47220   12.73930    9.38130   17.61860  -59.39210  -40.15310   17.61860
 6200.00000    9.21700   79.28230   76.15040   13.13190   62.52200   62.52200    4.55850   75.21530   13.13190    9.21700   19.34180  -23.69590   -8.95170   19.34180
 6250.00000    9.27390   63.42290   60.81840   16.44240   67.06710   67.06710    5.23950   86.45170   16.44240    9.27390   24.55140  -32.68240  -18.24410   24.55140
 6300.00000    9.13750   35.98240   31.84650   31.40060   63.93660   63.93660    4.61380   76.12770   31.40060    9.13750   43.02900  -31.16090  -16.91620   43.02900
 6350.00000    9.01090  142.56810  140.72610    7.10600   62.02830   62.02830    2.64650   43.66730    7.10600    9.01090   12.39920  -24.26940  -15.46700   12.39920
 6400.00000    8.70200   60.37220   58.68680   17.03960   50.95780   50.95780    1.28780   21.24870   17.03960    8.70200   39.94900 -122.63860 -119.28940   39.94900
 6450.00000   10.42740   15.48890   11.94480   83.71860   51.85080   51.85080    1.50950   24.90680   83.71860   10.42740  104.95510  -81.16810  -83.30800  104.95510
 6500.00000    9.80380   55.45310   47.64450   20.98880   56.79690   56.79690    2.68880   44.36520   20.98880    9.80380   40.55610  -43.82060  -51.41370   40.55610
 6550.00000    9.81010   13.61820   10.30860   97.00680   53.25070   53.25070    1.28050   21.12830   97.00680    9.81010  117.19960  -23.66840  -36.71480  117.19960
 6600.00000   13.74880   28.01790   22.29610   44.85090   50.77200   50.77200    1.85080   30.53820   44.85090   13.74880   54.16300    1.68080  -13.23470   54.16300
 6650.00000   10.28320   74.18660   68.52510   14.59320   63.25280   63.25280    4.13330   68.19940   14.59320   10.28320   25.84520  -22.72650  -35.57040   25.84520
 6700.00000   10.56710   16.68180   13.73440   72.81010   60.07130   60.07130    2.66080   43.90320   72.81010   10.56710   69.76510  -29.42020  -40.17870   69.76510
 6750.00000   11.03690  122.74860  101.45180    9.85690   60.33230   60.33230    5.11600   84.41400    9.85690   11.03690   24.44030  -44.18010  -52.86700   24.44030
 6800.00000   11.67970   16.30500   12.87090   77.69460   52.50860   52.50860    1.05020   17.32750   77.69460   11.67970  105.31980  -70.62110  -77.23630  105.31980
 6850.00000   10.26610   33.61720   31.33890   31.90920   55.97260   55.97260    1.14190   18.84130   31.90920   10.26610   69.83390 -140.16190 -144.69180   69.83390
 6900.00000   10.79230   26.42360   22.41940   44.60420   52.42150   52.42150    1.03730   17.11550   44.60420   10.79230   78.92880 -126.90530 -129.36350   78.92880
 6950.00000   10.00080   79.90330   75.50590   13.24400   63.74410   63.74410    4.76980   78.70170   13.24400   10.00080   18.18250  -10.11120  -10.48410   18.18250
 7000.00000   10.47520  292.28700  262.05450    3.81600   63.45360   63.45360    3.99770   65.96210    3.81600   10.47520    6.46830  -98.36270  -60.25120    6.46830
 7050.00000   10.43580  167.13200  156.74960    6.37960   65.37430   65.37430    3.28320   54.17360    6.37960   10.43580   12.67860 -110.73690  -49.02340   12.67860
 7100.00000   10.48020   76.29020   69.13530   14.46440   59.76290   59.76290    3.41570   56.35910   14.46440   10.48020   24.18230  -95.79630  -36.44120   24.18230
 7150.00000   12.68160   21.72620   15.88790   62.94090   54.80520   54.80520    1.52790   25.21040   62.94090   12.68160   60.56150 -134.35480  -77.34270   60.56150
 7200.00000   10.52660   31.30140   27.08840   36.91620   56.62890   56.62890    2.52660   41.68890   36.91620   10.52660   59.68530 -123.80450  -69.15090   59.68530
 7250.00000    9.46940   14.06840   11.42170   87.55250   56.69100   56.69100    2.42910   40.08020   87.55250    9.46940   91.17730 -150.94800  -99.33310   91.17730
 7300.00000    9.34120   13.71270    9.02110  110.85180   54.54760   54.54760    1.66350   27.44770  110.85180    9.34120  125.76370 -198.75290 -153.12790  125.76370
 7350.00000    9.32720   14.00140    9.45850  105.72450   56.50250   56.50250    1.59690   26.34880  105.72450    9.32720  115.12420 -213.00160 -173.40600  115.12420
 7400.00000    9.72190   15.87740   11.98640   83.42760   56.05510   56.05510    2.52790   41.71030   83.42760    9.72190   91.97640 -222.07590 -188.47020   91.97640
 7450.00000    9.46470   18.62510   14.37770   69.55220   55.13830   55.13830    3.15710   52.09210   69.55220    9.46470   77.06470 -228.50840 -200.93200   77.06470
 7500.00000    9.57660   22.38430   17.39100   57.50110   54.89130   54.89130    3.01090   49.67990   57.50110    9.57660   61.17390 -152.31230 -130.72580   61.17390
 7550.00000    9.74280   22.63320   20.45750   48.88190   56.22790   56.22790    3.28060   54.13070   48.88190    9.74280   58.99070  -84.96170  -69.36510   58.99070
 7600.00000    9.48780   12.99040    9.29920  107.53620   94.55170   94.55170   14.97960  247.16340  107.53620    9.48780  101.09870  -65.29600  -55.72870  101.09870
 7650.00000   10.29870    8.73160    6.06850  164.78630   54.32940   54.32940    1.55800   25.70700  164.78630   10.29870  146.76220  -61.51510  -56.82520  146.76220
 7700.00000   10.13720    9.24860    6.77150  147.67690   54.28170   54.28170    1.30160   21.47640  147.67690   10.13720  139.25780 -105.37410 -104.61220  139.25780
 7750.00000   10.85120   11.21360    7.20660  138.76250   53.74270   53.74270    1.40370   23.16100  138.76250   10.85120  129.58910  -59.54660  -62.68700  129.58910
 7800.00000   12.35570   13.07930    8.92410  112.05550   52.30360   52.30360    0.98060   16.17910  112.05550   12.35570  103.09420  -42.11970  -49.16240  103.09420
 7850.00000   12.51800    9.37130    6.16520  162.20050   52.43670   52.43670    1.13470   18.72260  162.20050   12.51800  147.35780  -30.77160  -41.74220  147.35780
 7900.00000   12.25660   13.25270    8.67980  115.21040   51.80650   51.80650    1.04040   17.16660  115.21040   12.25660   84.04430   -8.15710  -23.03000   84.04430
 7950.00000   11.65690   18.98850   14.84200   67.37620   53.88820   53.88820    1.01500   16.74750   67.37620   11.65690   77.20520   14.37390   -4.42700   77.20520
 8000.00000   11.72210   16.97050   13.35990   74.85110   50.98950   50.98950    0.81780   13.49370   74.85110   11.72210   89.65300  -12.95410  -32.52410   89.65300
 8050.00000   12.14430   16.30100   12.94090   77.27430   52.82070   52.82070    1.23050   20.30240   77.27430   12.14430   86.90580  -97.57950 -117.83340   86.90580
 8100.00000   12.99590   15.82260   10.32260   96.87520   51.77970   51.77970    1.16000   19.14000   96.87520   12.99590  113.17370 -129.55420 -150.49650  113.17370
 8150.00000   14.36400   10.23890    6.54910  152.69240   52.98280   52.98280    1.45260   23.96790  152.69240   14.36400  125.95670  -93.14770 -114.77400  125.95670
 8200.00000   11.94000   12.19690    8.92060  112.09970   45.52420   45.52420    0.79240   13.07460  112.09970   11.94000   99.04470  -61.81510  -84.12980   99.04470
 8250.00000   10.71140   20.66440   15.60750   64.07160   48.61380   48.61380    0.71090   11.72980   64.07160   10.71140   79.59540  -63.65710  -86.65570   79.59540
