~Version ---------------------------------------------------
VERS.      2.0 : CWLS log ASCII Standard -VERSION 2.0
WRAP.       NO : One line per depth step
CREA. 08/22/13 : LAS Creation Date
~Well ------------------------------------------------------
STRT.M                          450.0 : START DEPTH
STOP.M                         2800.0 : STOP DEPTH
STEP.M                       50.00000 : STEP LENGTH
NULL.                         -999.25 : NULL VALUE
COMP. W & M MIDWEST CONSTRUCTION LTD. : COMPANY
WELL.  297344 AMOCO SUNSET 6-14-69-20 : WELL
FLD .                                 : FIELD
LOC .                                 : LOCATION
CTRY.                          CANADA : COUNTRY
SRVC.                         Unknown : SERVICE COMPANY
DATE.                     12-Jul-1983 : LOGDATE
PROV.                         Alberta : PROVINCE
UWI .                100061406920W500 : UNIQUE WELL ID
SLAT.WGS84                   54.97113 : SURFACE LATITUDE
SLON.WGS84                  -116.9372 : SURFACE LONGITUDE
~Curve Information -----------------------------------------
DEPT   .M      : DEPTH METER
CALWS  .MM     : CALIPER [CALXSED SPL. TO CALXDED @ 2835M]
CALXDED.MM     : CALIPER X FROM DENSITY LOG [ADJ. TO RESISTIVITY LOG]
CALXED .MM     : CALIPER X FROM GR LOG [ADJ. TO RESISTIVITY LOG]
CALXSED.MM     : CALIPER X FROM SONIC LOG
CALYDED.MM     : CALIPER Y FROM DENSITY LOG [ADJ. TO RESISTIVITY LOG]
CALYED .MM     : CALIPER Y FROM GR LOG [ADJ. TO RESISTIVITY LOG]
CDLLSED.V/V    : DENSITY POROSITY LIMESTONE [M=2710,F=1000] FROM DENSITY LOG [ADJ. TO RESISTIVITY LOG]
CDLSSED.V/V    : DENSITY POROSITY SANDSTONE [M=2650,F=1000] FROM DENSITY LOG [ADJ. TO RESISTIVITY LOG]
CNSLSED.V/V    : NEUTRON POROSITY LIMESTONE FROM DENSITY LOG [ADJ. TO RESISTIVITY LOG]
CNSSSED.V/V    : NEUTRON PORISITY SANDSTONE FROM DENSITY LOG [ADJ. TO RESISTIVITY LOG]
CONDWS .MMHO   : CONDUCTIVITY [1000/DRESWS]
DCORWS .KG/M3  : DENSITY CORRECTION [DRHOED]
DENWS  .KG/M3  : FORMATION BULK DENSITY [CALC FROM DPOLSWS, M=2710,F=1000]
DPOLSWS.V/V    : DENSITY POROSITY LIMESTONE [CDLSSED CONVERTED TO LIMESTONE MATRIX, M=2710,F=1000, SPL. TO CDLLSED @ 2627.8M]
DRESWS .OHMM   : DEEP RESISTIVITY [RILDED]
DRHOED .KG/M3  : DENSITY CORRECTION FROM DENSITY LOG [ADJ. TO RESISTIVITY LOG]
DTED   .US/M   : DELTA TIME FROM SONIC LOG
DTWS   .US/M   : COMPRESSIONAL SONIC [DTED]
GRDED  .GAPI   : GAMMA RAY FROM DENSITY LOG [ADJ. TO RESISTIVITY LOG]
GRED   .GAPI   : GAMMA RAY FROM GR LOG [ADJ. TO RESISTIVITY LOG]
GRRED  .GAPI   : GAMMA RAY FROM RESISTIVITY LOG
GRWS   .GAPI   : GAMMA RAY [GRRED SPL. TO GRDED @ 2836M]
MRESWS .OHMM   : MEDIUM RESISTIVITY [RILMED]
NPOLSWS.V/V    : NEUTRON POROSITY LIMESTONE [CNSSSED MATRIX CONVERSION FOR LIMESTONE (COMPUTALOG), SPL. TO CNSLSED @ 2627.8M]
RHOBED .KG/M3  : BULK DENSITY FROM DENSITY LOG [ADJ. TO RESISTIVITY LOG]
RILDED .OHMM   : DEEP INDUCTION RESISTIVITY FROM RESISTIVITY LOG
RILMED .OHMM   : MEDIUM INDUCTION RESISTIVITY FROM RESISTIVITY LOG
RLLED  .OHMM   : RAW LATEROLOG FROM RESISTIVITY LOG
SPRED  .MV     : SPONTANEOUS POTENTIAL FROM RESISTIVITY LOG
SPWS   .MV     : SPONTANEOUS POTENTIAL [BASELINE 0 MV, SPRED]
SRESWS .OHMM   : SHALLOW RESISTIVITY [RLLED]
~Params ----------------------------------------------------
PD  .                         GL : PERMANENT DATUM
EPD .M                     702.2 : ELEVATION PERMANENT DATUM
LMF .                         KB : LOG MEASURED FROM
DAPD.M                       6.5 : FEET ABOVE PERMANENT DATUM
EKB .M                     708.7 : KELLY BUSHING
EGL .M                     702.2 : GROUND LEVEL
DATE.                   07/12/83 : RUN DATE
RUN .                          1 : RUN NUMBER
DD  .M                      2850 : DEPTH DRILLER
DL  .M                    2849.5 : DEPTH LOGGER
BLI .M                      2849 : BOTTOM LOG INTERVAL
TLI .M                       421 : TOP LOG INTERVAL
CBD .M                       421 : CASING BOTTOM DRILLER
CBL .M                       421 : CASING BOTTOM LOGGER
BS  .MM                      222 : BIT SIZE
BSD .M                      2850 : BIT SIZE AT DEPTH
DFT .                   GEL CHEM : DRILLING FLUID TYPE
DFD .                       1140 : DRILLING FLUID DENSITY
DFV .                         82 : DRILLING FLUID VISCOSITY
DFPH.                        9.5 : DRILLING FLUID PH
DFL .                        7.4 : DRILLING FLUID LOSS
RMS .OHMM                    2.0 : RESISTIVITY MUD SAMPLE
MST .DEGC                     22 : MUD SAMPLE TEMPERATURE
RMF .OHMM                    1.8 : RESISTIVITY MUD FILTRATE SAMPLE
MFST.DEGC                     24 : MUD FILTRATE SAMPLE TEMPERATURE
RMB .OHMM                   0.79 : RESISTIVITY MUD AT BHT
TCS .HRS                     3.5 : TIME CIRCULATED STOPPED
LUN .                        306 : LOGGING UNIT NUMBER
LUL .             GRANDE PRAIRIE : LOGGING UNIT LOCATION
ENGI.                     HUDSON : RECORDING ENGINEER
WITN.                LICHPENBELT : WITNESSED BY
CLNT.                    A2DTECH : CLIENT CODE
ORIG. 6.5"/100M 16.5"/100M PRINT : ORIGIN OF DATA
UWI .           100061406920W500 : UNIQUE WELL ID
DICO.     A2D Technologies, Inc. : DIGITIZING COMPANY
~Other -----------------------------------------------------
DLL-BHC RUN IN COMBO & CDT-CNT LOG RUN
RHOB,DRHO,GR,CALX AND CALY FROM SMALL SCALE SECTION
~ASCII -----------------------------------------------------
# ...
 1600.00000  228.20250    -999.25  111.68910  228.20250    -999.25  116.29050    -999.25    -999.25    -999.25    -999.25   32.91430    -999.25    -999.25    -999.25   30.38190    -999.25  157.08200  157.08200    -999.25   21.74230   22.83420   22.83420   63.65090    -999.25    -999.25   30.38190   63.65090  165.03140 -124.31570  -90.65570  165.03140
 1650.00000  222.59350    -999.25  111.53610  222.59350    -999.25  112.36910    -999.25    -999.25    -999.25    -999.25   54.06110    -999.25    -999.25    -999.25   18.49760    -999.25  183.59780  183.59780    -999.25   16.53510   23.31430   23.31430   31.43460    -999.25    -999.25   18.49760   31.43460  157.30270  -84.67180  -58.85750  157.30270
 1700.00000  233.24510    -999.25  115.44460  233.24510    -999.25  115.77910    -999.25    -999.25    -999.25    -999.25   16.61540    -999.25    -999.25    -999.25   60.18520    -999.25  171.23280  171.23280    -999.25   16.45350   16.79270   16.79270  146.42940    -999.25    -999.25   60.18520  146.42940  492.48530 -110.68760  -92.71890  492.48530
 1750.00000  242.94630    -999.25  120.93200  242.94630    -999.25  123.76980    -999.25    -999.25    -999.25    -999.25  342.30160    -999.25    -999.25    -999.25    2.92140    -999.25  209.47230  209.47230    -999.25   43.85280   43.69870   43.69870    2.98290    -999.25    -999.25    2.92140    2.98290    8.94520  -55.77850  -45.65540    8.94520
 1800.00000  252.31740    -999.25  124.44930  252.31740    -999.25  126.26060    -999.25    -999.25    -999.25    -999.25   19.88700    -999.25    -999.25    -999.25   50.28410    -999.25  168.90400  168.90400    -999.25   19.06680   20.08610   20.08610   71.65720    -999.25    -999.25   50.28410   71.65720   90.77440  -92.80700  -88.90330   90.77440
 1850.00000  250.84880    -999.25  139.04700  250.84880    -999.25  134.01710    -999.25    -999.25    -999.25    -999.25  236.59120    -999.25    -999.25    -999.25    4.22670    -999.25  240.10280  240.10280    -999.25   83.71780   87.60770   87.60770    4.62450    -999.25    -999.25    4.22670    4.62450    6.79390  -42.48580  -44.78180    6.79390
 1900.00000  228.66360    -999.25  112.93960  228.66360    -999.25  115.08930    -999.25    -999.25    -999.25    -999.25   38.89400    -999.25    -999.25    -999.25   25.71090    -999.25  193.62680  193.62680    -999.25   71.43600   73.25930   73.25930   26.47880    -999.25    -999.25   25.71090   26.47880   30.17140    1.96230   -6.53340   30.17140
 1950.00000  228.05730    -999.25  113.21130  228.05730    -999.25  114.53720    -999.25    -999.25    -999.25    -999.25   29.79480    -999.25    -999.25    -999.25   33.56290    -999.25  183.39950  183.39950    -999.25   44.30360   41.24800   41.24800   36.65250    -999.25    -999.25   33.56290   36.65250   43.45060  -10.91090  -23.01470   43.45060
 2000.00000  236.54810    -999.25  116.98140  236.54810    -999.25  118.21130    -999.25    -999.25    -999.25    -999.25   35.92960    -999.25    -999.25    -999.25   27.83220    -999.25  197.12460  197.12460    -999.25   55.11440   52.07910   52.07910   29.09870    -999.25    -999.25   27.83220   29.09870   41.04560  -34.08520  -49.08320   41.04560
 2050.00000  277.59350    -999.25  137.48410  277.59350    -999.25  139.52320    -999.25    -999.25    -999.25    -999.25    3.83750    -999.25    -999.25    -999.25  260.58780    -999.25  165.61020  165.61020    -999.25   19.31720   20.40650   20.40650  204.06650    -999.25    -999.25  260.58780  204.06650  295.07280  -77.46950  -95.36170  295.07280
 2100.00000  255.07510    -999.25  126.46400  255.07510    -999.25  127.34040    -999.25    -999.25    -999.25    -999.25    2.83510    -999.25    -999.25    -999.25  352.72090    -999.25  158.68170  158.68170    -999.25   17.23410   18.57410   18.57410  257.59830    -999.25    -999.25  352.72090  257.59830  359.60440    5.37010  -15.41620  359.60440
 2150.00000  233.29250    -999.25  115.42180  233.29250    -999.25  117.01990    -999.25    -999.25    -999.25    -999.25   47.95310    -999.25    -999.25    -999.25   20.85370    -999.25  177.87230  177.87230    -999.25   16.94890   14.71370   14.71370   35.44730    -999.25    -999.25   20.85370   35.44730  160.37830  -78.67560 -107.73580  160.37830
 2200.00000  260.93590    -999.25  128.74700  260.93590    -999.25  130.82330    -999.25    -999.25    -999.25    -999.25    0.81150    -999.25    -999.25    -999.25 1232.32350    -999.25  159.40690  159.40690    -999.25   18.46430   18.69540   18.69540  552.84370    -999.25    -999.25 1232.32350  552.84370  923.78350  -22.99640  -63.02840  923.78350
 2250.00000  250.94380    -999.25  124.47040  250.94380    -999.25  126.25250    -999.25    -999.25    -999.25    -999.25   13.57000    -999.25    -999.25    -999.25   73.69220    -999.25  163.98230  163.98230    -999.25   17.80230   19.65140   19.65140   80.21060    -999.25    -999.25   73.69220   80.21060  128.53840 -117.63060 -159.62260  128.53840
 2300.00000  229.50090    -999.25  115.70310  229.50090    -999.25  117.45240    -999.25    -999.25    -999.25    -999.25   11.92730    -999.25    -999.25    -999.25   83.84160    -999.25  156.69150  156.69150    -999.25   19.78280   19.73310   19.73310  110.92370    -999.25    -999.25   83.84160  110.92370  334.25240 -170.90210 -208.43460  334.25240
 2350.00000  252.59010    -999.25  125.63120  252.59010    -999.25  127.73870    -999.25    -999.25    -999.25    -999.25   53.75300    -999.25    -999.25    -999.25   18.60360    -999.25  202.96950  202.96950    -999.25   62.81390   61.51770   61.51770   20.09590    -999.25    -999.25   18.60360   20.09590   33.13490  -50.48750  -83.56050   33.13490
 2400.00000  324.78860    -999.25  161.40720  324.78860    -999.25  167.90830    -999.25    -999.25    -999.25    -999.25  138.61360    -999.25    -999.25    -999.25    7.21430    -999.25  245.81750  245.81750    -999.25   91.12670   91.00610   91.00610    7.70860    -999.25    -999.25    7.21430    7.70860    9.71280  -73.35610   -9.43370    9.71280
 2450.00000  376.00130    -999.25  193.85010  376.00130    -999.25  196.18080    -999.25    -999.25    -999.25    -999.25  183.11660    -999.25    -999.25    -999.25    5.46100    -999.25  258.36080  258.36080    -999.25   82.25210   84.51480   84.51480    4.82590    -999.25    -999.25    5.46100    4.82590    5.73650   -1.16640   -6.37520    5.73650
 2500.00000  375.66410    -999.25  194.03810  375.66410    -999.25  196.14600    -999.25    -999.25    -999.25    -999.25  181.66950    -999.25    -999.25    -999.25    5.50450    -999.25  251.98960  251.98960    -999.25   79.14530   82.78210   82.78210    5.79480    -999.25    -999.25    5.50450    5.79480    6.46290   52.75000   -1.84260    6.46290
 2550.00000  237.52110    -999.25  116.93660  237.52110    -999.25  119.36090    -999.25    -999.25    -999.25    -999.25   60.06550    -999.25    -999.25    -999.25   16.64850    -999.25  199.91080  199.91080    -999.25   67.58910   74.87850   74.87850   19.30060    -999.25    -999.25   16.64850   19.30060   23.97980   19.04030   -2.87950   23.97980
 2600.00000  259.52740    -999.25  132.26100  259.52740    -999.25  129.97360    -999.25    -999.25    -999.25    -999.25   88.02040    -999.25    -999.25    -999.25   11.36100    -999.25  215.85080  215.85080    -999.25   80.57250   82.47820   82.47820   13.31580    -999.25    -999.25   11.36100   13.31580   16.19990   17.89200   -0.80380   16.19990
 2650.00000  279.09660  239.01460  143.07810  279.09660  298.07610  143.34190    0.02130    -999.25    0.23450    -999.25  127.59330  148.06110 2673.57700    0.02130    7.83740  148.06110  230.36170  230.36170   92.96500   91.80990   90.73410   90.73410    9.56500    0.23450 2671.43970    7.83740    9.56500   11.50630  -35.21740   -9.83600   11.50630
 2700.00000  230.30220  227.47050  113.84590  230.30220  234.95900  114.50200    0.01820    -999.25    0.07920    -999.25    6.27010    3.85500 2678.87800    0.01820  159.48640    3.85500  187.15140  187.15140   45.25390   65.44030   50.93910   50.93910  226.75920    0.07920 2678.50440  159.48640  226.75920 1565.75090    7.19530   -9.74280 1565.75090
