~Version ---------------------------------------------------
VERS.      2.0 : CWLS log ASCII Standard -VERSION 2.0
WRAP.       NO : One line per depth step
CREA. 10/25/17 : LAS Creation Date
~Well ------------------------------------------------------
STRT.FT                         1100.0 : START DEPTH
STOP.FT                        10800.0 : STOP DEPTH
STEP.FT                       50.00000 : STEP LENGTH
NULL.                          -999.25 : NULL VALUE
COMP. AMOCO CANADA PETROLEUM CO., LTD. : COMPANY
WELL.       AMOCO N-2 ANTE 11-25-65-23 : WELL
FLD .                                  : FIELD
LOC .                                  : LOCATION
CTRY.                           CANADA : COUNTRY
SRVC.           Schlumberger of Canada : SERVICE COMPANY
DATE.                      30-Oct-1976 : LOGDATE
PROV.                          Alberta : PROVINCE
UWI .                 100112506523W500 : UNIQUE WELL ID
SLAT.WGS84                    54.65705 : SURFACE LATITUDE
SLON.WGS84                   -117.3447 : SURFACE LONGITUDE
~Curve Information -----------------------------------------
DEPT    .FT    : Depth Curve
CALDED  .IN    : CALIPER FROM DENSITY LOG [DEP. ADJ. TO RESIST. LOG]
CALSED  .IN    : CALIPER FROM SONIC LOG [DEP. ADJ. TO RESIST. LOG]
CALWS   .IN    : CALIPER [1152' CALDED 10764' CALSED]
CONDWS  .MMHO  : CONDUCTIVITY [1000/DRESWS]
DCORWS  .G/C3  : DENSITY CORRECTION [DRHOED]
DENWS   .G/C3  : BULK DENSITY [M=2.71, F=1.00] [RHOBED]
DPHILSED.V/V   : DENSITY POROSITY [M=2.71, F=1.00] FROM DENSITY LOG [DEP. ADJ. TO RESIST. LOG]
DPHISSED.V/V   : DENSITY POROSITY [M=2.65, F=1.00] FROM DENSITY LOG [DEP. ADJ. TO RESIST. LOG]
DPOLSWS .V/V   : DENSITY POROSITY [M=2.71, F=1.00] [CAL. FROM DENWS]
DRESWS  .OHMM  : DEEP RESISTIVITY [ILDED]
DRHOED  .G/C3  : DENSITY CORRECTION FROM DENSITY LOG [DEP. ADJ. TO RESIST. LOG]
DTED    .US/F  : DELTA TIME FROM SONIC LOG [DEP. ADJ. TO RESIST. LOG]
DTWS    .US/F  : DELTA TIME [DTED]
GRDED   .GAPI  : GAMMA RAY FROM DENSITY LOG [DEP. ADJ. TO RESIST. LOG]
GRSED   .GAPI  : GAMMA RAY FROM SONIC LOG [DEP. ADJ. TO RESIST. LOG]
GRWS    .GAPI  : GAMMA RAY [1096' GRSED 1142' GRDED]
ILDED   .OHMM  : INDUCTION LOG DEEP RESISTIVITY
ILMED   .OHMM  : INDUCTION LOG MEDIUM RESISTIVITY
LL8ED   .OHMM  : 8 INCH LATEROLOG RESISTIVITY
MRESWS  .OHMM  : MEDIUM RESISTIVITY [ILMED]
NPHILSED.V/V   : NEUTRON POROSITY LIMESTONE FROM DENSITY LOG [DEP. ADJ. TO RESIST. LOG]
NPHISSED.V/V   : NEUTRON POROSITY SANDSTONE FROM DENSITY LOG [DEP. ADJ. TO RESIST. LOG]
NPOLSWS .V/V   : NEUTRON POROSITY LIMESTONE [NPHISSED CONVERTED FOR LIMESTONE, SPL. TO NPHILSED @ 6253']
RHOBED  .G/C3  : BULK DENSITY FROM DENSITY LOG [DEP. ADJ. TO RESIST. LOG]
SPRED   .MV    : SPONTANEOUS POTENTIAL FROM RESISTIVITY LOG
SPWS    .MV    : SPONTANEOUS POTENTIAL [BASELINE 0 MV] [SPRED]
SRESWS  .OHMM  : SHALLOW RESISTIVITY [LL8ED]
~Params ----------------------------------------------------
PD  .                     GL : PERMANENT DATUM
EPD .FT                 2441 : ELEVATION PERMANENT DATUM
LMF .                     KB : LOG MEASURED FROM
DAPD.FT                 13.6 : FEET ABOVE PERMANENT DATUM
EKB .FT               2454.6 : KELLY BUSHING
EGL .FT                 2441 : GROUND LEVEL
DATE.               10/30/76 : RUN DATE
RUN .                      1 : RUN NUMBER
DD  .FT                10805 : DEPTH DRILLER
DL  .FT                10818 : DEPTH LOGGER
BLI .FT                10812 : BOTTOM LOG INTERVAL
TLI .FT                 1155 : TOP LOG INTERVAL
CBD .FT                 1153 : CASING BOTTOM DRILLER
CBL .FT                 1155 : CASING BOTTOM LOGGER
BS  .IN                 8.75 : BIT SIZE
BSD .FT                10805 : BIT SIZE AT DEPTH
DFT .                    GEL : DRILLING FLUID TYPE
DFD .                      9 : DRILLING FLUID DENSITY
DFV .                    115 : DRILLING FLUID VISCOSITY
DFPH.                    9.5 : DRILLING FLUID PH
DFL .                    8.6 : DRILLING FLUID LOSS
MSS .             CIRCULATED : MUD SAMPLE SOURCE
RMS .OHMM               3.02 : RESISTIVITY MUD SAMPLE
MST .DEGF                 62 : MUD SAMPLE TEMPERATURE
RMF .OHMM               2.62 : RESISTIVITY MUD FILTRATE SAMPLE
MFST.DEGF                 52 : MUD FILTRATE SAMPLE TEMPERATURE
MFSS.             CALCULATED : MUD FILTRATE SAMPLE SOURCE
MCSS.             CALCULATED : MUD CAKE SAMPLE SOURCE
TCS .HRS                   3 : TIME CIRCULATED STOPPED
LUN .                   7809 : LOGGING UNIT NUMBER
LUL .                    EDM : LOGGING UNIT LOCATION
ENGI.               SEDGWICK : RECORDING ENGINEER
WITN.              SCHWIEDER : WITNESSED BY
CLNT.                A2DTECH : CLIENT CODE
ORIG.            2" 5" PRINT : ORIGIN OF DATA
UWI .       100112506523W500 : UNIQUE WELL ID
DICO. A2D Technologies, Inc. : DIGITIZING COMPANY
~Other -----------------------------------------------------
~ASCII -----------------------------------------------------
# ...
 6300.00000    9.44840    8.79900    9.44840  111.78930    0.04260    2.53260    0.10980    -999.25    0.10370    8.94540    0.04260   65.57520   65.57520   57.33750   61.56560   57.33750    8.94540   12.61630   36.16710   12.61630    0.18240    -999.25    0.18240    2.53260 -158.75920  -79.45120   36.16710
 6350.00000    9.47500    8.67400    9.47500   51.49600    0.04220    2.72540   -0.01340    -999.25   -0.00900   19.43550    0.04220   55.68590   55.68590   36.13500   30.32440   36.13500   19.43550   29.55430   92.09860   29.55430    0.17500    -999.25    0.17500    2.72540 -134.97700  -46.73670   92.09860
 6400.00000    9.46550    9.25000    9.46550   42.74380    0.03030    2.64100    0.04520    -999.25    0.04040   23.39520    0.03030   59.04350   59.04350   84.79500   84.55720   84.79500   23.39520   25.34280   27.80820   25.34280    0.12080    -999.25    0.12080    2.64100 -110.22440  -23.43100   27.80820
 6450.00000    9.36320    8.99900    9.36320   44.07920    0.01590    2.61410    0.05910    -999.25    0.05610   22.68640    0.01590   63.13260   63.13260   93.44250   94.52880   93.44250   22.68640   24.69890   27.49020   24.69890    0.12480    -999.25    0.12480    2.61410 -101.43610  -16.09910   27.49020
 6500.00000    9.37890    9.14900    9.37890   37.05820    0.01270    2.66420    0.02200    -999.25    0.02680   26.98460    0.01270   61.42500   61.42500   87.58500   86.26300   87.58500   26.98460   29.02110   31.60110   29.02110    0.10710    -999.25    0.10710    2.66420 -102.49090  -18.60080   31.60110
 6550.00000    9.44830    9.29900    9.44830   54.70370    0.01870    2.66950    0.02540    -999.25    0.02370   18.28030    0.01870   63.06440   63.06440   88.39500   93.05570   88.39500   18.28030   19.82350   20.95610   19.82350    0.11400    -999.25    0.11400    2.66950 -103.83280  -21.38960   20.95610
 6600.00000    9.59040    9.50000    9.59040   39.33020    0.04520    2.69310    0.00840    -999.25    0.00990   25.42930    0.04520   62.77550   62.77550  101.79000  103.76300  101.79000   25.42930   27.75610   29.61180   27.75610    0.14310    -999.25    0.14310    2.69310  -93.17600  -12.18920   29.61180
 6650.00000    8.38690    8.00000    8.38690  172.76230    0.11690    2.49400    0.13130    -999.25    0.12630    5.78830    0.11690   67.40040   67.40040   20.68500   21.82190   20.68500    5.78830   10.98970   33.25610   10.98970    0.24540    -999.25    0.24540    2.49400 -220.74650 -140.41360   33.25610
 6700.00000    8.60400    8.25000    8.60400  233.97440    0.11390    2.60500    0.05510    -999.25    0.06140    4.29380    0.11390   61.08380   61.08380   47.64000   44.59360   47.64000    4.29380    6.84410   37.41660    6.84410    0.16110    -999.25    0.16110    2.60500 -200.84910 -121.07390   37.41660
 6750.00000    9.31090    8.64900    9.31090   26.90280    0.08450    2.66880    0.02820    -999.25    0.02410   37.17080    0.08450   53.33670   53.33670   44.29500   41.87560   44.29500   37.17080   44.23880   39.70970   44.23880    0.15820    -999.25    0.15820    2.66880 -150.09140  -70.87020   39.70970
 6800.00000    9.22340    8.50000    9.22340    2.44950    0.04040    2.88040   -0.10490    -999.25   -0.09960  408.24550    0.04040   46.74070   46.74070   33.28500   35.06490   33.28500  408.24550  649.67010  533.88180  649.67010    0.04950    -999.25    0.04950    2.88040 -106.91150  -28.24440  533.88180
 6850.00000    9.99670    9.57400    9.99670  114.14700    0.15450    2.67060    0.02270    -999.25    0.02300    8.77380    0.15450   60.21460   60.21460   65.64000   65.76630   65.64000    8.77380    8.23690   90.23680    8.23690    0.16120    -999.25    0.16120    2.67060 -165.07920  -86.96970   90.23680
 6900.00000    9.13080    8.64900    9.13080  100.42180    0.17720    2.69850    0.00120    -999.25    0.00670    9.95800    0.17720   55.37880   55.37880   14.79000   13.27900   14.79000    9.95800   18.31260  206.89550   18.31260    0.15620    -999.25    0.15620    2.69850 -221.98060 -144.42520  206.89550
 6950.00000    9.76420    9.34900    9.76420   18.87880    0.12830    2.68690    0.01460    -999.25    0.01350   52.96980    0.12830   51.83870   51.83870   23.99250   25.45520   23.99250   52.96980   68.38030   87.45890   68.38030    0.04880    -999.25    0.04880    2.68690 -151.65950  -74.66180   87.45890
 7000.00000    9.08480    8.75000    9.08480  388.87810    0.10270    2.67970    0.02040    -999.25    0.01770    2.57150    0.10270   62.27930   62.27930   28.78500   27.28250   28.78500    2.57150    4.41710   25.36730    4.41710    0.21960    -999.25    0.21960    2.67970 -227.95140 -151.50770   25.36730
 7050.00000   10.68970    9.69900   10.68970  193.54340    0.20620    2.65700    0.02920    -999.25    0.03100    5.16680    0.20620   58.78930   58.78930   24.19500   19.98300   24.19500    5.16680    6.18590   13.37910    6.18590    0.15370    -999.25    0.15370    2.65700 -173.74830  -97.85870   13.37910
 7100.00000    9.67270    9.37400    9.67270   22.75820    0.00100    2.72890   -0.01310    -999.25   -0.01110   44.75170    0.00100   54.25080   54.25080   36.91120   35.37970   36.91120   44.75170   54.88610   78.60620   54.88610    0.05090    -999.25    0.05090    2.72890 -101.83390  -26.50200   78.60620
 7150.00000   12.56040    9.64900   12.56040   13.93360    0.24270    2.44420    0.15490    -999.25    0.15540   71.76900    0.24270   58.41530   58.41530   53.08500   46.65310   53.08500   71.76900   78.78590   62.90390   78.78590    0.05620    -999.25    0.05620    2.44420  -78.54380   -3.86130   62.90390
 7200.00000    9.15670    9.25000    9.15670  159.54590    0.00050    2.70280    0.00990    -999.25    0.00420    6.26810    0.00050   55.59250   55.59250   24.09000   22.17490   24.09000    6.26810    8.97320   27.22020    8.97320    0.12520    -999.25    0.12520    2.70280 -159.56130  -85.82050   27.22020
 7250.00000    9.45170    9.25000    9.45170   89.61460    0.07440    2.78660   -0.04340    -999.25   -0.04480   11.15890    0.07440   52.30540   52.30540   41.49000   40.94630   41.49000   11.15890   19.66600  131.68970   19.66600    0.10290    -999.25    0.10290    2.78660 -136.68860  -63.88330  131.68970
 7300.00000    9.56780    9.37400    9.56780   53.69650    0.03320    2.77090   -0.03350    -999.25   -0.03560   18.62320    0.03320   55.91710   55.91710   42.39000   41.24820   42.39000   18.62320   19.46160   23.07350   19.46160    0.08870    -999.25    0.08870    2.77090 -110.40350  -38.53370   23.07350
 7350.00000   10.05540    9.59900   10.05540   70.66150    0.14370    2.72510   -0.00780    -999.25   -0.00880   14.15300    0.14370   61.25990   61.25990   67.24500   73.46370   67.24500   14.15300   15.69330   21.60890   15.69330    0.12960    -999.25    0.12960    2.72510  -75.75120   -4.82310   21.60890
 7400.00000    9.37090    9.09900    9.37090   11.40610    0.01520    2.71080    0.00440    -999.25   -0.00050   87.67220    0.01520   51.01260   51.01260   17.29500   13.45410   17.29500   87.67220   75.09440  151.42970   75.09440    0.03750    -999.25    0.03750    2.71080 -163.02490  -93.03230  151.42970
 7450.00000    9.77510    9.25000    9.77510    9.03290    0.01380    2.73670   -0.01830    -999.25   -0.01560  110.86260    0.01380   49.74990   49.74990   17.79750   34.91160   17.79750  110.86260  120.78550  224.91320  120.78550    0.01740    -999.25    0.01740    2.73670 -161.92350  -92.87260  224.91320
 7500.00000    9.96100    9.54900    9.96100   26.12230    0.01820    2.67120    0.02690    -999.25    0.02270   38.28150    0.01820   50.85180   50.85180   18.69000   32.09160   18.69000   38.28150   44.25220  126.18870   44.25220    0.02360    -999.25    0.02360    2.67120 -170.44780 -102.33240  126.18870
 7550.00000   10.36590    9.29900   10.36590  137.83410    0.18000    2.60710    0.09130    -999.25    0.06020    7.25510    0.18000   61.38060   61.38060   61.39500   71.83730   61.39500    7.25510    9.13560   13.49720    9.13560    0.15510    -999.25    0.15510    2.60710  -91.45150  -24.27160   13.49720
