~Version ---------------------------------------------------
VERS. 2.0 : CWLS log ASCII Standard -VERSION 2.0
WRAP.  NO : ONE LINE PER DEPTH STEP
~Well ------------------------------------------------------
STRT.F                              1100.0 : START DEPTH
STOP.F                             11250.0 : STOP DEPTH
STEP.F                            50.00000 : STEP LENGTH
NULL.                              -999.25 : NULL VALUE
COMP.                 PETROFINA CANADA LTD : COMPANY
WELL. FINA AMOCO HB SAKWATAMAU 10-21-62-15 : WELL
FLD .                                   WC : FIELD
LOC .                                      : LOCATION
CTRY.                               CANADA : COUNTRY
SRVC.                         Schlumberger : SERVICE COMPANY
DATE.                          21-Aug-1976 : LOGDATE
PROV.                              Alberta : PROVINCE
UWI .                     100102106215W500 : UNIQUE WELL ID
SLAT.WGS84                        54.37886 : SURFACE LATITUDE
SLON.WGS84                       -116.1857 : SURFACE LONGITUDE
~Curve Information -----------------------------------------
DEPT   .F    0   1   0  0 : 1 MEASURED DEPTH
SPR    .MV   07 010 01 00 : SPONTANEOUS POTENTIAL FROM RESISTIVITY LOG
ILD    .OHMM 07 120 46 00 : INDUCTION DEEP RESISTIVITY
ILM    .OHMM 07 120 44 00 : INDUCTION MEDIUM RESISTIVITY
LL8    .OHMM 07 220 08 00 : LATEROLOG 8
CILD   .MMHO 07 110 46 00 : INDUCTION DEEP CONDUCTIVITY
GRS    .GAPI 60 310 01 00 : GAMMA RAY FROM SONIC LOG
CALS   .IN   60 280 50 00 : CALIPER FROM SONIC LOG
DT     .US/F 60 500 00 00 : DELTA-T (INTERVAL TRANSIT TIME)
CALD   .IN   45 280 60 00 : CALIPER FROM DENSITY LOG
DRHO   .G/C3 45 356 01 00 : BULK DENSITY CORRECTION
GRD    .GAPI 45 310 01 00 : GAMMA RAY FROM DENSITY LOG
RHOB   .G/C3 45 350 01 00 : BULK DENSITY
DPHI_SS.DEC  45 890 12 00 : DENSITY POROSITY SANDSTONE
NPHI_SS.DEC  42 890 03 00 : NEUTRON POROSITY SANDSTONE
NPHI_LS.DEC  42 890 01 00 : NEUTRON POROSITY LIMESTONE
DPHI_LS.DEC  45 890 10 00 : DENSITY POROSITY LIMESTONE
~Params ----------------------------------------------------
PD  .                     GL : PERMANENT DATUM
EPD .FT               3315.9 : ELEVATION PERMANENT DATUM
LMF .                     KB : LOG MEASURED FROM
DAPD.FT                 15.1 : FEET ABOVE PERMANENT DATUM
EKB .FT                 3331 : KELLY BUSHING
EGL .FT               3315.9 : GROUND LEVEL
DATE.               08/21/76 : RUN DATE
RUN .                      1 : RUN NUMBER
DD  .FT                11275 : DEPTH DRILLER
DL  .FT                11270 : DEPTH LOGGER
BLI .FT                11267 : BOTTOM LOG INTERVAL
TLI .FT                 1134 : TOP LOG INTERVAL
CBD .FT                 1134 : CASING BOTTOM DRILLER
CBL .FT                 1134 : CASING BOTTOM LOGGER
BS  .IN                 8.75 : BIT SIZE
BSD .FT                11275 : BIT SIZE AT DEPTH
DFT .               GEL CHEM : DRILLING FLUID TYPE
DFD .                    9.5 : DRILLING FLUID DENSITY
DFV .                     95 : DRILLING FLUID VISCOSITY
DFPH.                   10.5 : DRILLING FLUID PH
DFL .                      7 : DRILLING FLUID LOSS
MSS .               FLOWLINE : MUD SAMPLE SOURCE
RMS .OHMM                2.7 : RESISTIVITY MUD SAMPLE
MST .DEGF                 55 : MUD SAMPLE TEMPERATURE
RMF .OHMM               2.65 : RESISTIVITY MUD FILTRATE SAMPLE
MFST.DEGF                 56 : MUD FILTRATE SAMPLE TEMPERATURE
RMB .OHMM               0.56 : RESISTIVITY MUD AT BHT
TCS .HRS                 3.5 : TIME CIRCULATED STOPPED
LUN .                   7691 : LOGGING UNIT NUMBER
LUL .                    WCT : LOGGING UNIT LOCATION
ENGI.                GOODMAN : RECORDING ENGINEER
WITN.                 TIFFIN : WITNESSED BY
CLNT.                A2DTECH : CLIENT CODE
ORIG.            2" 5" PRINT : ORIGIN OF DATA
UWI .       100102106215W500 : UNIQUE WELL ID
DICO. A2D Technologies, Inc. : DIGITIZING COMPANY
~Other -----------------------------------------------------
~ASCII -----------------------------------------------------
# ...
 5400.00000  -23.17270    7.77170    8.33310   12.49620    -999.25   71.07550   12.85030  114.98020   11.52570    0.08900   84.55180    2.03220    0.34310    0.46260    -999.25    -999.25
 5450.00000  -18.46210    7.64250    7.79630   13.89300    -999.25   80.04250   12.82320  106.88210   11.60040    0.15870  102.62840    2.25550    0.34790    0.51480    -999.25    -999.25
 5500.00000  -17.69920    7.62740    7.88630    7.92380    -999.25   77.65790   10.35760   77.71120   10.99500    0.05290   82.08160    2.56990    0.03640    0.24720    -999.25    -999.25
 5550.00000  -55.93820   10.22590   12.05460   15.87420    -999.25   60.47440   10.17080   84.21080   10.53940    0.23220   55.30790    2.43450    0.14700    0.27450    -999.25    -999.25
 5600.00000  -13.53250    9.31580    9.92300   11.15070    -999.25   76.24780   10.33850   76.44630   11.53800    0.04020   88.51310    2.29560    0.04730    0.29010    -999.25    -999.25
 5650.00000  -13.42180   11.78350   13.13850   15.88310    -999.25   84.52720   10.27090   76.03140   11.11380    0.05030   87.53860    2.65230    0.00650    0.31790    -999.25    -999.25
 5700.00000  -45.80940   12.14160   13.73800   20.67000    -999.25   66.38380   10.32540   77.40870   11.33290    0.06650   55.23770    2.62060    0.00100    0.18680    -999.25    -999.25
 5750.00000  -73.15000    7.58580    8.11270   10.35470    -999.25   59.91560   11.10150   76.15240   11.88020    0.06220   62.50680    2.51190    0.09560    0.21650    -999.25    -999.25
 5800.00000  -71.80870    7.57590    8.39260   14.28480    -999.25   61.50670   10.75680   75.87120   11.92520    0.08190   65.32690    2.51560    0.10160    0.21340    -999.25    -999.25
 5850.00000  -61.98970   10.50390    9.02690   14.62710    -999.25   72.13070    9.96040   78.24150   10.97340    0.08650   76.51630    2.56870    0.06060    0.28700    -999.25    -999.25
 5900.00000  -47.79930    8.39090    8.71130   10.28350    -999.25   85.39770   10.18950   75.51640   10.25910    0.02990   86.92140    2.60780    0.02850    0.26760    -999.25    -999.25
 5950.00000  -46.70950    6.40330    6.69980    7.29630    -999.25   78.46760   11.19650   80.77590   11.37170    0.17160   78.66130    2.43650    0.18000    0.30990    -999.25    -999.25
 6000.00000  -45.13890    6.80260    7.11520    7.44920    -999.25  130.09880   11.04720   78.15070   11.14910    0.22180   78.74130    2.44020    0.17500    0.34430    -999.25    -999.25
 6050.00000  -43.97070   12.92560   13.49570   16.81060    -999.25   64.36580   10.73780   74.56490   10.94050    0.06190   60.68710    2.59260    0.03450    0.16400    -999.25    -999.25
 6100.00000  -48.07280   17.26090   21.69870   22.94360    -999.25   42.81510   10.66290  111.76380   12.03640    0.23850   96.55680    2.37160    0.31250    0.44530    -999.25    -999.25
 6150.00000  -87.17460    8.25170    9.65300   15.29450    -999.25   82.91760    9.42240   72.29170    9.32590    0.14780   72.32450    2.54520    0.06350    0.18530    -999.25    -999.25
 6200.00000  -39.29770    5.31230    5.99310    5.85800    -999.25  112.77920   12.18040   93.63610   11.89100    0.06850   74.08650    2.75980   -0.07610    0.37870    -999.25    -999.25
 6250.00000  -31.85570    7.63840    7.86640    9.50530    -999.25  100.90230   10.50570   76.65490   12.22370    0.11850   75.92550    2.69890   -0.01130    0.18080    -999.25    -999.25
 6300.00000  -30.89590    6.77450    7.28750    8.20460    -999.25  108.11620   11.24580   80.72290   14.20370    0.12850   99.69880    2.63020    0.04370    0.24440    -999.25    -999.25
 6350.00000  -20.15660    5.42740    5.70900    7.94940    -999.25   95.68560   11.51680   80.06740   13.91350    0.21310  114.96820    2.41730    0.15350    0.34280    0.38430    0.17040
 6400.00000  -39.38180  287.65020 1296.93550  423.19300    -999.25   40.14560    9.12090   59.11080    9.17350    0.04070   41.11400    2.63660    -999.25    -999.25    0.06670    0.03390
 6450.00000  -34.16690    8.43610    9.13630   18.01400    -999.25   65.44840    9.80440   58.10670    9.85310    0.01530  120.50840    2.68760    -999.25    -999.25    0.13360    0.00450
 6500.00000 -101.70680    3.17230    4.30310   15.50260    -999.25   32.03970    9.76150   65.15290   10.54720    0.11960   49.46340    2.60480    -999.25    -999.25    0.23850    0.07120
 6550.00000  -22.07320  122.90430  160.83260  148.50380    -999.25   52.02220   10.00590   56.37680   10.52220    0.04290   62.96760    2.70680    -999.25    -999.25    0.07140    0.01540
 6600.00000  -44.68890  390.35950  228.61660  236.94830    -999.25   40.05990   10.07840   52.71120   10.92470    0.05490   40.36450    2.69580    -999.25    -999.25    0.02110    0.00890
 6650.00000 -174.60050   44.57130   67.50500  250.62890    -999.25   14.48890    9.79890   49.94850   10.53310    0.05970   15.94140    2.69340    -999.25    -999.25    0.00650   -0.01000
 6700.00000 -178.77550   66.02550  108.30030  342.27290    -999.25   15.69080   10.12950   50.32500   11.07850    0.09490   15.52750    2.65780    -999.25    -999.25    0.00670    0.02590
 6750.00000  -95.91840    2.06870    2.13010    4.99310    -999.25   66.08850   10.33190   68.00760   10.98020    0.02170   65.43280    2.62010    -999.25    -999.25    0.20330    0.05820
 6800.00000  -54.70270   15.50720   16.79900   25.85380    -999.25   81.99200    9.85570   59.08980   10.64960    0.05500   75.80520    2.74640    -999.25    -999.25    0.05650   -0.03400
 6850.00000  -97.21900    6.23390    5.86960   18.02880    -999.25   38.75540   10.30380   58.17720   10.98890    0.10120   36.38570    2.72760    -999.25    -999.25    0.04780   -0.03160
 6900.00000  -41.42400   11.18060   11.78180   18.69220    -999.25   86.50280   10.22140   64.61990   11.40330    0.04940   76.56910    2.75700    -999.25    -999.25    0.07510   -0.03920
 6950.00000  -42.52610   37.24380   39.72990   46.58260    -999.25   42.61260    9.74280   56.59010   10.35580    0.02260   46.66510    2.69900    -999.25    -999.25    0.02910    0.00330
 7000.00000  -40.03670   25.76590   26.57370   31.53450    -999.25   30.39450    9.58330   56.00730    9.94320    0.04320    -999.25    2.70600    -999.25    -999.25   -0.00010   -0.00250
 7050.00000  -50.79590   22.69730   23.87650   28.77720    -999.25   38.18810    9.28830   58.19970    9.64010    0.06770   -0.10120    2.71430    -999.25    -999.25    0.08730   -0.00780
 7100.00000  -87.14080  158.60280  242.23630  249.15790    -999.25   19.12910    9.15380   51.80490    9.36410    0.01640   23.14240    2.70300    -999.25    -999.25    0.00840   -0.01090
 7150.00000 -101.79280   35.20330   42.39440   74.66730    -999.25   21.61410    9.19590   51.30410    9.58000    0.02880   21.28930    2.77730    -999.25    -999.25    0.01130   -0.03590
 7200.00000  -15.76660  152.11690  186.15890  167.14280    -999.25   21.47810    9.53200   51.27690    9.85540    0.01960   23.47140    2.73010    -999.25    -999.25    0.00820   -0.02350
 7250.00000   18.12500  165.12510  227.57250  210.45580    -999.25   39.21470    9.17300   53.41070    9.28760    0.04060   36.34700    2.73440    -999.25    -999.25    0.01450   -0.03660
 7300.00000   27.54980   38.25630   40.85120   54.43270    -999.25  127.36600   10.52000   76.39700   10.71740    0.05650  130.33070    2.66590    -999.25    -999.25    0.17180    0.04180
 7350.00000   23.03240   22.58300   24.46470   27.97830    -999.25  192.46260   10.00910   75.37760   10.19730    0.08140  180.08310    2.61880    -999.25    -999.25    0.21910    0.06170
 7400.00000  -48.08190  178.55740  193.30520  199.39910    -999.25   23.13560   10.21810   51.67150   11.24640    0.04500   17.95100    2.73610    -999.25    -999.25    0.00660   -0.01470
 7450.00000  -20.51490  582.94890  339.28360  390.03580    -999.25   18.63880   10.09930   49.96830   10.97260    0.03640   18.43990    2.73310    -999.25    -999.25    0.00160   -0.00370
 7500.00000  -55.88200 1430.07890  476.32770  839.16190    -999.25   17.35920    9.88410   50.21910   10.73320    0.05280   18.48170    2.75960    -999.25    -999.25    0.00190   -0.02890
