~Version ---------------------------------------------------
VERS. 2.0 : CWLS log ASCII Standard -VERSION 2.0
WRAP.  NO : ONE LINE PER DEPTH STEP
~Well ------------------------------------------------------
STRT.F                       550.0 : START DEPTH
STOP.F                     12450.0 : STOP DEPTH
STEP.F                    50.00000 : STEP LENGTH
NULL.                      -999.25 : NULL VALUE
COMP.       CALIFORNIA STANDARD CO : COMPANY
WELL. STANDARD CYNTHIA 16-21-49-13 : WELL
FLD .                           WC : FIELD
LOC .                              : LOCATION
CTRY.                       CANADA : COUNTRY
SRVC.                 Schlumberger : SERVICE COMPANY
DATE.                  28-Dec-1957 : LOGDATE
PROV.                      Alberta : PROVINCE
UWI .             100162104913W500 : UNIQUE WELL ID
SLAT.WGS84                53.24881 : SURFACE LATITUDE
SLON.WGS84               -115.8321 : SURFACE LONGITUDE
~Curve Information -----------------------------------------
DEPT.F                   : 
MCAL.IN     15 280 01 00 : MLT (MICROLOG) CALIPER
GRN .MG/TON 35 310 00 00 : GAMMA RAY FROM GRN LOG
NEUT.CPS    35 330 30 00 : NEUTRON
CALM.IN     20 280 01 00 : CALIPER FROM MICROLATEROLOG
TENM.LB     20 635 00 00 : TENSION FROM MICROLOG/MICROLOG FOCUSED
MLL .OHMM   20 270 04 00 : MICRO FOCUSED LATEROLOG RESISTIVITY
ILD .OHMM   06 120 46 00 : INDUCTION DEEP RESISTIVITY
SPR1.MV                  : SPONTANEOUS POTENTIAL
CILD.MMHO   06 110 46 00 : INDUCTION DEEP CONDUCTIVITY
SPR2.MV                  : SPONTANEOUS POTENTIAL
LL7 .OHMM   01 220 07 00 : LATEROLOG 7
SPR .MV     01 010 01 00 : SPONTANEOUS POTENTIAL FROM RESISTIVITY LOG
SN  .OHMM   01 040 16 00 : SHORT NORMAL RESISTIVITY
LN  .OHMM   01 060 64 00 : LONG NORMAL RESISTIVITY
LT18.OHMM   01 070 18 00 : LATERAL 18'
~Params ----------------------------------------------------
PD  .                        : PERMANENT DATUM
EPD .FT                    0 : ELEVATION PERMANENT DATUM
LMF .                     KB : LOG MEASURED FROM
DAPD.FT                    0 : FEET ABOVE PERMANENT DATUM
DMF .                     KB : DRILLING MEASURED FROM
EKB .FT                 3297 : KELLY BUSHING
EDF .FT                    0 : DRILLING FLOOR
EGL .FT                    0 : GROUND LEVEL
DATE.               12/28/57 : RUN DATE
RUN .                      4 : RUN NUMBER
DD  .FT                12492 : DEPTH DRILLER
DL  .FT                12492 : DEPTH LOGGER
BLI .FT                12491 : BOTTOM LOG INTERVAL
TLI .FT                 8904 : TOP LOG INTERVAL
CS  .IN                    0 : CASING SIZE
CBD .FT                  616 : CASING BOTTOM DRILLER
CBL .FT                  616 : CASING BOTTOM LOGGER
BS  .IN                    9 : BIT SIZE
BSD .FT                12492 : BIT SIZE AT DEPTH
DFT .               OIL EMUL : DRILLING FLUID TYPE
DFD .                   10.7 : DRILLING FLUID DENSITY
DFV .                    140 : DRILLING FLUID VISCOSITY
DFPH.                     13 : DRILLING FLUID PH
DFL .                    3.6 : DRILLING FLUID LOSS
MSS .                        : MUD SAMPLE SOURCE
RMS .OHMM                1.1 : RESISTIVITY MUD SAMPLE
MST .DEGF                 50 : MUD SAMPLE TEMPERATURE
RMF .OHMM                  0 : RESISTIVITY MUD FILTRATE SAMPLE
MFST.DEGF                  0 : MUD FILTRATE SAMPLE TEMPERATURE
RMC .OHMM                  0 : RESISTIVITY MUD CAKE
MCST.DEGF                  0 : MUD CAKE SAMPLE TEMPERATURE
MFSS.                        : MUD FILTRATE SAMPLE SOURCE
MCSS.                        : MUD CAKE SAMPLE SOURCE
RMB .OHMM               0.28 : RESISTIVITY MUD AT BHT
TCS .HRS                   3 : TIME CIRCULATED STOPPED
TLAB.HRS                   0 : TIME LOGGER AT BOTTOM
LUN .                   1749 : LOGGING UNIT NUMBER
LUL .                     DV : LOGGING UNIT LOCATION
ENGI.                  GOETZ : RECORDING ENGINEER
WITN.             CHARLESTON : WITNESSED BY
CLNT.                A2DTECH : CLIENT CODE
ORIG.            2" 5" PRINT : ORIGIN OF DATA
UWI .       100162104913W500 : UNIQUE WELL ID
DICO. A2D Technologies, Inc. : DIGITIZING COMPANY
OS  .                        : OTHER SERVICES
PWI .                        : PRIMARY WELL IDENTIFIER
R1  .                        : REMARKS 1
R2  .                        : REMARKS 2
LSRV.                        : LOG MNEMONIC
~Other -----------------------------------------------------
~ASCII -----------------------------------------------------
# ...
 9750.00000    8.85430    1.70190  384.69810    -999.25    -999.25    -999.25    -999.25    -999.25    -999.25 -137.35170  166.64170 -134.98450   43.90080  188.29140  503.18270
 9800.00000   12.67900    2.25990  369.02440    -999.25    -999.25    -999.25    -999.25    -999.25    -999.25 -130.25220  559.66400 -128.51450   46.78040  143.95220   28.19020
 9850.00000   11.54210    2.25680  416.07730    -999.25    -999.25    -999.25    -999.25    -999.25    -999.25 -119.69480  213.00370 -118.33840    -999.25  264.76940  373.88590
 9900.00000    8.67310    1.96450  344.51840    -999.25    -999.25    -999.25    -999.25    -999.25    -999.25 -157.68410  117.77510 -154.77100   40.54430  186.63600  810.59170
 9950.00000    9.47350    2.05730  396.30470    -999.25    -999.25    -999.25    -999.25    -999.25    -999.25 -139.02040  703.98440 -139.97700   64.11390  331.22470  483.97410
 10000.00000    9.10590    1.65130  380.84570    -999.25    -999.25    -999.25    -999.25    -999.25    -999.25 -177.41280   57.54680 -176.58010   37.47880  106.22240  248.15870
 10050.00000   10.01390    1.88890  383.49870    -999.25    -999.25    -999.25    -999.25    -999.25    -999.25 -135.69130 1926.08720 -135.45260   79.39350  434.49250  497.81380
 10100.00000    9.23150    3.40990  404.59980    -999.25    -999.25    -999.25    -999.25    -999.25    -999.25 -113.49050  174.98760 -115.28650   49.94450  180.22400  263.26050
 10150.00000    9.00310    1.78980  408.11290    -999.25    -999.25    -999.25    -999.25    -999.25    -999.25 -151.68100  174.15860 -154.80710   52.06510  234.73750  382.88840
 10200.00000   11.35590    2.69560  315.40870    -999.25    -999.25    -999.25    -999.25    -999.25    -999.25 -145.75470  689.72840 -148.05990   57.10130  441.55270  522.27680
 10250.00000    9.29140    4.49720  366.14290    -999.25    -999.25    -999.25    -999.25    -999.25    -999.25 -131.02500  253.93920 -131.52220   47.47140  217.54270  529.08820
 10300.00000    9.53090    4.55250  355.69410    -999.25    -999.25    -999.25    -999.25    -999.25    -999.25 -107.46630   86.14850 -109.15420   39.81250  191.35370  710.52650
 10350.00000    9.97430    6.35120  293.52980    -999.25    -999.25    -999.25    -999.25    -999.25    -999.25 -100.53250   38.70470 -102.57950   25.16820   55.70860  119.98630
 10400.00000   11.91860    6.05860  240.30910    -999.25    -999.25    -999.25    -999.25    -999.25    -999.25 -102.39320   21.59860 -106.15800   16.34890   32.24210   75.32950
 10450.00000    9.55700    3.69600  376.08610    -999.25    -999.25    -999.25    -999.25    -999.25    -999.25 -105.78880  490.95670 -107.63580   53.90710  164.31830   80.49190
 10500.00000   10.22690    2.75640  349.97050    -999.25    -999.25    -999.25    -999.25    -999.25    -999.25  -71.56690   17.65660  -74.31960   22.42940   63.36860  220.31920
 10550.00000   10.24270    2.12590  412.56840    -999.25    -999.25    -999.25    -999.25    -999.25    -999.25  -66.46040  218.60110  -67.82010   53.10060  181.55960  327.57660
 10600.00000    9.50160    6.05720  269.75990    -999.25    -999.25    -999.25    -999.25    -999.25    -999.25  -47.07280   13.67790  -49.02000   11.61770   20.44460   28.52910
 10650.00000   11.08620    7.80930  219.34000    -999.25    -999.25    -999.25    -999.25    -999.25    -999.25    -999.25    -999.25  -47.21050    7.94520   10.52460   15.66490
 10700.00000   11.10070    6.77930  259.83170    -999.25    -999.25    -999.25    -999.25    -999.25    -999.25    -999.25    -999.25  -56.73340   11.04580   13.77490   14.17440
 10750.00000   11.11520    7.37480  230.34680    -999.25    -999.25    -999.25    -999.25    -999.25    -999.25    -999.25    -999.25  -55.37410    8.70330   12.66760   15.28610
 10800.00000   11.12970    6.86690  243.94820    -999.25    -999.25    -999.25    -999.25    -999.25    -999.25    -999.25    -999.25  -50.18760   11.30950   13.79700   18.33830
 10850.00000   11.14420    7.55040  218.52970    -999.25    -999.25    -999.25    -999.25    -999.25    -999.25    -999.25    -999.25  -45.73170    8.43690   12.42770   23.55660
 10900.00000   11.15870    7.55700  261.84150    -999.25    -999.25    -999.25    -999.25    -999.25    -999.25    -999.25    -999.25  -47.31700   12.64210   15.26870   15.84320
 10950.00000   11.17320    6.77330  234.51240    -999.25    -999.25    -999.25    -999.25    -999.25    -999.25    -999.25    -999.25  -47.84880   10.01880   12.15270   17.86680
 11000.00000   11.18770    4.08100  314.79030    -999.25    -999.25    -999.25    -999.25    -999.25    -999.25    -999.25    -999.25  -48.53780   21.44480   33.11090   20.19500
 11050.00000   11.20220    7.57760  245.07670    -999.25    -999.25    -999.25    -999.25    -999.25    -999.25    -999.25    -999.25  -40.49790   10.90770   13.96510   17.72940
 11100.00000   11.21660    6.08910  219.51230    -999.25    -999.25    -999.25    -999.25    -999.25    -999.25    -999.25    -999.25  -41.43460    9.38720   11.79820   15.57330
 11150.00000   11.23110    7.12290  217.31680    -999.25    -999.25    -999.25    -999.25    -999.25    -999.25    -999.25    -999.25  -43.65560    7.96260   15.12660   15.97700
 11200.00000    9.45420    6.30130  262.04350    -999.25    -999.25    -999.25    -999.25    -999.25    -999.25  -44.83430   17.66970  -46.10140   14.78020   21.81110   30.44460
 11250.00000    9.23530    5.62860  313.02780    -999.25    -999.25    -999.25    -999.25    -999.25    -999.25  -47.99820   91.90610  -48.45210   40.24610  114.38780  248.85430
 11300.00000   10.78880   10.85850  228.92390    -999.25    -999.25    -999.25    -999.25    -999.25    -999.25  -52.41480   36.25110  -51.45870   24.90140   80.70850   93.50180
 11350.00000   15.05510    8.10650  177.91440    -999.25    -999.25    -999.25    -999.25    -999.25    -999.25  -63.05860   24.72620  -61.96830    9.93540   28.68650   50.30570
 11400.00000   13.75560    8.97830  155.71700    -999.25    -999.25    -999.25    -999.25    -999.25    -999.25  -70.58070   13.92570  -70.58630    9.04190   20.06690   21.42640
 11450.00000    9.81850    2.69850  300.83820    -999.25    -999.25    -999.25    -999.25    -999.25    -999.25  -74.50280   61.02690  -74.47520   31.30540   91.32910  133.59280
 11500.00000    9.81310    3.81060  236.65410    -999.25    -999.25    -999.25    -999.25    -999.25    -999.25  -67.82890   28.67970  -69.30190   16.90690   35.65580   31.08270
 11550.00000   10.61740    2.08520  296.41760    -999.25    -999.25    -999.25    -999.25    -999.25    -999.25  -72.47940  427.58430  -73.03710   50.86460  144.48720   87.62420
 11600.00000    9.58970    5.10960  215.24520    -999.25    -999.25    -999.25    -999.25    -999.25    -999.25  -61.69270   35.00420  -61.34270   23.13760   64.25890  146.09590
 11650.00000    9.19650    4.59320  239.71580    -999.25    -999.25    -999.25    -999.25    -999.25    -999.25  -49.90900   70.29260  -50.00230   32.88460   77.36690  115.46890
 11700.00000    9.12470    3.60770  279.05150    -999.25    -999.25    -999.25    -999.25    -999.25    -999.25  -37.61250  287.11800  -39.08190   48.57650  210.08890  345.62420
 11750.00000    9.93310    1.55200  379.76120    -999.25    -999.25    -999.25    -999.25    -999.25    -999.25  -29.97670 4879.06490  -30.39640   87.38250  403.17140  298.91160
 11800.00000    9.75540    2.60630  328.32690    -999.25    -999.25    -999.25    -999.25    -999.25    -999.25  -34.25320  617.01330  -34.81830   57.41770  373.72430    -999.25
 11850.00000    9.27860    2.63600  336.57320    -999.25    -999.25    -999.25    -999.25    -999.25    -999.25  -43.24290  814.39430  -47.87780   68.75050  563.78160  738.12020
 11900.00000    9.91740    7.01390  277.18310    -999.25    -999.25    -999.25    -999.25    -999.25    -999.25  -39.80790 1145.67460  -39.13470   51.23230  380.94050  834.26410
 11950.00000   10.08880    5.94560  217.36060    -999.25    -999.25    -999.25    -999.25    -999.25    -999.25  -83.18180  324.85460  -83.60540   54.32230  219.80840  306.35390
