~Version ---------------------------------------------------
VERS.      2.0 : CWLS log ASCII Standard -VERSION 2.0
WRAP.       NO : One line per depth step
CREA. 11/16/17 : LAS Creation Date
~Well ------------------------------------------------------
STRT.FT                        1250.0 : START DEPTH
STOP.FT                       12550.0 : STOP DEPTH
STEP.FT                      50.00000 : STEP LENGTH
NULL.                         -999.25 : NULL VALUE
COMP.     ANADARKO CANADA CORPORATION : COMPANY
WELL. GPD NOEL AMOCO GOLD CK 5-8-69-5 : WELL
FLD .                              WC : FIELD
LOC .                                 : LOCATION
CTRY.                          CANADA : COUNTRY
SRVC.                    Schlumberger : SERVICE COMPANY
DATE.                     03-Nov-1970 : LOGDATE
PROV.                         Alberta : PROVINCE
UWI .                100050806905W600 : UNIQUE WELL ID
SLAT.WGS84                    54.9586 : SURFACE LATITUDE
SLON.WGS84                  -118.7315 : SURFACE LONGITUDE
~Curve Information -----------------------------------------
DEPT  .FT    : Depth Curve
CALSED.IN    : CALIPER FROM SONIC LOG
CALWS .IN    : CALIPER [CALSED]
CILDED.MMHO  : DEEP CONDUCTIVITY INDUCTION FROM RESISTIVITY LOG
CONDWS.MMHO  : CONDUCTIVITY [1000/DRESWS]
DRESWS.OHMM  : DEEP RESISTIVITY [1000/CILDED, IF ILDED <1, ILDED]
DTED  .US/F  : ACOUSTIC TRANSIT TIME SLOWNESS, DELTA T FROM SONIC LOG [ADJ. TO RESISTIVITY LOG]
DTWS  .US/F  : COMPRESSIONAL SONIC [ DTED]
GRSED .GAPI  : GAMMA RAY FROM SONIC LOG [ADJ. TO RESISTIVITY LOG]
GRWS  .GAPI  : GAMMA RAY [GRSED]
ILDED .OHMM  : DEEP INDUCTION RESISTIVITY FROM RESISTIVITY LOG
ILMED .OHMM  : MEDIUM INDUCTION RESISTIVITY FROM RESISTIVITY LOG
LL8ED .OHMM  : LATEROLOG-8 RESISTIVITY FROM RESISTIVITY LOG
MCALED.IN    : MLT [MICROLOG] CALIPER FROM MINILOG
MRESWS.OHMM  : MEDIUM RESISTIVITY [ILMED]
SPRED .MV    : SPONTANEOUS POTENTIAL FROM RESISTIVITY LOG
SPWS  .MV    : SPONTANEOUS POTENTIAL [BASELINE 0 MV, SPRED]
SRESWS.OHMM  : SHALLOW RESISTIVITY [LL8ED]
~Params ----------------------------------------------------
PD  .                     GL : PERMANENT DATUM
EPD .FT                 2152 : ELEVATION PERMANENT DATUM
LMF .                     KB : LOG MEASURED FROM
DAPD.FT                   14 : FEET ABOVE PERMANENT DATUM
EKB .FT                 2166 : KELLY BUSHING
EGL .FT                 2152 : GROUND LEVEL
DATE.               11/04/70 : RUN DATE
RUN .                      1 : RUN NUMBER
DD  .FT                 1319 : DEPTH DRILLER
DL  .FT                 1318 : DEPTH LOGGER
BLI .FT                12587 : BOTTOM LOG INTERVAL
TLI .FT                 1318 : TOP LOG INTERVAL
CBD .FT                12601 : CASING BOTTOM DRILLER
CBL .FT                12594 : CASING BOTTOM LOGGER
BS  .IN                 8.75 : BIT SIZE
BSD .FT                 1319 : BIT SIZE AT DEPTH
DFT .            MAGOBAR GEL : DRILLING FLUID TYPE
DFD .                   11.1 : DRILLING FLUID DENSITY
DFV .                    435 : DRILLING FLUID VISCOSITY
DFPH.                     11 : DRILLING FLUID PH
DFL .                    6.6 : DRILLING FLUID LOSS
MSS .               FLOWLINE : MUD SAMPLE SOURCE
TCS .HRS                 4.5 : TIME CIRCULATED STOPPED
LUN .                   3702 : LOGGING UNIT NUMBER
LUL .                     DC : LOGGING UNIT LOCATION
ENGI.                 SEAMAN : RECORDING ENGINEER
WITN.               SIMMONDS : WITNESSED BY
CLNT.                A2DTECH : CLIENT CODE
ORIG.            2" 5" PRINT : ORIGIN OF DATA
UWI .       100050806905W600 : UNIQUE WELL ID
DICO. A2D Technologies, Inc. : DIGITIZING COMPANY
~Other -----------------------------------------------------
~ASCII -----------------------------------------------------
# ...
 9450.00000    9.82610    9.82610    -999.25    4.20560  237.77870   54.43710   54.43710   53.90060   53.90060  237.77870   62.21090  167.50270    8.21520   62.21090 -164.08990  -22.35630  167.50270
 9500.00000    9.95250    9.95250    -999.25    3.87890  257.80570   56.68640   56.68640   35.58890   35.58890  257.80570   53.21460  180.18080    7.77570   53.21460 -170.28580  -29.54260  180.18080
 9550.00000    9.95590    9.95590    -999.25    0.92900 1076.41220   50.06510   50.06510   13.10060   13.10060 1076.41220   50.95670  262.71150   10.89900   50.95670 -221.90370  -82.15100  262.71150
 9600.00000   10.01850   10.01850    -999.25    3.52080  284.02640   48.86040   48.86040   14.24830   14.24830  284.02640   62.35320  599.52060   12.96340   62.35320 -248.21040 -109.44810  599.52060
 9650.00000   10.01850   10.01850    -999.25    7.72660  129.42320   49.71280   49.71280   14.35060   14.35060  129.42320   44.92520  962.01050   11.78440   44.92520 -234.36560  -96.59380  962.01050
 9700.00000   10.33850   10.33850    -999.25   62.97270   15.87990   62.20070   62.20070   39.60760   39.60760   15.87990   19.36690   22.11500   10.48600   19.36690 -145.40360   -8.62220   22.11500
 9750.00000    9.87970    9.87970    -999.25   11.87150   84.23560   52.65560   52.65560   48.93470   48.93470   84.23560   43.44030  151.13450    7.91260   43.44030 -134.69750    1.16150  151.13450
 9800.00000   10.05170   10.05170    -999.25    2.18270  458.15120   51.24990   51.24990   48.13530   48.13530  458.15120   61.81820  929.99190    9.26780   61.81820 -145.35560   -9.96400  929.99190
 9850.00000   10.08870   10.08870    -999.25    8.42370  118.71310   56.79160   56.79160   49.22030   49.22030  118.71310   37.78670  194.37290    7.23400   37.78670 -141.02370   -6.09940  194.37290
 9900.00000    9.92200    9.92200    -999.25    9.09410  109.96170   49.77510   49.77510    8.99120    8.99120  109.96170   60.66010  110.33710    9.38720   60.66010 -180.81970  -46.36270  110.33710
 9950.00000    9.99920    9.99920    -999.25    3.85320  259.52790   51.47860   51.47860   30.82890   30.82890  259.52790   93.90550  319.34580    8.58910   93.90550 -148.60950  -14.61980  319.34580
 10000.00000    9.98920    9.98920    -999.25    9.79420  102.10150   54.51370   54.51370   25.75720   25.75720  102.10150   87.62200  127.13220    8.36040   87.62200 -146.86840  -13.34600  127.13220
 10050.00000    9.99920    9.99920    -999.25   26.59790   37.59700   58.41240   58.41240   39.96030   39.96030   37.59700   41.78260   51.23100    8.38700   41.78260 -141.72670   -8.67160   51.23100
 10100.00000    9.65680    9.65680    -999.25   10.10820   98.92970   53.92040   53.92040   33.43920   33.43920   98.92970   80.78150  181.77060    8.47600   80.78150 -145.57840  -12.99060  181.77060
 10150.00000    9.93970    9.93970    -999.25   10.14830   98.53890   54.01790   54.01790   24.70460   24.70460   98.53890  129.79840  128.85470    8.50270  129.79840 -157.61760  -25.49710  128.85470
 10200.00000   10.12500   10.12500    -999.25   34.16610   29.26880   60.95160   60.95160   41.98460   41.98460   29.26880   25.57090   33.69710    8.50890   25.57090 -160.67480  -29.02160   33.69710
 10250.00000   10.10960   10.10960    -999.25   30.38760   32.90820   62.55940   62.55940   51.32180   51.32180   32.90820   31.17090   39.33150    8.56320   31.17090 -144.56700  -13.38110   39.33150
 10300.00000    9.65410    9.65410    -999.25    6.48270  154.25710   55.95770   55.95770   44.96320   44.96320  154.25710  118.67840  160.37300    8.53250  118.67840 -136.09990   -5.38130  160.37300
 10350.00000    9.64490    9.64490    -999.25    2.48750  402.01310   54.62630   54.62630   36.85720   36.85720  402.01310  336.33180  467.71800    8.56510  336.33180 -135.33660   -5.08530  467.71800
 10400.00000   10.02150   10.02150    -999.25    0.54990 1818.59730   48.25960   48.25960   13.43190   13.43190 1818.59730 1656.28130 1197.69370   10.38530 1656.28130 -148.45310  -17.14010 1197.69370
 10450.00000    9.98790    9.98790    -999.25    0.53300 1876.34750   48.34710   48.34710   16.36950   16.36950 1876.34750 1744.52720 1205.90840    8.97040 1744.52720 -168.73360  -36.02320 1205.90840
 10500.00000   10.06930   10.06930    -999.25    0.53920 1854.62840   48.30030   48.30030   14.63580   14.63580 1854.62840 1805.53580 1170.84800   12.45420 1805.53580 -200.66970  -66.56190 1170.84800
 10550.00000    9.70060    9.70060    -999.25    0.61480 1626.48600   49.83360   49.83360   12.73060   12.73060 1626.48600 1716.11610 1173.86130    8.54950 1716.11610 -214.95240  -79.44720 1173.86130
 10600.00000    9.63010    9.63010    -999.25    0.58630 1705.50040   48.47650   48.47650   12.40890   12.40890 1705.50040 1822.85330 1149.67160    8.62830 1822.85330 -223.59610  -86.69360 1149.67160
 10650.00000   10.07090   10.07090    -999.25    0.58540 1708.23740   49.85780   49.85780   14.43910   14.43910 1708.23740 1745.39990 1191.78490   11.65850 1745.39990 -227.56740  -89.26750 1191.78490
 10700.00000   10.10200   10.10200    -999.25    6.28620  159.07930   48.92580   48.92580   13.64520   13.64520  159.07930 1125.55580  421.83980   10.64340 1125.55580 -235.16470  -95.46740  421.83980
 10750.00000   10.56170   10.56170    -999.25    2.17060  460.70540   49.33720   49.33720   12.81870   12.81870  460.70540 1726.32300  951.48280    9.49280 1726.32300 -245.85250 -104.75780  951.48280
 10800.00000    9.20030    9.20030    -999.25    1.69580  589.68180   45.37020   45.37020   12.15900   12.15900  589.68180 1772.94840 1137.11660    8.62540 1772.94840 -259.16120 -116.66920 1137.11660
 10850.00000    8.27490    8.27490    -999.25  119.87390    8.34210   53.47280   53.47280   14.68300   14.68300    8.34210   12.15530   60.33610    -999.25   12.15530 -268.00090 -124.11150   60.33610
 10900.00000    9.34280    9.34280    -999.25   31.36140   31.88630   49.35390   49.35390   15.93310   15.93310   31.88630   37.65090   91.13550    -999.25   37.65090 -272.30430 -127.01750   91.13550
 10950.00000    9.43390    9.43390    -999.25    2.99620  333.75970   46.77630   46.77630   13.41130   13.41130  333.75970   91.28570  270.72360    -999.25   91.28570 -239.06640  -92.38230  270.72360
 11000.00000    8.62960    8.62960    -999.25   20.52910   48.71140   52.36130   52.36130   12.15180   12.15180   48.71140   39.53420  109.06900    -999.25   39.53420 -255.17490 -107.09340  109.06900
 11050.00000    9.39400    9.39400    -999.25    9.07400  110.20540   46.67550   46.67550   11.09660   11.09660  110.20540  110.36430  121.74950    -999.25  110.36430 -274.17280 -124.69390  121.74950
 11100.00000    8.98360    8.98360    -999.25    0.59090 1692.20950   45.61760   45.61760   10.17430   10.17430 1692.20950  537.50670  333.23740    -999.25  537.50670 -276.96290 -126.08660  333.23740
 11150.00000    9.65690    9.65690    -999.25    0.52470 1905.67400   45.06130   45.06130   13.90460   13.90460 1905.67400 1654.73350 1209.45210    -999.25 1654.73350 -252.90150 -100.62790 1209.45210
 11200.00000    9.39150    9.39150    -999.25   11.27530   88.68970   47.13990   47.13990   17.11790   17.11790   88.68970   54.43670   45.08900    -999.25   54.43670 -274.36430 -120.69330   45.08900
 11250.00000    9.63530    9.63530    -999.25    0.58530 1708.45210   47.66080   47.66080   12.80310   12.80310 1708.45210  186.41020  392.98770    -999.25  186.41020 -290.61510 -135.54670  392.98770
 11300.00000    9.50240    9.50240    -999.25    0.58290 1715.52640   48.29300   48.29300    9.76180    9.76180 1715.52640 1807.71470  475.48790    -999.25 1807.71470 -277.47390 -121.00820  475.48790
 11350.00000   10.00230   10.00230    -999.25    1.63690  610.90780   46.62770   46.62770   20.42540   20.42540  610.90780   74.69480  329.40720    -999.25   74.69480 -234.49860  -76.63550  329.40720
 11400.00000   10.06680   10.06680    -999.25    7.28150  137.33470   54.16210   54.16210   18.55160   18.55160  137.33470   56.12440  264.78710    -999.25   56.12440 -208.93820  -49.67770  264.78710
 11450.00000    9.96490    9.96490    -999.25    3.45170  289.70880   47.80250   47.80250   13.62230   13.62230  289.70880   72.23440  508.10150    -999.25   72.23440 -233.30580  -72.64790  508.10150
