~Version ---------------------------------------------------
VERS.      2.0 : CWLS log ASCII Standard -VERSION 2.0
WRAP.       NO : One line per depth step
CREA. 10/24/17 : LAS Creation Date
~Well ------------------------------------------------------
STRT.FT                        650.0 : START DEPTH
STOP.FT                       4200.0 : STOP DEPTH
STEP.FT                     50.00000 : STEP LENGTH
NULL.                        -999.25 : NULL VALUE
COMP. CANADIAN OIL COMPANIES LIMITED : COMPANY
WELL. WHITE ROSE DUVERNAY 11-22-55-1 : WELL
FLD .                                : FIELD
LOC .                                : LOCATION
CTRY.                         CANADA : COUNTRY
SRVC.                        Unknown : SERVICE COMPANY
DATE.                    08-Aug-1961 : LOGDATE
PROV.                        Alberta : PROVINCE
UWI .               100112205512W400 : UNIQUE WELL ID
SLAT.WGS84                  53.76748 : SURFACE LATITUDE
SLON.WGS84                 -111.7019 : SURFACE LONGITUDE
~Curve Information -----------------------------------------
DEPT  .FT         : Depth Curve
CALSED.IN         : CALIPER FROM SONIC LOG [ADJ. TO IEL &LL LOG]
CALWS .IN         : CALIPER [MCALED SPL. TO CALSED @ 3562']
CILDED.MMHO       : CONDUCTIVITY FROM IEL LOG
CLLDED.MMHO       : CONDUCTIVITY FROM LL LOG [ADJ. TO IEL LOG]
CONDWS.MMHO       : CONDUCTIVITY [1000/DRESWS]
DRESWS.OHMM       : DEEP RESISTIVITY [1000/CILDED,IF ILDED <5,ILDED,SPL. TO LLED @ 3646']
DTED  .US/F       : DELTA-T FROM SONIC LOG [ADJ. TO IEL &LL LOG]
DTWS  .US/F       : COMPRESSIONAL SONIC [DTED]
GRSED .UgRa-Eq/T  : GAMMA RAY FROM SONIC LOG [ADJ. TO IEL & LL LOG]
GRWS  .GAPI       : GAMMA RAY [GRSED*16.5]
ILDED .OHMM       : DEEP INDUCTION RESISTIVITY FROM IEL LOG
LLED  .OHMM       : LATEROLOG RESISTIVITY FROM LL LOG [ADJ. TO IEL LOG]
MCALED.IN         : CALIPER FROM MICRO LOG
SNED  .OHMM       : SHORT NORMAL RESISTIVITY FROM IEL LOG
SPRED .MV         : SPONTANEOUS POTENTIAL FROM IEL & LL LOG [SPR FROM IEL & SPR_1 FROM LL LOG] [ADJ. TO IEL LOG]
SPWS  .MV         : SPONTANEOUS POTENTIAL [BASELINE 0 MV, SPRED]
SRESWS.OHMM       : SHALLOW RESISTIVITY [SNED]
~Params ----------------------------------------------------
LMF .                     KB : LOG MEASURED FROM
DMF .                     KB : DRILLING MEASURED FROM
EKB .FT                 1948 : KELLY BUSHING
EGL .FT                 1937 : GROUND LEVEL
DATE.               09/08/61 : RUN DATE
RUN .                      1 : RUN NUMBER
DD  .FT                 4221 : DEPTH DRILLER
DL  .FT                 4223 : DEPTH LOGGER
BLI .FT                 4218 : BOTTOM LOG INTERVAL
TLI .FT                 3600 : TOP LOG INTERVAL
BS  .IN                 6.25 : BIT SIZE
BSD .FT                 4221 : BIT SIZE AT DEPTH
DFT .               SALT GEL : DRILLING FLUID TYPE
DFD .                   10.8 : DRILLING FLUID DENSITY
DFV .                     53 : DRILLING FLUID VISCOSITY
DFL .                    8.2 : DRILLING FLUID LOSS
RMS .OHMM               0.05 : RESISTIVITY MUD SAMPLE
MST .DEGF                 57 : MUD SAMPLE TEMPERATURE
RMB .OHMM               0.03 : RESISTIVITY MUD AT BHT
TCS .HRS                   2 : TIME CIRCULATED STOPPED
LUN .                   1574 : LOGGING UNIT NUMBER
LUL .                    EDM : LOGGING UNIT LOCATION
ENGI.          MILLS PARTHER : RECORDING ENGINEER
WITN.                MCNEALY : WITNESSED BY
CLNT.                A2DTECH : CLIENT CODE
ORIG.            2" 5" PRINT : ORIGIN OF DATA
UWI .       100112205512W400 : UNIQUE WELL ID
DICO. A2D Technologies, Inc. : DIGITIZING COMPANY
~Other -----------------------------------------------------
IEL-LL-BHC-MICRO LOG RAN
LLED IS IN INFINITY SCALE HENCE MAX VALUE COMES AS 87708 OHMM
~ASCII -----------------------------------------------------
# ...
 2700.00000    -999.25    9.43100   70.50880    -999.25   70.65990   14.15770    -999.25    -999.25    -999.25    -999.25   14.15770    -999.25    9.43100   32.39060 -111.65280 -111.65280   32.39060
 2750.00000    -999.25    9.45450   43.34650    -999.25   41.88060   23.87740    -999.25    -999.25    -999.25    -999.25   23.87740    -999.25    9.45450   40.87080  -96.55900  -96.55900   40.87080
 2800.00000    -999.25    9.87170  119.36590    -999.25  112.37600    8.89870    -999.25    -999.25    -999.25    -999.25    8.89870    -999.25    9.87170   24.98840 -112.18670 -112.18670   24.98840
 2850.00000    -999.25    9.12960  139.81470    -999.25  140.44320    7.12040    -999.25    -999.25    -999.25    -999.25    7.12040    -999.25    9.12960   24.10740 -108.92390 -108.92390   24.10740
 2900.00000    -999.25   10.34510   75.39750    -999.25   74.97150   13.33840    -999.25    -999.25    -999.25    -999.25   13.33840    -999.25   10.34510   14.32430  -39.92080  -39.92080   14.32430
 2950.00000    -999.25   11.71610  122.02140    -999.25  123.03760    8.12770    -999.25    -999.25    -999.25    -999.25    8.12770    -999.25   11.71610    9.19240  -30.80020  -30.80020    9.19240
 3000.00000    -999.25   15.27250  148.85780    -999.25  145.83850    6.85690    -999.25    -999.25    -999.25    -999.25    6.85690    -999.25   15.27250    6.46670  -30.21230  -30.21230    6.46670
 3050.00000    -999.25   10.41530   85.67070    -999.25   76.92310   13.00000    -999.25    -999.25    -999.25    -999.25   13.00000    -999.25   10.41530   15.95200  -33.26370  -33.26370   15.95200
 3100.00000    -999.25   10.84050   39.24570    -999.25   36.43750   27.44730    -999.25    -999.25    -999.25    -999.25   27.44730    -999.25   10.84050   26.74910  -34.91200  -34.91200   26.74910
 3150.00000    -999.25    9.16210   31.06740    -999.25   27.19020   36.77800    -999.25    -999.25    -999.25    -999.25   36.77800    -999.25    9.16210   36.08650  -48.11170  -48.11170   36.08650
 3200.00000    -999.25   11.21570  370.79270    -999.25  370.79270    2.69920    -999.25    -999.25    -999.25    -999.25    2.70030    -999.25   11.21570    2.98180  -80.90460  -80.90460    2.98180
 3250.00000    -999.25   13.07580  165.81900    -999.25  169.73320    5.89160    -999.25    -999.25    -999.25    -999.25    5.89160    -999.25   13.07580    5.24170  -79.17410  -79.17410    5.24170
 3300.00000    -999.25   10.28220  111.91630    -999.25  110.89670    9.01740    -999.25    -999.25    -999.25    -999.25    9.01740    -999.25   10.28220    9.94850  -29.17230  -29.17230    9.94850
 3350.00000    -999.25    9.29770  103.08790    -999.25  101.66380    9.83630    -999.25    -999.25    -999.25    -999.25    9.83630    -999.25    9.29770   10.29980  -49.60430  -49.60430   10.29980
 3400.00000    -999.25   10.83900  185.61540    -999.25  190.05630    5.26160    -999.25    -999.25    -999.25    -999.25    5.26160    -999.25   10.83900    4.94100  -80.35920  -80.35920    4.94100
 3450.00000    -999.25    8.85820   88.79620    -999.25   86.98390   11.49640    -999.25    -999.25    -999.25    -999.25   11.49640    -999.25    8.85820   12.75530  -65.04710  -65.04710   12.75530
 3500.00000    -999.25    9.56870  131.53760    -999.25  133.50420    7.49040    -999.25    -999.25    -999.25    -999.25    7.49040    -999.25    9.56870    7.90300  -42.69250  -42.69250    7.90300
 3550.00000    -999.25    9.55330  329.39560  249.69560  329.39560    3.03590   92.76060   92.76060    -999.25    -999.25    3.20160    3.80480    9.55330    3.25500  -38.12510  -38.12510    3.25500
 3600.00000    7.88370    7.88370   92.02480   70.30250   87.38470   11.45010   67.23100   67.23100    1.95690   32.28880   11.45010   15.94690    8.23990   14.61660  -48.97700  -48.97700   14.61660
 3650.00000    7.94950    7.94950  174.14960   94.89650   85.28860   11.72490   67.22840   67.22840    3.77920   62.35680    5.48240   11.72490    8.11040    7.55510  -66.92900  -66.92900    7.55510
 3700.00000   10.22940   10.22940    -999.25   10.09230    0.01170 85669.63670   73.47110   73.47110    0.41570    6.85820    -999.25 85669.63670    -999.25    -999.25  -83.98820  -83.98820    -999.25
 3750.00000    9.48640    9.48640    -999.25    9.80630    0.01210 82985.42190   74.55140   74.55140    0.58750    9.69370    -999.25 82985.42190    -999.25    -999.25  -94.18180  -94.18180    -999.25
 3800.00000    8.68020    8.68020    -999.25    9.96250    0.01190 83952.92970   71.40380   71.40380    0.42530    7.01750    -999.25 83952.92970    -999.25    -999.25 -100.17330 -100.17330    -999.25
 3850.00000    8.23310    8.23310    -999.25    9.97890    0.01170 85248.64060   75.24190   75.24190    0.38350    6.32780    -999.25 85248.64060    -999.25    -999.25  -90.94900  -90.94900    -999.25
 3900.00000    7.92830    7.92830    -999.25    9.85900    0.01180 84904.64840   74.04000   74.04000    0.47300    7.80450    -999.25 84904.64840    -999.25    -999.25  -92.70460  -92.70460    -999.25
 3950.00000    7.57480    7.57480    -999.25   16.59460    3.43390 1291.22770   74.60200   74.60200    0.58870    9.71350    -999.25 1291.22770    -999.25    -999.25  -89.02550  -89.02550    -999.25
 4000.00000    7.58830    7.58830    -999.25   13.77340    0.14480 6904.78120   75.05380   75.05380    1.27010   20.95670    -999.25 6904.78120    -999.25    -999.25  -87.68010  -87.68010    -999.25
 4050.00000    7.65810    7.65810    -999.25   14.07480    0.01180 84856.94530   74.73870   74.73870    0.41770    6.89210    -999.25 84856.94530    -999.25    -999.25  -94.52680  -94.52680    -999.25
 4100.00000    7.69140    7.69140    -999.25   13.15720    0.01180 84754.00780   69.26270   69.26270    0.43920    7.24680    -999.25 84754.00780    -999.25    -999.25  -76.82230  -76.82230    -999.25
 4150.00000    7.41510    7.41510    -999.25   32.89660   22.31690   44.80900   57.50210   57.50210    1.63890   27.04190    -999.25   44.80900    -999.25    -999.25  -13.32530  -13.32530    -999.25
 4200.00000    5.57120    5.57120    -999.25   21.49000   11.63950   88.67470   50.23950   50.23950    0.01700    0.28130    -999.25   88.67470    -999.25    -999.25  -78.42060  -78.42060    -999.25
