~Version ---------------------------------------------------
VERS.      2.0 : CWLS log ASCII Standard -VERSION 2.0
WRAP.       NO : One line per depth step
CREA. 12/19/17 : LAS Creation Date
~Well ------------------------------------------------------
STRT.FT                   1500.0 : START DEPTH
STOP.FT                  10100.0 : STOP DEPTH
STEP.FT                 50.00000 : STEP LENGTH
NULL.                    -999.25 : NULL VALUE
COMP. PHILLIPS PETROLEUM COMPANY : COMPANY
WELL. PHILLIPS KAYBOB 2-18-63-18 : WELL
FLD .                     KAYBOB : FIELD
LOC .                            : LOCATION
CTRY.                     CANADA : COUNTRY
SRVC.                      Welex : SERVICE COMPANY
DATE.                15-Dec-1959 : LOGDATE
PROV.                    Alberta : PROVINCE
UWI .           100021806318W500 : UNIQUE WELL ID
SLAT.WGS84              54.44531 : SURFACE LATITUDE
SLON.WGS84             -116.7064 : SURFACE LONGITUDE
~Curve Information -----------------------------------------
DEPT  .FT    : Depth Curve
CALWS .IN    : CALIPER [MCALED]
CONDWS.MMHO  : CONDUCTIVITY [1000/DRESWS]
DRESWS.OHMM  : DEEP RESISTIVITY [LAT9ED]
GRNED .GAPI  : GAMMA RAY FROM GRN LOG [ADJ. TO RESISTIVITY LOG]
GRWS  .GAPI  : GAMMA RAY [GRNED]
LAT9ED.OHMM  : LATEROLOG 9' FROM RESISTIVITY LOG
LT16ED.OHMM  : LATERLOG 16' FROM RESISTIVITY LOG
MCALED.IN    : CALIPER FROM MICRO LOG
NEUTED.NAPI  : NEUTRON FROM GRN LOG [ADJ. TO RESISTIVITY LOG]
NEUTWS.NAPI  : NEUTRON [NEUTED]
SNED  .OHMM  : SHORT NORMAL FROM RESISTIVITY LOG
SPRED .MV    : SPONTANEOUS POTENTIAL FROM RESISTIVITY LOG
SPWS  .MV    : SPONTANEOUS POTENTIAL [BASELINE 0 MV, SPRED]
SRESWS.OHMM  : SHALLOW RESISTIVITY [SNED]
~Params ----------------------------------------------------
PD  .                         RKB : PERMANENT DATUM
LMF .                          KB : LOG MEASURED FROM
DMF .                          KB : DRILLING MEASURED FROM
EKB .FT                      2620 : KELLY BUSHING
EDF .FT                      2618 : DRILLING FLOOR
EGL .FT                      2605 : GROUND LEVEL
DATE.                    12/15/59 : RUN DATE
RUN .                           2 : RUN NUMBER
DD  .FT                     10140 : DEPTH DRILLER
DL  .FT                     10144 : DEPTH LOGGER
BLI .FT                     10143 : BOTTOM LOG INTERVAL
TLI .FT                      1510 : TOP LOG INTERVAL
CS  .IN                     9.625 : CASING SIZE
CBD .FT                    1510.5 : CASING BOTTOM DRILLER
CBL .FT                      1510 : CASING BOTTOM LOGGER
BS  .IN                     7.875 : BIT SIZE
BSD .FT                     10140 : BIT SIZE AT DEPTH
DFT . OIL EMULSION GEL QX CAUSTIC : DRILLING FLUID TYPE
DFD .                        10.4 : DRILLING FLUID DENSITY
DFV .                          95 : DRILLING FLUID VISCOSITY
DFPH.                         9.5 : DRILLING FLUID PH
DFL .                         6.4 : DRILLING FLUID LOSS
MSS .                  CIRCULATED : MUD SAMPLE SOURCE
RMS .OHMM                     1.8 : RESISTIVITY MUD SAMPLE
MST .DEGF                      60 : MUD SAMPLE TEMPERATURE
RMF .OHMM                     1.5 : RESISTIVITY MUD FILTRATE SAMPLE
MFST.DEGF                      60 : MUD FILTRATE SAMPLE TEMPERATURE
RMC .OHMM                     2.2 : RESISTIVITY MUD CAKE
MCST.DEGF                      60 : MUD CAKE SAMPLE TEMPERATURE
RMB .OHMM                     0.6 : RESISTIVITY MUD AT BHT
MRT .DEGF                     194 : MAXIMUM RECORDED TEMPERATURE
LUN .                        6101 : LOGGING UNIT NUMBER
ENGI.                      FOWLER : RECORDING ENGINEER
WITN.            TIBBITS FISHBUCK : WITNESSED BY
CLNT.                     A2DTECH : CLIENT CODE
ORIG.                 2" 5" PRINT : ORIGIN OF DATA
UWI .            100021806318W500 : UNIQUE WELL ID
DICO.      A2D Technologies, Inc. : DIGITIZING COMPANY
~Other -----------------------------------------------------
IEL-GRN-ML LOG RAN
DATA FROM SMALL SCALE
~ASCII -----------------------------------------------------
# ...
 6400.00000    7.52080    8.92840  112.00160   37.77710   37.77710  112.00160   54.79210    7.52080  705.14830  705.14830   52.01560 -200.03720 -122.73420   52.01560
 6450.00000    8.56680   27.32290   36.59940   45.76920   45.76920   36.59940   23.28890    8.56680  799.15370  799.15370   62.97980 -151.65080  -76.50740   62.97980
 6500.00000    8.50110    5.87870  170.10530   67.34470   67.34470  170.10530  170.79780    8.50110  825.31810  825.31810   94.58400  -93.32080  -20.33690   94.58400
 6550.00000    9.91940    5.63570  177.44060  112.49120  112.49120  177.44060  241.01300    9.91940  643.99480  643.99480   66.92950  -81.59460   -8.64900   66.92950
 6600.00000    8.01600   85.14620   11.74450   77.60640   77.60640   11.74450    3.94720    8.01600  743.92170  743.92170   30.18000 -137.55730  -63.55730   30.18000
 6650.00000    8.51460   12.16360   82.21250   96.38580   96.38580   82.21250   32.37550    8.51460  713.02250  713.02250   34.92010 -113.38360  -38.32910   34.92010
 6700.00000    8.89800   11.28300   88.62910   63.71490   63.71490   88.62910   40.83470    8.89800  755.37490  755.37490   63.88630 -104.51330  -28.40430   63.88630
 6750.00000    9.32960    1.31130  762.60500   33.62450   33.62450  762.60500 1162.79910    9.32960  683.07800  683.07800  141.24270 -144.72760  -67.56410  141.24270
 6800.00000    8.10100    3.15670  316.78870   34.45720   34.45720  316.78870  175.83830    8.10100  669.20610  669.20610   84.24170 -208.95350 -130.73550   84.24170
 6850.00000    8.00810    3.07080  325.64590   35.28630   35.28630  325.64590  331.11070    8.00810  671.62160  671.62160  125.84090 -213.20030 -133.92790  125.84090
 6900.00000    8.88360  365.71090    2.73440  100.02550  100.02550    2.73440    2.43030    8.88360  434.54300  434.54300    4.18650  -85.10990   -4.78300    4.18650
 6950.00000    8.53270  124.43380    8.03640  103.45610  103.45610    8.03640    5.38390    8.53270  506.57980  506.57980   11.81190  -88.14080  -10.96970   11.81190
 7000.00000    8.14580  381.60660    2.62050   70.95790   70.95790    2.62050    2.76150    8.14580  585.40110  585.40110    8.33660 -117.28380  -35.52180    8.33660
 7050.00000    8.41850   24.20230   41.31840   67.26820   67.26820   41.31840   12.09530    8.41850  519.07070  519.07070   17.39110 -108.04330  -26.30200   17.39110
 7100.00000    8.46770    7.30940  136.81020   44.10730   44.10730  136.81020  137.03610    8.46770  582.14860  582.14860   76.76530 -118.59220  -38.66510   76.76530
 7150.00000    9.57280   38.65990   25.86660   46.15780   46.15780   25.86660    9.85870    9.57280  556.84690  556.84690   30.90400 -156.47890  -78.36590   30.90400
 7200.00000    8.16450   10.06840   99.32060   53.31680   53.31680   99.32060   48.43740    8.16450  819.52040  819.52040   66.00540  -78.54980   -2.25100   66.00540
 7250.00000    8.13350    5.92000  168.91980   55.34110   55.34110  168.91980  136.27950    8.13350  887.34140  887.34140   71.89680  -94.50700  -19.66940   71.89680
 7300.00000    8.01700    5.39090  185.49820   50.18540   50.18540  185.49820  136.39140    8.01700  952.34390  952.34390   90.58910 -127.55650  -54.18000   90.58910
 7350.00000    7.86730    3.36500  297.17900   62.97450   62.97450  297.17900  431.36720    7.86730  828.85280  828.85280  133.68810 -111.07290  -39.15760  133.68810
 7400.00000    8.08210    1.30140  768.43050   68.58420   68.58420  768.43050 1416.63760    8.08210  818.44230  818.44230  218.12690 -117.27450  -46.82030  218.12690
 7450.00000    8.14120    7.53520  132.71080  100.72040  100.72040  132.71080   97.53190    8.14120  792.95970  792.95970   57.85680 -126.86410  -57.87110   57.85680
 7500.00000    8.04090   39.53790   25.29220  200.50170  200.50170   25.29220   41.09760    8.04090  706.67630  706.67630  138.57420 -144.26750  -76.73570  138.57420
 7550.00000    8.02480    1.41340  707.53530   33.20320   33.20320  707.53530 1092.56290    8.02480 1012.37760 1012.37760  280.33250 -172.49120 -106.42050  280.33250
 7600.00000    8.31730    2.30790  433.29910   35.10000   35.10000  433.29910  730.97490    8.31730  990.31480  990.31480  257.85600 -170.16170 -105.55220  257.85600
 7650.00000    8.20460    1.39140  718.69880   34.96750   34.96750  718.69880 1553.22990    8.20460  952.30990  952.30990  224.01040 -221.84900 -158.70060  224.01040
 7700.00000    8.21760    2.93200  341.06930   24.38700   24.38700  341.06930  558.98320    8.21760  884.95100  884.95100  187.29480 -217.15620 -155.46900  187.29480
 7750.00000    8.37600    2.35370  424.87110   35.46340   35.46340  424.87110  674.10710    8.37600  832.85000  832.85000  176.52580 -214.69650 -154.47050  176.52580
 7800.00000    8.08290    1.63340  612.23840   29.27830   29.27830  612.23840 1543.53030    8.08290  819.47510  819.47510  235.16500 -225.01520 -166.25030  235.16500
 7850.00000    8.33920    2.43210  411.16860   36.80850   36.80850  411.16860 1231.38370    8.33920  796.11660  796.11660  168.04490 -250.00210 -192.69840  168.04490
 7900.00000    9.14470    2.21960  450.53260   30.05000   30.05000  450.53260  669.21530    9.14470  667.00990  667.00990  208.39050 -226.46710 -170.62450  208.39050
 7950.00000    8.15180    1.41270  707.84030   35.19320   35.19320  707.84030 1398.42850    8.15180  626.05830  626.05830  312.83100 -201.46800 -147.08660  312.83100
 8000.00000    8.15090    3.46210  288.84580   35.50440   35.50440  288.84580  524.89830    8.15090  664.93910  664.93910  219.58540 -187.06070 -134.14050  219.58540
 8050.00000    8.09190    1.63430  611.88260   37.22910   37.22910  611.88260 1310.88680    8.09190  587.28590  587.28590  264.66200 -177.96990 -126.51080  264.66200
 8100.00000    8.10940    1.96880  507.93330   37.38340   37.38340  507.93330  814.02610    8.10940  634.86660  634.86660  163.23250 -199.78880 -149.79090  163.23250
 8150.00000    8.86910    4.00570  249.64200   29.21960   29.21960  249.64200  233.10210    8.86910  613.48150  613.48150  128.30450 -212.96490 -164.42810  128.30450
 8200.00000    9.72890    5.01810  199.27790   39.11890   39.11890  199.27790  185.05000    9.72890  560.76060  560.76060  120.27870 -211.17810 -164.10250  120.27870
 8250.00000    9.44340   10.17110   98.31810   35.14590   35.14590   98.31810  158.61340    9.44340  513.85830  513.85830   65.20570 -158.24030 -112.62590   65.20570
 8300.00000    8.59410    6.21140  160.99470   32.55960   32.55960  160.99470  218.56070    8.59410  614.49840  614.49840  202.27380 -138.15170  -93.99840  202.27380
 8350.00000    8.78320    3.69190  270.86470   37.79460   37.79460  270.86470  326.10450    8.78320  483.49140  483.49140   98.93890 -153.02970 -110.33760   98.93890
 8400.00000    7.79610    4.31440  231.78270   41.96170   41.96170  231.78270  293.92270    7.79610  466.49720  466.49720   53.92300 -135.29950  -94.06850   53.92300
 8450.00000    8.98510    6.59680  151.58910   40.85770   40.85770  151.58910   99.43430    8.98510  467.45450  467.45450   88.90780 -162.25540 -122.48560   88.90780
 8500.00000    9.11020    6.17550  161.92920   34.81620   34.81620  161.92920   91.96360    9.11020  589.81300  589.81300  145.28480 -148.54320 -110.23460  145.28480
 8550.00000    8.70770   10.15910   98.43370   61.88790   61.88790   98.43370  105.04370    8.70770  636.97800  636.97800   72.02600 -102.11580  -65.26830   72.02600
 8600.00000    8.72480    4.37590  228.52510   91.26540   91.26540  228.52510  215.74670    8.72480  646.85030  646.85030   86.98470  -62.02380  -26.63750   86.98470
 8650.00000    8.60540    8.01460  124.77240   67.10770   67.10770  124.77240  103.25360    8.60540  598.50070  598.50070   52.13610  -42.58910   -8.66400   52.13610
 8700.00000   11.22070   59.36970   16.84360  118.40460  118.40460   16.84360   10.72090   11.22070  297.03600  297.03600    9.87150  -42.18620   -7.03140    9.87150
 8750.00000   12.40620   93.60230   10.68350  106.74130  106.74130   10.68350    8.86840   12.40620  301.59100  301.59100    7.09500  -43.83170   -5.93210    7.09500
 8800.00000   12.34660   88.77210   11.26480   91.99780   91.99780   11.26480    8.61360   12.34660  294.58210  294.58210    8.02480  -43.32460   -7.59030    8.02480
