~Version ---------------------------------------------------
VERS. 2.0 : CWLS log ASCII Standard -VERSION 2.0
WRAP.  NO : ONE LINE PER DEPTH STEP
~Well ------------------------------------------------------
STRT.FT                    600.0 : START DEPTH
STOP.FT                   5900.0 : STOP DEPTH
STEP.FT                 50.00000 : STEP LENGTH
NULL.                    -999.25 : NULL VALUE
COMP.               PETRO-CANADA : COMPANY
WELL. ATLANTIC MUSKWA 16-11-81-8 : WELL
FLD .                            : FIELD
LOC .                            : LOCATION
CTRY.                     CANADA : COUNTRY
SRVC.               Schlumberger : SERVICE COMPANY
DATE.                08-Oct-1965 : LOGDATE
PROV.                    Alberta : PROVINCE
UWI .           100161108108W500 : UNIQUE WELL ID
SLAT.WGS84         56.0125236511 : SURFACE LATITUDE
SLON.WGS84       -115.1262664795 : SURFACE LONGITUDE
~Curve Information -----------------------------------------
DEPT.FT    : DEPTH FEET
CILD.MMHO  : CONDUCTIVITY FROM RESISTIVITY LOG
ILD .OHMM  : INDUCTION LOG DEEP RESISTIVITY
SPR .MV    : SPONTANEOUS POTENTIAL FROM RESISTIVITY LOG
SN  .OHMM  : 16 INCH SHORT NORMAL RESISTIVITY FROM IEL
GRS .GAPI  : GAMMA RAY FROM SONIC LOG
CALS.IN    : CALIPER FROM SONIC LOG
DT  .US/F  : DELTA TIME FROM SONIC LOG
~Params ----------------------------------------------------
PD  .                     GL : PERMANENT DATUM
EPD .FT               2160.5 : ELEVATION PERMANENT DATUM
LMF .                     KB : LOG MEASURED FROM
DAPD.FT                 12.5 : FEET ABOVE PERMANENT DATUM
EKB .FT                 2173 : KELLY BUSHING
EGL .FT               2160.5 : GROUND LEVEL
DATE.               10/08/65 : RUN DATE
RUN .                      2 : RUN NUMBER
DD  .FT                 5923 : DEPTH DRILLER
DL  .FT                 5923 : DEPTH LOGGER
BLI .FT                 5922 : BOTTOM LOG INTERVAL
TLI .FT                 5300 : TOP LOG INTERVAL
CBD .FT                  636 : CASING BOTTOM DRILLER
CBL .FT                  637 : CASING BOTTOM LOGGER
BS  .IN                7.875 : BIT SIZE
BSD .FT                 5923 : BIT SIZE AT DEPTH
DFT .                    GEL : DRILLING FLUID TYPE
DFD .                    9.4 : DRILLING FLUID DENSITY
DFV .                     55 : DRILLING FLUID VISCOSITY
DFPH.                   10.5 : DRILLING FLUID PH
DFL .                   22.6 : DRILLING FLUID LOSS
MSS .                    MUD : MUD SAMPLE SOURCE
RMS .OHMM               0.33 : RESISTIVITY MUD SAMPLE
MST .DEGF                 63 : MUD SAMPLE TEMPERATURE
RMF .OHMM                0.3 : RESISTIVITY MUD FILTRATE SAMPLE
MFST.DEGF                 61 : MUD FILTRATE SAMPLE TEMPERATURE
RMC .OHMM               0.57 : RESISTIVITY MUD CAKE
MCST.DEGF                 58 : MUD CAKE SAMPLE TEMPERATURE
RMB .OHMM                0.2 : RESISTIVITY MUD AT BHT
TCS .HRS                   5 : TIME CIRCULATED STOPPED
LUN .                   2548 : LOGGING UNIT NUMBER
LUL .                     SL : LOGGING UNIT LOCATION
ENGI.              DEMETRICK : RECORDING ENGINEER
WITN.           DUTTON SMITH : WITNESSED BY
CLNT.                A2DTECH : CLIENT CODE
ORIG.            2" 5" PRINT : ORIGIN OF DATA
UWI .       100161108108W500 : UNIQUE WELL ID
DICO. A2D Technologies, Inc. : DIGITIZING COMPANY
~Other -----------------------------------------------------
~ASCII -----------------------------------------------------
  600.00000    -999.25    -999.25    -999.25    -999.25   55.85130    -999.25    -999.25
  650.00000  171.22820    5.47630  -91.59140    5.73430   53.95740   14.73710  188.69110
  700.00000  162.58090    6.17370  -98.40700    5.89920   62.15090   14.63260  204.76800
  750.00000  205.51060    4.46610  -97.70950    5.31320   71.50680   10.42400  180.72050
  800.00000  171.69210    5.50850  -81.74320    4.88820   63.25150   14.74830  167.06420
  850.00000  196.88360    4.81750  -75.43440    4.93660   66.62800   12.60020  185.65250
  900.00000  344.19160    2.41490  -79.34350    3.42530   83.65070   11.18860  158.79750
  950.00000  370.96190    2.19060  -60.54280    2.90020   56.62540   14.63760  177.63280
 1000.00000  291.12270    2.82170  -63.75720    3.19610   69.32750   11.68910  142.36060
 1050.00000  286.70050    3.06740  -72.81900    3.44050   69.20850   13.60280  154.94170
 1100.00000  297.52730    3.38880  -66.46300    3.58740   53.33110   14.73230  200.38870
 1150.00000  507.34750    1.22500  -57.93310    2.09260   34.73010   14.68600  199.96960
 1200.00000  214.91240    4.23090  -92.25820    6.91690   54.80230    9.99250  122.03300
 1250.00000  195.24680    4.92380  -82.17910    6.57890   66.19050   10.64060  163.78470
 1300.00000  562.93210    0.83780  -59.97240    1.78530   27.78890   14.69720  191.06980
 1350.00000  260.59920    3.55140  -67.80100    3.70360   34.89530   14.48640  193.57410
 1400.00000  152.37200    6.28600  -85.06410   10.04340   63.33150    9.48440  118.37080
 1450.00000  241.95410    3.69070  -78.61980    4.67170   62.50920   11.19680  117.66140
 1500.00000  215.05050    4.20920  -74.92170    5.07920   60.29390   12.15840  118.63750
 1550.00000  227.21070    4.00910  -77.17590    5.11460   63.91320   12.56900  129.57290
 1600.00000  197.12490    4.66280  -79.08950    8.14120   36.43500   10.59560   94.35750
 1650.00000   98.21910   10.60350  -73.79800    8.77220   53.01720   14.09410  116.65920
 1700.00000  133.53350    7.70880  -74.03090    6.92750   61.88680   14.14650  124.84260
 1750.00000  174.33280    5.27990  -67.86370    5.40510   51.64260   13.98590  110.78860
 1800.00000  173.57900    5.33860  -73.81470    5.51430   49.20270   14.58380  137.98650
 1850.00000   46.44050   22.94060  -68.80480   25.90690   23.19750   11.06900   63.69910
 1900.00000   79.27090   12.91840  -73.11550   18.58570   26.06990   11.70520   70.73630
 1950.00000   52.92350   21.11280  -57.39980   23.97150   28.85490   11.29570   77.76510
 2000.00000  306.07420    2.81450  -49.29250    6.93260   21.16280   11.49630   76.03510
 2050.00000  113.05250    9.22590  -52.64280   12.39230   25.11730   11.65680   86.05030
 2100.00000   86.10690   12.09050  -67.58230   13.75960   22.31060   10.97570   73.04060
 2150.00000   79.52230   13.23620  -76.19490   14.19600   21.35270   11.57180   74.22820
 2200.00000   88.89800   11.61230  -89.17740   16.45370   15.76270   10.95150   69.78780
 2250.00000   83.08890   12.70120  -65.96340   13.54550   24.37730   11.62100   72.68670
 2300.00000   84.19870   12.52350  -63.63800   13.25490   28.74510   11.56470   79.09780
 2350.00000   78.44580   13.49660  -81.98770   20.35840   17.21390    9.77480   67.10250
 2400.00000   75.67700   13.84450  -74.85600   16.70330   22.54380   10.09480   69.78210
 2450.00000   91.45040   11.45930  -59.26420   13.32500   34.17190   10.66570   78.19110
 2500.00000  238.49780    3.75560  -53.14830    5.96970   37.63220   11.64990   84.03230
 2550.00000   32.14830   37.78920  -87.06830   55.86970   14.10550   10.52460   59.17580
 2600.00000   34.35680   32.77230 -111.17980   90.73270   17.31770   11.25280   57.54210
 2650.00000   15.32770  102.51010  -95.76890   86.88450   18.36830   10.23800   53.22480
 2700.00000    9.72520  240.29450  -95.53610  116.87130   17.76710    9.95930   50.67580
 2750.00000   27.31920   44.60680 -106.55420   75.12690   16.27310   10.97940   56.23970
 2800.00000   35.96090   31.17820 -110.46870   88.38920   15.06040   10.94980   54.41590
 2850.00000   58.86910   18.16790 -122.98170   80.71590   19.14560   10.68700   59.28140
 2900.00000   12.20310  213.01260  -85.42800  111.32820   13.68890    9.94310   51.63350
 2950.00000   37.22980   30.52640 -130.53940  101.88200   16.39190    9.86570   62.71720
 3000.00000   17.42410   84.72900 -103.08240  101.31390   13.40140   10.01770   51.97750
 3050.00000   23.23850   55.96070 -107.74820  101.09560   15.14900   10.45760   55.00210
 3100.00000   22.65860   56.35230 -101.24610  103.11640   12.61680   10.67420   53.40270
 3150.00000   18.33430   79.27530 -108.60000  106.47490   13.20820   10.04150   55.86940
 3200.00000   17.85730   79.15520 -100.59510  111.44120   12.58790    9.77430   51.22730
 3250.00000   18.93960   76.52410 -106.22040  130.89000   16.36590    9.67240   54.88420
 3300.00000   20.42410   68.65290  -91.36000   62.08470   13.51920    9.89570   52.22540
 3350.00000   18.44830   86.43710  -95.15860  101.69040   14.69520    9.86420   53.33080
 3400.00000   35.27080   31.59010 -118.27000  105.62060   15.31470    8.96020   55.85170
 3450.00000  142.14760    6.57950  -70.44720    7.88690   44.68330   11.72290   65.80210
 3500.00000   33.04790   35.37010  -97.07320   82.57860   32.56750    9.13670   57.13000
 3550.00000   38.87130   28.57310 -109.48480   72.26370   17.77900    9.51900   51.67650
 3600.00000   75.61550   13.87430  -95.38550   35.33650   25.61340    9.62850   56.53730
 3650.00000   22.30330   56.48990  -73.20460   74.06640   19.30050    9.38980   50.40640
 3700.00000   20.84490   73.67110  -80.20440   88.43910   23.65240    9.30320   50.58360
 3750.00000   21.46250   60.92370 -115.87800  118.95220   15.53790    9.21610   49.67470
 3800.00000   41.33740   28.32780  -62.77040   36.64920   37.51730    9.51110   59.57360
 3850.00000  100.73020   10.44950  -51.96870   13.31070   53.08260   10.14660   66.78550
 3900.00000  150.05450    6.39750  -57.03140    7.50820   59.66580   10.42090   75.42620
 3950.00000  103.30090   10.18750  -58.34590   10.77160   44.27820   10.45830   68.48670
 4000.00000  330.42780    2.50020  -70.22170    3.60680   66.57720   10.50150   95.86320
 4050.00000  303.71770    3.12680  -71.31330    3.81380   69.32900   12.57060  122.41030
 4100.00000  227.23560    4.03580  -62.45290    6.34110   65.33430    9.72470   73.29190
 4150.00000  250.34680    3.70260  -72.81120    3.93580   68.04840   12.50150   91.68630
 4200.00000   76.97520   13.66370  -67.24360   23.87020   62.82180    9.59480   73.34270
 4250.00000  114.15280    8.96240  -60.25650   11.42570   57.71010   10.43730   74.78210
 4300.00000   76.28900   14.23130  -70.86630   18.73090   38.27200    9.25160   64.11890
 4350.00000   97.45100   10.82960  -58.86550   13.50560   41.06520    9.87010   69.74330
 4400.00000   51.42130   21.20060  -78.51740   25.47200   21.76790    8.86610   57.95660
 4450.00000  160.18110    5.93660  -60.77310    8.06680   47.13090   10.08260   72.43110
 4500.00000  124.52100    8.09820  -57.67210   10.49600   62.46650    9.29150   73.13630
 4550.00000  181.37700    5.35480  -72.04210    -999.25   47.07490    9.44670   78.62540
 4600.00000  374.26430    2.31940  -80.00800    3.02030   72.82820   12.76270  100.43330
 4650.00000  434.34110    1.72790  -70.84410    2.58980   87.60230   12.78720  111.38990
 4700.00000  333.75590    2.72390  -64.71420    3.48390   75.17330   12.88270  105.12190
 4750.00000  346.38350    2.46470  -64.52140    3.47750   73.99520   10.79630   96.15790
 4800.00000  380.50980    2.17640  -75.42350    3.19690   74.12480   12.30410   98.05520
 4850.00000  238.07470    3.97580  -70.70460    5.03350   70.67260   11.01940   97.34800
 4900.00000  171.19450    5.60150  -62.29970    7.41970   49.55040   11.69030   76.61950
 4950.00000  183.10640    5.47140  -61.58080    6.74510   62.85130   11.14150   86.01590
 5000.00000  225.39570    4.28110  -58.74160    5.55990   65.13030   11.84590   88.33710
 5050.00000   89.21010   11.92770  -56.36340   13.75610   45.11800   10.52880   72.95270
