~Version ---------------------------------------------------
VERS.      2.0 : CWLS log ASCII Standard -VERSION 2.0
WRAP.       NO : One line per depth step
CREA. 07/10/13 : LAS Creation Date
~Well ------------------------------------------------------
STRT.FT                         55.3 : START DEPTH
STOP.FT                      11119.8 : STOP DEPTH
STEP.FT                      0.50000 : STEP LENGTH
NULL.                        -999.25 : NULL VALUE
COMP.         PACIFIC PETROLEUMS LTD : COMPANY
WELL. PACIFIC ET AL TONY 10-18-63-21 : WELL
FLD .                     TONY TOWER : FIELD
LOC .                                : LOCATION
CTRY.                         CANADA : COUNTRY
SRVC.                   Schlumberger : SERVICE COMPANY
DATE.                    24-Sep-1975 : LOGDATE
PROV.                        Alberta : PROVINCE
UWI .               100101806321W500 : UNIQUE WELL ID
SLAT.WGS84                  54.45338 : SURFACE LATITUDE
SLON.WGS84                 -117.1585 : SURFACE LONGITUDE
~Curve Information -----------------------------------------
DEPT   .FT    : DEPTH FEET
CALD   .IN    : CALIPER FROM DENSITY LOG
DCOR   .G/C3  : DENSITY CORRECTION FROM DENSITY LOG
DPHI_LS.DEC   : DENSITY POROSITY LIMESTONE [M=2.71,F=1.0] FROM DENSITY LOG
DPHI_SS.DEC   : DENSITY POROSITY SANDSTONE [M=2.65,F=1.0] FROM DENSITY LOG
GRD    .GAPI  : GAMMA RAY FROM DENSITY LOG
ILD    .OHMM  : DEEP INDUCTION FROM RESISTIVITY LOG
ILM    .OHMM  : MEDIUM INDUCTION FROM RESISTIVITY LOG
LL8    .OHMM  : LATEROLOG FROM RESISTIVITY LOG
NPHI_LS.DEC   : NEUTRON POROSITY LIMESTONE FROM DENSITY LOG
NPHI_SS.DEC   : NEUTRON POROSITY SANDSTONE FROM DENSITY LOG
RHOB   .G/C3  : BULK DENSITY FROM DENSITY LOG
SPR    .MV    : SPONTANEOUS POTENTIAL FROM RESISTIVITY LOG
~Params ----------------------------------------------------
PD  .                     GL : PERMANENT DATUM
EPD .FT                 2714 : ELEVATION PERMANENT DATUM
LMF .                     KB : LOG MEASURED FROM
DAPD.FT                 13.7 : FEET ABOVE PERMANENT DATUM
EKB .FT               2727.7 : KELLY BUSHING
EGL .FT                 2714 : GROUND LEVEL
DATE.               09/24/75 : RUN DATE
RUN .                      1 : RUN NUMBER
DD  .FT                11125 : DEPTH DRILLER
DL  .FT                11121 : DEPTH LOGGER
BLI .FT                11115 : BOTTOM LOG INTERVAL
TLI .FT                 1125 : TOP LOG INTERVAL
CBD .FT                 1125 : CASING BOTTOM DRILLER
CBL .FT                 1125 : CASING BOTTOM LOGGER
BS  .IN                 8.75 : BIT SIZE
BSD .FT                11125 : BIT SIZE AT DEPTH
DFT .               GEL CHEM : DRILLING FLUID TYPE
DFD .                    9.3 : DRILLING FLUID DENSITY
DFV .                    147 : DRILLING FLUID VISCOSITY
DFPH.                    9.5 : DRILLING FLUID PH
DFL .                    9.2 : DRILLING FLUID LOSS
MSS .               FLOWLINE : MUD SAMPLE SOURCE
RMS .OHMM               1.62 : RESISTIVITY MUD SAMPLE
MST .DEGF                 72 : MUD SAMPLE TEMPERATURE
RMF .OHMM               1.26 : RESISTIVITY MUD FILTRATE SAMPLE
MFST.DEGF                 68 : MUD FILTRATE SAMPLE TEMPERATURE
RMB .OHMM               0.41 : RESISTIVITY MUD AT BHT
TCS .HRS                 3.5 : TIME CIRCULATED STOPPED
LUN .                   7691 : LOGGING UNIT NUMBER
LUL .                    EDM : LOGGING UNIT LOCATION
ENGI.              CROCKFORD : RECORDING ENGINEER
WITN.                   ROSS : WITNESSED BY
CLNT.                A2DTECH : CLIENT CODE
ORIG.            2" 5" PRINT : ORIGIN OF DATA
UWI .       100101806321W500 : UNIQUE WELL ID
DICO. A2D Technologies, Inc. : DIGITIZING COMPANY
~Other -----------------------------------------------------
~ASCII -----------------------------------------------------
# ...
 6439.30000    9.99240    0.00810    -999.25   -0.01200   82.00300   22.47870   20.37850   33.49110    -999.25    0.13640    2.67820 -102.68220
 6439.80000   10.01430    0.01260    -999.25   -0.01160   88.06320   19.79220   17.79930   24.94640    -999.25    0.14770    2.69790 -101.84520
 6440.30000   10.03630    0.00420    -999.25   -0.01140   93.62320   18.14370   15.54660   19.87040    -999.25    0.16510    2.69710 -101.00830
 6440.80000   10.05610    0.02190    -999.25   -0.01090   96.53460   16.63250   13.57900   18.17610    -999.25    0.18870    2.67650 -100.17140
 6441.30000   10.07380    0.04780    -999.25   -0.00840   98.24890   15.34320   12.61720   16.85030    -999.25    0.21700    2.67100  -99.33440
 6441.80000   10.09150    0.05290    -999.25    0.00190   99.01440   14.39100   12.10200   16.26300    -999.25    0.23390    2.66250  -98.49750
 6442.30000   10.07910    0.04820    -999.25    0.02510   99.02240   13.85230   12.02730   16.31240    -999.25    0.25020    2.63810  -97.66050
 6442.80000   10.05850    0.03560    -999.25    0.02790   97.69080   13.65860   12.34690   17.03240    -999.25    0.25570    2.61200  -97.05910
 6443.30000   10.04650    0.04710    -999.25    0.04560   94.83070   13.86870   12.88520   18.04700    -999.25    0.25100    2.60670  -96.67430
 6443.80000   10.04320    0.05980    -999.25    0.06510   91.52100   14.35290   13.08390   20.19390    -999.25    0.24500    2.58480  -96.28950
 6444.30000   10.03660    0.03440    -999.25    0.05830   86.05930   15.09820   13.27830   23.96230    -999.25    0.23940    2.56200  -96.36250
 6444.80000   10.02410    0.02720    -999.25    0.06960   80.64200   16.11590   13.46860   24.99640    -999.25    0.22770    2.55010  -96.61600
 6445.30000   10.01170    0.01870    -999.25    0.06460   76.62710   17.04260   13.98550   17.94360    -999.25    0.21490    2.54200  -97.08250
 6445.80000    9.99920    0.02610    -999.25    0.05220   74.31180   18.02260   15.47700   17.36890    -999.25    0.19630    2.54500  -97.58770
 6446.30000    9.98670    0.06630    -999.25    0.03560   72.57160   19.05900   17.45640   23.92520    -999.25    0.18760    2.57910  -98.09290
 6446.80000    9.97420    0.12400    -999.25    0.02560   70.62450   20.15490   19.31950   31.39660    -999.25    0.17550    2.61030  -98.59810
 6447.30000    9.96170    0.10160    -999.25    0.04510   68.54290   21.31390   20.06690   36.94510    -999.25    0.15210    2.58830  -98.70300
 6447.80000    9.93380    0.03310    -999.25   -0.00340   67.71830   22.53950   21.27200   36.08130    -999.25    0.13730    2.58200  -98.70300
 6448.30000    9.90060    0.04350    -999.25   -0.01150   68.47690   23.83560   22.78400   34.83710    -999.25    0.13570    2.67530  -98.70300
 6448.80000    9.86730    0.04880    -999.25   -0.01140   70.70040   25.20630   23.70790   34.69360    -999.25    0.13880    2.67660  -98.70300
 6449.30000    9.85720    0.05170    -999.25   -0.00480   73.01140   25.98600   23.85910   34.19770    -999.25    0.14600    2.67480  -98.70300
 6449.80000    9.84930    0.03870    -999.25   -0.00940   75.55530   26.44730   23.85910   33.94050    -999.25    0.15320    2.66650  -98.49650
 6450.30000    9.84140    0.02870    -999.25   -0.00660   78.07310   26.61300   23.66670   33.61950    -999.25    0.16160    2.65760  -98.07590
 6450.80000    9.79100    0.03190    -999.25   -0.00010   80.23370   26.50370   23.44220   32.70920    -999.25    0.17060    2.65360  -97.65710
 6451.30000    9.65760    0.03070    -999.25    0.00900   82.44510   26.39490   23.39900   31.03490    -999.25    0.18210    2.64950  -97.35450
 6451.80000    9.37310    0.01020    -999.25    0.02680   83.88230   26.76970   23.56350   30.58940    -999.25    0.19270    2.62370  -97.05190
 6452.30000    8.21140    0.00210    -999.25    0.02310   84.61110   27.27950   23.96760   31.98940    -999.25    0.20170    2.60800  -96.74930
 6452.80000    8.14240    0.00460    -999.25    0.01900   84.63380   27.79900   24.52890   33.91710    -999.25    0.20820    2.61420  -96.71690
 6453.30000    8.17260    0.00940    -999.25    0.01990   84.77040   28.04140   24.82370   35.96100    -999.25    0.20890    2.62180  -96.84500
 6453.80000    8.19700    0.01360    -999.25    0.02530   85.75650   27.90770   24.65580   38.12810    -999.25    0.20680    2.61470  -96.97300
 6454.30000    8.23880    0.01540    -999.25    0.02240   87.88550   26.75350   22.96900   38.57970    -999.25    0.20100    2.60770  -97.10100
 6454.80000    9.03990    0.01420    -999.25    0.01470   90.21170   23.22420   21.08680   32.18980    -999.25    0.19660    2.62220  -96.94370
 6455.30000    9.86330    0.00780    -999.25    0.02040   93.54610   20.16050   17.74820   26.72350    -999.25    0.20030    2.62510  -96.57080
 6455.80000    9.94880    0.00280    -999.25    0.03020   95.47240   17.13780   13.76120   22.60040    -999.25    0.21930    2.61300  -95.72130
 6456.30000    9.98870    0.00770    -999.25    0.04820   94.81880   13.68250   10.66980   18.36350    -999.25    0.24900    2.60100  -94.77100
 6456.80000   10.02850    0.02580    -999.25    0.09350   93.35290   10.92380    8.27290   14.92090    -999.25    0.28860    2.56280  -93.80280
 6457.30000   10.16190    0.04770    -999.25    0.12480   91.57830    9.21500    6.87090   12.12370    -999.25    0.33950    2.50300  -93.32730
 6457.80000   10.44900    0.09630    -999.25    0.13730   89.43790    8.38590    6.12260   10.47140    -999.25    0.39810    2.46170  -93.07100
 6458.30000   11.24290    0.17330    -999.25    0.19380   86.65050    8.06700    5.87000    9.16960    -999.25    0.42830    2.41600  -93.11450
 6458.80000   12.08140    0.17140    -999.25    0.23410   83.69930    8.11690    5.85390    8.99950    -999.25    0.44840    2.32040  -93.42610
 6459.30000   12.37930    0.16980    -999.25    0.23970   79.84930    8.38770    6.65540    9.84280    -999.25    0.45470    2.27430  -93.81880
 6459.80000   12.43610    0.17480    -999.25    0.25040   74.49870   10.07190    8.47570   13.75080    -999.25    0.43740    2.24780  -94.21270
 6460.30000   12.43310    0.17860    -999.25    0.18830   68.18840   12.40490   10.79390   20.58110    -999.25    0.40340    2.24770  -94.40060
 6460.80000   11.76890    0.17820    -999.25    0.11780   63.02830   15.20440   13.74600   30.55910    -999.25    0.35610    2.40090  -94.39060
 6461.30000   10.79260    0.16180    -999.25    0.05520   58.35470   18.60530   18.70700   48.94070    -999.25    0.28010    2.49500  -94.38060
 6461.80000   10.14060    0.08720    -999.25   -0.01050   54.02730   22.76690   26.36500   80.24180    -999.25    0.20280    2.59920  -94.28650
 6462.30000    9.87770    0.04480    -999.25   -0.01070   50.65570   27.85940   37.15780   98.49380    -999.25    0.12670    2.70730  -94.08280
 6462.80000    9.84820    0.03620    -999.25   -0.01090   51.17070   34.09100   52.36870   98.13910    -999.25    0.10040    2.72300  -93.87900
 6463.30000    9.87800    0.04550    -999.25   -0.01120   52.59080   41.71650   64.11860   82.67100    -999.25    0.08950    2.74030  -93.67530
 6463.80000    9.90780    0.04310    -999.25   -0.01170   55.45570   45.59720   63.11590   67.52460    -999.25    0.08630    2.74160  -93.43860
 6464.30000    9.93470    0.05850    -999.25   -0.01170   58.63880   44.97140   46.11520   60.94600    -999.25    0.09300    2.73900  -93.20240
 6464.80000    9.97400    0.05930    -999.25   -0.01160   62.97580   35.29430   31.30740   59.96970    -999.25    0.10670    2.71990  -93.17870
 6465.30000   10.02230    0.04670    -999.25   -0.00860   67.70860   27.10930   21.25440   56.54990    -999.25    0.12050    2.69550  -93.47260
 6465.80000   10.07060    0.04680    -999.25    0.00440   73.33580   20.82240   14.77370   38.75470    -999.25    0.13960    2.67050  -93.54430
 6466.30000   10.14100    0.05950    -999.25    0.00080   79.66270   16.54310   11.21250   19.79420    -999.25    0.17030    2.64850  -93.80580
 6466.80000   10.23020    0.10670    -999.25   -0.01040   85.61730   14.94540   10.48560   15.73720    -999.25    0.20020    2.64320  -93.90410
