~Version ---------------------------------------------------
VERS.      2.0 : CWLS log ASCII Standard -VERSION 2.0
WRAP.       NO : One line per depth step
CREA. 10/25/17 : LAS Creation Date
~Well ------------------------------------------------------
STRT.FT                 1200.0 : START DEPTH
STOP.FT                12350.0 : STOP DEPTH
STEP.FT               50.00000 : STEP LENGTH
NULL.                  -999.25 : NULL VALUE
COMP.     CHEVRON STANDARD LTD : COMPANY
WELL. CHEVRON EDSON 7-28-52-17 : WELL
FLD .                          : FIELD
LOC .                          : LOCATION
CTRY.                   CANADA : COUNTRY
SRVC.             Schlumberger : SERVICE COMPANY
DATE.              18-Oct-1968 : LOGDATE
PROV.                  Alberta : PROVINCE
UWI .         100072805217W500 : UNIQUE WELL ID
SLAT.WGS84             53.5164 : SURFACE LATITUDE
SLON.WGS84           -116.4412 : SURFACE LONGITUDE
~Curve Information -----------------------------------------
DEPT    .FT    : Depth Curve
CALDED  .IN    : CALIPER FROM FDC LOG [ADJ.TO RESISTIVITY LOG]
CALNED  .IN    : CALIPER FROM SNP LOG [ADJ.TO RESISTIVITY LOG]
CALSED  .IN    : CALIPER FROM SONIC LOG [ADJ. TO RESISTIVITY LOG]
CALWS   .IN    : CALIPER [CALSED]
CILDED  .MMHO  : DEEP CONDUCTIVITY FROM RESISTIVITY LOG
CONDWS  .MMHO  : CONDUCTIVITY [1000/DRESWS]
DCORED  .G/C3  : DENSITY CORRECTION FROM FDC LOG  [ADJ.TO RESISTIVITY LOG]
DCORWS  .G/C3  : DENSITY CORRECTION [DCORED]
DENWS   .G/C3  : FORMATION BULK DENSITY [RHOBED]
DPHILSED.V/V   : DENSITY POROSITY LIMESTONE [M=2.71, F=1.00] FROM FDC LOG [ADJ. TO RESISTIVITY LOG]
DPOLSWS .V/V   : DENSITY POROSITY LIMESTONE [DPHILSED]
DRESWS  .OHMM  : DEEP RESISTIVITY [ILDED]
DTED    .US/F  : DELTA TIME FROM SONIC LOG [ADJ. TO RESISTIVITY LOG]
DTWS    .US/F  : COMPRESSIONAL SONIC [DTED]
GRDED   .GAPI  : GAMMA RAY FROM SNP-FDC LOG [ADJ. TO RESISTIVITY LOG]
GRNED   .GAPI  : GAMMA RAY FROM SNP LOG  [ADJ. TO RESISTIVITY LOG]
GRSED   .GAPI  : GAMMA RAY FROM SONIC LOG [ADJ. TO RESISTIVITY LOG]
GRWS    .GAPI  : GAMMA RAY [GRSED SPL. TO GRDED @ 12330']
ILDED   .OHMM  : DEEP INDUCTION FROM RESISTIVITY LOG
NPOLSWS .V/V   : NEUTRON POROSITY LIMESONTE [SNPLSED]
RHOBED  .G/C3  : BULK DENSITY FROM FDC LOG [ADJ.TO RESISTIVITY LOG]
SNED    .OHMM  : SHORT NORMAL 16" FROM RESISTIVITY LOG
SNPLSED .V/V   : SIDEWALL NEUTRON POROSITY LIMESONTE FROM SNP LOG [ADJ.TO RESISTIVITY LOG]
SPRED   .MV    : SPONTANEOUS POTENTIAL FROM RESISTIVITY LOG
SPWS    .MV    : SPONTANEOUS POTENTIAL [BASELINE 0 MV, SPRED]
SRESWS  .OHMM  : SHALLOW RESISTIVITY [SNED]
~Params ----------------------------------------------------
PD  .                     GL : PERMANENT DATUM
EPD .FT                 3060 : ELEVATION PERMANENT DATUM
LMF .                     KB : LOG MEASURED FROM
DAPD.FT                   13 : FEET ABOVE PERMANENT DATUM
EKB .FT                 3073 : KELLY BUSHING
EGL .FT                 3060 : GROUND LEVEL
DATE.               10/18/68 : RUN DATE
RUN .                      1 : RUN NUMBER
DD  .FT                12360 : DEPTH DRILLER
DL  .FT                12367 : DEPTH LOGGER
BLI .FT                12366 : BOTTOM LOG INTERVAL
TLI .FT                 1258 : TOP LOG INTERVAL
CBD .FT                 1258 : CASING BOTTOM DRILLER
CBL .FT                 1258 : CASING BOTTOM LOGGER
BS  .IN                 8.75 : BIT SIZE
BSD .FT                12360 : BIT SIZE AT DEPTH
DFT .                    GEL : DRILLING FLUID TYPE
DFD .                    9.8 : DRILLING FLUID DENSITY
DFV .                     69 : DRILLING FLUID VISCOSITY
DFPH.                   10.5 : DRILLING FLUID PH
DFL .                    6.3 : DRILLING FLUID LOSS
RMF .OHMM               0.93 : RESISTIVITY MUD FILTRATE SAMPLE
MFST.DEGF                 63 : MUD FILTRATE SAMPLE TEMPERATURE
RMC .OHMM               1.94 : RESISTIVITY MUD CAKE
MCST.DEGF                 67 : MUD CAKE SAMPLE TEMPERATURE
TCS .HRS                   4 : TIME CIRCULATED STOPPED
LUN .                   7501 : LOGGING UNIT NUMBER
LUL .                    EDM : LOGGING UNIT LOCATION
ENGI.               CHADDOCK : RECORDING ENGINEER
WITN.                HOVDEBO : WITNESSED BY
CLNT.                A2DTECH : CLIENT CODE
ORIG.            2" 5" PRINT : ORIGIN OF DATA
UWI .       100072805217W500 : UNIQUE WELL ID
DICO. A2D Technologies, Inc. : DIGITIZING COMPANY
~Other -----------------------------------------------------
~ASCII -----------------------------------------------------
 1200.00000    -999.25    -999.25    -999.25    -999.25    -999.25    -999.25    -999.25    -999.25    -999.25    -999.25    -999.25    -999.25    -999.25    -999.25    -999.25    -999.25   23.31160   63.31160    -999.25    -999.25    -999.25    -999.25    -999.25    -999.25    -999.25    -999.25
 1250.00000    -999.25    -999.25    -999.25    -999.25    -999.25    -999.25    -999.25    -999.25    -999.25    -999.25    -999.25    -999.25    -999.25    -999.25    -999.25    -999.25   27.67950   67.67950    -999.25    -999.25    -999.25    -999.25    -999.25    -999.25    -999.25    -999.25
 1300.00000    -999.25    -999.25   10.87370   10.87370   83.23410   87.50860    -999.25    -999.25    -999.25    -999.25    -999.25   11.50250  130.74040  130.74040    -999.25    -999.25   43.21400   43.21400   11.50250    -999.25    -999.25   20.02200    -999.25 -155.77800   -4.98630   20.02200
 1350.00000    -999.25    -999.25   10.71120   10.71120   90.33050  101.68700    -999.25    -999.25    -999.25    -999.25    -999.25    9.83410   91.45570   91.45570    -999.25    -999.25   63.57670   63.57670    9.83410    -999.25    -999.25   11.45930    -999.25 -156.26450   -4.75220   11.45930
 1400.00000    -999.25    -999.25   10.81230   10.81230  136.16690  150.12990    -999.25    -999.25    -999.25    -999.25    -999.25    6.66090   91.82770   91.82770    -999.25    -999.25   54.65520   54.65520    6.66090    -999.25    -999.25    8.12940    -999.25 -157.48060   -5.25250    8.12940
 1450.00000    -999.25    -999.25   10.52200   10.52200  131.14040  145.78960    -999.25    -999.25    -999.25    -999.25    -999.25    6.85920   94.47530   94.47530    -999.25    -999.25   54.32540   54.32540    6.85920    -999.25    -999.25    7.65790    -999.25 -158.95890   -6.01020    7.65790
 1500.00000    -999.25    -999.25   11.33490   11.33490  136.81220  146.81920    -999.25    -999.25    -999.25    -999.25    -999.25    6.81110   94.39050   94.39050    -999.25    -999.25   70.56040   70.56040    6.81110    -999.25    -999.25    9.03230    -999.25 -161.96690   -8.30240    9.03230
 1550.00000    -999.25    -999.25   10.37040   10.37040   91.90070   99.97020    -999.25    -999.25    -999.25    -999.25    -999.25   10.00360   82.77590   82.77590    -999.25    -999.25   47.30070   47.30070   10.00360    -999.25    -999.25   13.11520    -999.25 -159.87880   -5.49850   13.11520
 1600.00000    -999.25    -999.25   12.60630   12.60630  300.01950  347.40320    -999.25    -999.25    -999.25    -999.25    -999.25    2.87850  140.84190  140.84190    -999.25    -999.25   69.43900   69.43900    2.87850    -999.25    -999.25    4.10130    -999.25 -158.12650   -3.02560    4.10130
 1650.00000    -999.25    -999.25    9.25370    9.25370   49.50200   53.29470    -999.25    -999.25    -999.25    -999.25    -999.25   18.76360   73.84560   73.84560    -999.25    -999.25   41.15650   41.15650   18.76360    -999.25    -999.25   23.01370    -999.25 -162.70900   -7.34430   23.01370
 1700.00000    -999.25    -999.25   14.80130   14.80130  243.99100  276.29650    -999.25    -999.25    -999.25    -999.25    -999.25    3.61930  127.14020  127.14020    -999.25    -999.25   50.21210   50.21210    3.61930    -999.25    -999.25    5.20730    -999.25 -158.17720   -2.77000    5.20730
 1750.00000    -999.25    -999.25    8.89500    8.89500   46.26020   49.95150    -999.25    -999.25    -999.25    -999.25    -999.25   20.01940   68.83930   68.83930    -999.25    -999.25   39.97310   39.97310   20.01940    -999.25    -999.25   20.66710    -999.25 -159.65450   -4.20510   20.66710
 1800.00000    -999.25    -999.25   10.13400   10.00830  131.33380  143.49730    -999.25    -999.25    -999.25    -999.25    -999.25    6.97090   99.23590   99.23590    -999.25    -999.25   59.18060   56.77470    6.97090    -999.25    -999.25    7.77520    -999.25 -160.02870   -4.53710    7.77520
 1850.00000    -999.25    -999.25    9.07120    9.07120   90.05040   97.85310    -999.25    -999.25    -999.25    -999.25    -999.25   10.21940   77.95380   77.95380    -999.25    -999.25   55.03750   55.03750   10.21940    -999.25    -999.25   11.03130    -999.25 -159.28780   -3.75370   11.03130
 1900.00000    -999.25    -999.25   10.16300   10.16300  239.28330  267.85950    -999.25    -999.25    -999.25    -999.25    -999.25    3.73330   90.61350   90.61350    -999.25    -999.25   63.00470   63.00470    3.73330    -999.25    -999.25    5.47060    -999.25 -158.22730   -2.65100    5.47060
 1950.00000    -999.25    -999.25   11.28260   11.28260  298.49370  337.22260    -999.25    -999.25    -999.25    -999.25    -999.25    2.96540  106.61290  106.61290    -999.25    -999.25   63.17970   63.17970    2.96540    -999.25    -999.25    4.07780    -999.25 -157.67620   -2.05740    4.07780
 2000.00000    -999.25    -999.25   10.59360   10.59360  388.57260  474.49580    -999.25    -999.25    -999.25    -999.25    -999.25    2.10750  107.78550  107.78550    -999.25    -999.25   72.01700   72.01700    2.10750    -999.25    -999.25    3.19310    -999.25 -158.29530   -2.63420    3.19310
 2050.00000    -999.25    -999.25   10.36990   10.36990   91.28750  101.33610    -999.25    -999.25    -999.25    -999.25    -999.25    9.86860   84.69890   84.69890    -999.25    -999.25   44.27800   44.27800    9.86860    -999.25    -999.25   12.14680    -999.25 -159.45420   -3.75090   12.14680
 2100.00000    -999.25    -999.25   11.04310   11.04310  167.66330  192.41130    -999.25    -999.25    -999.25    -999.25    -999.25    5.19720   93.60000   93.60000    -999.25    -999.25   61.33520   61.33520    5.19720    -999.25    -999.25    6.01240    -999.25 -157.73790   -1.99210    6.01240
 2150.00000    -999.25    -999.25    9.99250    9.99250   56.07690   61.58890    -999.25    -999.25    -999.25    -999.25    -999.25   16.23670   77.31830   77.31830    -999.25    -999.25   46.62100   46.62100   16.23670    -999.25    -999.25   21.77060    -999.25 -163.69780   -7.90980   21.77060
 2200.00000    -999.25    -999.25   10.13820   10.12050   56.91410   61.08850    -999.25    -999.25    -999.25    -999.25    -999.25   16.36970   82.13570   82.13570    -999.25    -999.25   41.21310   42.33490   16.36970    -999.25    -999.25   19.29830    -999.25 -170.20520  -14.55340   19.29830
 2250.00000    -999.25    -999.25   10.21810   10.30810  187.81230  216.87740    -999.25    -999.25    -999.25    -999.25    -999.25    4.61090  124.34800  124.34800    -999.25    -999.25   57.76000   62.25750    4.61090    -999.25    -999.25   11.27360    -999.25 -157.86310   -2.62950   11.27360
 2300.00000    -999.25    -999.25   10.05420    9.90390   95.57960  104.23050    -999.25    -999.25    -999.25    -999.25    -999.25    9.59480   83.44460   83.44460    -999.25    -999.25   76.40470   73.92030    9.59480    -999.25    -999.25   11.98490    -999.25 -156.41550   -1.56860   11.98490
 2350.00000    -999.25    -999.25    9.47290    9.81690   72.53740   80.64710    -999.25    -999.25    -999.25    -999.25    -999.25   12.39970   80.85750   80.85750    -999.25    -999.25   40.69860   37.85380   12.39970    -999.25    -999.25   14.13140    -999.25 -162.48370   -7.86500   14.13140
 2400.00000    -999.25    -999.25    9.90580    9.85840  152.94920  168.31900    -999.25    -999.25    -999.25    -999.25    -999.25    5.94110   84.24070   84.24070    -999.25    -999.25   57.49130   51.32290    5.94110    -999.25    -999.25    6.75570    -999.25 -157.93050   -3.53850    6.75570
 2450.00000    -999.25    -999.25   10.30640   10.58090  124.04640  135.88620    -999.25    -999.25    -999.25    -999.25    -999.25    7.35910   85.34740   85.34740    -999.25    -999.25   61.83420   57.79270    7.35910    -999.25    -999.25    9.26100    -999.25 -159.46790   -5.30410    9.26100
 2500.00000    -999.25    -999.25    9.65110   10.82500   93.43720   98.85230    -999.25    -999.25    -999.25    -999.25    -999.25   10.11610   82.46770   82.46770    -999.25    -999.25   53.10540   65.70590   10.11610    -999.25    -999.25   10.86990    -999.25 -161.77570   -7.83860   10.86990
