~Version ---------------------------------------------------
VERS.      2.0 : CWLS log ASCII Standard -VERSION 2.0
WRAP.       NO : One line per depth step
CREA. 11/17/17 : LAS Creation Date
~Well ------------------------------------------------------
STRT.FT                  300.0 : START DEPTH
STOP.FT                10400.0 : STOP DEPTH
STEP.FT               50.00000 : STEP LENGTH
NULL.                  -999.25 : NULL VALUE
COMP.    J M HUBER CORPORATION : COMPANY
WELL. HUBER ROSEVEAR 6-5-55-14 : WELL
FLD .                       WC : FIELD
LOC .                          : LOCATION
CTRY.                   CANADA : COUNTRY
SRVC.             Schlumberger : SERVICE COMPANY
DATE.              04-Sep-1976 : LOGDATE
PROV.                  Alberta : PROVINCE
UWI .         100060505514W500 : UNIQUE WELL ID
SLAT.WGS84            53.72293 : SURFACE LATITUDE
SLON.WGS84           -116.0453 : SURFACE LONGITUDE
~Curve Information -----------------------------------------
DEPT    .FT    : Depth Curve
CALDED  .IN    : CALIPER FROM DENSITY LOG [ADJ. TO RESISTIVITY LOG]
CALRED  .MV    : CALIPER FROM FROM DLL
CALSED  .IN    : CALIPER FROM SONIC LOG [ADJ. TO RESISTIVITY LOG]
CALWS   .IN    : CALIPER [CALSED]
CONDWS  .MMHO  : CONDUCTIVITY [1000/DRESWS]
DCORED  .G/C3  : DENSITY CORRECTION FROM DENSITY LOG [ADJ. TO RESISTIVITY LOG]
DCORWS  .G/C3  : DENSITY CORRECTION [DCORED]
DENWS   .G/C3  : FORMATION BULK DENSITY [RHOBED SPL. TO DPHISSED CONVERTED TO LIMESTONE MATRIX, M=2.71, F=1.00 (ASSUMED) FROM 5892'-5905']
DPHILSED.V/V   : DENSITY POROSITY LIMESTONE [M=2.71, F=1.00 (ASSUMED)] FROM DENSITY LOG [ADJ. TO RESISTIVITY LOG]
DPHISSED.V/V   : DENSITY POROSITY SANDSTONE [M=2.65, F=1.00 (ASSUMED)] FROM DENSITY LOG [ADJ. TO RESISTIVITY LOG]
DPOLSWS .V/V   : DENSITY POROSITY LIMESTONE [CALC. FROM DENWS, M=2.71, F=1.00 (ASSUMED)]
DRESWS  .OHMM  : DEEP RESISTIVITY [LLDED]
DTED    .US/F  : DELTA TIME FROM SONIC LOG [ADJ. TO RESISTIVITY LOG]
DTWS    .US/F  : COMPRESSIONAL SONIC [DTED]
GRDED   .GAPI  : GAMMA RAY FROM DENSITY LOG [ADJ. TO RESISTIVITY LOG]
GRSED   .GAPI  : GAMMA RAY FROM SONIC LOG [ADJ. TO RESISTIVITY LOG]
GRWS    .GAPI  : GAMMA RAY [GRSED]
LLDED   .OHMM  : DEEP LATEROLOG RESISTIVITY FROM RESISTIVITY LOG
LLSED   .OHMM  : SHALLOW LATEROLOG RESISTIVITY LOG
NPHILSED.V/V   : NEUTRON POROSITY LIMESTONE FROM DENSITY LOG [ADJ. TO RESISTIVITY LOG]
NPHISSED.V/V   : NEUTRON POROSITY SANDSTONE FROM DENSITY LOG [ADJ. TO RESISTIVITY LOG]
NPOLSWS .V/V   : NEUTRON POROSITY LIMESTONE [NPHISSED MATRIX (SCHLUMBERGER) CONVERSION FOR LIMESTONE, SPL.TO NPHILSED @ 7149']
RHOBED  .G/C3  : BULK DENSITY FROM DENSITY LOG [ADJ. TO RESISTIVITY LOG]
SPRED   .MV    : SPONTANEOUS POTENTIAL FROM RESISTIVITY LOG
SPWS    .MV    : SPONTANEOUS POTENTIAL [BASELINE 0 MV, SPRED*-1]
SRESWS  .OHMM  : SHALLOW RESISTIVITY [LLSED]
~Params ----------------------------------------------------
PD  .                     GL : PERMANENT DATUM
EPD .FT                 2650 : ELEVATION PERMANENT DATUM
LMF .                     KB : LOG MEASURED FROM
DAPD.FT                   16 : FEET ABOVE PERMANENT DATUM
EKB .FT                 2666 : KELLY BUSHING
EGL .FT                 2650 : GROUND LEVEL
DATE.               09/04/76 : RUN DATE
RUN .                      2 : RUN NUMBER
DD  .FT                10450 : DEPTH DRILLER
DL  .FT                10450 : DEPTH LOGGER
BLI .FT                10448 : BOTTOM LOG INTERVAL
TLI .FT                 8400 : TOP LOG INTERVAL
CBD .FT                 1105 : CASING BOTTOM DRILLER
BS  .IN                 8.75 : BIT SIZE
BSD .FT                10450 : BIT SIZE AT DEPTH
DFT .               GEL CHEM : DRILLING FLUID TYPE
DFD .                    9.6 : DRILLING FLUID DENSITY
DFV .                     82 : DRILLING FLUID VISCOSITY
DFPH.                     11 : DRILLING FLUID PH
DFL .                     15 : DRILLING FLUID LOSS
RMS .OHMM               0.28 : RESISTIVITY MUD SAMPLE
MST .DEGF                 62 : MUD SAMPLE TEMPERATURE
RMF .OHMM               0.23 : RESISTIVITY MUD FILTRATE SAMPLE
MFST.DEGF                 62 : MUD FILTRATE SAMPLE TEMPERATURE
RMB .OHMM               0.11 : RESISTIVITY MUD AT BHT
TCS .HRS                   1 : TIME CIRCULATED STOPPED
LUN .                   7730 : LOGGING UNIT NUMBER
LUL .                    EDM : LOGGING UNIT LOCATION
ENGI.         PIMM MACDONALD : RECORDING ENGINEER
WITN.                 TAYLOR : WITNESSED BY
CLNT.                A2DTECH : CLIENT CODE
ORIG.               5" PRINT : ORIGIN OF DATA
UWI .       100060505514W500 : UNIQUE WELL ID
DICO. A2D Technologies, Inc. : DIGITIZING COMPANY
~Other -----------------------------------------------------
DLL-CNFD-BHC TOOLS RUN
~ASCII -----------------------------------------------------
# ...
 3000.00000   13.23780   13.77030   11.44360   11.44360  187.30450    0.21960    0.21960    2.29980    -999.25    0.21120    0.23990    5.33890   92.52980   92.52980   93.47630   98.66850   98.66850    5.33890    4.85060    -999.25    0.32350    0.27960    2.29980  -24.01590    7.19850    4.85060
 3050.00000   15.00960   13.56100   11.66790   11.66790  194.96600    0.12000    0.12000    1.93380    -999.25    0.43570    0.45390    5.12910   95.37640   95.37640   98.61020  107.23710  107.23710    5.12910    4.66280    -999.25    0.37750    0.33420    1.93380  -34.62590   -3.20300    4.66280
 3100.00000   14.55850   11.78180   11.76700   11.76700  100.18130    0.09350    0.09350    2.43060    -999.25    0.14180    0.16340    9.98190   85.14150   85.14150   82.12310   90.63570   90.63570    9.98190    7.38700    -999.25    0.31450    0.27060    2.43060  -23.13400    8.29000    7.38700
 3150.00000   11.30460   10.76450   11.00650   11.00650  119.16250    0.13830    0.13830    2.49220    -999.25    0.11240    0.12740    8.39190   86.28040   86.28040   82.73570   95.45530   95.45530    8.39190    7.76150    -999.25    0.37400    0.33070    2.49220  -25.69990    5.69130    7.76150
 3200.00000   14.49600   11.25640   11.76040   11.76040  321.62610    0.09170    0.09170    1.84350    -999.25    0.44070    0.50670    3.10920  118.78000  118.78000   86.17780   86.59450   86.59450    3.10920    2.86400    -999.25    0.53980    0.50210    1.84350  -20.54200   10.81660    2.86400
 3250.00000   12.07260   10.05780   11.97450   11.97450  137.38530    0.04860    0.04860    2.45950    -999.25    0.11360    0.14650    7.27880   84.80850   84.80850   81.63290   93.62420   93.62420    7.27880    6.19090    -999.25    0.39700    0.35400    2.45950  -18.76790   12.55790    6.19090
 3300.00000   11.18680   10.36870   11.22190   11.22190   83.34240    0.05120    0.05120    2.36970    -999.25    0.17070    0.19900   11.99870   81.87960   81.87960   67.05120   68.89350   68.89350   11.99870   10.63840    -999.25    0.26490    0.22090    2.36970  -21.58400    9.70910   10.63840
 3350.00000   13.97060    9.65830   11.18010   11.18010  175.70060    0.14490    0.14490    2.27340    -999.25    0.23000    0.25530    5.69150   91.22250   91.22250   82.89500   88.21850   88.21850    5.69150    5.15160    -999.25    0.38570    0.34260    2.27340  -26.35290    4.90750    5.15160
 3400.00000   14.99400    9.76710   11.18400   11.18400  156.18410    0.15440    0.15440    2.02610    -999.25    0.37340    0.39990    6.40270   86.78000   86.78000   75.46980   90.76630   90.76630    6.40270    5.31740    -999.25    0.35580    0.31220    2.02610  -26.88290    4.34470    5.31740
 3450.00000   14.19840    9.87530   11.22100   11.22100  193.44980    0.09000    0.09000    2.43370    -999.25    0.13370    0.16160    5.16930   90.97710   90.97710   83.22730   78.16040   78.16040    5.16930    4.66920    -999.25    0.41590    0.37340    2.43370  -29.81140    1.38350    4.66920
 3500.00000   10.96690    9.40660   10.88710   10.88710   68.42800    0.05510    0.05510    2.33830    -999.25    0.19610    0.21730   14.61390   82.81470   82.81470   62.92560   62.72200   62.72200   14.61390   10.78610    -999.25    0.34550    0.30190    2.33830  -14.17590   16.98630   10.78610
 3550.00000   12.19730   10.10650   10.82280   10.82280  171.23290    0.19390    0.19390    2.23870    -999.25    0.26080    0.27560    5.84000   91.21080   91.21080   72.21410   69.71030   69.71030    5.84000    5.40120    -999.25    0.39260    0.34960    2.23870  -23.80590    7.32360    5.40120
 3600.00000   13.30130    9.95840   11.40330   11.40330  131.80440    0.15150    0.15150    2.31060    -999.25    0.21190    0.23360    7.58700   80.47690   80.47690   74.33610   77.56360   77.56360    7.58700    6.43820    -999.25    0.35090    0.30730    2.31060  -25.73200    5.36490    6.43820
 3650.00000   10.69430    9.53510   10.76920   10.76920   34.46140    0.07240    0.07240    2.48990    -999.25    0.09690    0.12870   29.01800   73.93930   73.93930   63.47870   68.10770   68.10770   29.01800   22.96320    -999.25    0.26230    0.21830    2.48990  -29.55000    1.51420   22.96320
 3700.00000   12.93390    9.72990   10.94800   10.94800  112.78790    0.22820    0.22820    2.29580    -999.25    0.21530    0.24220    8.86620   87.66100   87.66100   75.13650   92.17210   92.17210    8.86620    7.14280    -999.25    0.35410    0.31060    2.29580  -25.28440    5.74700    7.14280
 3750.00000   11.16870    9.79740   10.94590   10.94590   55.01060    0.09770    0.09770    2.47590    -999.25    0.10680    0.13690   18.17830   75.95300   75.95300   69.18920   81.78930   81.78930   18.17830   15.57030    -999.25    0.34870    0.30500    2.47590  -30.86090    0.12820   15.57030
 3800.00000   10.63020   10.06570   10.74460   10.74460   70.06970    0.07650    0.07650    2.44280    -999.25    0.12530    0.15630   14.27150   79.40080   79.40080   56.30010   60.85610   60.85610   14.27150   10.67020    -999.25    0.32220    0.27830    2.44280  -23.31900    7.39830   10.67020
 3850.00000   10.96090    9.77280   10.73910   10.73910   77.14620    0.09640    0.09640    2.51310    -999.25    0.08560    0.11510   12.96240   78.86780   78.86780   70.07520   79.73100   79.73100   12.96240   11.09410    -999.25    0.35680    0.31320    2.51310  -26.56200    3.88330   11.09410
 3900.00000   11.52960    9.58490   10.98540   10.98540  111.59100    0.11370    0.11370    2.35640    -999.25    0.18210    0.20680    8.96130   82.78640   82.78640   81.21410   84.80580   84.80580    8.96130    8.36260    -999.25    0.37440    0.33110    2.35640  -28.67400    1.49940    8.36260
 3950.00000   13.36760    9.65880   11.17950   11.17950  128.27750    0.19370    0.19370    2.30430    -999.25    0.22410    0.23730    7.79560   89.46470   89.46470    -999.25  102.78750  102.78750    7.79560    7.53290    -999.25    -999.25    -999.25    2.30430  -28.53090    1.37050    7.53290
 4000.00000    -999.25    9.62140   11.63680   11.63680  120.73940    -999.25    -999.25    -999.25    -999.25    -999.25    -999.25    8.28230   85.08350   85.08350    -999.25  125.91120  125.91120    8.28230    7.88400    -999.25    -999.25    -999.25    -999.25  -27.39990    2.22960    7.88400
 4050.00000    -999.25    9.68110   11.26280   11.26280  100.52880    -999.25    -999.25    -999.25    -999.25    -999.25    -999.25    9.94740   84.56840   84.56840    -999.25  127.21130  127.21130    9.94740    9.28080    -999.25    -999.25    -999.25    -999.25  -27.60290    1.75470    9.28080
 4100.00000    -999.25    9.47260   10.79610   10.79610   94.52780    -999.25    -999.25    -999.25    -999.25    -999.25    -999.25   10.57890   82.29880   82.29880    -999.25  128.34200  128.34200   10.57890   10.11770    -999.25    -999.25    -999.25    -999.25  -29.15500   -0.06920   10.11770
 4150.00000    -999.25    9.91670   11.24960   11.24960   84.12060    -999.25    -999.25    -999.25    -999.25    -999.25    -999.25   11.88770   83.38510   83.38510    -999.25  133.77670  133.77670   11.88770   12.42180    -999.25    -999.25    -999.25    -999.25  -28.83500   -0.02110   12.42180
 4200.00000    -999.25    9.76160   10.76460   10.76460  101.25860    -999.25    -999.25    -999.25    -999.25    -999.25    -999.25    9.87570   85.64650   85.64650    -999.25  137.00380  137.00380    9.87570   10.33670    -999.25    -999.25    -999.25    -999.25  -28.29350    0.24850   10.33670
 4250.00000    -999.25    9.73660   10.79470   10.79470   81.64730    -999.25    -999.25    -999.25    -999.25    -999.25    -999.25   12.24780   91.05510   91.05510    -999.25  152.59840  152.59840   12.24780   13.48040    -999.25    -999.25    -999.25    -999.25  -27.58090    0.68910   13.48040
 4300.00000    -999.25    9.44350   10.73550   10.73550   59.68940    -999.25    -999.25    -999.25    -999.25    -999.25    -999.25   16.75340   85.50510   85.50510    -999.25  153.41720  153.41720   16.75340   18.32830    -999.25    -999.25    -999.25    -999.25  -29.66000   -1.66180   18.32830
