~Version ---------------------------------------------------
VERS.      2.0 : CWLS log ASCII Standard -VERSION 2.0
WRAP.       NO : One line per depth step
CREA. 09/29/17 : LAS Creation Date
~Well ------------------------------------------------------
STRT.FT                         1450.0 : START DEPTH
STOP.FT                        11100.0 : STOP DEPTH
STEP.FT                       50.00000 : STEP LENGTH
NULL.                          -999.25 : NULL VALUE
COMP. AMOCO CANADA PETROLEUM CO., LTD. : COMPANY
WELL.       AMOCO PEX TONY 10-16-64-22 : WELL
FLD .                                  : FIELD
LOC .                                  : LOCATION
CTRY.                           CANADA : COUNTRY
SRVC.           Schlumberger of Canada : SERVICE COMPANY
DATE.                      08-Apr-1978 : LOGDATE
PROV.                          Alberta : PROVINCE
UWI .                 100101606422W500 : UNIQUE WELL ID
SLAT.WGS84                    54.53914 : SURFACE LATITUDE
SLON.WGS84                   -117.2632 : SURFACE LONGITUDE
~Curve Information -----------------------------------------
DEPT    .FT    : Depth Curve
CALDED  .IN    : CALIPER FROM DENSITY LOG [ADJ. TO RESISTIVITY LOG]
CALSED  .IN    : CALIPER FROM SONIC LOG [ADJ. TO RESISTIVITY LOG]
CALWS   .IN    : CALIPER [CALDED]
CONDWS  .MMHO  : CONDUCTIVITY [1000/DRESWS]
DCORWS  .G/C3  : DENSITY CORRECTION [DRHOED]
DENWS   .G/C3  : BULK DENSITY [RHOBED]
DPHILSED.V/V   : DENSITY POROSITY LIMESTONE [M=2710,F=1000] FROM DENSITY LOG [ADJ. TO RESISTIVITY LOG]
DPHISSED.V/V   : DENSITY POROSITY SANDSTONE [M=2650,F=1000] FROM DENSITY LOG [ADJ. TO RESISTIVITY LOG]
DPOLSWS .V/V   : DENSITY POROSITY LIMESTONE [CALC. FROM DENWS,M=2710,F=1000]
DRESWS  .OHMM  : DEEP RESISTIVITY [ILDED]
DRHOED  .G/C3  : BULK DENSITY CORRECTION FROM DENSITY LOG [ADJ. TO RESISTIVITY LOG]
DTED    .US/F  : DELTA -T FROM SONIC LOG [ADJ. TO RESISTIVITY LOG]
DTWS    .US/F  : COMPRESSIONAL SONIC [DTED]
GRDED   .GAPI  : GAMMA RAY FROM DENSITY LOG [ADJ. TO RESISTIVITY LOG]
GRED    .GAPI  : GAMMA RAY FROM CBL LOG [ADJ. TO RESISTIVITY LOG]
GRSED   .GAPI  : GAMMA RAY FROM SONIC LOG [ADJ. TO RESISTIVITY LOG]
GRWS    .GAPI  : GAMMA RAY [GRED SPL. TO GRDED SPL. TO 458M]
ILDED   .OHMM  : DEEP INDUCTION RESISTIVITY FROM RESISTIVITY LOG
ILMED   .OHMM  : MEDIUM INDUCTION RESISTIVITY FROM RESISTIVITY LOG
LL8ED   .OHMM  : LATEROLOG-8 RESISTIVITY FROM RESISTIVITY LOG
MRESWS  .OHMM  : MEDIUM RESISTIVITY [ILMED]
NEUTED  .NAPI  : NEUTRON FROM CBL LOG [ADJ. TO RESISTIVITY LOG
NEUTWS  .NAPI  : NEUTRON [NEUTED]
NPHILSED.V/V   : NEUTRON POROSITY LIMESTONE FROM DENSITY LOG [ADJ. TO RESISTIVITY LOG]
NPHISSED.V/V   : NEUTRON POROSITY SANDSTONE FROM DENSITY LOG [ADJ. TO RESISTIVITY LOG]
NPOLSWS .V/V   : NEUTRON POROSITY LIMESTONE [NPHISSED CONVERTED TO LIMESTONE MATRIX,SPL. TO NPHILSED @2035M ]
RHOBED  .G/C3  : BULK DENSITYFROM DENSITY LOG [ADJ. TO RESISTIVITY LOG]
SPRED   .MV    : SPONTANEOUS POTENTIAL FROM RESISTIVITY LOG
SPWS    .MV    : SPONTANEOUS POTENTIAL [BASELINE 0 MV,SPRED]
SRESWS  .OHMM  : SHALLOW RESISTIVITY [LL8ED]
~Params ----------------------------------------------------
PD  .                     GL : PERMANENT DATUM
EPD .FT               2639.4 : ELEVATION PERMANENT DATUM
LMF .                     KB : LOG MEASURED FROM
DAPD.FT                 21.4 : FEET ABOVE PERMANENT DATUM
EKB .FT               2660.8 : KELLY BUSHING
EGL .FT               2639.4 : GROUND LEVEL
DATE.               04/08/78 : RUN DATE
RUN .                      2 : RUN NUMBER
DD  .FT                11105 : DEPTH DRILLER
DL  .FT                11103 : DEPTH LOGGER
BLI .FT                11099 : BOTTOM LOG INTERVAL
TLI .FT                 6000 : TOP LOG INTERVAL
CBD .FT                 1528 : CASING BOTTOM DRILLER
CBL .FT                 1528 : CASING BOTTOM LOGGER
BS  .IN                 8.75 : BIT SIZE
BSD .FT                11105 : BIT SIZE AT DEPTH
DFT .              GEL GELEX : DRILLING FLUID TYPE
DFD .                      9 : DRILLING FLUID DENSITY
DFV .                     92 : DRILLING FLUID VISCOSITY
DFPH.                      9 : DRILLING FLUID PH
DFL .                    9.8 : DRILLING FLUID LOSS
MSS .               FLOWLINE : MUD SAMPLE SOURCE
RMS .OHMM               1.91 : RESISTIVITY MUD SAMPLE
MST .DEGF                 52 : MUD SAMPLE TEMPERATURE
RMF .OHMM               1.45 : RESISTIVITY MUD FILTRATE SAMPLE
MFST.DEGF                 60 : MUD FILTRATE SAMPLE TEMPERATURE
TCS .HRS                 2.5 : TIME CIRCULATED STOPPED
LUN .              OSU C 244 : LOGGING UNIT NUMBER
LUL .                    EDM : LOGGING UNIT LOCATION
ENGI.                   GUNN : RECORDING ENGINEER
WITN.                   WALL : WITNESSED BY
CLNT.                A2DTECH : CLIENT CODE
ORIG.            2" 5" PRINT : ORIGIN OF DATA
UWI .       100101606422W500 : UNIQUE WELL ID
DICO. A2D Technologies, Inc. : DIGITIZING COMPANY
~Other -----------------------------------------------------
~ASCII -----------------------------------------------------
# ...
 5050.00000   14.11140    9.73050   14.11140  179.67840    0.11210    2.25980    -999.25    0.23650    0.26330    5.56550    0.11210   90.64290   90.64290  142.56020    -999.25  180.07220  142.56020    5.56550    5.92420    7.60540    5.92420    -999.25    -999.25    -999.25    0.40160    0.35880    2.26560 -113.69510  -10.76490    7.60540
 5100.00000   10.36580    8.75830   10.36580  181.59040   -0.02020    2.38620    -999.25    0.15990    0.18940    5.50690   -0.02020  103.59520  103.59520  269.42050    -999.25  299.56100  269.42050    5.50690    5.96990    9.60640    5.96990    -999.25    -999.25    -999.25    0.42210    0.37970    2.39450 -112.23290  -10.43330    9.60640
 5150.00000   12.32200   10.02260   12.32200  333.60020    0.07930    2.16640    -999.25    0.29310    0.31790    2.99760    0.07930   96.42590   96.42590   98.37380    -999.25  137.73840   98.37380    2.99760    3.12070    4.32640    3.12070    -999.25    -999.25    -999.25    0.41370    0.37110    2.16870 -111.09430  -10.41800    4.32640
 5200.00000   11.06310    9.44940   11.06310  228.21670    0.05100    2.43670    -999.25    0.12930    0.15990    4.38180    0.05100   82.04760   82.04760  107.92220    -999.25  138.77370  107.92220    4.38180    4.72210    6.42620    4.72210    -999.25    -999.25    -999.25    0.29430    0.25030    2.43400 -116.18960  -16.64390    6.42620
 5250.00000   12.21860    9.40510   12.21860  205.76560    0.18770    2.35040    -999.25    0.18160    0.21030    4.85990    0.18770   85.68000   85.68000  104.18870    -999.25  133.55100  104.18870    4.85990    5.28800    7.19350    5.28800    -999.25    -999.25    -999.25    0.30340    0.25940    2.34840 -120.48710  -22.06460    7.19350
 5300.00000   10.49560    9.07460   10.49560  100.83380   -0.01980    2.65400    -999.25   -0.00240    0.03280    9.91850   -0.01980   69.41900   69.41900   82.27380    -999.25  107.72040   82.27380    9.91850   10.10260   13.02520   10.10260    -999.25    -999.25    -999.25    0.17270    0.12970    2.65340 -120.39270  -23.09340   13.02520
 5350.00000   10.94990    9.42020   10.94990  163.54300    0.14460    2.22220    -999.25    0.25930    0.28530    6.11460    0.14460   84.55770   84.55770   84.91840    -999.25   96.25100   84.91840    6.11460    6.95860    7.65580    6.95860    -999.25    -999.25    -999.25    0.32520    0.28130    2.19050 -121.94600  -25.77730    7.65580
 5400.00000   12.31880   10.02700   12.31880  142.28390    0.02210    2.42080    -999.25    0.13890    0.16910    7.02820    0.02210   74.30770   74.30770  102.11910    -999.25  124.59510  102.11910    7.02820    7.24990   18.96910    7.24990    -999.25    -999.25    -999.25    0.23060    0.18680    2.39310 -126.22840  -31.18290   18.96910
 5450.00000    9.82770    8.79640    9.82770   54.21880    0.00050    2.46500    -999.25    0.11210    0.14330   18.44380    0.00050   70.99950   70.99950   47.96480    -999.25   54.40270   47.96480   18.44380   21.33520   30.41990   21.33520    -999.25    -999.25    -999.25    0.21130    0.16770    2.47490 -147.96040  -54.04560   30.41990
 5500.00000    9.57540    8.65450    9.57540   71.88090    0.03170    2.39110    -999.25    0.15690    0.18650   13.91190    0.03170   77.41800   77.41800   57.23990    -999.25   69.05730   57.23990   13.91190   15.86640   24.21900   15.86640    -999.25    -999.25    -999.25    0.28310    0.23910    2.38900 -145.72930  -52.93770   24.21900
 5550.00000   10.61930    9.26800   10.61930  129.89670   -0.01470    2.52180    -999.25    0.07770    0.11010    7.70140   -0.01470   78.33830   78.33830   99.16660    -999.25  125.28300   99.16660    7.70140    8.47220   11.57950    8.47220    -999.25    -999.25    -999.25    0.30300    0.25910    2.53700 -113.91600  -22.24760   11.57950
 5600.00000   10.58890    9.02570   10.58890   96.65850   -0.00760    2.36740    -999.25    0.17130    0.20040   10.34570   -0.00760   83.97580   83.97580   47.16120    -999.25   58.00160   47.16120   10.34570   11.31420   15.34700   11.31420    -999.25    -999.25    -999.25    0.26010    0.21610    2.33920 -129.62210  -39.08430   15.34700
 5650.00000   10.88770    9.01250   10.88770   80.07820   -0.02670    2.54520    -999.25    0.06350    0.09640   12.48780   -0.02670   72.51830   72.51830   77.08170    -999.25   93.73080   77.08170   12.48780   13.78030   17.26510   13.78030    -999.25    -999.25    -999.25    0.24750    0.20360    2.56670 -116.04780  -26.63320   17.26510
 5700.00000   10.61930    9.18550   10.61930   73.48510   -0.00850    2.49900    -999.25    0.09150    0.12340   13.60820   -0.00850   74.37730   74.37730   50.72010    -999.25   61.61760   50.72010   13.60820   15.09590   40.54310   15.09590    -999.25    -999.25    -999.25    0.17940    0.13630    2.48760 -136.12950  -47.84550   40.54310
 5750.00000   14.23750   10.09550   14.23750   57.47750   -0.00500    1.91260    -999.25    0.44990    0.46630   17.39810   -0.00500   95.82560   95.82560   82.22220    -999.25  102.80310   82.22220   17.39810   18.90430   24.14340   18.90430    -999.25    -999.25    -999.25    0.45130    0.40960    1.91270 -106.24730  -19.08660   24.14340
 5800.00000   11.17640    9.35630   11.17640   88.90660   -0.02710    2.57750    -999.25    0.04550    0.07750   11.24780   -0.02710   70.35930   70.35930   75.55640    -999.25   96.72130   75.55640   11.24780   12.33190   16.50910   12.33190    -999.25    -999.25    -999.25    0.23060    0.18680    2.57740 -111.73890  -25.70140   16.50910
 5850.00000   11.08110    9.31600   11.08110   67.05420    0.04400    1.72260    -999.25    0.44940    0.57740   14.91330    0.04400  116.95960  116.95960   87.09050    -999.25  105.77600   87.09050   14.91330   20.48430   28.55420   20.48430    -999.25    -999.25    -999.25    0.44970    0.40800    1.72260  -97.12280  -12.48100   28.55420
 5900.00000   11.38870    9.48960   11.38870   90.36610    0.00120    2.53270    -999.25    0.08580    0.10370   11.06610    0.00120   76.79820   76.79820   85.29070    -999.25  100.72100   85.29070   11.06610   12.37500   18.80390   12.37500    -999.25    -999.25    -999.25    0.26680    0.22280    2.53280  -96.03710  -13.03530   18.80390
 5950.00000   11.82220    9.55400   11.82220  118.36000   -0.01370    2.52650    -999.25    0.05910    0.10730    8.44880   -0.01370   74.78030   74.78030   57.01320    -999.25   68.91600   57.01320    8.44880    8.90760   10.69440    8.90760    -999.25    -999.25    -999.25    0.24710    0.20320    2.52660  -98.59200  -17.24090   10.69440
 6000.00000   12.09740    9.69320   12.09740  105.86600   -0.00210    2.50720    -999.25    0.07990    0.11860    9.44590   -0.00210   75.89190   75.89190   67.87050    -999.25   83.07670   67.87050    9.44590   10.43210   14.12280   10.43210    -999.25    -999.25    -999.25    0.30050    0.25650    2.50720 -102.37900  -22.66790   14.12280
 6050.00000   11.19990    9.45790   11.19990  143.10470   -0.00960    2.50070    -999.25    0.08810    0.12240    6.98790   -0.00960   73.18990   73.18990   56.12920    -999.25   73.25740   56.12920    6.98790    7.32770   12.16210    7.32770    -999.25    -999.25    -999.25    0.24640    0.20250    2.50070 -119.87910  -41.80790   12.16210
 6100.00000   11.26760    9.49050   11.26760   83.90530   -0.03300    2.60360    -999.25    0.02770    0.06220   11.91820   -0.03300   71.76930   71.76930   89.86390    -999.25  108.71660   89.86390   11.91820   12.75830   16.40860   12.75830    -999.25    -999.25    -999.25    0.23220    0.18840    2.60360  -90.47120  -14.05070   16.40860
 6150.00000   11.26620    9.42380   11.26620  156.98830   -0.03210    2.59170    -999.25    0.03510    0.06920    6.36990   -0.03210   68.20680   68.20680   83.05120    -999.25  106.67870   83.05120    6.36990    6.91650   11.05560    6.91650    -999.25    -999.25    -999.25    0.25240    0.20850    2.59170  -84.68120   -9.90070   11.05560
 6200.00000   10.99930    9.40620   10.99930  112.02850   -0.02210    2.50330    -999.25    0.08410    0.12090    8.92630   -0.02210   71.54190   71.54190   64.23880   45.92850   82.74740   64.23880    8.92630    9.58540   13.43400    9.58540  956.50770  956.50770    -999.25    0.20330    0.15980    2.50330  -76.04820   -4.35050   13.43400
