~Version ---------------------------------------------------
VERS.      2.0 : CWLS log ASCII Standard -VERSION 2.0
WRAP.       NO : One line per depth step
CREA. 08/02/17 : LAS Creation Date
~Well ------------------------------------------------------
STRT.FT                       300.0 : START DEPTH
STOP.FT                     10150.0 : STOP DEPTH
STEP.FT                    50.00000 : STEP LENGTH
NULL.                       -999.25 : NULL VALUE
COMP.          MOBIL OIL CANADA LTD : COMPANY
WELL. MOBIL MCLEOD RIVER 11-1-57-14 : WELL
FLD .                               : FIELD
LOC .                               : LOCATION
CTRY.                        CANADA : COUNTRY
SRVC.        Schlumberger of Canada : SERVICE COMPANY
DATE.                   02-May-1978 : LOGDATE
PROV.                       Alberta : PROVINCE
UWI .              100110105714W500 : UNIQUE WELL ID
SLAT.WGS84                 53.89809 : SURFACE LATITUDE
SLON.WGS84                -115.9478 : SURFACE LONGITUDE
~Curve Information -----------------------------------------
DEPT    .FT    : Depth Curve
CALDED  .IN    : CALIPER FROM CNL-FDC LOG [ADJ. TO ILDED/CALSED]
CALSED  .IN    : CALIPER FROM BCS LOG
CALWS   .IN    : CALIPER [CALSED]
CONDWS  .MMHO  : CONDUCTIVITY [1000/DRESWS]
DCORED  .G/C3  : DENSITY CORRECTION FROM CNL-FDC LOG [ADJ. TO ILDED]
DCORWS  .G/C3  : DENSITY CORRECTION [DCORED]
DENWS   .G/C3  : FORMATION BULK DENSITY [RHOBED]
DPHILSED.V/V   : DENSITY POROSITY LIMESTONE [M=2.71, F=1.0] FROM CNL-FDC LOG [ADJ. TO ILDED]
DPHISSED.V/V   : DENSITY POROSITY SANDSTONE [M=2.65, F=1.0] FROM CNL-FDC LOG [ADJ. TO ILDED]
DPOLSWS .V/V   : DENSITY POROSITY LIMESTONE [CALCULATED FROM DENWS, M=2.71, F=1.0]
DRESWS  .OHMM  : DEEP RESISTIVITY [ILDED]
DTED    .US/F  : DELTA-T (INTERVAL TRANSIT TIME) FROM BCS LOG
DTWS    .US/F  : COMPRESSIONAL SONIC [DTED]
GRDED   .GAPI  : GAMMA RAY FROM CNL-FDC LOG  [ADJ. TO ILDED]
GRSED   .GAPI  : GAMMA RAY FROM BCS LOG
GRWS    .GAPI  : GAMMA RAY [GRDED SPL. TO GRSED @ 10161']
ILDED   .OHMM  : DEEP INDUCTION FROM DIL-LL LOG
ILMED   .OHMM  : MEDIUM INDUCTION FROM DIL-LL LOG
LL8ED   .OHMM  : LATEROLOG 8 FROM DIL-LL LOG
MRESWS  .OHMM  : MEDIUM RESISTIVITY [ILMED]
NPHILSED.V/V   : NEUTRON POROSITY LIMESTONE FROM CNL-FDC LOG [ADJ. TO ILDED]
NPHISSED.V/V   : NEUTRON POROSITY SANDSTONE FROM CNL-FDC LOG [ADJ. TO ILDED]
NPOLSWS .V/V   : NEUTRON POROSITY LIMESTONE [NPHISSED CONVERTED TO LIMESTONE MATRIX & SPL. TO NPHILSED @ 6700']
RHOBED  .G/C3  : BULK DENSITY FROM CNL-FDC LOG [ADJ. TO ILDED]
SPRED   .MV    : SPONTANEOUS POTENTIAL FROM DIL-LL LOG
SPWS    .MV    : SPONTANEOUS POTENTIAL [BASELINE 0 MV, SPRED]
SRESWS  .OHMM  : SHALLOW RESISTIVITY [LL8ED]
~Params ----------------------------------------------------
PD  .                     GL : PERMANENT DATUM
EPD .FT               2845.4 : ELEVATION PERMANENT DATUM
LMF .                     KB : LOG MEASURED FROM
DAPD.FT                   20 : FEET ABOVE PERMANENT DATUM
EKB .FT               2865.2 : KELLY BUSHING
EGL .FT               2845.4 : GROUND LEVEL
DATE.               05/02/78 : RUN DATE
RUN .                      1 : RUN NUMBER
DD  .FT                10200 : DEPTH DRILLER
DL  .FT                10189 : DEPTH LOGGER
BLI .FT                10183 : BOTTOM LOG INTERVAL
TLI .FT                 1217 : TOP LOG INTERVAL
CBD .FT                 1217 : CASING BOTTOM DRILLER
CBL .FT                 1217 : CASING BOTTOM LOGGER
BS  .IN                 8.75 : BIT SIZE
BSD .FT                10200 : BIT SIZE AT DEPTH
DFT .                    GEL : DRILLING FLUID TYPE
DFD .                    9.4 : DRILLING FLUID DENSITY
DFV .                    205 : DRILLING FLUID VISCOSITY
DFPH.                   10.0 : DRILLING FLUID PH
DFL .                    8.5 : DRILLING FLUID LOSS
MSS .               FLOWLINE : MUD SAMPLE SOURCE
RMS .OHMM               2.27 : RESISTIVITY MUD SAMPLE
MST .DEGF                 66 : MUD SAMPLE TEMPERATURE
RMF .OHMM               1.96 : RESISTIVITY MUD FILTRATE SAMPLE
MFST.DEGF                 65 : MUD FILTRATE SAMPLE TEMPERATURE
TCS .HRS                   4 : TIME CIRCULATED STOPPED
LUN .                   7800 : LOGGING UNIT NUMBER
LUL .                    EDM : LOGGING UNIT LOCATION
ENGI.                 KUBICA : RECORDING ENGINEER
WITN.                   RUSH : WITNESSED BY
CLNT.                A2DTECH : CLIENT CODE
ORIG.            2" 5" PRINT : ORIGIN OF DATA
UWI .       100110105714W500 : UNIQUE WELL ID
DICO. A2D Technologies, Inc. : DIGITIZING COMPANY
~Other -----------------------------------------------------
~ASCII -----------------------------------------------------
# ...
 4200.00000   12.95040   10.74700   10.74700  151.60600    0.14290    0.14290    2.28140    -999.25    0.23690    0.25060    6.59730   86.12280   86.12280  112.21560  114.14220  112.21560    6.59730    6.86110    7.72620    6.86110    -999.25    0.37060    0.32730    2.28140  -80.66380   -6.72900    7.72620
 4250.00000   12.49240   10.47190   10.47190  114.36150    0.15180    0.15180    2.37930    -999.25    0.15830    0.19340    8.74420   82.71240   82.71240  103.83410  108.83040  103.83410    8.74420    9.06890    9.94330    9.06890    -999.25    0.32350    0.27960    2.37930  -80.83880   -6.90390    9.94330
 4300.00000   12.46360   10.18760   10.18760  136.27880    0.13410    0.13410    2.39850    -999.25    0.16820    0.18220    7.33790   86.53580   86.53580  121.05310  111.94850  121.05310    7.33790    7.91620    9.10980    7.91620    -999.25    0.36200    0.31850    2.39850  -78.99930   -5.59430    9.10980
 4350.00000   12.65100   10.08070   10.08070  141.14130    0.14850    0.14850    2.38110    -999.25    0.16970    0.19240    7.08510   82.87010   82.87010  116.80860  108.85570  116.80860    7.08510    7.83700    8.76090    7.83700    -999.25    0.33060    0.28680    2.38110  -78.45450   -5.61610    8.76090
 4400.00000   11.93100    9.92870    9.92870  132.55740    0.10500    0.10500    2.43700    -999.25    0.12690    0.15960    7.54390   90.40000   90.40000  122.68120  126.34870  122.68120    7.54390    7.80780    9.78370    7.80780    -999.25    0.39570    0.35270    2.43700  -78.10710   -5.82960    9.78370
 4450.00000   11.67500   10.44940   10.44940  154.45660    0.18340    0.18340    2.21420    -999.25    0.28280    0.29000    6.47440   87.24780   87.24780  122.58690  125.31890  122.58690    6.47440    6.89570    7.63350    6.89570    -999.25    0.38550    0.34240    2.21420  -78.37000   -6.64760    7.63350
 4500.00000   11.30750    9.97430    9.97430  142.34060    0.16070    0.16070    2.38470    -999.25    0.16270    0.19020    7.02540   85.23300   85.23300  117.77670  124.38290  117.77670    7.02540    7.41610    8.36120    7.41610    -999.25    0.37490    0.33160    2.38470  -78.37250   -7.19020    8.36120
 4550.00000    9.98580    9.85340    9.85340  143.40620    0.13580    0.13580    2.49380    -999.25    0.09250    0.12640    6.97320   84.91500   84.91500  121.59060  121.69590  121.59060    6.97320    7.55070    8.08710    7.55070    -999.25    0.35110    0.30750    2.49380  -75.11170   -4.47240    8.08710
 4600.00000    9.75000   10.20080   10.20080  100.15640    0.10450    0.10450    2.59000    -999.25    0.03540    0.07020    9.98450   78.16560   78.16560  101.02020   99.07970  101.02020    9.98450   10.64140   12.03360   10.64140    -999.25    0.30320    0.25920    2.59000  -77.00750   -6.91380   12.03360
 4650.00000   10.70140   10.44960   10.44960  125.97000    0.15850    0.15850    2.59310    -999.25    0.04870    0.06840    7.93840   78.13690   78.13690  111.24050  107.15720  111.24050    7.93840    8.43250    8.70770    8.43250    -999.25    0.32790    0.28410    2.59310  -77.06860   -7.51510    8.70770
 4700.00000    9.96900   10.01660   10.01660  130.87620    0.16250    0.16250    2.50760    -999.25    0.08650    0.11830    7.64090   83.48630   83.48630  119.02280  122.88900  119.02280    7.64090    8.22100    9.37640    8.22100    -999.25    0.35190    0.30830    2.50760  -74.81040   -5.80260    9.37640
 4750.00000   11.68870   10.86950   10.86950  138.07010    0.21790    0.21790    2.09420    -999.25    0.34210    0.36010    7.24270   85.64640   85.64640  113.46910  116.14580  113.46910    7.24270    7.96610    8.76360    7.96610    -999.25    0.37970    0.33650    2.09420  -74.06690   -5.59930    8.76360
 4800.00000    9.14040   10.85750   10.85750  148.67010    0.15940    0.15940    2.26640    -999.25    0.24560    0.25940    6.72630   90.70910   90.70910  120.94280  125.11130  120.94280    6.72630    7.13990    8.81710    7.13990    -999.25    0.42290    0.38050    2.26640  -75.51980   -7.59510    8.81710
 4850.00000   14.66680   11.93670   11.93670  166.16890    0.15680    0.15680    2.19040    -999.25    0.27860    0.30390    6.01810   93.36190   93.36190  115.45700  108.59550  115.45700    6.01810    6.22770    7.55720    6.22770    -999.25    0.41340    0.37090    2.19040  -71.03020   -3.65110    7.55720
 4900.00000   11.87270   10.17440   10.17440  126.12890    0.24970    0.24970    2.19210    -999.25    0.28320    0.30290    7.92840   88.27900   88.27900  136.34230  140.35530  136.34230    7.92840    8.69750   10.58940    8.69750    -999.25    0.37670    0.33340    2.19210  -71.43040   -4.59160   10.58940
 4950.00000   13.65320   11.54040   11.54040  142.85310    0.23440    0.23440    2.15960    -999.25    0.29860    0.32190    7.00020   91.02820   91.02820  124.55590  126.32110  124.55590    7.00020    7.81190    9.73870    7.81190    -999.25    0.42310    0.38070    2.15960  -70.40140   -4.10830    9.73870
 5000.00000   13.28640   10.47700   10.47700  133.75240    0.25700    0.25700    2.22050    -999.25    0.24210    0.28630    7.47650   91.72050   91.72050  131.15530  138.89850  131.15530    7.47650    8.40190   10.59460    8.40190    -999.25    0.41040    0.36770    2.22050  -71.83540   -6.08250   10.59460
 5050.00000    9.63410    9.37900    9.37900   96.27420    0.26370    0.26370    2.52080    -999.25    0.08640    0.11060   10.38700   90.78690   90.78690  143.78670  136.65840  143.78670   10.38700   11.54320   16.03650   11.54320    -999.25    0.35760    0.31410    2.52080  -70.46310   -5.25310   16.03650
 5100.00000   13.77390   11.44190   11.44190  140.91060    0.24500    0.24500    2.16020    -999.25    0.29780    0.32150    7.09670   90.68680   90.68680  123.20530  117.95080  123.20530    7.09670    7.67370    9.99880    7.67370    -999.25    0.41250    0.36990    2.16020  -70.23270   -5.56840    9.99880
 5150.00000    9.73220    9.28510    9.28510   78.80720    0.11710    0.11710    2.52670    -999.25    0.05270    0.10720   12.68920   83.99000   83.99000  150.16810  144.18430  150.16810   12.68920   14.64590   21.50980   14.64590    -999.25    0.32080    0.27690    2.52670  -69.93060   -5.79110   21.50980
 5200.00000   10.23030    9.64380    9.64380  151.08670    0.21810    0.21810    2.44010    -999.25    0.12910    0.15780    6.61910   85.20590   85.20590  120.35090  114.41150  120.35090    6.61910    7.38720    8.23470    7.38720    -999.25    0.33180    0.28790    2.44010  -69.86420   -6.23760    8.23470
 5250.00000    9.17520    9.47780    9.47780  184.38960    0.14660    0.14660    2.52670    -999.25    0.06660    0.10720    5.42330   86.63940   86.63940  130.06180  123.56320  130.06180    5.42330    5.92030    6.73450    5.92030    -999.25    0.36660    0.32320    2.52670  -66.78490   -3.66610    6.73450
 5300.00000    9.91890   10.11320   10.11320  172.72950    0.03560    0.03560    2.57900    -999.25    0.03380    0.07660    5.78940   66.29800   66.29800  126.54800  115.41610  126.54800    5.78940    6.44130    8.07580    6.44130    -999.25    0.34770    0.30400    2.57900  -66.93700   -4.26060    8.07580
 5350.00000   10.62060   10.21600   10.21600  133.98670    0.01970    0.01970    2.58730    -999.25    0.04410    0.07170    7.46360   60.58620   60.58620  112.48740  110.22660  112.48740    7.46360    8.13220   10.60670    8.13220    -999.25    0.27520    0.23120    2.58730  -66.95990   -4.66800   10.60670
 5400.00000   11.68140   11.12480   11.12480  195.50720    0.05530    0.05530    2.56070    -999.25    0.05490    0.08730    5.11490   66.61610   66.61610  126.47470  123.43420  126.47470    5.11490    5.59490    6.86930    5.59490    -999.25    0.34700    0.30330    2.56070  -65.35770   -3.44620    6.86930
 5450.00000   10.57550   10.59930   10.59930  205.05030    0.10200    0.10200    2.57120    -999.25    0.04310    0.08120    4.87970   69.22980   69.22980  165.81580  156.94380  165.81580    4.87970    5.27450    7.01700    5.27450    -999.25    0.38000    0.33680    2.57120  -64.63950   -3.11250    7.01700
