~Version ---------------------------------------------------
VERS.      2.0 : CWLS log ASCII Standard -VERSION 2.0
WRAP.       NO : One line per depth step
CREA. 01/05/18 : LAS Creation Date
~Well ------------------------------------------------------
STRT.FT                   300.0 : START DEPTH
STOP.FT                 11550.0 : STOP DEPTH
STEP.FT                50.00000 : STEP LENGTH
NULL.                   -999.25 : NULL VALUE
COMP.      MOBIL OIL CANADA LTD : COMPANY
WELL. MOBIL PINEDALE 6-29-54-16 : WELL
FLD .                           : FIELD
LOC .                           : LOCATION
CTRY.                    CANADA : COUNTRY
SRVC.    Schlumberger of Canada : SERVICE COMPANY
DATE.               02-Oct-1968 : LOGDATE
PROV.                   Alberta : PROVINCE
UWI .          100062905416W500 : UNIQUE WELL ID
SLAT.WGS84             53.69074 : SURFACE LATITUDE
SLON.WGS84            -116.3264 : SURFACE LONGITUDE
~Curve Information -----------------------------------------
DEPT    .FT    : Depth Curve
CALDED  .IN    : CALIPER FROM DENSITY LOG [ADJ. TO RESISTIVITY LOG]
CALNED  .IN    : CALIPER FROM NEUTRON LOG [ADJ. TO RESISTIVITY LOG]
CALSED  .IN    : CALIPER FROM SONIC LOG [ADJ. TO RESISTIVITY LOG]
CALWS   .IN    : CALIPER [CALSED]
CILDED  .MMHO  : DEEP INDUCTION CONDUCTIVITY FROM RESISTIVITY LOG
CONDWS  .MMHO  : CONDUCTIVITY [1000/DRESWS]
DCORED  .G/C3  : DENSITY CORRECTION FROM DENSITY LOG [ADJ. TO RESISTIVITY LOG]
DCORWS  .G/C3  : DENSITY CORRECTION [DCORED]
DENWS   .G/C3  : FORMATION BULK DENSITY [RHOBED]
DPHILSED.V/V   : DENSITY POROSITY LIMESTONE [M=2.71,F=1.0] FROM DENSITY LOG [ADJ. TO RESISTIVITY LOG]
DPOLSWS .V/V   : DENSITY POROSITY LIMESTONE [CALC. FROM DENWS M=2.71,F=1.0]
DRESWS  .OHMM  : DEEP RESISTIVITY [1000/CILDED IF ILDED <5, ILDED]
DTED    .US/F  : DELTA-T FROM SONIC LOG [ADJ. TO RESISTIVITY LOG]
DTWS    .US/F  : COMPRESSIONAL SONIC [DTED]
GRDED   .GAPI  : GAMMA RAY FROM DENSITY LOG [ADJ. TO RESISTIVITY LOG]
GRNED   .GAPI  : GAMMA RAY FROM NEUTRON LOG [ADJ. TO RESISTIVITY LOG]
GRSED   .GAPI  : GAMMA RAY FROM SONIC LOG [ADJ. TO RESISTIVITY LOG]
GRWS    .GAPI  : GAMMA RAY [GRSED SPL. TO GRDED @ 11555']
ILDED   .OHMM  : DEEP INDUCTION FROM RESISTIVITY LOG
NPOLSWS .V/V   : NEUTRON POROSITY LIMESTONE [SNPLSED]
RHOBED  .G/C3  : BULK DENSITY FROM DENSITY LOG [ADJ. TO RESISTIVITY LOG]
SNED    .OHMM  : SHORT NORMAL FROM RESISTIVITY LOG
SNPLSED .V/V   : SIDEWALL NEUTRON POROSITY LIMESTONE FROM NEUTRON LOG [ADJ. TO RESISTIVITY LOG]
SPRED   .MV    : SPONTANEOUS POTENTIAL FROM RESISTIVITY LOG
SPWS    .MV    : SPONTANEOUS POTENTIAL [BASELINE 0 MV, SPRED]
SRESWS  .OHMM  : SHALLOW RESISTIVITY [SNED]
~Params ----------------------------------------------------
DATE.               10/02/68 : RUN DATE
RUN .                      1 : RUN NUMBER
CLNT.                A2DTECH : CLIENT CODE
ORIG.               5" PRINT : ORIGIN OF DATA
UWI .       100062905416W500 : UNIQUE WELL ID
DICO. A2D Technologies, Inc. : DIGITIZING COMPANY
~Other -----------------------------------------------------
IEL & SNP & FDC & BHC SONIC LOG RAN
SPRED,SNED,ILDED & CILDED VERIFY FROM SMALL SECTION FROM TOP - 6470'
~ASCII -----------------------------------------------------
# ...
 4350.00000    -999.25    -999.25   10.59420   10.59420   95.89960   84.47370    -999.25    -999.25    -999.25    -999.25    -999.25   11.83800   77.25580   77.25580    -999.25    -999.25   47.58990   47.58990   11.83800    -999.25    -999.25   11.36560    -999.25  -92.71890   -7.59600   11.36560
 4400.00000    -999.25    -999.25   11.91410   11.91410  117.98010  100.89090    -999.25    -999.25    -999.25    -999.25    -999.25    9.91170   87.95160   87.95160    -999.25    -999.25   52.96540   52.96540    9.91170    -999.25    -999.25    9.28480    -999.25  -90.90070   -6.42370    9.28480
 4450.00000    -999.25    -999.25   10.99670   10.99670   90.48940   82.11570    -999.25    -999.25    -999.25    -999.25    -999.25   12.22810   75.16150   75.16150    -999.25    -999.25   51.28830   51.28830   12.22810    -999.25    -999.25   11.77130    -999.25  -91.02910   -7.20230   11.77130
 4500.00000    -999.25    -999.25   14.00960   14.00960  159.41070  148.74750    -999.25    -999.25    -999.25    -999.25    -999.25    6.72280  119.03390  119.03390    -999.25    -999.25   57.69690   57.69690    6.72280    -999.25    -999.25    7.70040    -999.25  -89.04910   -4.90570    7.70040
 4550.00000    -999.25    -999.25   10.76670   10.76670   56.40240   50.51070    -999.25    -999.25    -999.25    -999.25    -999.25   19.79780   73.97760   73.97760    -999.25    -999.25   38.19380   38.19380   19.79780    -999.25    -999.25   18.17590    -999.25  -94.81340   -8.70320   18.17590
 4600.00000    -999.25    -999.25   11.45730   11.45730  120.11870  104.13300    -999.25    -999.25    -999.25    -999.25    -999.25    9.60310   85.81270   85.81270    -999.25    -999.25   57.02600   57.02600    9.60310    -999.25    -999.25    9.21760    -999.25  -96.27430   -7.92090    9.21760
 4650.00000    -999.25    -999.25   11.36460   11.36460  117.56990  104.39720    -999.25    -999.25    -999.25    -999.25    -999.25    9.57880   85.94480   85.94480    -999.25    -999.25   61.48560   61.48560    9.57880    -999.25    -999.25    9.41550    -999.25  -95.51310   -3.65260    9.41550
 4700.00000    -999.25    -999.25   12.09170   12.09170   85.22060   77.87770    -999.25    -999.25    -999.25    -999.25    -999.25   12.84130   82.70970   82.70970    -999.25    -999.25   69.86590   69.86590   12.84130    -999.25    -999.25   12.95180    -999.25 -100.66380   -5.27320   12.95180
 4750.00000    -999.25    -999.25   11.72340   11.72340   86.40810   78.09330    -999.25    -999.25    -999.25    -999.25    -999.25   12.80520   80.49520   80.49520    -999.25    -999.25   81.06530   81.06530   12.80520    -999.25    -999.25   11.76610    -999.25 -104.75290   -5.85520   11.76610
 4800.00000    -999.25    -999.25   12.07630   12.07630   76.91120   68.26030    -999.25    -999.25    -999.25    -999.25    -999.25   14.64980   75.31580   75.31580    -999.25    -999.25   76.35120   76.35120   14.64980    -999.25    -999.25   12.79580    -999.25 -105.21370   -5.77010   12.79580
 4850.00000    -999.25    -999.25   11.67100   11.67100   69.91730   61.97940    -999.25    -999.25    -999.25    -999.25    -999.25   16.13440   77.67800   77.67800    -999.25    -999.25   78.87850   78.87850   16.13440    -999.25    -999.25   14.32280    -999.25 -103.85090   -4.25830   14.32280
 4900.00000    -999.25    -999.25   11.94590   11.94590   80.91580   72.32230    -999.25    -999.25    -999.25    -999.25    -999.25   13.82700   82.86220   82.86220    -999.25    -999.25   84.83750   84.83750   13.82700    -999.25    -999.25   13.44680    -999.25 -104.05830   -4.31760   13.44680
 4950.00000    -999.25    -999.25   11.30720   11.30720   77.93990   67.57570    -999.25    -999.25    -999.25    -999.25    -999.25   14.79830   83.91940   83.91940    -999.25    -999.25   98.45470   98.45470   14.79830    -999.25    -999.25   14.49300    -999.25 -102.46440   -2.57460   14.49300
 5000.00000    -999.25    -999.25   11.26980   11.26980   62.51760   52.95430    -999.25    -999.25    -999.25    -999.25    -999.25   18.88420   92.98830   92.98830    -999.25    -999.25  111.95140  111.95140   18.88420    -999.25    -999.25   18.40770    -999.25 -102.35140   -2.31350   18.40770
 5050.00000    -999.25    -999.25   11.07860   11.07860   72.83670   65.21970    -999.25    -999.25    -999.25    -999.25    -999.25   15.33280   84.45090   84.45090    -999.25    -999.25   80.66430   80.66430   15.33280    -999.25    -999.25   14.76300    -999.25 -103.27960   -3.09360   14.76300
 5100.00000    -999.25    -999.25   10.56990   10.56990   83.03070   72.76060    -999.25    -999.25    -999.25    -999.25    -999.25   13.74370   83.89540   83.89540    -999.25    -999.25   83.36970   83.36970   13.74370    -999.25    -999.25   13.26930    -999.25 -103.18910   -2.85410   13.26930
 5150.00000    -999.25    -999.25   11.01640   11.01640  116.96730  104.00740    -999.25    -999.25    -999.25    -999.25    -999.25    9.61470   83.84240   83.84240    -999.25    -999.25   88.49350   88.49350    9.61470    -999.25    -999.25    9.10640    -999.25 -104.49090   -4.00780    9.10640
 5200.00000    -999.25    -999.25   11.38850   11.38850  102.16470   94.45010    -999.25    -999.25    -999.25    -999.25    -999.25   10.58760   81.19400   81.19400    -999.25    -999.25   78.32540   78.32540   10.58760    -999.25    -999.25    9.87760    -999.25 -104.87940   -4.24720    9.87760
 5250.00000    -999.25    -999.25   10.64900   10.64900   75.95180   68.89710    -999.25    -999.25    -999.25    -999.25    -999.25   14.51440   75.79690   75.79690    -999.25    -999.25   77.65160   77.65160   14.51440    -999.25    -999.25   12.96250    -999.25 -104.02170   -3.38360   12.96250
 5300.00000    -999.25    -999.25   10.92350   10.92350   85.06340   75.36930    -999.25    -999.25    -999.25    -999.25    -999.25   13.26800   78.75300   78.75300    -999.25    -999.25   74.50680   74.50680   13.26800    -999.25    -999.25   12.00580    -999.25 -103.51120   -3.66450   12.00580
 5350.00000    -999.25    -999.25   10.92670   10.92670  101.68700   86.68590    -999.25    -999.25    -999.25    -999.25    -999.25   11.53590   77.24550   77.24550    -999.25    -999.25   75.83760   75.83760   11.53590    -999.25    -999.25   10.79160    -999.25 -103.10740   -4.05740   10.79160
 5400.00000    -999.25    -999.25   10.63640   10.63640   91.14660   81.52680    -999.25    -999.25    -999.25    -999.25    -999.25   12.26590   77.69790   77.69790    -999.25    -999.25   81.49370   81.49370   12.26590    -999.25    -999.25   11.14520    -999.25 -102.57930   -4.32070   11.14520
 5450.00000    -999.25    -999.25   11.35950   11.35950   93.16470   83.40450    -999.25    -999.25    -999.25    -999.25    -999.25   11.99050   84.52420   84.52420    -999.25    -999.25   77.57340   77.57340   11.99050    -999.25    -999.25   11.49250    -999.25 -101.55100   -4.08910   11.49250
 5500.00000    -999.25    -999.25   11.62260   11.62260  106.26470   99.23490    -999.25    -999.25    -999.25    -999.25    -999.25   10.07710   79.24710   79.24710    -999.25    -999.25   74.76020   74.76020   10.07710    -999.25    -999.25    9.40830    -999.25 -101.48670   -4.81620    9.40830
 5550.00000    -999.25    -999.25   11.30440   11.30440   89.04880   80.59190    -999.25    -999.25    -999.25    -999.25    -999.25   12.40820   80.48920   80.48920    -999.25    -999.25   71.37860   71.37860   12.40820    -999.25    -999.25   11.10940    -999.25 -101.05650   -5.17750   11.10940
 5600.00000    -999.25    -999.25   11.82920   11.82920   81.46310   72.94160    -999.25    -999.25    -999.25    -999.25    -999.25   13.70960   80.72830   80.72830    -999.25    -999.25   75.99100   75.99100   13.70960    -999.25    -999.25   11.62800    -999.25 -101.40620   -6.32390   11.62800
 5650.00000    -999.25    -999.25   10.67090   10.67090   55.25540   49.72060    -999.25    -999.25    -999.25    -999.25    -999.25   20.11240   72.89890   72.89890    -999.25    -999.25   83.08730   83.08730   20.11240    -999.25    -999.25   17.11450    -999.25 -100.60670   -5.98900   17.11450
