~Version ---------------------------------------------------
VERS.      2.0 : CWLS log ASCII Standard -VERSION 2.0
WRAP.       NO : One line per depth step
CREA. 08/31/17 : LAS Creation Date
~Well ------------------------------------------------------
STRT.FT                                       1500.0 : START DEPTH
STOP.FT                                      11100.0 : STOP DEPTH
STEP.FT                                     50.00000 : STEP LENGTH
NULL.                                        -999.25 : NULL VALUE
COMP. GREAT PLAINS DEVELOPMENT COMPANY OF CANADA LTD : COMPANY
WELL.                 GPD ET AL ROSEVEAR 10-14-54-16 : WELL
FLD .                                                : FIELD
LOC .                                                : LOCATION
CTRY.                                         CANADA : COUNTRY
SRVC.                                   Schlumberger : SERVICE COMPANY
DATE.                                    01-Feb-1978 : LOGDATE
PROV.                                        Alberta : PROVINCE
UWI .                               100101405416W500 : UNIQUE WELL ID
SLAT.WGS84                                  53.66484 : SURFACE LATITUDE
SLON.WGS84                                 -116.2439 : SURFACE LONGITUDE
~Curve Information -----------------------------------------
DEPT    .FT    : Depth Curve
CALDED  .IN    : CALIPER FROM DENSITY LOG
CALSED  .IN    : CALIPER FROM SONIC LOG [ADJ. TO RESISTIVITY LOG]
CALWS   .IN    : CALIPER [CALDED]
CONDWS  .MMHO  : CONDUCTIVITY [1000/DRESWS]
DCORWS  .G/C3  : DENSITY CORRECTION [DRHOED]
DENWS   .G/C3  : FORMATION BULK DENSITY [RHOBED]
DPHILSED.V/V   : DENSITY POROSITY LIME [M=2.71, F=1.0] FROM DENSITY LOG [ADJ. TO RHOBED]
DPHISSED.V/V   : DENSITY POROSITY SAND [M=2.65, F=1.0] FROM DENSITY LOG [ADJ. TO RHOBED]
DPOLSWS .V/V   : DENSITY POROSITY LIME [CALC FROM DENWS, M=2.71, F=1.0]
DRESWS  .OHMM  : DEEP RESISTIVITY [LLDED]
DRHOED  .G/C3  : DENSITY CORRECTION FROM DENSITY LOG
DTED    .US/F  : DELTA TIME FROM SONIC LOG [ADJ. TO RESISTIVITY LOG]
DTWS    .US/F  : COMPRESSIONAL SONIC [DTED]
GRDED   .GAPI  : GAMMA RAY FROM DENSITY LOG
GRSED   .GAPI  : GAMMA RAY FROM SONIC LOG [ADJ. TO RESISTIVITY LOG]
GRWS    .GAPI  : GAMMA RAY [GRSED]
LLDED   .OHMM  : LATEROLOG DEEP RESISTIVITY FROM RESISTIVITY LOG
LLSED   .OHMM  : LATEROLOG SHALLOW RESISTIVITY FROM RESISTIVITY LOG
NPHILSED.V/V   : NEUTRON POROSITY LIME FROM DENSITY LOG [ADJ. TO RHOBED]
NPOLSWS .V/V   : NEUTRON POROSITY LIME [SS MATRIX(SLB) CONVERTED TO LS, SPL. TO NPHILSED @ 7520']
NPORSSED.V/V   : NEUTRON POROSITY  SAND FROM DENSITY LOG [ADJ. TO RHOBED]
RHOBED  .G/C3  : BULK DENSITY FROM DENSITY LOG
SPRED   .MV    : SPONTANEOUS POTENTIAL FROM RESISTIVITY LOG
SPWS    .MV    : SPONTANEOUS POTENTIAL [BASELINE 0 MV, SPRED]
SRESWS  .OHMM  : SHALLOW RESISTIVITY [LLSED]
~Params ----------------------------------------------------
PD  .                     GL : PERMANENT DATUM
EPD .FT                 2743 : ELEVATION PERMANENT DATUM
LMF .                     KB : LOG MEASURED FROM
DAPD.FT                 21.4 : FEET ABOVE PERMANENT DATUM
EKB .FT               2764.4 : KELLY BUSHING
EGL .FT                 2743 : GROUND LEVEL
DATE.               02/01/78 : RUN DATE
RUN .                      1 : RUN NUMBER
DD  .FT                11140 : DEPTH DRILLER
DL  .FT                11134 : DEPTH LOGGER
BLI .FT                11133 : BOTTOM LOG INTERVAL
TLI .FT                 1512 : TOP LOG INTERVAL
CBD .FT                 1512 : CASING BOTTOM DRILLER
CBL .FT                 1512 : CASING BOTTOM LOGGER
BS  .IN                 8.75 : BIT SIZE
BSD .FT                11140 : BIT SIZE AT DEPTH
DFT .            KCL POLYMER : DRILLING FLUID TYPE
DFD .                    9.4 : DRILLING FLUID DENSITY
DFV .                     45 : DRILLING FLUID VISCOSITY
DFPH.                    9.5 : DRILLING FLUID PH
DFL .                     16 : DRILLING FLUID LOSS
RMS .OHMM              0.205 : RESISTIVITY MUD SAMPLE
MST .DEGF                 39 : MUD SAMPLE TEMPERATURE
RMF .OHMM              0.163 : RESISTIVITY MUD FILTRATE SAMPLE
MFST.DEGF                 38 : MUD FILTRATE SAMPLE TEMPERATURE
RMC .OHMM              0.032 : RESISTIVITY MUD CAKE
MCST.DEGF                118 : MUD CAKE SAMPLE TEMPERATURE
RMB .OHMM              0.032 : RESISTIVITY MUD AT BHT
TCS .HRS                   7 : TIME CIRCULATED STOPPED
LUN .                   7772 : LOGGING UNIT NUMBER
LUL .                    EDM : LOGGING UNIT LOCATION
ENGI.                BODYMAN : RECORDING ENGINEER
WITN.                  BATES : WITNESSED BY
CLNT.                A2DTECH : CLIENT CODE
ORIG.               5" PRINT : ORIGIN OF DATA
UWI .       100101405416W500 : UNIQUE WELL ID
DICO. A2D Technologies, Inc. : DIGITIZING COMPANY
~Other -----------------------------------------------------
~ASCII -----------------------------------------------------
 1500.00000    -999.25    -999.25    -999.25    -999.25    -999.25    -999.25    -999.25    -999.25    -999.25    -999.25    -999.25    -999.25    -999.25   42.03260   39.75640   39.75640    -999.25    -999.25    -999.25    0.43230    0.47400    -999.25    -999.25    -999.25    -999.25
 1550.00000   10.25000   10.17950   10.25000  143.11880    0.21440    2.25280    -999.25    0.22800    0.27150    6.98720    0.21440  100.05500  100.05500   86.58290   90.52060   90.52060    6.98720    4.24820    -999.25    0.35990    0.40270    2.25280  -58.93930    0.84420    4.24820
 1600.00000   12.59480   10.46160   12.59480  106.97270    0.04000    1.50320    -999.25    0.44850    0.70580    9.41940    0.04000  140.16710  140.16710   70.02340   71.31860   71.31860    9.41940   12.44760    -999.25    0.69380    0.73550    1.50320  -57.89130    2.01530   12.44760
 1650.00000   11.06280   10.78480   11.06280   72.41650    0.02240    2.43280    -999.25    0.13700    0.15930   13.80900    0.02240   86.18750   86.18750   74.18350   73.46500   73.46500   13.80900    9.72220    -999.25    0.26250    0.30650    2.43280  -57.50150    2.79500    9.72220
 1700.00000   10.48700   10.10110   10.48700   74.35410    0.01170    2.45640    -999.25    0.11900    0.14930   13.45610    0.01170   84.19080   84.19080   80.48750   83.07830   83.07830   13.45610    9.94260    -999.25    0.25870    0.30270    2.45640  -58.13980    2.83290    9.94260
 1750.00000   10.14480    9.98510   10.14480   78.02080    0.03680    2.49440    -999.25    0.09790    0.12470   12.89500    0.03680   77.80490   77.80490   65.62920   62.51490   62.51490   12.89500   11.03850    -999.25    0.24390    0.28790    2.49440  -57.41220    4.23250   11.03850
 1800.00000   10.30560   10.26900   10.30560  125.01090    0.02820    2.46280    -999.25    0.11560    0.14720    7.99930    0.02820   87.37670   87.37670   72.07810   74.00090   74.00090    7.99930    7.30450    -999.25    0.27030    0.31420    2.46280  -58.29310    4.02370    7.30450
 1850.00000   10.40440   10.35660   10.40440  155.76810    0.07750    2.34960    -999.25    0.18200    0.21200    6.42960    0.07750   90.68960   90.68960   87.01600   96.10170   96.10170    6.42960    5.94360    -999.25    0.30160    0.34520    2.34960  -62.41020    0.58270    5.94360
 1900.00000   10.95060   10.48170   10.95060  111.33500    0.02840    2.51100    -999.25    0.09170    0.11600    8.98190    0.02840   82.52390   82.52390   79.50810   83.18260   83.18260    8.98190    8.01920    -999.25    0.22620    0.27020    2.51100  -61.69120    1.97260    8.01920
 1950.00000   11.70740   10.58480   11.70740  142.14730    0.05150    2.45550    -999.25    0.11970    0.14830    7.03700    0.05150   91.02780   91.02780  102.84950  103.85150  103.85150    7.03700    6.54020    -999.25    0.29830    0.34200    2.45550  -65.06930   -0.72930    6.54020
 2000.00000   12.70640   11.01680   12.70640  235.15970    0.11260    2.35210    -999.25    0.18600    0.21120    4.25660    0.11260  104.17660  104.17660   96.56130   97.78110   97.78110    4.25660    3.96050    -999.25    0.28870    0.33250    2.35210  -62.64810    2.36400    3.96050
 2050.00000   14.83250   10.97900   14.83250  264.48730    0.11060    1.77080    -999.25    0.45080    0.52930    3.78090    0.11060  140.17890  140.17890   91.08650   97.15740   97.15740    3.78090    3.22850    -999.25    0.45450    0.49620    1.77080  -62.76390    2.92020    3.22850
 2100.00000   13.89870   10.95890   13.89870  117.42600    0.08600    2.40020    -999.25    0.14790    0.18330    8.52560    0.08600   88.41500   88.41500   90.47000   91.82640   91.82640    8.52560    5.69050    -999.25    0.26580    0.30970    2.40020  -67.97640   -1.61620    5.69050
 2150.00000   13.43940   10.88710   13.43940  120.24430    0.06640    2.33790    -999.25    0.19710    0.21470    8.31640    0.06640  104.20290  104.20290  100.55270  100.29460  100.29460    8.31640    6.74470    -999.25    0.34740    0.39050    2.33790  -63.98030    3.05080    6.74470
 2200.00000   13.32070   11.46020   13.32070  249.31210    0.23640    2.27370    -999.25    0.23600    0.25410    4.01440    0.23640  100.05490  100.05490  103.21380   99.31030   99.31030    4.01440    3.46940    -999.25    0.35060    0.39360    2.27370  -71.38560   -3.67820    3.46940
 2250.00000   12.15440   11.39010   12.15440  222.14060    0.04140    2.22190    -999.25    0.26460    0.28180    4.51380    0.04140  107.56830  107.56830   94.43000  100.61350  100.61350    4.51380    4.17760    -999.25    0.44620    0.48780    2.22190  -70.08540   -1.47890    4.17760
 2300.00000   11.43040   12.13210   11.43040  185.11660    0.02310    2.44050    -999.25    0.12650    0.15940    5.40200    0.02310   92.98270   92.98270  107.48170  104.71480  104.71480    5.40200    4.99640    -999.25    0.32390    0.36730    2.44050  -74.14640   -4.12730    4.99640
 2350.00000   11.08390   10.22400   11.08390   60.15670    0.00630    2.56850    -999.25    0.05130    0.08420   17.06440    0.00630   66.24850   66.24850   57.15990   59.98440   59.98440   17.06440   13.74980    -999.25    0.12060    0.16340    2.56850  -65.30770    6.13260   13.74980
 2400.00000   11.46720   11.38270   11.46720  230.48380    0.04310    2.47980    -999.25    0.10200    0.13290    4.33870    0.04310   93.29320   93.29320   90.33660   91.24030   91.24030    4.33870    4.13900    -999.25    0.29010    0.33390    2.47980  -71.54240    1.41780    4.13900
 2450.00000   11.75820   10.86660   11.75820  115.59810    0.01120    2.52860    -999.25    0.07500    0.10700    8.67150    0.01120   82.98820   82.98820   71.89790   84.13290   84.13290    8.67150    7.28930    -999.25    0.22250    0.26650    2.52860  -70.84100    3.68890    7.28930
 2500.00000   11.25580   10.81920   11.25580  142.71680    0.04520    2.46590    -999.25    0.11400    0.13970    7.02880    0.04520   97.67280   97.67280   83.59590   88.77630   88.77630    7.02880    6.15570    -999.25    0.31800    0.36150    2.46590  -72.52120    3.56900    6.15570
 2550.00000   10.95510   11.81390   10.95510  205.49490    0.01120    2.30150    -999.25    0.21870    0.23280    4.86630    0.01120  109.76560  109.76560  123.60720  119.39800  119.39800    4.86630    5.93190    -999.25    0.42360    0.46530    2.30150  -74.17690    3.47350    5.93190
 2600.00000   11.35680   10.80350   11.35680  145.00380    0.03090    2.48140    -999.25    0.10330    0.13310    6.91000    0.03090   94.63300   94.63300   93.38470   95.87620   95.87620    6.91000    5.89820    -999.25    0.30030    0.34400    2.48140  -74.54380    4.67640    5.89820
 2650.00000   13.05960   11.19900   13.05960  251.86380    0.03010    2.37520    -999.25    0.17220    0.19390    3.97040    0.03010   97.75230   97.75230   93.88240   97.20040   97.20040    3.97040    3.89590    -999.25    0.30810    0.35170    2.37520  -76.80600    3.97180    3.89590
 2700.00000   15.00380   11.22140   15.00380  193.62300    0.17770    2.15150    -999.25    0.29930    0.33150    5.17140    0.17770  108.13350  108.13350  102.27620  102.24620  102.24620    5.17140    4.16030    -999.25    0.39260    0.43470    2.15150  -77.37950    4.96810    4.16030
 2750.00000   14.96820   10.83350   14.96820  195.93230    0.18170    2.21990    -999.25    0.25890    0.28460    5.10880    0.18170   99.90720   99.90720   90.94830   97.83970   97.83970    5.10880    4.29730    -999.25    0.34980    0.39280    2.21990  -85.69790   -1.53410    4.29730
 2800.00000   13.57100   11.12630   13.57100   46.79060    0.02050    2.45290    -999.25    0.12500    0.15030   21.37180    0.02050   73.79270   73.79270   79.31260   87.88850   87.88850   21.37180   15.27040    -999.25    0.16110    0.20460    2.45290  -74.87200   11.55870   15.27040
 2850.00000   12.77080   11.27690   12.77080  153.35870    0.14410    2.44730    -999.25    0.12510    0.15270    6.61180    0.14410   82.35420   82.35420   86.96150   87.89020   87.89020    6.61180    5.01860    -999.25    0.19270    0.23650    2.44730  -83.26370    3.15220    5.01860
