~Version ---------------------------------------------------
VERS. 2.0 : CWLS log ASCII Standard -VERSION 2.0
WRAP.  NO : ONE LINE PER DEPTH STEP
~Well ------------------------------------------------------
STRT.F                              300.0 : START DEPTH
STOP.F                             8850.0 : STOP DEPTH
STEP.F                           50.00000 : STEP LENGTH
NULL.                             -999.25 : NULL VALUE
COMP.            HOME OIL COMPANY LIMITED : COMPANY
WELL. HOME FPC ET AL MORSE RIVER 4-2-66-9 : WELL
FLD .                                     : FIELD
LOC .                                     : LOCATION
CTRY.                              CANADA : COUNTRY
SRVC.              Schlumberger of Canada : SERVICE COMPANY
DATE.                         16-Jan-1959 : LOGDATE
PROV.                             Alberta : PROVINCE
UWI .                    100040206609W500 : UNIQUE WELL ID
SLAT.WGS84                       54.67779 : SURFACE LATITUDE
SLON.WGS84                      -115.2573 : SURFACE LONGITUDE
~Curve Information -----------------------------------------
DEPT.F    0   1   0  0 : 1 MEASURED DEPTH
CILD.MMHO 05 110 46 00 : INDUCTION DEEP CONDUCTIVITY
ILD .OHMM 05 120 46 00 : INDUCTION DEEP RESISTIVITY
SN  .OHMM 05 040 16 00 : SHORT NORMAL RESISTIVITY
SPR .MV   05 010 01 00 : SPONTANEOUS POTENTIAL FROM RESISTIVITY LOG
MCAL.IN   15 280 01 00 : MLT (MICROLOG) CALIPER
SPS .MV   60 010 01 00 : SPONTANEOUS POTENTIAL FROM SONIC LOG
DT  .US/F 60 500 33 00 : DELTA-T (INTERVAL TRANSIT TIME)
LL  .OHMM 10 220 04 00 : FOCUSED LATEROLOG RESISTIVITY
GR  .CU   30 310 30 00 : GAMMA RAY
CALD.IN   45 280 60 00 : CALIPER FROM DENSITY LOG
DEN .G/C3 45 350 01 00 : COMPENSATED BULK DENSITY
~Params ----------------------------------------------------
LMF .                     KB : LOG MEASURED FROM
DMF .                     KB : DRILLING MEASURED FROM
EKB .FT                 3358 : KELLY BUSHING
EGL .FT                 3345 : GROUND LEVEL
DATE.               01/16/59 : RUN DATE
RUN .                      2 : RUN NUMBER
DD  .FT                 8880 : DEPTH DRILLER
DL  .FT                 8891 : DEPTH LOGGER
BLI .FT                 8886 : BOTTOM LOG INTERVAL
TLI .FT                 5006 : TOP LOG INTERVAL
BS  .IN                    9 : BIT SIZE
BSD .FT                 8880 : BIT SIZE AT DEPTH
DFT .                    GEL : DRILLING FLUID TYPE
DFD .                   10.3 : DRILLING FLUID DENSITY
DFV .                    109 : DRILLING FLUID VISCOSITY
DFPH.                    9.5 : DRILLING FLUID PH
DFL .                    6.2 : DRILLING FLUID LOSS
RMS .OHMM                3.2 : RESISTIVITY MUD SAMPLE
MST .DEGF                 54 : MUD SAMPLE TEMPERATURE
RMF .OHMM                2.4 : RESISTIVITY MUD FILTRATE SAMPLE
MFST.DEGF                 64 : MUD FILTRATE SAMPLE TEMPERATURE
RMC .OHMM                3.4 : RESISTIVITY MUD CAKE
MCST.DEGF                 56 : MUD CAKE SAMPLE TEMPERATURE
RMB .OHMM                1.1 : RESISTIVITY MUD AT BHT
TCS .HRS                 2.5 : TIME CIRCULATED STOPPED
LUN .                   2765 : LOGGING UNIT NUMBER
LUL .                     SH : LOGGING UNIT LOCATION
ENGI.                  KEYES : RECORDING ENGINEER
WITN.                  BEARD : WITNESSED BY
CLNT.                A2DTECH : CLIENT CODE
ORIG.            2" 5" PRINT : ORIGIN OF DATA
UWI .       100040206609W500 : UNIQUE WELL ID
DICO. A2D Technologies, Inc. : DIGITIZING COMPANY
~Other -----------------------------------------------------
~ASCII -----------------------------------------------------
# ...
 6400.00000  134.20590    7.95660   15.64750 -160.70770    -999.25    -999.25    -999.25    -999.25   24.83170    -999.25    2.69630
 6450.00000   99.03170   11.10800   14.65190 -106.30650    -999.25    -999.25    -999.25    -999.25   36.36840    -999.25    2.68580
 6500.00000  144.00090    7.84140   10.17310 -100.03840    -999.25    -999.25    -999.25    -999.25   25.12790    -999.25    2.70840
 6550.00000  292.49330    3.92040    4.55380  -90.41980    -999.25    -999.25    -999.25    -999.25   46.97840    -999.25    2.24540
 6600.00000  242.62160    4.54600    5.73440  -87.44770    -999.25    -999.25    -999.25    -999.25   22.91700    -999.25    2.47390
 6650.00000   91.90550   11.19330   13.34860 -108.25390    -999.25    -999.25    -999.25    -999.25   23.13500    -999.25    2.66000
 6700.00000  190.88940    5.78790    7.84220 -101.17630    -999.25    -999.25    -999.25    -999.25   37.15450    -999.25    2.59160
 6750.00000  302.27320    4.17080    5.19790  -97.23760    -999.25    -999.25    -999.25    -999.25   50.31710    -999.25    2.33500
 6800.00000  336.99410    3.68320    4.40300  -95.25960    -999.25    -999.25    -999.25    -999.25   40.09700    -999.25    2.26440
 6850.00000  304.95660    3.84060    4.47390  -87.93030    -999.25    -999.25    -999.25    -999.25   57.33280    -999.25    2.33190
 6900.00000  314.74450    3.77000    4.31480  -82.91650    -999.25    -999.25    -999.25    -999.25   44.08130    -999.25    2.37420
 6950.00000  300.77480    3.81910    4.35380  -88.30910    -999.25    -999.25    -999.25    -999.25   39.76530    -999.25    2.24260
 7000.00000  287.03290    4.08890    4.71160  -84.78270    -999.25    -999.25    -999.25    -999.25   43.79140    -999.25    2.26300
 7050.00000  328.22510    3.65720    4.25370  -95.66510    -999.25    -999.25    -999.25    -999.25   49.02200    -999.25    2.42430
 7100.00000  329.02120    3.74630    4.59030  -88.39130    -999.25    -999.25    -999.25    -999.25   45.40620    -999.25    2.37160
 7150.00000   74.70190   14.51990   17.56320  -85.51660    -999.25    -999.25    -999.25    -999.25   19.13070    -999.25    2.67680
 7200.00000  159.60920    6.24360    8.23890  -88.08430    -999.25    -999.25    -999.25    -999.25   31.43100    -999.25    2.42300
 7250.00000  145.62630    7.33420    9.54010  -78.69140    -999.25    -999.25    -999.25    -999.25   45.00880    -999.25    2.22450
 7300.00000  214.75780    4.96400    5.76260  -75.77600    -999.25    -999.25    -999.25    -999.25   40.77110    -999.25    2.15740
 7350.00000  308.13010    3.87440    4.48110  -77.45570    -999.25    -999.25    -999.25    -999.25   51.50340    -999.25    2.15880
 7400.00000   50.68650   21.49190   26.66490  -72.20800    -999.25    -999.25    -999.25    -999.25   30.00070    -999.25    2.64110
 7450.00000   69.53430   15.53970   19.01810  -71.29850    -999.25    -999.25    -999.25    -999.25   28.70590    -999.25    2.63880
 7500.00000   55.36450   20.20750   23.34150  -70.88140    -999.25  -51.19430   61.06980   26.63330   25.81250    -999.25    2.65480
 7550.00000  218.40530    4.71210    7.00340  -75.57380    -999.25  -55.55060   77.86480    8.05640   52.41780    -999.25    2.33400
 7600.00000  263.99540    3.97960    6.43140  -73.47560    -999.25  -49.84170   89.72260    6.99960   43.59370    -999.25    2.07320
 7650.00000  253.46790    4.03170    5.44270  -71.73020   12.24620  -57.38570   85.36280    6.13800   35.89090   10.39440    2.04770
 7700.00000   70.10480   16.10020   22.91630  -56.89640    9.21550  -44.95660   63.12040   19.50670   19.95150    9.16160    2.67950
 7750.00000  173.15260    6.01380    7.05420  -74.48460   10.78960  -52.65780   80.35870   10.30330   22.04000    9.34910    2.67780
 7800.00000  135.86630   13.98600   17.60660  -76.67930    9.74700  -48.41600   68.81900   10.64260   30.39490    9.67520    2.69630
 7850.00000   43.01730   28.40190   26.26210  -64.25270    9.43310  -51.09340   60.74930   31.60690   19.99110    9.28300    2.78440
 7900.00000  103.56380    9.97680   12.97260  -58.25570    9.44210  -42.68140   67.55270   11.66980   24.46270    9.31740    2.69090
 7950.00000   53.66900   20.25800   26.03380  -73.14930    9.37450  -49.45710   60.62960   35.63640   14.74730    9.43410    2.76470
 8000.00000    3.92050  393.37500   88.96970  -92.58930    9.70930  -67.44280   55.00950  312.32050   16.27720    9.52580    2.70200
 8050.00000  114.03800    9.18160   14.30650  -76.05910   10.28670  -55.29130   82.72930   23.31510   13.12290    9.54260    2.69200
 8100.00000   84.49330   12.98410   21.63880  -83.11100   10.41280  -51.09490   65.03270   16.07890    7.29370   10.21570    2.63010
 8150.00000    9.40840  159.43710   97.98090 -187.34190   10.13830 -103.09850   55.64390  350.17520    8.72930   10.14570    2.47190
 8200.00000    3.70030  665.40060  123.95840 -112.97320    9.62220  -62.37710   52.11210 2786.46190   40.50730    9.31400    2.50400
 8250.00000  455.73190    4.88120    6.67380  -45.16050   10.23940  -54.21560   75.84310   19.42880   71.70340    9.33580    2.52550
 8300.00000  136.23500    7.61170   12.41140 -109.18810    9.40780  -76.60600   61.46430   13.97160   53.70900    9.21330    2.54660
 8350.00000  181.04930    5.61030   17.78930 -112.98760    9.44580  -88.39150   63.06040   14.21590   46.45040    9.32590    2.51610
 8400.00000  120.97300    8.49870   11.57470  -68.75690    9.74420  -52.36430   66.55810   16.11100   56.39990   10.05550    2.34510
 8450.00000  239.68730    4.36340    6.21410  -80.20000    9.74250  -59.62370   70.58160    6.36740   70.97260    9.92850    2.42840
 8500.00000  159.38980    6.53750    8.37090  -74.89050    9.91280  -51.54580   69.76300    7.78640   73.52080    9.36480    2.35690
 8550.00000 1060.71030    2.34410    8.18050 -202.84470    7.92140 -178.46100   72.65280    5.64590   30.63300    7.78990    2.13590
 8600.00000    -999.25    0.29240    3.30770 -207.49640    7.92490 -175.08440   84.88490    2.88560   18.83890    7.80010    2.06510
 8650.00000    -999.25    0.76580    2.86300 -191.03200    7.89230 -172.78260   77.92630    1.77040   33.14520    7.87950    2.08510
 8700.00000  131.16230    8.19490    9.61860 -100.31140    9.29190  -54.66650   61.13820    9.28820   73.75940    8.01920    2.07730
 8750.00000  535.06160    2.59110    6.53430 -127.51450    8.61160 -122.35470   69.86860    4.11100   74.00020    8.39410    2.09090
 8800.00000  228.30190    4.54630    6.16550  -84.10200    9.84130  -63.40080   86.62150    7.12720   78.08920   10.05320    2.08120
 8850.00000   37.38620   31.61750   38.92020  -95.05820    9.42570  -82.53450   51.31810   36.64910   68.70890    9.01220    2.76480
