~Version ---------------------------------------------------
VERS. 2.0 : CWLS log ASCII Standard -VERSION 2.0
WRAP.  NO : ONE LINE PER DEPTH STEP
~Well ------------------------------------------------------
STRT.F                                   347.3 : START DEPTH
STOP.F                                  9458.8 : STOP DEPTH
STEP.F                                 0.50000 : STEP LENGTH
NULL.                                  -999.25 : NULL VALUE
COMP. THE BRITISH AMERICAN OIL COMPANY LIMITED : COMPANY
WELL.              B.A. GOOSE RIVER 4-32-66-18 : WELL
FLD .                                          : FIELD
LOC .                                          : LOCATION
CTRY.                                   CANADA : COUNTRY
SRVC.                             Schlumberger : SERVICE COMPANY
DATE.                              02-Dec-1964 : LOGDATE
PROV.                                  Alberta : PROVINCE
UWI .                         100043206618W500 : UNIQUE WELL ID
SLAT.WGS84                            54.75185 : SURFACE LATITUDE
SLON.WGS84                           -116.6939 : SURFACE LONGITUDE
~Curve Information -----------------------------------------
DEPT.F    0   1   0  0 : 1 MEASURED DEPTH
GRN .GAPI 35 310 01 00 : GAMMA RAY FROM GRN LOG
NEUT.NAPI 35 330 01 00 : NEUTRON
GR  .GAPI 30 310 00 00 : GAMMA RAY
CILD.MMHO 05 110 46 00 : INDUCTION DEEP CONDUCTIVITY
ILD .OHMM 05 120 46 00 : INDUCTION DEEP RESISTIVITY
SN  .OHMM 05 040 16 00 : SHORT NORMAL RESISTIVITY
SPR .MV   05 010 01 00 : SPONTANEOUS POTENTIAL FROM RESISTIVITY LOG
GRS .GAPI 60 310 01 00 : GAMMA RAY FROM SONIC LOG
DT  .US/F 60 500 00 00 : DELTA-T (INTERVAL TRANSIT TIME)
CALS.IN   60 280 50 00 : CALIPER FROM SONIC LOG
DT_1.US/F 60 500 31 00 : DELTA-T (INTERVAL TRANSIT TIME)
~Params ----------------------------------------------------
PD  .                     GL : PERMANENT DATUM
EPD .FT                 2485 : ELEVATION PERMANENT DATUM
LMF .                     KB : LOG MEASURED FROM
DAPD.FT                   15 : FEET ABOVE PERMANENT DATUM
EKB .FT                 2500 : KELLY BUSHING
EGL .FT                 2485 : GROUND LEVEL
DATE.               12/02/64 : RUN DATE
RUN .                      1 : RUN NUMBER
DD  .FT                 9461 : DEPTH DRILLER
DL  .FT                 9460 : DEPTH LOGGER
BLI .FT                 9459 : BOTTOM LOG INTERVAL
TLI .FT                  781 : TOP LOG INTERVAL
CBD .FT                  784 : CASING BOTTOM DRILLER
CBL .FT                  781 : CASING BOTTOM LOGGER
BS  .IN                7.625 : BIT SIZE
BSD .FT                 9461 : BIT SIZE AT DEPTH
DFT .               GEL CHEM : DRILLING FLUID TYPE
DFD .                    9.8 : DRILLING FLUID DENSITY
DFV .                     95 : DRILLING FLUID VISCOSITY
DFPH.                    9.5 : DRILLING FLUID PH
DFL .                    7.4 : DRILLING FLUID LOSS
RMS .OHMM               2.38 : RESISTIVITY MUD SAMPLE
MST .DEGF                 64 : MUD SAMPLE TEMPERATURE
RMF .OHMM                2.1 : RESISTIVITY MUD FILTRATE SAMPLE
MFST.DEGF                 66 : MUD FILTRATE SAMPLE TEMPERATURE
RMC .OHMM               2.32 : RESISTIVITY MUD CAKE
MCST.DEGF                 66 : MUD CAKE SAMPLE TEMPERATURE
RMB .OHMM               0.84 : RESISTIVITY MUD AT BHT
TCS .HRS                   6 : TIME CIRCULATED STOPPED
LUN .                   3534 : LOGGING UNIT NUMBER
LUL .                    V V : LOGGING UNIT LOCATION
ENGI.               CHENOSKY : RECORDING ENGINEER
WITN.                  WEISS : WITNESSED BY
CLNT.                A2DTECH : CLIENT CODE
ORIG.            2" 5" PRINT : ORIGIN OF DATA
UWI .       100043206618W500 : UNIQUE WELL ID
DICO. A2D Technologies, Inc. : DIGITIZING COMPANY
~Other -----------------------------------------------------
~ASCII -----------------------------------------------------
# ...
  774.30000    -999.25    -999.25    -999.25    -999.25    -999.25    -999.25    -999.25   46.60970    -999.25    -999.25    -999.25
  774.80000    -999.25    -999.25    -999.25    -999.25    -999.25    -999.25    -999.25   49.81680    -999.25    -999.25    -999.25
  775.30000    -999.25    -999.25    -999.25    -999.25    -999.25    -999.25    -999.25   56.21400    -999.25    -999.25    -999.25
  775.80000    -999.25    -999.25    -999.25    -999.25    -999.25    -999.25    -999.25   65.22590    -999.25    -999.25    -999.25
  776.30000    -999.25    -999.25    -999.25    -999.25    -999.25    -999.25    -999.25   65.94350    -999.25    -999.25    -999.25
  776.80000    -999.25    -999.25    -999.25    -999.25    -999.25    -999.25    -999.25   59.45650    -999.25    -999.25    -999.25
  777.30000    -999.25    -999.25    -999.25    -999.25    -999.25    -999.25    -999.25   53.91150    -999.25    -999.25    -999.25
  777.80000    -999.25    -999.25    -999.25    -999.25    -999.25    -999.25    -999.25   54.45030    -999.25    -999.25    -999.25
  778.30000    -999.25    -999.25    -999.25    -999.25    -999.25    -999.25    -999.25   57.85360    -999.25    -999.25    -999.25
  778.80000    -999.25    -999.25    -999.25    -999.25    -999.25    -999.25    -999.25   59.79050    -999.25    -999.25    -999.25
  779.30000    -999.25    -999.25    -999.25    -999.25    -999.25    -999.25    -999.25   58.61580    -999.25    -999.25    -999.25
  779.80000    -999.25    -999.25    -999.25    -999.25    -999.25    -999.25    -999.25   57.06270    -999.25    -999.25    -999.25
  780.30000    -999.25    -999.25    -999.25    -999.25    -999.25    -999.25    -999.25   56.65180    -999.25    -999.25    -999.25
  780.80000    -999.25    -999.25    -999.25  416.96730    2.24200    0.95770  -46.61530   56.70560  187.19750    7.74900    -999.25
  781.30000    -999.25    -999.25    -999.25  696.56230    1.44730    1.62380  -48.02150   60.24430  210.53560    7.74400    -999.25
  781.80000    -999.25    -999.25    -999.25  730.80870    2.39280    2.12340  -49.25910   67.57110  193.00510    8.69640    -999.25
  782.30000    -999.25    -999.25    -999.25  300.44130    6.08790    2.24820  -50.13400   72.95150  220.50670   11.92440    -999.25
  782.80000    -999.25    -999.25    -999.25  164.65100   20.73800    2.36160  -50.72090   72.92360  218.68520   13.64860    -999.25
  783.30000    -999.25    -999.25    -999.25   66.37950   40.44910    2.46330  -51.19740   75.79070  204.07070   13.65860    -999.25
  783.80000    -999.25    -999.25    -999.25  212.64430    3.15790    2.54960  -51.60600   76.56270  174.17250   12.96120    -999.25
  784.30000    -999.25    -999.25    -999.25  392.70540    2.16000    2.63590  -51.98030   83.70750  159.63580   11.89460    -999.25
  784.80000    -999.25    -999.25    -999.25  407.75480    1.97990    2.72220  -52.21110   89.03000  138.60430   10.34160    -999.25
  785.30000    -999.25    -999.25    -999.25  390.14290    2.05110    2.80850  -52.45220   83.21150  141.10550    9.58290    -999.25
  785.80000    -999.25    -999.25    -999.25  367.22230    2.25670    2.89480  -52.79380   79.65960  144.04960   10.01350    -999.25
  786.30000    -999.25    -999.25    -999.25  337.18510    2.74160    2.98110  -53.17370   82.62420  140.06470   10.56880    -999.25
  786.80000    -999.25    -999.25    -999.25  290.89270    3.43020    3.47210  -53.04480   86.59720  137.66750   11.51780    -999.25
  787.30000    -999.25    -999.25    -999.25  234.72540    4.11870    3.96430  -53.17950   85.00970  137.69570   12.52440    -999.25
  787.80000    -999.25    -999.25    -999.25  192.41790    4.80730    4.33280  -53.20940   83.64730  138.17330   13.07800    -999.25
  788.30000    -999.25    -999.25    -999.25  188.64890    5.02060    4.52860  -53.16670   83.01210  136.93560   11.68560    -999.25
  788.80000    -999.25    -999.25    -999.25  188.81460    5.17540    4.70500  -53.19310   77.86110  135.61910   10.27520    -999.25
  789.30000    -999.25    -999.25    -999.25  187.08310    5.33020    4.86280  -52.87750   75.24470  126.74460    9.43010    -999.25
  789.80000    -999.25    -999.25    -999.25  184.77540    5.48490    5.02060  -52.83590   74.75580  132.76800    9.28360    -999.25
  790.30000    -999.25    -999.25    -999.25  173.71720    5.63970    5.17840  -53.08160   73.08960  124.87030    8.85190    -999.25
  790.80000    -999.25    -999.25    -999.25  164.50540    5.79450    5.33620  -53.31610   74.24370  122.47190    8.82560    -999.25
  791.30000    -999.25    -999.25    -999.25  165.03100    5.94930    5.49400  -53.59130   79.63850  117.73720    8.88400    -999.25
  791.80000    -999.25    -999.25    -999.25  164.90240    6.11580    5.66290  -53.75590   80.74920  121.68120    8.84850    -999.25
  792.30000    -999.25    -999.25    -999.25  163.18120    6.28710    5.84730  -53.88060   74.64770  120.85000    8.80880    -999.25
  792.80000    -999.25    -999.25    -999.25  158.48130    6.45840    6.03160  -54.13510   76.27660  117.67360    8.85270    -999.25
  793.30000    -999.25    -999.25    -999.25  151.94400    6.62970    6.21600  -54.38240   81.59210  117.28240    8.87590    -999.25
  793.80000    -999.25    -999.25    -999.25  145.31140    6.80110    6.40030  -54.62970   78.03860  116.08440    8.92030    -999.25
  794.30000    -999.25    -999.25    -999.25  133.95830    7.25050    6.69780  -54.33230   76.74320  115.34520    9.07590    -999.25
  794.80000    -999.25    -999.25    -999.25  123.04280    8.10620    7.40950  -54.23610   80.11780  115.10250    9.20790    -999.25
  795.30000    -999.25    -999.25    -999.25  109.92160    9.34670    8.12110  -54.39680   83.27520  114.84710    9.20370    -999.25
  795.80000    -999.25    -999.25    -999.25   95.65650   10.58710    8.92280  -55.01930   84.89620  113.98020    9.25390    -999.25
  796.30000    -999.25    -999.25    -999.25   86.66710   11.75540    9.58700  -55.89180   86.08200  112.71640    9.00940    -999.25
  796.80000    -999.25    -999.25    -999.25   78.68790   12.92910   10.14780  -56.77900   83.49740  112.22590    8.50910    -999.25
  797.30000    -999.25    -999.25    -999.25   74.38430   13.42590   10.18110  -57.03680   74.74910  113.34540    8.30320    -999.25
  797.80000    -999.25    -999.25    -999.25   72.82060   13.65590    9.74240  -56.31690   75.01480  112.37780    8.08870    -999.25
  798.30000    -999.25    -999.25    -999.25   74.75720   12.82540    9.94100  -55.59020   71.84210  105.82690    7.99990    -999.25
  798.80000    -999.25    -999.25    -999.25   81.46410   11.52560   10.18630  -55.16300   70.16810  102.84480    8.05030    -999.25
  799.30000    -999.25    -999.25    -999.25   94.69890   10.30360   10.01530  -55.66030   74.02260  102.33730    8.09000    -999.25
  799.80000    -999.25    -999.25    -999.25  107.18180    9.08160    8.83030  -56.34080   82.07040  101.04680    8.11180    -999.25
  800.30000    -999.25    -999.25    -999.25  123.14600    7.97330    7.85440  -56.95450   83.23650  100.71130    8.13050    -999.25
  800.80000    -999.25    -999.25    -999.25  135.76950    7.23480    7.30070  -56.81400   79.70860  104.37640    8.12690    -999.25
  801.30000    -999.25    -999.25    -999.25  149.21390    6.49640    6.74690  -55.94240   77.31580  111.26900    8.10490    -999.25
  801.80000    -999.25    -999.25    -999.25  166.44870    5.75790    6.50080  -55.22860   76.71320  115.56750    8.30330    -999.25
  802.30000    -999.25    -999.25    -999.25  178.88920    5.17360    6.25840  -55.11810   76.59680  117.95560    8.53490    -999.25
  802.80000    -999.25    -999.25    -999.25  187.77290    4.81590    6.10200  -55.19860   81.24670  119.85280    8.78050    -999.25
  803.30000    -999.25    -999.25    -999.25  189.30340    4.75740    6.09200  -55.38030   88.94900  118.30070    9.20730    -999.25
  803.80000    -999.25    -999.25    -999.25  184.92540    4.89260    6.12300  -55.32710   94.97640  116.19700    9.95050    -999.25
  804.30000    -999.25    -999.25    -999.25  175.23140    5.08690    6.15410  -55.59860   92.20380  116.62330   10.10870    -999.25
