~Version ---------------------------------------------------
VERS. 2.0 : CWLS log ASCII Standard -VERSION 2.0
WRAP.  NO : ONE LINE PER DEPTH STEP
~Well ------------------------------------------------------
STRT.F                      1350.0 : START DEPTH
STOP.F                     12700.0 : STOP DEPTH
STEP.F                    50.00000 : STEP LENGTH
NULL.                      -999.25 : NULL VALUE
COMP. TRANS-PRAIRIES PIPELINES LTD : COMPANY
WELL. TPPL DEEP VALLEY 11-21-64-25 : WELL
FLD .                              : FIELD
LOC .                              : LOCATION
CTRY.                       CANADA : COUNTRY
SRVC.                 Schlumberger : SERVICE COMPANY
DATE.                  04-Jan-1974 : LOGDATE
PROV.                      Alberta : PROVINCE
UWI .             100112106425W500 : UNIQUE WELL ID
SLAT.WGS84                54.55513 : SURFACE LATITUDE
SLON.WGS84               -117.7228 : SURFACE LONGITUDE
~Curve Information -----------------------------------------
DEPT   .F    0   1   0  0 : 1 MEASURED DEPTH
SPR    .MV   05 010 01 00 : SPONTANEOUS POTENTIAL FROM RESISTIVITY LOG
ILD    .OHMM 05 120 46 00 : INDUCTION DEEP RESISTIVITY
CILD   .MMHO 05 110 46 00 : INDUCTION DEEP CONDUCTIVITY
SN     .OHMM 05 040 16 00 : SHORT NORMAL RESISTIVITY
GRS    .GAPI 60 310 01 00 : GAMMA RAY FROM SONIC LOG
DT     .US/F 60 500 00 00 : DELTA-T (INTERVAL TRANSIT TIME)
CALS   .IN   60 280 50 00 : CALIPER FROM SONIC LOG
GRD    .GAPI 45 310 01 00 : GAMMA RAY FROM DENSITY LOG
CALD   .IN   45 280 60 00 : CALIPER FROM DENSITY LOG
RHOB   .G/C3 45 350 01 00 : BULK DENSITY
DRHO   .G/C3 45 356 01 00 : BULK DENSITY CORRECTION
NPHI_SS.DEC  42 890 03 00 : NEUTRON POROSITY SANDSTONE
DPHI_SS.DEC  45 890 12 00 : DENSITY POROSITY SANDSTONE
DPHI_LS.DEC  45 890 10 00 : DENSITY POROSITY LIMESTONE
NPHI_LS.DEC  42 890 01 00 : NEUTRON POROSITY LIMESTONE
~Params ----------------------------------------------------
PD  .                     GL : PERMANENT DATUM
EPD .FT                 2726 : ELEVATION PERMANENT DATUM
LMF .                     KB : LOG MEASURED FROM
DAPD.FT                   22 : FEET ABOVE PERMANENT DATUM
EKB .FT                 2748 : KELLY BUSHING
EDF .FT                 2726 : DRILLING FLOOR
DATE.               01/04/74 : RUN DATE
RUN .                      3 : RUN NUMBER
DD  .FT                12720 : DEPTH DRILLER
DL  .FT                12719 : DEPTH LOGGER
BLI .FT                12713 : BOTTOM LOG INTERVAL
TLI .FT                11088 : TOP LOG INTERVAL
CBD .FT                 1313 : CASING BOTTOM DRILLER
CBL .FT                 1314 : CASING BOTTOM LOGGER
BS  .IN                 8.75 : BIT SIZE
BSD .FT                12720 : BIT SIZE AT DEPTH
DFT .               GEL CHEM : DRILLING FLUID TYPE
DFD .                    9.6 : DRILLING FLUID DENSITY
DFV .                     97 : DRILLING FLUID VISCOSITY
DFL .                   10.9 : DRILLING FLUID LOSS
RMS .OHMM               2.08 : RESISTIVITY MUD SAMPLE
MST .DEGF                 50 : MUD SAMPLE TEMPERATURE
RMF .OHMM               1.51 : RESISTIVITY MUD FILTRATE SAMPLE
MFST.DEGF                 58 : MUD FILTRATE SAMPLE TEMPERATURE
RMC .OHMM               2.27 : RESISTIVITY MUD CAKE
MCST.DEGF                 52 : MUD CAKE SAMPLE TEMPERATURE
TCS .HRS                 2.5 : TIME CIRCULATED STOPPED
LUN .                   7691 : LOGGING UNIT NUMBER
LUL .                    EDM : LOGGING UNIT LOCATION
ENGI.                  LEITH : RECORDING ENGINEER
WITN.        SLOAN MCDONNELL : WITNESSED BY
CLNT.                A2DTECH : CLIENT CODE
ORIG.            2" 5" PRINT : ORIGIN OF DATA
UWI .       100112106425W500 : UNIQUE WELL ID
DICO. A2D Technologies, Inc. : DIGITIZING COMPANY
~Other -----------------------------------------------------
~ASCII -----------------------------------------------------
# ...
 10550.00000 -104.04150    -999.25    4.98130  269.87300    -999.25   49.43470    9.43560   22.42540   10.43200    2.51570    0.24970    -999.25    -999.25    0.14300    0.00950
 10600.00000  -50.77950    -999.25    2.25600  199.94780    -999.25   50.90500    8.94050   25.12600    8.90410    2.72450    0.19650    -999.25    -999.25    0.01470    0.01910
 10650.00000  -56.07920   44.36790   26.25080   44.64820    -999.25   53.49310    8.81100   31.53070    8.94130    2.76040    0.01960    -999.25    -999.25   -0.01290    0.04550
 10700.00000  -57.70880    -999.25    4.13900  172.15560    -999.25   51.23540    8.67130   23.67860    8.71000    2.72210    0.01780    -999.25    -999.25    0.00280    0.03520
 10750.00000  -36.60790   22.64020   48.98040   33.69770    -999.25   56.11950    8.79730   36.40820    8.83200    2.72310    0.01000    -999.25    -999.25   -0.01020    0.05420
 10800.00000  -90.86300    -999.25    5.06850  158.86040    -999.25   52.16300    8.86680   19.39170    8.84240    2.66650    0.07490    -999.25    -999.25    0.00930    0.02220
 10850.00000  -97.28990    -999.25    4.70480  190.85320    -999.25   50.87890    8.79400   17.47160    8.75670    2.70090    0.02070    -999.25    -999.25   -0.00920    0.01430
 10900.00000  -70.74170   37.34480   31.36880   43.99360    -999.25   55.26980    8.82170   29.16990    8.78300    2.68840    0.00770    -999.25    -999.25    0.01250    0.04110
 10950.00000  -79.23260   49.01700   24.14960   48.01060    -999.25   58.63460    8.77360   36.82520    8.33520    2.69190    0.01180    -999.25    -999.25    0.00170    0.07970
 11000.00000  -40.25260   45.14110   28.03350   45.28750    -999.25   58.74440    8.82830   36.02510    8.72620    2.67870    0.00930    -999.25    -999.25    0.02730    0.07420
 11050.00000  -93.16830   43.47730   28.23020   43.12590    -999.25   77.94070    9.06620  126.11270    8.71860    2.58320    0.02670    -999.25    -999.25    0.05930    0.22720
 11100.00000 -106.86280    3.51200  276.94680    4.79000    -999.25   80.34640   10.41070   83.65830   10.02620    2.49200    0.19570    -999.25    -999.25    0.12710    0.29400
 11150.00000  -81.16960    3.25770  301.00610    4.78510    -999.25   78.41410   10.61370   73.81970   10.87120    2.49700    0.21540    -999.25    -999.25    0.16260    0.26240
 11200.00000 -100.42850    2.68670  339.99610    4.00400    -999.25   84.62100   13.21260   83.18760   14.84500    2.22820    0.19390    -999.25    -999.25    0.30310    0.38510
 11250.00000  -98.78620    2.57660  374.96270    3.69020    -999.25   86.94870   13.76860   77.88590    -999.25    2.30280    0.17820    -999.25    -999.25    0.23240    0.43060
 11300.00000  -85.33910    6.10350  158.57100    8.84920    -999.25   66.96940    8.89180   74.46800    8.75440    2.71670    0.04670    -999.25    -999.25   -0.00290    0.16640
 11350.00000  -73.05920    4.96760  193.10060    7.18750    -999.25   69.83960    8.95310   74.81560    8.92750    2.64100    0.02710    -999.25    -999.25    0.04650    0.17990
 11400.00000  -64.05580    5.58710  171.75310    7.88030    -999.25   69.10250    9.01760   73.18560    9.01020    2.70820    0.04610    -999.25    -999.25    0.00420    0.17600
 11450.00000  -68.22710    3.18150  303.50490    4.44740    -999.25   77.86590    9.78190   75.47620   11.22710    2.45280    0.23920    -999.25    -999.25    0.14000    0.24860
 11500.00000  -56.78530    3.50230  270.43220    5.12180    -999.25   77.70610    9.36830   95.42330    9.96350    2.58130    0.20530    -999.25    -999.25    0.07510    0.23950
 11550.00000  -74.61730    5.32330  180.68590    8.07780    -999.25   69.78570    8.87250   76.68510    9.19210    2.60570    0.02170    -999.25    -999.25    0.03450    0.19110
 11600.00000  -80.47060    3.34340  284.94660    5.02940    -999.25   82.38640    9.97980   93.46480   12.17710    2.52660    0.16200    -999.25    -999.25    0.07210    0.28020
 11650.00000  -72.01550   44.88570   20.60250   59.99310    -999.25   78.43900    8.87650  121.24320    8.76430    2.59040    0.06300    -999.25    -999.25    0.09030    0.20590
 11700.00000  -84.42900   39.38230   23.34140   48.76320    -999.25   54.26100    8.79200   42.01280    8.46890    2.70550    0.01220    -999.25    -999.25   -0.00810    0.07230
 11750.00000  -82.74240  276.53280    6.98060  362.70800    -999.25   52.06720    8.79600   20.97210    8.31320    2.69360    0.00090    -999.25    -999.25    0.00380    0.02260
 11800.00000  -81.44470  250.01260    5.25530  247.56740    -999.25   52.06210    8.89440   24.66230    8.33180    2.73940    0.01670    -999.25    -999.25   -0.00570    0.03890
 11850.00000  -60.10320   20.57410   45.66620   26.67640    -999.25   62.09120    8.96750   70.26830    8.83340    2.73220    0.17070    -999.25    -999.25    0.01580    0.13330
 11900.00000  -97.08990  500.13140    1.63850    -999.25    -999.25   50.73030    9.47400    8.21450   11.33420    2.51330    0.23070    -999.25    -999.25    0.15910    0.03230
 11950.00000 -142.71740    -999.25    3.45890    -999.25    -999.25   48.30820    9.54480    5.02120   11.66520    2.34370    0.25070    -999.25    -999.25    0.21550    0.00570
 12000.00000 -113.36810    -999.25    2.31830    -999.25    -999.25   50.42630    9.19580   15.78570   10.86150    2.49700    0.19340    -999.25    -999.25    0.18490    0.00540
 12050.00000    -999.25    1.93390  512.67560   18.02380    -999.25   69.12320    8.02180   73.55500    7.68060    2.47890    0.11480    -999.25    -999.25    0.14380    0.12160
 12100.00000 -120.77050   27.73930   35.05680   35.59360    -999.25   70.98980   10.25870  128.16310    9.29420    2.66670    0.16990    -999.25    -999.25    0.01210    0.23720
 12150.00000    -999.25    9.49320  100.24580   58.44180    -999.25   50.62760    8.44740   22.48610    7.97060    2.75510    0.08210    -999.25    -999.25   -0.01520    0.10940
 12200.00000    -999.25    2.15620  446.56230   29.00360    -999.25   63.51170    8.12190   16.19370    7.65570    2.50780    0.11660    -999.25    -999.25    0.12770    0.24930
 12250.00000 -144.55290    -999.25    2.24580  444.60750    -999.25   50.16990    9.03680   33.15150    9.33740    2.72810    0.23900    -999.25    -999.25    0.00800    0.02290
 12300.00000 -145.77170   88.75140    9.28850   67.10960    -999.25   55.97440    9.34820   97.10170    9.10390    2.34400    0.19640    -999.25    -999.25    0.19160    0.12760
 12350.00000 -148.70870  163.07510    6.61460   90.31420    -999.25   59.51590    9.32040   51.26850    8.46160    2.68970    0.05710    -999.25    -999.25    0.07690    0.19570
 12400.00000 -100.48910   26.37500   37.04960   38.15020    -999.25   79.98990   11.29730  133.32090   12.04850    2.29660    0.13540    -999.25    -999.25    0.20380    0.45530
 12450.00000 -160.62650    0.48320    -999.25    2.72420    -999.25   74.61300    8.54490   29.05960    8.09790    2.41670    0.08980    -999.25    -999.25    0.16780    0.17170
 12500.00000  -34.83880   92.90190    8.49350  116.42620    -999.25   59.80850    9.01680  138.23880    8.91450    2.64750    0.22510    -999.25    -999.25    0.05350    0.08690
 12550.00000  -13.45310   39.39860   25.89650   63.92340    -999.25   71.15370   10.47420  147.37390   12.29760    2.15100    0.20830    -999.25    -999.25    0.31930    0.17210
 12600.00000  -45.33580   29.26850   30.95650   47.60070    -999.25   59.74140    8.65590  172.72480    8.19290    2.56070    0.03300    -999.25    -999.25    0.07450    0.06050
 12650.00000  -74.11280   10.77760   83.33030   18.29140    -999.25   62.96720    8.78510  136.55510    8.45750    2.65620    0.03010    -999.25    -999.25    0.03400    0.08340
 12700.00000  -76.34520   13.61870   68.23900    4.83930    -999.25   71.56120    8.59440   17.15330    8.22300    2.53060    0.03890    -999.25    -999.25    0.12030    0.01740
