~Version ---------------------------------------------------
VERS.      2.0 : CWLS log ASCII Standard -VERSION 2.0
WRAP.       NO : One line per depth step
CREA. 11/20/17 : LAS Creation Date
~Well ------------------------------------------------------
STRT.FT                         1450.0 : START DEPTH
STOP.FT                        13550.0 : STOP DEPTH
STEP.FT                       50.00000 : STEP LENGTH
NULL.                          -999.25 : NULL VALUE
COMP. AMOCO CANADA PETROLEUM CO., LTD. : COMPANY
WELL.            AMOCO TONY 7-16-62-24 : WELL
FLD .                                  : FIELD
LOC .                                  : LOCATION
CTRY.                           CANADA : COUNTRY
SRVC.                     Schlumberger : SERVICE COMPANY
DATE.                      27-Nov-1977 : LOGDATE
PROV.                          Alberta : PROVINCE
UWI .                 100071606224W500 : UNIQUE WELL ID
SLAT.WGS84                    54.36239 : SURFACE LATITUDE
SLON.WGS84                   -117.5361 : SURFACE LONGITUDE
~Curve Information -----------------------------------------
DEPT    .FT    : Depth Curve
CALDED  .IN    : CALIPER FROM DENSITY LOG [ADJ. TO RESISTIVITY LOG]
CALSED  .IN    : CALIPER FROM  SONIC LOG [ADJ. TO RESISTIVITY LOG]
CALWS   .IN    : CALIPER [CALDED]
CONDWS  .MMHO  : CONDUCTIVITY [1000/DRESWS]
DCORWS  .IN    : DENSITY CORRECTION [DRHOED]
DENWS   .IN    : FORMATION BULK DENSITY [CALC. FROM DPOLSWS M=2.71, F=1.00]
DPHILSED.V/V   : DENSITY POROSITY LIMESTONE [M=2.71, F=1.00] FROM DENSITY LOG [ADJ. TO RESISTIVITY LOG]
DPHISSED.V/V   : DENSITY POROSITY SANDSTONE [M=2.65, F=1.00] FROM DENSITY LOG [ADJ. TO RESISTIVITY LOG]
DPOLSWS .V/V   : DENSITY POROSITY LIMESTONE [DPHISSED MATRIX CONVERSION FOR LS, SPL. TO DPHILSED @8451' & SPL. TO CALC. FROM RHOBED M=2.71, F=1.00]
DRESWS  .OHMM  : DEEP RESISTIVITITY [ILDED]
DRHOED  .IN    : DENSITY CORRECTION FROM DENSITY LOG [ADJ. TO RESISTIVITY LOG]
DTED    .US/F  : DELTA TIME FROM SONIC LOG [ADJ. TO RESISTIVITY LOG]
DTWS    .US/F  : COMPRESSIONAL SONIC [DTED]
GRDED   .GAPI  : GAMMA RAY FROM DENSITY LOG [ADJ. TO RESISTIVITY LOG]
GRSED   .GAPI  : GAMMA RAY FROM SONIC LOG [ADJ. TO RESISTIVITY LOG]
GRWS    .GAPI  : GAMMA RAY [GRSED]
ILDED   .OHMM  : DEEP INDUCTION FROM RESISTIVITY LOG
ILMED   .OHMM  : MEDIUM INDUCTION FROM RESISTIVITY LOG
LL8ED   .OHMM  : 8 INCH LATEROLOG RESISTIVITY FROM RESISTIVITY LOG
MRESWS  .OHMM  : MEDIUM RESISTIVITY [ILMED]
NPHILSED.V/V   : NEUTRON POROSITY LIMESTONE FROM DENSITY LOG [ADJ. TO RESISTIVITY LOG]
NPHISSED.V/V   : NEUTRON POROSITY SANDSTONE FROM DENSITY LOG [ADJ. TO RESISTIVITY LOG]
NPOLSWS .V/V   : NEUTRON POROSITY LIMESTONE [NPHISSED MATRIX CONVERSION FOR LIMESTONE, SPL. TO NPHILSED @ 8424']
RHOBED  .IN    : BULK DENSITY FROM DENSITY LOG [ADJ. TO RESISTIVITY LOG]
SPRED   .MV    : SPONTANEOUS POTENTIAL FROM RESISTIVITY LOG
SPWS    .MV    : SPONTANEOUS POTENTIAL [BASELINE 0 MV,SPRED]
SRESWS  .OHMM  : SHALLOW RESISTIVITY [LL8ED]
~Params ----------------------------------------------------
PD  .                     GL : PERMANENT DATUM
EPD .FT                 5402 : ELEVATION PERMANENT DATUM
LMF .                     KB : LOG MEASURED FROM
DAPD.FT                   17 : FEET ABOVE PERMANENT DATUM
DATE.               11/27/77 : RUN DATE
RUN .                      2 : RUN NUMBER
DD  .FT                13685 : DEPTH DRILLER
DL  .FT                13579 : DEPTH LOGGER
BLI .FT                13573 : BOTTOM LOG INTERVAL
TLI .FT                 8448 : TOP LOG INTERVAL
CBD .FT                 8448 : CASING BOTTOM DRILLER
CBL .FT                 8448 : CASING BOTTOM LOGGER
BSD .FT                13685 : BIT SIZE AT DEPTH
DFT .                    8.6 : DRILLING FLUID TYPE
DFD .                     86 : DRILLING FLUID DENSITY
CLNT.                A2DTECH : CLIENT CODE
ORIG.          1" 2.5" PRINT : ORIGIN OF DATA
UWI .       100071606224W500 : UNIQUE WELL ID
DICO. A2D Technologies, Inc. : DIGITIZING COMPANY
~Other -----------------------------------------------------
DIL-BHC-CNL-FDC LOG RUN
RHOB & DRHO FROM 2" SCALE
~ASCII -----------------------------------------------------
# ...
 7950.00000   11.94360   11.99180   11.94360   19.16720    0.10200    2.49890    -999.25    0.09160    0.12350   52.17340    0.10200   68.49090   68.49090   77.99310   83.08130   84.02200   52.17340   35.49810   27.50880   35.49810    -999.25    0.27100    0.22700    2.49270  -40.42940  -19.44540   27.50880
 8000.00000   12.92810   11.46330   12.92810   26.68300    0.03640    2.61930    -999.25    0.01860    0.05300   37.47700    0.03640   65.91920   65.91920   83.80690  100.06900  100.06900   37.47700   27.20180   31.26120   27.20180    -999.25    0.23350    0.18970    2.59570  -46.35320  -25.97760   31.26120
 8050.00000   12.52810   11.40390   12.52810   45.92340    0.11770    2.57710    -999.25    0.04420    0.07770   21.77540    0.11770   70.14820   70.14820   71.77470   74.17950   74.17950   21.77540   16.66230   21.26570   16.66230    -999.25    0.23360    0.18980    2.57140  -52.37810  -32.61080   21.26570
 8100.00000   11.63000   10.95370   11.63000   30.74010    0.03790    2.63550    -999.25   -0.00040    0.04360   32.53110    0.03790   67.55030   67.55030   78.37410   87.36960   87.36960   32.53110   23.81440   26.86770   23.81440    -999.25    0.21630    0.17270    2.63550  -42.12700  -22.97170   26.86770
 8150.00000   11.70170   10.97750   11.70170   23.70750    0.04400    2.65870    -999.25   -0.01100    0.03000   42.18070    0.04400   65.01070   65.01070   81.78030   87.69900   81.85330   42.18070   32.45440   43.38190   32.45440    -999.25    0.22660    0.18290    2.65870  -29.30950  -10.76140   43.38190
 8200.00000   11.99090   11.00160   11.99090   45.53910    0.07080    2.60760    -999.25    0.02570    0.05990   21.99360    0.07080   67.60290   67.60290  101.47940  122.81800  123.39790   21.99360   20.08880   23.90490   20.08880    -999.25    0.24110    0.19720    2.61360  -29.92390  -11.98780   23.90490
 8250.00000   12.02590   11.08540   12.02590   38.72280    0.13170    2.39520    -999.25    0.15440    0.18410   25.82460    0.13170   61.49330   61.49330   62.02650   65.63680   59.78030   25.82460   23.28980   24.58410   23.28980    -999.25    0.15590    0.11320    2.45130  -38.44430  -21.11650   24.58410
 8300.00000   11.69170   10.96820   11.69170   39.22830    0.05440    2.53330    -999.25    0.07070    0.10330   25.49180    0.05440   64.99400   64.99400   49.47340   50.06030   50.20260   25.49180   24.17610   33.21980   24.17610    -999.25    0.22560    0.18190    2.52040  -56.32910  -39.60970   33.21980
 8350.00000   11.99720   11.04060   11.99720  159.94700    0.16280    2.31660    -999.25    0.20200    0.23000    6.25230    0.16280   85.16480   85.16480   99.99110  107.34570  106.63360    6.25230    6.44810    8.41250    6.44810    -999.25    0.46200    0.42070    2.30150  -20.11680   -4.00940    8.41250
 8400.00000   13.92700   11.39130   13.92700  268.99800    0.19980    2.25530    -999.25    0.23920    0.26590    3.71750    0.19980   88.89900   88.89900   93.47890   96.35000   96.35000    3.71750    3.85800    5.37340    3.85800    -999.25    0.53240    0.49420    2.26480  -20.93260   -5.43230    5.37340
 8450.00000   10.00140   11.49120   10.00140    -999.25    -999.25    -999.25    -999.25    -999.25    -999.25    -999.25    -999.25    -999.25    -999.25  169.57610  173.75750  180.51820    -999.25    -999.25  797.20060    -999.25    0.31840    -999.25    0.31840    -999.25  -30.49880  -15.74410  797.20060
 8500.00000    9.23820   10.11850    9.23820    0.76390   -0.01290    2.50380    0.12060    -999.25    0.12060 1308.99110   -0.01290   65.54430   65.54430  300.00000  300.00000  300.00000 1308.99110 1536.01320 1565.15440 1536.01320    0.19330    -999.25    0.19330    2.51220  -51.04040  -37.09120 1565.15440
 8550.00000    9.48990   10.40560    9.48990   23.10450    0.00110    2.58860    0.07100    -999.25    0.07100   43.28160    0.00110   62.40920   62.40920   88.95400   89.93990   90.15820   43.28160   52.45060   50.15460   52.45060    0.09960    -999.25    0.09960    2.60500  -41.91280  -28.76910   50.15460
 8600.00000    9.40160   10.39100    9.40160   24.48440    0.01740    2.64480    0.03810    -999.25    0.03810   40.84290    0.01740   60.04280   60.04280   97.43070  104.21270  103.97360   40.84290   47.66150   52.24790   47.66150    0.07960    -999.25    0.07960    2.65380  -25.55980  -13.22650   52.24790
 8650.00000    9.11510    9.94340    9.11510   30.83760    0.00480    2.64010    0.04090    -999.25    0.04090   32.42790    0.00480   60.87240   60.87240   86.90380   92.47600   92.47600   32.42790   36.04210   38.35180   36.04210    0.06470    -999.25    0.06470    2.65220  -44.87040  -33.34100   38.35180
 8700.00000    8.96930    9.81770    8.96930   31.21630    0.01000    2.64200    0.03970    -999.25    0.03970   32.03520    0.01000   61.71250   61.71250   75.32110   79.76610   79.76610   32.03520   37.19830   35.06790   37.19830    0.06680    -999.25    0.06680    2.64580  -47.76630  -37.04720   35.06790
 8750.00000    9.02390    9.77450    9.02390   19.12490    0.01130    2.75810   -0.02810    -999.25   -0.02810   52.28780    0.01130   53.19900   53.19900   58.48600   60.62260   60.62260   52.28780   70.73760  142.43640   70.73760    0.06120    -999.25    0.06120    2.74930  -52.79870  -42.88510  142.43640
 8800.00000    9.03390    9.86270    9.03390   16.17040    0.00320    2.69070    0.01130    -999.25    0.01130   61.84120    0.00320   56.34470   56.34470   92.59980  100.11540  100.11540   61.84120   71.99200   73.26950   71.99200    0.06530    -999.25    0.06530    2.68310  -39.01110  -29.90310   73.26950
 8850.00000    9.08630    9.97120    9.08630   22.70290   -0.00230    2.70090    0.00530    -999.25    0.00530   44.04750   -0.00230   59.03420   59.03420  110.63100  126.13980  126.13980   44.04750   53.07760   56.59790   53.07760    0.08560    -999.25    0.08560    2.69940  -30.23460  -21.93690   56.59790
 8900.00000    8.47700    8.94070    8.47700   19.82380    0.07920    2.51660    0.11310    -999.25    0.11310   50.44440    0.07920   61.95280   61.95280   40.76700   41.82700   41.82700   50.44440   94.17750  172.75540   94.17750    0.11810    -999.25    0.11810    2.50340  -66.82010  -59.32630  172.75540
 8950.00000    8.64980    9.49560    8.64980   51.81890    0.05440    2.64740    0.03660    -999.25    0.03660   19.30250    0.05440   54.54500   54.54500   75.36290   71.95880   71.95880   19.30250   30.13500  116.56950   30.13500    0.12830    -999.25    0.12830    2.65430  -75.58380  -68.90040  116.56950
 9000.00000   10.77260    9.90930   10.77260    5.16970    0.14570    2.27940    0.25180    -999.25    0.25180  193.43300    0.14570   50.55740   50.55740   20.66060   15.43680   15.43680  193.43300 1771.88100  260.98150 1771.88100    0.05910    -999.25    0.05910    2.27520 -109.11090 -103.23300  260.98150
 9050.00000    8.93060    9.65810    8.93060    3.57190    0.09530    2.67360    0.02130    -999.25    0.02130  279.96360    0.09530   50.17650   50.17650   45.14250   41.98230   41.98230  279.96360  792.56120  268.40030  792.56120    0.04780    -999.25    0.04780    2.67980  -57.66950  -52.59710  268.40030
 9100.00000   10.41650    9.75290   10.41650    7.35530    0.12860    2.59620    0.06650    -999.25    0.06650  136.43390    0.12860   49.40520   49.40520   39.75920   45.90640   45.90640  136.43390  916.29340  304.83090  916.29340    0.06400    -999.25    0.06400    2.57410  -55.86830  -51.60630  304.83090
 9150.00000   10.27130    9.59730   10.27130  182.00020    0.19950    2.49460    0.12600    -999.25    0.12600    5.49450    0.19950   64.35790   64.35790   56.61950   47.44620   51.17690    5.49450    5.92040   11.11670    5.92040    0.15010    -999.25    0.15010    2.45980  -66.73040  -63.27230   11.11670
 9200.00000   12.12410   10.82580   12.12410    9.52700    0.25060    2.36700    0.20060    -999.25    0.20060  105.15960    0.25060   53.47860   53.47860   37.82640   40.90110   42.65850  105.15960  326.74600  195.73210  326.74600    0.06660    -999.25    0.06660    2.26210  -72.54470  -69.89690  195.73210
