~Version ---------------------------------------------------
VERS.      2.0 : CWLS log ASCII Standard -VERSION 2.0
WRAP.       NO : ONE LINE PER DEPTH STEP
CREA. 07/10/13 : LAS CREATION DATE
~Well ------------------------------------------------------
STRT.M                           450.0 : START DEPTH
STOP.M                          3700.0 : STOP DEPTH
STEP.M                        50.00000 : STEP LENGTH
NULL.                          -999.25 : NULL VALUE
COMP. AMOCO CANADA PETROLEUM CO., LTD. : COMPANY
WELL.        AMOCO BIGSTONE 16-1-61-22 : WELL
FLD .                        BIGSTONSE : FIELD
LOC .                                  : LOCATION
CTRY.                           CANADA : COUNTRY
SRVC.                    Dresser Atlas : SERVICE COMPANY
DATE.                      30-Apr-1982 : LOGDATE
PROV.                          Alberta : PROVINCE
UWI .                 100160106122W500 : UNIQUE WELL ID
SLAT.WGS84                    54.25341 : SURFACE LATITUDE
SLON.WGS84                   -117.1518 : SURFACE LONGITUDE
~Curve Information -----------------------------------------
DEPT    .M                                                                               : DEPTH METERS
ACED    .US/M                                                                            : ACOUSTIC FROM SONIC LOG
CALDED  .MM                                                                              : CALIPER FROM DENSITY LOG [DEPTH SHIFTED TO RES.]
CALSED  .MM                                                                              : CALIPER FROM SONIC LOG
CALWS   .MM                                                                              : CALIPER [CALSED]
CONDWS  .MMHO                                                                            : CONDUCTIVITY [1000/DRESWS]
CORRED  .KG/M3                                                                           : DENSITY CORRECTION FROM DENSITY LOG [DEPTH SHIFTED TO RES.]
DCORWS  .KG/M3                                                                           : DENSITY CORRECTION [CORRED]
DENED   .KG/M3                                                                           : BULK DESNITY FROM DENSITY LOG [DEPTH SHIFTED TO RES.]
DENWS   .KG/M3 :   BULK DENSITY [SPLICE:DEN2/DENED@2425.9. DEN2 CALCULATED FROM DPHISSED : M=2650, F=1000]
DPHILSED.V/V                                                                             : DENSITY POROSITY LIMESTONE FROM DENSITY LOG [DEPTH SHIFTED TO RES.]
DPHISSED.V/V                                                                             : DENSITY POROSITY SANDSTONE FROM DENSITY LOG [DEPTH SHIFTED TO RES.]
DPOLSWS .V/V                       :   DENSITY POROSITY LIMESTONE [CALCULATED FROM DENWS : M=2710, F=1000]
DRESWS  .OHMM                                               :   DEEP RESISTIVITY [SPLICE : ILD_1ED/LLDED@2427.7]
DTWS    .US/M                                                                            : DELTA TIME [ACED]
GRDED   .GAPI                                                                            : GAMMA RAY FROM DENSITY LOG [DEPTH SHIFTED TO RES.]
GRR_1ED .GAPI                                                                            : GAMMA RAY FROM DILSFL LOG
GRRED   .GAPI                                                                            : GAMMA RAY FROM DUAL LATEROLOG
GRSED   .GAPI                                                                            : GAMMA RAY FROM SONIC LOG
GRWS    .GAPI                                                      :   GAMMA RAY [SPLICE : GRDED/GRRED@3091.8. CASED FROM 2420.5 TO 2429.5, AND ABOVE 434]
ILD_1ED .OHMM                                                                            : DEEP INDUCTION RESISTIVITY
ILM_1ED .OHMM                                                                            : MEDIUM INDUCTION RESISTIVITY
LLDED   .OHMM                                                                            : LATEROLOG DEEP RESISTIVITY [DEPTH SHIFTED TO RES.]
LLSED   .OHMM                                                                            : LATEROLOG SHALLOW RESISTIVITY [DEPTH SHIFTED TO RES.]
MRESWS  .OHMM                                                                            : MEDIUM RESISTIVITY [ILM_1ED]
NPHILSED.V/V                                                                             : NEUTRON POROSITY LIMESTONE FROM DENSITY LOG [DEPTH SHIFTED TO RES.]
NPHISSED.V/V                                                                             : NEUTRON POROSITY SANDSTONE FROM DENSITY LOG [DEPTH SHIFTED TO RES.]
NPOLSWS .V/V                                      :   NEUTRON POROSITY LIMESTONE [SPLICE : NPHI2/NPHILSED@2421.8. SEE BELOW REMARKS IN OTEHR INFORMATION REGARDING TEMPORARY CURVE NPHI2]
SFL_1ED .OHMM                                                                            : SPHERICALLY FOCUSED LOG RESISTIVITY
SPR_1ED .MV                                                                              : SPONTANEOUS POTENTIAL FROM DILSFL LOG
SPRED   .MV                                                                              : SPONTANEOUS POTENTIAL FROM DUAL LATEROLOG [DEPTH SHIFTED TO RES.]
SPWS    .MV                                                                              : SPONTANEOUS POTENTIAL [BASELINE 0 MV] [SPR_1ED]
SRESWS  .OHMM                                            :   SHALLOW RESISTIVITY [SPLICE : SFL_1ED/LLSED@2427.9, SFL_1ED@3697.8]
TENDED  .LBF                                                                             : TENSION FROM DENSITY LOG [DEPTH SHIFTED TO RES.]
TENRED  .LBF                                                                             : TENSION FROM DUAL LATEROLOG [DEPTH SHIFTED TO RES.]
TENSED  .LBF                                                                             : TENSION FROM SONIC LOG
~Params ----------------------------------------------------
PD  .                         GL : PERMANENT DATUM
EPD .M                     956.1 : ELEVATION PERMANENT DATUM
LMF .                         KB : LOG MEASURED FROM
DAPD.M                       7.7 : FEET ABOVE PERMANENT DATUM
DMF .                         KB : DRILLING MEASURED FROM
EKB .M                     963.8 : KELLY BUSHING
EGL .M                     956.1 : GROUND LEVEL
DATE.                   04/30/82 : RUN DATE
RUN .                          3 : RUN NUMBER
DD  .M                      3700 : DEPTH DRILLER
DL  .M                      3704 : DEPTH LOGGER
BLI .M                      3703 : BOTTOM LOG INTERVAL
TLI .M                      2429 : TOP LOG INTERVAL
CBD .M                      2430 : CASING BOTTOM DRILLER
CBL .M                      2429 : CASING BOTTOM LOGGER
BS  .MM                      216 : BIT SIZE
BSD .M                      3700 : BIT SIZE AT DEPTH
DFT .                  GEL BENEX : DRILLING FLUID TYPE
DFD .                       1100 : DRILLING FLUID DENSITY
DFV .                         55 : DRILLING FLUID VISCOSITY
DFPH.                        9.5 : DRILLING FLUID PH
DFL .                        8.5 : DRILLING FLUID LOSS
MSS .                   FLOWLINE : MUD SAMPLE SOURCE
RMS .OHMM                    1.1 : RESISTIVITY MUD SAMPLE
MST .DEGC                     20 : MUD SAMPLE TEMPERATURE
RMF .OHMM                    1.0 : RESISTIVITY MUD FILTRATE SAMPLE
MFST.DEGC                     20 : MUD FILTRATE SAMPLE TEMPERATURE
RMC .OHMM                    1.8 : RESISTIVITY MUD CAKE
MCST.DEGC                     20 : MUD CAKE SAMPLE TEMPERATURE
MFSS.                       MEAS : MUD FILTRATE SAMPLE SOURCE
MCSS.                       MEAS : MUD CAKE SAMPLE SOURCE
RMB .OHMM                   0.34 : RESISTIVITY MUD AT BHT
TCS .HRS                      20 : TIME CIRCULATED STOPPED
LUN .                    HL 6265 : LOGGING UNIT NUMBER
LUL .                        EDM : LOGGING UNIT LOCATION
ENGI.               MURRY WERNER : RECORDING ENGINEER
WITN.            PHILLIPS WILSON : WITNESSED BY
CLNT.                    A2DTECH : CLIENT CODE
ORIG. 6.5"/100M 16.5"/100M PRINT : ORIGIN OF DATA
UWI .           100160106122W500 : UNIQUE WELL ID
DICO.     A2D Technologies, Inc. : DIGITIZING COMPANY
~Other -----------------------------------------------------
1. CNLD TOOL DEPTH SHFITED TO RES. VIA SPLICE OF NPHISS AND NPHILS TO SFL_1. SHIFT APPLIED TO REST OF TOOL.
2. TEMPORARY CURVE NPHI2 (LIMESTONE) CALCULATED FROM NPHISSED, COMPANY=BAKER-HUGHES, TOOL TYPE=2420. INPUT MATRIX=QUARTZ, OUTPUT MATRIX=LIME. SPLICED NPHI2 TO NPHILSED TO MAKE NPOLSWS.
3. CALCUALTED DEN2 FROM DPHISSED M=2650, F=1000. SPLICED DEN2/DENED TO MAKE DENWS. CALUCLATED DPOLSWS FROM DENWS (M=2710, F=1000).
4. OTHER SHIFTING IN WELL WAS SLIGHT, WITH DUAL LATEROLOG TOOL SHFITED VIA LLS TO SFL_1.
5. WSR GAMMA RAY AND NEUTRON POROSITY CURVES TAKEN INTO CASING AS FAR AS POSSIBLE AS PER SPECS.
~ASCII -----------------------------------------------------
  450.00000  351.15120  380.58500  339.64030  339.64030  203.98590   76.40000   76.40000 1999.82080 1984.22500    -999.25    0.40350    0.42440    4.90230  351.15120   89.79310   71.43120    -999.25   71.69740   89.79310    4.90230    4.09770    -999.25    -999.25    4.09770    -999.25    0.38080    0.34080    6.32000  -48.64160    -999.25   -6.79260    6.32000   26.89500    -999.25  -17.89520
  500.00000  338.27760  393.65500  330.61750  330.61750  131.92440  105.55000  105.55000 2234.72830 2221.82500    -999.25    0.25950    0.28550    7.58010  338.27760   79.22010   63.81440    -999.25   62.78950   79.22010    7.58010    6.78360    -999.25    -999.25    6.78360    -999.25    0.40130    0.36130    8.98440  -47.27450    -999.25   -5.22630    8.98440  -23.24820    -999.25  -20.44960
  550.00000  299.93380  360.99500  322.32890  322.32890  112.48850  127.30000  127.30000 2157.17140 2151.53500    -999.25    0.30210    0.32660    8.88980  299.93380   99.35840   72.62200    -999.25   73.87060   99.35840    8.88980    8.16700    -999.25    -999.25    8.16700    -999.25    0.35530    0.31530    9.51380  -46.68960    -999.25   -4.44220    9.51380   22.55320    -999.25    1.43600
  600.00000  289.43190  330.69500  312.33890  312.33890   88.96560   32.65000   32.65000 2330.86570 2334.35500    -999.25    0.19130    0.21970   11.24030  289.43190   69.22020   53.65700    -999.25   53.16560   69.22020   11.24030   10.69000    -999.25    -999.25   10.69000    -999.25    0.30710    0.26710    9.86480  -47.54300    -999.25   -5.09640    9.86480   16.73360    -999.25   -0.81540
  650.00000  295.97650  380.72500  326.35690  326.35690  126.63040  106.00000  106.00000 2141.19650 2153.18500    -999.25    0.30110    0.32560    7.89700  295.97650   77.64730   62.90390    -999.25   62.03050   77.64730    7.89700    7.49470    -999.25    -999.25    7.49470    -999.25    0.32300    0.28300    7.91280  -46.00030    -999.25   -3.35450    7.91280   18.43080    -999.25   28.96260
  700.00000  273.99430  328.86750  315.12140  315.12140  103.16720   32.30000   32.30000 2256.09230 2313.40000    -999.25    0.20400    0.23190    9.69300  273.99430   80.65940   64.63410    -999.25   64.15750   80.65940    9.69300    9.01410    -999.25    -999.25    9.01410    -999.25    0.21170    0.17170    8.53920  -45.78150    -999.25   -2.93650    8.53920   39.09950    -999.25  -18.03020
  750.00000  384.70280  351.11000  314.13690  314.13690  432.05880   61.10000   61.10000 2014.05190 1970.86000    -999.25    0.41160    0.43220    2.31450  384.70280  110.89900   87.30620    -999.25   87.07640  110.89900    2.31450    2.16370    -999.25    -999.25    2.16370    -999.25    0.42870    0.38870    3.71430  -44.92390    -999.25   -1.87970    3.71430   21.36960    -999.25   -8.06100
  800.00000  319.32240  442.72250  331.30160  331.30160  194.27280   75.10000   75.10000 1683.98510 1684.91500    -999.25    0.58490    0.59950    5.14740  319.32240   86.81360   68.24080    -999.25   67.24990   86.81360    5.14740    4.82040    -999.25    -999.25    4.82040    -999.25    0.35260    0.31260    5.67590  -44.55540    -999.25   -1.31190    5.67590   90.15720    -999.25  -10.07360
  850.00000  308.27640  516.97000  328.59790  328.59790  187.52230   -6.85000   -6.85000 1614.34810 1634.59000    -999.25    0.61540    0.62890    5.33270  308.27640   90.21810   75.56480    -999.25   75.77810   90.21810    5.33270    4.75310    -999.25    -999.25    4.75310    -999.25    0.40620    0.36620    5.74740  -44.52940    -999.25   -1.58300    5.74740  -12.62080    -999.25   -4.85580
  900.00000  372.56810  375.57500  331.48440  331.48440  213.50190   77.20000   77.20000 2043.49820 2051.87500    -999.25    0.36250    0.38490    4.68380  372.56810   91.40460   79.55470    -999.25   80.32880   91.40460    4.68380    4.27950    -999.25    -999.25    4.27950    -999.25    0.35390    0.31390    5.67970  -42.72090    -999.25   -0.20020    5.67970   22.95680    -999.25  -18.11140
  950.00000  297.91490  455.59750  337.83000  337.83000  243.58760   42.25000   42.25000 1896.51490 1910.80000    -999.25    0.44800    0.46740    4.10530  297.91490   88.13010   71.86490    -999.25   72.89760   88.13010    4.10530    3.90980    -999.25    -999.25    3.90980    -999.25    0.31920    0.27920    5.18640  -42.93150    -999.25   -0.83660    5.18640   15.46050    -999.25  -51.10640
 1000.00000  321.04860  367.24500  325.72430  325.72430  215.28530   62.10000   62.10000 1901.14450 1878.13000    -999.25    0.46780    0.48650    4.64500  321.04860   85.19320   72.75290    -999.25   72.92020   85.19320    4.64500    4.47330    -999.25    -999.25    4.47330    -999.25    0.34200    0.30200    5.62030  -43.56400    -999.25   -1.75010    5.62030   19.31640    -999.25    6.45260
 1050.00000  300.41560  323.95500  312.66690  312.66690   79.57790   25.10000   25.10000 2343.19850 2347.22500    -999.25    0.18350    0.21210   12.56630  300.41560   60.43520   47.44660    -999.25   46.98830   60.43520   12.56630   13.78220    -999.25    -999.25   13.78220    -999.25    0.34490    0.30490   11.35710  -46.62640    -999.25   -4.81250   11.35710    7.65930    -999.25  -13.50220
 1100.00000  312.89720  401.98250  320.67830  320.67830  182.83540   64.90000   64.90000 2048.25070 2056.49500    -999.25    0.35970    0.38220    5.46940  312.89720   71.94660   56.09470    -999.25   55.68470   71.94660    5.46940    5.15980    -999.25    -999.25    5.15980    -999.25    0.36830    0.32830    6.74860  -44.16960    -999.25   -2.35570    6.74860   30.11340    -999.25   25.72640
 1150.00000  277.83030  331.11750  322.32860  322.32860  120.24720    8.90000    8.90000 2357.13450 2404.15000    -999.25    0.14900    0.17890    8.31620  277.83030   69.51180   59.00040    -999.25   58.94660   69.51180    8.31620   10.16590    -999.25    -999.25   10.16590    -999.25    0.26650    0.22650    9.19250  -42.82890    -999.25   -1.01500    9.19250   -0.52450    -999.25  -33.69860
 1200.00000  293.40340  326.50000  325.83540  325.83540  161.94860  -18.85000  -18.85000 2433.01510 2414.87500    -999.25    0.14250    0.17260    6.17480  293.40340   71.11980   61.19440    -999.25   59.47140   71.11980    6.17480    6.30480    -999.25    -999.25    6.30480    -999.25    0.36100    0.32100    6.61280  -44.34250    -999.25   -2.52860    6.61280   47.98820    -999.25   14.04720
 1250.00000  300.09190  327.03000  316.51210  316.51210  161.96950   20.80000   20.80000 2137.56880 2234.03500    -999.25    0.25210    0.27830    6.17400  300.09190   64.00840   56.77740    -999.25   55.51170   64.00840    6.17400    6.81370    -999.25    -999.25    6.81370    -999.25    0.33320    0.29320    7.71860  -47.22020    -999.25   -5.40630    7.71860   27.50590    -999.25  -25.97540
 1300.00000  249.93930  326.35000  326.94660  326.94660   69.30250  -28.20000  -28.20000 2338.94850 2380.39000    -999.25    0.16340    0.19280   14.42950  249.93930   52.15110   46.03060    -999.25   45.75330   52.15110   14.42950   15.13820    -999.25    -999.25   15.13820    -999.25    0.23630    0.19630   13.90900  -53.72940    -999.25  -10.55260   13.90900   16.50810    -999.25   38.19320
 1350.00000  266.05650  376.81750  330.00680  330.00680   97.76320   69.60000   69.60000 2011.56480 1983.23500    -999.25    0.40410    0.42500   10.22880  266.05650   93.93830   76.39740    -999.25   76.10220   93.93830   10.22880    9.97380    -999.25    -999.25    9.97380    -999.25    0.29860    0.25860    9.60690  -47.60130    -999.25   -2.38490    9.60690  -30.92330    -999.25  -27.84520
 1400.00000  287.20060  349.57750  326.06000  326.06000   86.59880   76.00000   76.00000 2040.69960 2050.22500    -999.25    0.36350    0.38580   11.54750  287.20060  118.91430  100.75140    -999.25  101.75980  118.91430   11.54750   11.96360    -999.25    -999.25   11.96360    -999.25    0.30400    0.26400   12.39030  -46.77120    -999.25   -0.92800   12.39030   27.28930    -999.25   38.06320
 1450.00000  267.49660  393.70000  328.87700  328.87700  101.47550   52.90000   52.90000 1842.97290 1824.50500    -999.25    0.50030    0.51780    9.85460  267.49660   96.28020   84.71940    -999.25   84.90410   96.28020    9.85460    9.41720    -999.25    -999.25    9.41720    -999.25    0.29820    0.25820    8.89020  -48.38290    -999.25   -1.91280    8.89020  -16.36730    -999.25  -25.33940
