~Version ---------------------------------------------------
VERS.      2.0 : CWLS log ASCII Standard -VERSION 2.0
WRAP.       NO : One line per depth step
CREA. 12/18/17 : LAS Creation Date
~Well ------------------------------------------------------
STRT.FT                                  950.0 : START DEPTH
STOP.FT                                 9350.0 : STOP DEPTH
STEP.FT                               50.00000 : STEP LENGTH
NULL.                                  -999.25 : NULL VALUE
COMP. THE BRITISH AMERICAN OIL COMPANY LIMITED : COMPANY
WELL.        B.A. EAST GOOSE RIVER 10-22-66-15 : WELL
FLD .                                          : FIELD
LOC .                                          : LOCATION
CTRY.                                   CANADA : COUNTRY
SRVC.                   Schlumberger of Canada : SERVICE COMPANY
DATE.                              16-Mar-1960 : LOGDATE
PROV.                                  Alberta : PROVINCE
UWI .                         100102206615W500 : UNIQUE WELL ID
SLAT.WGS84                            54.72873 : SURFACE LATITUDE
SLON.WGS84                           -116.1771 : SURFACE LONGITUDE
~Curve Information -----------------------------------------
DEPT  .FT         : Depth Curve
CALWS .IN         : CALIPER [MCALED]
CILDED.MMHO       : CONDUCTIVITY FROM RESISTIVITY LOG
CONDWS.MMHO       : CONDUCTIVITY [1000/DRESWS]
DRESWS.OHMM       : DEEP RESISTIVITY [1000/CILDED IF ILDED <=3.5, ILDED]
DTED  .US/F       : DELTA-T FROM SONIC LOG [ADJ. TO RESISTIVITY LOG]
DTWS  .US/F       : COMPRESSIONAL SONIC [DTED]
GRSED .UgRa-Eq/T  : GAMMA RAY FROM SONIC LOG [ADJ. TO RESISTIVITY LOG]
GRWS  .GAPI       : GAMMA RAY [GRSED*16.5]
ILDED .OHMM       : DEEP INDUCTION FROM RESISTIVITY LOG
MCALED.IN         : MLT  CALIPER FROM MICRO LOG
SNED  .OHMM       : SHORT NORMAL FROM RESISTIVITY LOG
SPRED .MV         : SPONTANEOUS POTENTIAL FROM RESISTIVITY LOG
SPWS  .MV         : SPONTANEOUS POTENTIAL [BASELINE 0 MV, SPRED]
SRESWS.OHMM       : SHALLOW RESISTIVITY [SNED]
~Params ----------------------------------------------------
LMF .                     KB : LOG MEASURED FROM
DMF .                     KB : DRILLING MEASURED FROM
EKB .FT                 3222 : KELLY BUSHING
EGL .FT                 3205 : GROUND LEVEL
DATE.               03/16/60 : RUN DATE
RUN .                      2 : RUN NUMBER
DD  .FT                 9370 : DEPTH DRILLER
DL  .FT                 9378 : DEPTH LOGGER
BLI .FT                 9373 : BOTTOM LOG INTERVAL
TLI .FT                 5000 : TOP LOG INTERVAL
CBD .FT                  975 : CASING BOTTOM DRILLER
BS  .IN                    9 : BIT SIZE
BSD .FT                 9370 : BIT SIZE AT DEPTH
DFT .                    GEL : DRILLING FLUID TYPE
DFD .                     10 : DRILLING FLUID DENSITY
DFV .                    120 : DRILLING FLUID VISCOSITY
DFPH.                     10 : DRILLING FLUID PH
DFL .                    6.2 : DRILLING FLUID LOSS
RMS .OHMM                2.8 : RESISTIVITY MUD SAMPLE
MST .DEGF                 59 : MUD SAMPLE TEMPERATURE
RMF .OHMM               1.41 : RESISTIVITY MUD FILTRATE SAMPLE
MFST.DEGF                 68 : MUD FILTRATE SAMPLE TEMPERATURE
RMC .OHMM               2.56 : RESISTIVITY MUD CAKE
MCST.DEGF                 67 : MUD CAKE SAMPLE TEMPERATURE
RMB .OHMM               0.94 : RESISTIVITY MUD AT BHT
TCS .HRS                 4.5 : TIME CIRCULATED STOPPED
LUN .                  1573C : LOGGING UNIT NUMBER
LUL .                     WC : LOGGING UNIT LOCATION
ENGI.              HAUSEGGER : RECORDING ENGINEER
WITN.                   COTE : WITNESSED BY
CLNT.                A2DTECH : CLIENT CODE
ORIG.            2" 5" PRINT : ORIGIN OF DATA
UWI .       100102206615W500 : UNIQUE WELL ID
DICO. A2D Technologies, Inc. : DIGITIZING COMPANY
~Other -----------------------------------------------------
IEL-BHC-MICRO LOG RUN
~ASCII -----------------------------------------------------
  950.00000    -999.25    -999.25    -999.25    -999.25    -999.25    -999.25    3.14780   51.93870    -999.25    -999.25    -999.25    -999.25    -999.25    -999.25
 1000.00000   11.27440  157.69410  159.11660    6.28470  122.59400  122.59400    3.64520   60.14580    6.28470   11.27440    6.62840 -218.82520   -2.85310    6.62840
 1050.00000    8.96190  128.09760  124.72870    8.01740  107.23010  107.23010    2.98760   49.29540    8.01740    8.96190    7.31330 -226.75320  -10.62480    7.31330
 1100.00000   13.67070  270.96480  275.69480    3.62720  131.04250  131.04250    4.06300   67.03950    3.62720   13.67070    3.42980 -216.94460   -2.50380    3.42980
 1150.00000   10.46750  260.52460  261.15800    3.82910  108.49550  108.49550    3.81560   62.95740    3.82910   10.46750    3.60150 -214.85160   -1.89380    3.60150
 1200.00000   15.88990  268.87820  272.70990    3.66690  129.91620  129.91620    4.20970   69.46000    3.66690   15.88990    3.89800 -213.77770   -1.40150    3.89800
 1250.00000   11.09520  270.17790  267.71610    3.73530  125.26790  125.26790    4.36980   72.10250    3.73530   11.09520    3.43040 -213.03780   -1.40030    3.43040
 1300.00000   11.23200  234.15940  229.34730    4.36020  130.38990  130.38990    4.10980   67.81090    4.36020   11.23200    5.55850 -212.40690   -1.21010    5.55850
 1350.00000   10.37260  190.06890  189.58780    5.27460  123.41100  123.41100    3.70300   61.09870    5.27460   10.37260    5.04600 -212.75580   -2.00260    5.04600
 1400.00000   12.75000  262.30600  260.79020    3.83450  122.93360  122.93360    3.81510   62.94920    3.83450   12.75000    4.08810 -212.04070   -1.72830    4.08810
 1450.00000    9.62030  155.74510  154.41630    6.47600  109.79280  109.79280    4.80290   79.24790    6.47600    9.62030    6.71090 -213.76270   -3.89390    6.71090
 1500.00000   11.55820  306.91300  306.91300    3.25830  118.24290  118.24290    4.74630   78.31480    3.30340   11.55820    2.87800 -210.87560   -1.44750    2.87800
 1550.00000   11.48640  265.91410  262.24690    3.81320  113.77750  113.77750    3.72550   61.47080    3.81320   11.48640    3.44160 -211.43530   -2.22880    3.44160
 1600.00000   12.01220  272.00980  263.93580    3.78880  119.92880  119.92880    4.24850   70.10030    3.78880   12.01220    3.51870 -211.03530   -1.73540    3.51870
 1650.00000    8.87130  188.70280  202.50290    4.93820  133.63460  133.63460    3.30240   54.49040    4.93820    8.87130    4.38140 -219.24000   -9.76610    4.38140
 1700.00000   10.51770  238.84140  221.30260    4.51870  117.91930  117.91930    4.34310   71.66030    4.51870   10.51770    4.22090 -212.43500   -2.78590    4.22090
 1750.00000    9.68770  253.97150  238.19160    4.19830  114.55860  114.55860    3.87520   63.94080    4.19830    9.68770    4.04760 -213.02650   -3.20340    4.04760
 1800.00000   10.60480  266.58570  260.90590    3.83280  124.96680  124.96680    3.81990   63.02840    3.83280   10.60480    3.65080 -212.14670   -2.14950    3.65080
 1850.00000   11.54970  197.27500  186.27520    5.36840  134.66170  134.66170    3.61000   59.56420    5.36840   11.54970    5.13770 -213.65360   -3.58300    5.13770
 1900.00000   11.48830  256.44870  253.24790    3.94870  127.71100  127.71100    3.82490   63.11080    3.94870   11.48830    3.53050 -211.15450   -1.35180    3.53050
 1950.00000    9.48290  119.63210  116.93310    8.55190  110.02170  110.02170    2.85140   47.04810    8.55190    9.48290    9.63680 -216.90810   -7.37510    9.63680
 2000.00000    9.52270  224.43290  208.03860    4.80680  118.90760  118.90760    2.84440   46.93260    4.80680    9.52270    4.57070 -213.91520   -4.65010    4.57070
 2050.00000   13.18360  309.24970  309.24970    3.23360  149.05960  149.05960    3.70430   61.12100    3.17590   13.18360    2.86250 -211.19680   -2.19960    2.86250
 2100.00000   10.21820  290.26070  280.17480    3.56920  125.10260  125.10260    3.29810   54.41870    3.56920   10.21820    3.38580 -210.52100   -1.79350    3.38580
 2150.00000    8.51800  212.56450  200.34060    4.99150  112.82470  112.82470    3.38290   55.81870    4.99150    8.51800    5.19630 -219.70390  -10.46560    5.19630
 2200.00000   10.20750  264.63310  252.52530    3.96000  126.39550  126.39550    3.43780   56.72370    3.96000   10.20750    3.74660 -211.11350   -1.32880    3.74660
 2250.00000   10.99540  277.35270  255.91810    3.90750  121.36600  121.36600    3.40590   56.19740    3.90750   10.99540    3.65120 -212.31930   -1.99180    3.65120
 2300.00000   12.21510  298.12020  298.12020    3.35440  119.50580  119.50580    3.47430   57.32590    3.37220   12.21510    3.65910 -212.13550   -1.26520    3.65910
 2350.00000    9.21590  163.32250  158.59930    6.30520  100.32940  100.32940    3.00860   49.64190    6.30520    9.21590    6.26540 -212.27270   -2.16850    6.26540
 2400.00000   10.13300  151.55270  149.21590    6.70170  114.49720  114.49720    2.64110   43.57810    6.70170   10.13300    7.17360 -216.62960   -6.99500    7.17360
 2450.00000   15.54840  252.22590  253.20300    3.94940  155.07530  155.07530    3.52880   58.22520    3.94940   15.54840    4.83450 -212.44940   -2.85930    4.83450
 2500.00000    9.17860   78.43650   78.50460   12.73810   90.29590   90.29590    2.46630   40.69400   12.73810    9.17860   12.09470 -215.00150   -5.45560   12.09470
 2550.00000    9.26140  104.17230  103.05350    9.70370   88.36340   88.36340    2.54920   42.06260    9.70370    9.26140   10.54480 -222.52160  -13.02000   10.54480
 2600.00000    9.48760  230.91530  219.17810    4.56250  108.38480  108.38480    3.87720   63.97300    4.56250    9.48760    4.44610 -211.34020   -1.88310    4.44610
 2650.00000   10.11870  233.03680  243.68850    4.10360  115.22080  115.22080    3.42320   56.48200    4.10360   10.11870    4.38090 -212.23460   -2.82170    4.38090
 2700.00000   10.67720  232.94460  228.92200    4.36830  114.74450  114.74450    3.54830   58.54690    4.36830   10.67720    4.60490 -210.49330   -1.12490    4.60490
 2750.00000   14.09690  171.17310  170.13170    5.87780  113.83640  113.83640    4.35390   71.83940    5.87780   14.09690    6.29190 -215.72200   -5.07160    6.29190
 2800.00000   15.57670  152.02090  150.48680    6.64510  111.91220  111.91220    4.53580   74.84070    6.64510   15.57670    6.87930 -217.04990   -4.44800    6.87930
 2850.00000   15.06200  175.67860  169.19900    5.91020  116.36780  116.36780    4.52060   74.58910    5.91020   15.06200    6.30330 -217.26830   -4.86650    6.30330
 2900.00000    9.71930  170.27220  169.54610    5.89810  116.70340  116.70340    8.31300  137.16450    5.89810    9.71930    7.49750 -209.39010   -2.18910    7.49750
 2950.00000   10.19910  138.02030  135.43900    7.38340  103.75800  103.75800    5.74610   94.81070    7.38340   10.19910    9.11370 -209.28820   -2.50490    9.11370
 3000.00000   14.99990  135.93710  137.05390    7.29640   90.06940   90.06940    4.31600   71.21400    7.29640   14.99990    7.75740 -212.23960   -4.09300    7.75740
 3050.00000   14.55900  162.28860  163.26800    6.12490  115.10570  115.10570    4.53210   74.77880    6.12490   14.55900    6.64850 -213.26940   -3.38420    6.64850
 3100.00000   14.50610  178.04530  175.54950    5.69640  114.45320  114.45320    4.61860   76.20690    5.69640   14.50610    6.19030 -213.94860   -3.15780    6.19030
 3150.00000   12.46340  130.21190  128.88590    7.75880  100.98120  100.98120    5.25650   86.73220    7.75880   12.46340    8.49130 -210.30580   -2.36030    8.49130
 3200.00000   14.73010  140.83040  138.42750    7.22400  107.47500  107.47500    5.23320   86.34780    7.22400   14.73010    7.38070 -212.54720   -4.05830    7.38070
 3250.00000   15.89950  138.44650  139.55760    7.16550  100.30220  100.30220    4.54290   74.95790    7.16550   15.89950    7.63120 -212.46480   -3.43590    7.63120
 3300.00000   14.21500  137.28590  137.58380    7.26830  110.46980  110.46980    4.61990   76.22840    7.26830   14.21500    7.66810 -213.50700   -3.93820    7.66810
 3350.00000   13.48260  143.47530  142.23130    7.03080   88.79090   88.79090    5.11880   84.46020    7.03080   13.48260    7.27440 -212.83250   -2.57250    7.27440
