~Version ---------------------------------------------------
VERS.      2.0 : CWLS log ASCII Standard -VERSION 2.0
WRAP.       NO : One line per depth step
CREA. 09/23/14 : LAS Creation Date
~Well ------------------------------------------------------
STRT.M                      450.0 : START DEPTH
STOP.M                     5050.0 : STOP DEPTH
STEP.M                   50.00000 : STEP LENGTH
NULL.                     -999.25 : NULL VALUE
COMP. SHELL CANADA RESOURCES LTD. : COMPANY
WELL.   SHELL STOLBERG 8-23-43-16 : WELL
FLD .                             : FIELD
LOC .                             : LOCATION
CTRY.                      CANADA : COUNTRY
SRVC.                Schlumberger : SERVICE COMPANY
DATE.                 31-Dec-1980 : LOGDATE
PROV.                     Alberta : PROVINCE
UWI .            100082304316W500 : UNIQUE WELL ID
SLAT.WGS84               52.72038 : SURFACE LATITUDE
SLON.WGS84              -116.2025 : SURFACE LONGITUDE
~Curve Information -----------------------------------------
DEPT     .M      : DEPTH METER
CALDED   .MM     : CALIPER FROM DENSITY LOG [ADJ. TO DILSFL LOG]
CALDRED  .MM     : CALIPER FROM DENSITY LOG ( REPEAT SECTION) [ADJ. TO DILSFL LOG]
CALSED   .MM     : CALIPER FROM SONIC LOG [ADJ. TO DILSFL LOG]
CALWS    .MM     : CALIPER [CALSED SPL. TO CALDED FROM (3800.6M-3811.2M)]
CILDED   .MMHO   : CONDUCTIVITY FROM DILSFL LOG
CONDWS   .MMHO   : CONDUCTIVITY [1000/DRESWS]
DCORED   .KG/M3  : DENSITY CORRECTION FROM DENSITY LOG [ADJ. TO DILSFL LOG]
DCORWS   .KG/M3  : DENSITY CORRECTION [DCORED]
DENWS    .KG/M3  : FORMATION BULK DENSITY [RHOBED SPL. TO CALC. DPHILSRED (F=2710, F=1000) FROM (3832 M - 3842.7 M)]
DPHILSED .V/V    : DENSITY POROSITY LIMESTONE [M=2710, F=1000] FROM DENSITY LOG [ADJ. TO DILSFL LOG]
DPHILSRED.V/V    : DENSITY POROSITY LIMESTONE [M=2710, F=1000] FROM DENSITY LOG ( REPEAT SECTION) [ADJ. TO DILSFL LOG]
DPHISSED .V/V    : DENSITY POROSITY SANDSTONE [M=2650, F=1000] FROM DENSITY LOG [ADJ. TO DILSFL LOG]
DPOLSWS  .V/V    : DENSITY POROSITY LIMESTONE [CALC. FROM DENWS, M=2710, F=1000]
DRESWS   .OHMM   : DEEP RESISTIVITY [ILDED SPL. TO ILDRED FROM (3833 M - 3854 M) & SPL. TO {1000/CILDED IF ILDED <1, ILDED  FROM (5018M TO FR )}]
DTED     .US/M   : DELTA-T FROM SONIC LOG [ADJ. TO DILSFL LOG]
DTWS     .US/M   : COMPRESSIONAL SONIC [DTED]
GRDED    .GAPI   : GAMMA RAY FROM DENSITY LOG [ADJ. TO DILSFL LOG]
GRDRED   .GAPI   : GAMMA RAY FROM DENSITY LOG ( REPEAT SECTION) [ADJ. TO DILSFL LOG]
GRR1ED   .GAPI   : GAMMA RAY FROM DLL LOG [ADJ. TO DILSFL LOG]
GRRED    .GAPI   : GAMMA RAY FROM DILSFL LOG
GRRRED   .GAPI   : GAMMA RAY FROM DILSFL LOG ( REPEAT SECTION) [ADJ. TO GRRED]
GRSED    .GAPI   : GAMMA RAY FROM SONIC LOG [ADJ. TO DILSFL LOG]
GRWS     .GAPI   : GAMMA RAY [GRSED SPL. TO GRDED (3790.5 M - 3809.5 M) & SPL. TO GRR1ED FROM (4607 M - 4620 M)]
ILDED    .OHMM   : DEEP INDUCTION RESISTIVITY FROM DILSFL LOG
ILDRED   .OHMM   : DEEP INDUCTION RESISTIVITY FROM DILSFL LOG ( REPEAT SECTION) [ADJ. TO ILDED]
ILMED    .OHMM   : MEDIUM INDUCTION RESISTIVITY FROM DILSFL LOG
ILMRED   .OHMM   : MEDIUM INDUCTION RESISTIVITY FROM DILSFL LOG( REPEAT SECTION) [ADJ. TO ILMED]
LLDED    .OHMM   : DEEP LATEROLOG RESISTIVITY FROM DLL LOG [ADJ. TO DILSFL LOG]
LLSED    .OHMM   : SHALLOW LATEROLOG RESISTIVITY FROM DLL LOG [ADJ. TO DILSFL LOG]
MRESWS   .OHMM   : MEDIUM RESISTIVITY [ILMED SPL. TO ILMRED FROM (3837 M - 3852 M)]
NPHILSED .V/V    : NEUTRON POROSITY LIMESTONE FROM DENSITY LOG [ADJ. TO DILSFL LOG]
NPHILSRED.V/V    : NEUTRON POROSITY LIMESTONE FROM DENSITY LOG ( REPEAT SECTION) [ADJ. TO DILSFL LOG]
NPHISSED .V/V    : NEUTRON POROSITY SANDSTONE FROM DENSITY LOG [ADJ. TO DILSFL LOG]
NPOLSWS  .V/V    : NEUTRON POROSITY LIMESTONE [NPHISSED CONVERTED INTO LIMESTONE MATRIX & SPL. TO NPHILSED @ 3600 M & SPL. TO NPHILSRED@ (3818 M - 3849 M)]
RHOBED   .KG/M3  : BULK DENSITY FROM DENSITY LOG [ADJ. TO DILSFL LOG]
SFLED    .OHMM   : SPHERICALLY FOCUSED RESISTIVITY FROM DILSFL LOG
SFLRED   .OHMM   : SPHERICALLY FOCUSED RESISTIVITY FROM DILSFL LOG ( REPEAT SECTION) [ADJ. TO SFLED]
SRESWS   .OHMM   : SHALLOW RESISTIVITY [SFLED SPL. TO SFLRED FROM (3833 M - 3852 M)]
~Params ----------------------------------------------------
PD  .                         GL : PERMANENT DATUM
EPD .M                      1268 : ELEVATION PERMANENT DATUM
LMF .                         KB : LOG MEASURED FROM
DAPD.M                        10 : FEET ABOVE PERMANENT DATUM
DMF .                         KB : DRILLING MEASURED FROM
EKB .M                      1278 : KELLY BUSHING
EGL .M                      1268 : GROUND LEVEL
DATE.                   12/31/80 : RUN DATE
RUN .                          3 : RUN NUMBER
DD  .M                    5075.6 : DEPTH DRILLER
DL  .M                      5070 : DEPTH LOGGER
BLI .M                      5068 : BOTTOM LOG INTERVAL
TLI .M                      3810 : TOP LOG INTERVAL
CS  .MM                      340 : CASING SIZE
CBD .M                      3810 : CASING BOTTOM DRILLER
CBL .M                      3810 : CASING BOTTOM LOGGER
BS  .MM                      215 : BIT SIZE
BSD .M                    5075.6 : BIT SIZE AT DEPTH
DFT .                 GEL BARITE : DRILLING FLUID TYPE
DFD .                       1250 : DRILLING FLUID DENSITY
DFV .                        133 : DRILLING FLUID VISCOSITY
DFPH.                       10.5 : DRILLING FLUID PH
DFL .                          9 : DRILLING FLUID LOSS
MSS .                   FLOWLINE : MUD SAMPLE SOURCE
RMS .OHMM                    0.8 : RESISTIVITY MUD SAMPLE
MST .DEGC                   24.4 : MUD SAMPLE TEMPERATURE
MFSS.               FILTER PRESS : MUD FILTRATE SAMPLE SOURCE
MCSS.               FILTER PRESS : MUD CAKE SAMPLE SOURCE
RMB .OHMM                   0.21 : RESISTIVITY MUD AT BHT
TCS .HRS                     930 : TIME CIRCULATED STOPPED
TLAB.HRS                     400 : TIME LOGGER AT BOTTOM
LUN .                       8063 : LOGGING UNIT NUMBER
LUL .                         RD : LOGGING UNIT LOCATION
ENGI.                JASTRZEBSKI : RECORDING ENGINEER
WITN.                        WAY : WITNESSED BY
CLNT.                    A2DTECH : CLIENT CODE
ORIG. 6.5"/100M 16.5"/100M PRINT : ORIGIN OF DATA
UWI .           100082304316W500 : UNIQUE WELL ID
DICO.     A2D Technologies, Inc. : DIGITIZING COMPANY
~Other -----------------------------------------------------
CNFD-DILSFL-DLL-BCS LOG RUN
RUN#2 : BCS-GR-DILSFL LOG RUN IM COMBOINATION
CNL RUN ONLY FROM 3761 M TO T.D
~ASCII -----------------------------------------------------
  450.00000    -999.25    -999.25    -999.25    -999.25    -999.25    -999.25    -999.25    -999.25    -999.25    -999.25    -999.25    -999.25    -999.25    -999.25    -999.25    -999.25    -999.25    -999.25    -999.25    -999.25    -999.25   18.31950   18.31950    -999.25    -999.25    -999.25    -999.25    -999.25    -999.25    -999.25    -999.25    -999.25    -999.25    -999.25    -999.25    -999.25    -999.25    -999.25
  500.00000  419.12380    -999.25  340.42560  340.42560    -999.25   44.13980  -15.58700  -15.58700 2541.44190    -999.25    -999.25    0.05850    0.09860   22.65530  230.03060  230.03060   51.68820    -999.25    -999.25   40.41200    -999.25   45.95610   45.95610   22.65530    -999.25   20.51270    -999.25    -999.25    -999.25   20.51270    -999.25    -999.25    -999.25    -999.25 2541.44190    -999.25    -999.25    -999.25
  550.00000  400.32480    -999.25  336.47010  336.47010    -999.25   58.83360  -37.68320  -37.68320 2557.82200    -999.25    -999.25    0.05790    0.08900   16.99710  247.25960  247.25960   61.49750    -999.25    -999.25   55.87320    -999.25   60.47600   60.47600   16.99710    -999.25   15.35930    -999.25    -999.25    -999.25   15.35930    -999.25    -999.25    -999.25    -999.25 2557.82200    -999.25    -999.25    -999.25
  600.00000  425.95120    -999.25  347.41290  347.41290    -999.25   79.46850   -4.22450   -4.22450 2474.26760    -999.25    -999.25    0.10150    0.13790   12.58360  270.45830  270.45830   77.28760    -999.25    -999.25   61.83890    -999.25   68.71700   68.71700   12.58360    -999.25   11.84250    -999.25    -999.25    -999.25   11.84250    -999.25    -999.25    -999.25    -999.25 2474.26760    -999.25    -999.25    -999.25
  650.00000  377.72740    -999.25  332.79470  332.79470    -999.25   43.32100  -25.49900  -25.49900 2533.99980    -999.25    -999.25    0.07280    0.10290   23.08350  220.89660  220.89660   48.58090    -999.25    -999.25   38.12850    -999.25   38.54760   38.54760   23.08350    -999.25   21.41580    -999.25    -999.25    -999.25   21.41580    -999.25    -999.25    -999.25    -999.25 2533.99980    -999.25    -999.25    -999.25
  700.00000  348.78060    -999.25  323.16250  323.16250    -999.25   39.10540   -8.36490   -8.36490 2441.71390    -999.25    -999.25    0.13050    0.15690   25.57190  253.37460  253.37460   53.53460    -999.25    -999.25   44.12170    -999.25   38.64990   38.64990   25.57190    -999.25   23.11820    -999.25    -999.25    -999.25   23.11820    -999.25    -999.25    -999.25    -999.25 2441.71390    -999.25    -999.25    -999.25
  750.00000  347.54190    -999.25  324.53020  324.53020    -999.25   66.44340  -23.56070  -23.56070 2514.89750    -999.25    -999.25    0.08360    0.11410   15.05040  282.32680  282.32680  104.13750    -999.25    -999.25   75.16820    -999.25   81.95330   81.95330   15.05040    -999.25   11.74370    -999.25    -999.25    -999.25   11.74370    -999.25    -999.25    -999.25    -999.25 2514.89750    -999.25    -999.25    -999.25
  800.00000  321.28230    -999.25  322.52260  322.52260    -999.25   81.01890  -10.24860  -10.24860 2621.24440    -999.25    -999.25    0.01820    0.05190   12.34280  261.13670  261.13670   74.01040    -999.25    -999.25   61.70300    -999.25   66.24470   66.24470   12.34280    -999.25   11.09890    -999.25    -999.25    -999.25   11.09890    -999.25    -999.25    -999.25    -999.25 2621.24440    -999.25    -999.25    -999.25
  850.00000  326.69730    -999.25  315.14570  315.14570    -999.25   24.91060  -11.46000  -11.46000 2447.44820    -999.25    -999.25    0.11930    0.15350   40.14350  252.25110  252.25110   44.02430    -999.25    -999.25   35.70580    -999.25   36.96330   36.96330   40.14350    -999.25   38.23900    -999.25    -999.25    -999.25   38.23900    -999.25    -999.25    -999.25    -999.25 2447.44820    -999.25    -999.25    -999.25
  900.00000  360.61810    -999.25  313.78390  313.78390    -999.25   51.61770   -9.84980   -9.84980 2643.36720    -999.25    -999.25    0.00170    0.03900   19.37320  265.64190  265.64190   93.59920    -999.25    -999.25   72.57440    -999.25   73.94210   73.94210   19.37320    -999.25   17.38660    -999.25    -999.25    -999.25   17.38660    -999.25    -999.25    -999.25    -999.25 2643.36720    -999.25    -999.25    -999.25
  950.00000  320.96920    -999.25  311.30880  311.30880    -999.25   83.19190  -12.17560  -12.17560 2538.70090    -999.25    -999.25    0.06870    0.10020   12.02040  255.92430  255.92430   70.23290    -999.25    -999.25   54.03820    -999.25   59.98040   59.98040   12.02040    -999.25   11.19780    -999.25    -999.25    -999.25   11.19780    -999.25    -999.25    -999.25    -999.25 2538.70090    -999.25    -999.25    -999.25
 1000.00000  332.08240    -999.25  315.27150  315.27150    -999.25   77.06480  -11.15350  -11.15350 2473.84640    -999.25    -999.25    0.10530    0.13810   12.97610  286.72780  286.72780  100.07690    -999.25    -999.25   73.36300    -999.25   76.20870   76.20870   12.97610    -999.25   12.53810    -999.25    -999.25    -999.25   12.53810    -999.25    -999.25    -999.25    -999.25 2473.84640    -999.25    -999.25    -999.25
 1050.00000  325.31890    -999.25  315.81510  315.81510    -999.25   86.60560  -13.40590  -13.40590 2560.45970    -999.25    -999.25    0.05510    0.08750   11.54660  259.48820  259.48820   84.23700    -999.25    -999.25   68.48010    -999.25   81.16140   81.16140   11.54660    -999.25   10.88810    -999.25    -999.25    -999.25   10.88810    -999.25    -999.25    -999.25    -999.25 2560.45970    -999.25    -999.25    -999.25
 1100.00000  335.41080    -999.25  317.91550  317.91550    -999.25   36.59910  -37.06950  -37.06950 2517.39670    -999.25    -999.25    0.08230    0.11260   27.32310  244.93810  244.93810   46.96640    -999.25    -999.25   32.91040    -999.25   39.29070   39.29070   27.32310    -999.25   26.31380    -999.25    -999.25    -999.25   26.31380    -999.25    -999.25    -999.25    -999.25 2517.39670    -999.25    -999.25    -999.25
 1150.00000  332.99360    -999.25  327.31610  327.31610    -999.25  122.24190   -7.63000   -7.63000 2503.51610    -999.25    -999.25    0.09050    0.12080    8.18050  282.82200  282.82200   96.47760    -999.25    -999.25   69.88070    -999.25   71.52290   71.52290    8.18050    -999.25    7.72480    -999.25    -999.25    -999.25    7.72480    -999.25    -999.25    -999.25    -999.25 2503.51610    -999.25    -999.25    -999.25
 1200.00000  336.14420    -999.25  314.95360  314.95360    -999.25   39.83980   -8.81160   -8.81160 2489.33130    -999.25    -999.25    0.09600    0.12900   25.10050  232.30130  232.30130   54.80770    -999.25    -999.25   41.09930    -999.25   46.20200   46.20200   25.10050    -999.25   23.47230    -999.25    -999.25    -999.25   23.47230    -999.25    -999.25    -999.25    -999.25 2489.33130    -999.25    -999.25    -999.25
 1250.00000  324.98970    -999.25  313.86440  313.86440    -999.25   57.53210    3.41840    3.41840 2522.04150    -999.25    -999.25    0.07720    0.10990   17.38160  233.14680  233.14680   62.94090    -999.25    -999.25   46.38670    -999.25   56.42520   56.42520   17.38160    -999.25   16.32190    -999.25    -999.25    -999.25   16.32190    -999.25    -999.25    -999.25    -999.25 2522.04150    -999.25    -999.25    -999.25
 1300.00000  318.98900    -999.25  330.35420  330.35420    -999.25   99.86720   -7.35170   -7.35170 2541.75590    -999.25    -999.25    0.06680    0.09840   10.01330  270.09080  270.09080   81.16310    -999.25    -999.25   60.68010    -999.25   59.42450   59.42450   10.01330    -999.25    9.14680    -999.25    -999.25    -999.25    9.14680    -999.25    -999.25    -999.25    -999.25 2541.75590    -999.25    -999.25    -999.25
 1350.00000  317.54850    -999.25  325.07450  325.07450    -999.25   73.50290   -7.38590   -7.38590 2550.87260    -999.25    -999.25    0.06080    0.09310   13.60490  250.38530  250.38530   90.44060    -999.25    -999.25   76.60120    -999.25   77.80960   77.80960   13.60490    -999.25   12.96840    -999.25    -999.25    -999.25   12.96840    -999.25    -999.25    -999.25    -999.25 2550.87260    -999.25    -999.25    -999.25
