~Version ---------------------------------------------------
VERS. 2.0 : CWLS log ASCII Standard -VERSION 2.0
WRAP.  NO : ONE LINE PER DEPTH STEP
~Well ------------------------------------------------------
STRT.F                        1050.0 : START DEPTH
STOP.F                       11000.0 : STOP DEPTH
STEP.F                      50.00000 : STEP LENGTH
NULL.                        -999.25 : NULL VALUE
COMP.           PETROFINA CANADA LTD : COMPANY
WELL. FINA AMOCO HB GROAT 10-9-58-16 : WELL
FLD .                             WC : FIELD
LOC .                                : LOCATION
CTRY.                         CANADA : COUNTRY
SRVC.         Schlumberger of Canada : SERVICE COMPANY
DATE.                    08-Apr-1977 : LOGDATE
PROV.                        Alberta : PROVINCE
UWI .               100100905816W500 : UNIQUE WELL ID
SLAT.WGS84                  54.00097 : SURFACE LATITUDE
SLON.WGS84                 -116.3132 : SURFACE LONGITUDE
~Curve Information -----------------------------------------
DEPT   .F                 : 
GRS    .GAPI 60 310 01 00 : GAMMA RAY FROM SONIC LOG
DT     .US/F 60 500 00 00 : DELTA-T (INTERVAL TRANSIT TIME)
CALS   .IN   60 280 50 00 : CALIPER FROM SONIC LOG
SPR    .MV   07 010 01 00 : SPONTANEOUS POTENTIAL FROM RESISTIVITY LOG
ILD    .OHMM 07 120 46 00 : INDUCTION DEEP RESISTIVITY
ILM    .OHMM 07 120 44 00 : INDUCTION MEDIUM RESISTIVITY
LL8    .OHMM 07 220 08 00 : LATEROLOG 8
CALD   .IN   45 280 60 00 : CALIPER FROM DENSITY LOG
DCOR   .G/C3 45 356 01 00 : DENSITY CORRECTION
GRD    .GAPI 45 310 01 00 : GAMMA RAY FROM DENSITY LOG
RHOB   .G/C3 45 350 01 00 : BULK DENSITY
NPHI_SS.DEC  42 890 03 00 : NEUTRON POROSITY SANDSTONE
DPHI_SS.DEC  45 890 12 00 : DENSITY POROSITY SANDSTONE
NPHI_LS.DEC  42 890 01 00 : NEUTRON POROSITY LIMESTONE
DPHI_LS.DEC  45 890 10 00 : DENSITY POROSITY LIMESTONE
~Params ----------------------------------------------------
PD  .                     GL : PERMANENT DATUM
EPD .FT               3310.2 : ELEVATION PERMANENT DATUM
LMF .                     KB : LOG MEASURED FROM
DAPD.FT                 13.5 : FEET ABOVE PERMANENT DATUM
EKB .FT                 3324 : KELLY BUSHING
EGL .FT               3310.2 : GROUND LEVEL
DATE.               04/08/77 : RUN DATE
RUN .                      1 : RUN NUMBER
DD  .FT                11000 : DEPTH DRILLER
DL  .FT                11005 : DEPTH LOGGER
BLI .FT                10999 : BOTTOM LOG INTERVAL
TLI .FT                 1159 : TOP LOG INTERVAL
CBD .FT                 1159 : CASING BOTTOM DRILLER
CBL .FT                 1159 : CASING BOTTOM LOGGER
BS  .IN                 8.75 : BIT SIZE
BSD .FT                11000 : BIT SIZE AT DEPTH
DFT .                    GEL : DRILLING FLUID TYPE
DFD .                    9.2 : DRILLING FLUID DENSITY
DFV .                    245 : DRILLING FLUID VISCOSITY
DFPH.                     10 : DRILLING FLUID PH
DFL .                    7.2 : DRILLING FLUID LOSS
MSS .               FLOWLINE : MUD SAMPLE SOURCE
RMS .OHMM               2.52 : RESISTIVITY MUD SAMPLE
MST .DEGF                 56 : MUD SAMPLE TEMPERATURE
RMF .OHMM               2.35 : RESISTIVITY MUD FILTRATE SAMPLE
MFST.DEGF                 50 : MUD FILTRATE SAMPLE TEMPERATURE
TCS .HRS                 3.5 : TIME CIRCULATED STOPPED
LUN .                   7809 : LOGGING UNIT NUMBER
LUL .                    EDM : LOGGING UNIT LOCATION
ENGI.               BERNISKY : RECORDING ENGINEER
WITN.                 HALKOW : WITNESSED BY
CLNT.                A2DTECH : CLIENT CODE
ORIG.            2" 5" PRINT : ORIGIN OF DATA
UWI .       100100905816W500 : UNIQUE WELL ID
DICO. A2D Technologies, Inc. : DIGITIZING COMPANY
~Other -----------------------------------------------------
~ASCII -----------------------------------------------------
# ...
 7950.00000   21.41760   49.83530    9.22100  -71.78040  161.29900  195.96120  214.03060    9.21450    0.03480   23.41020    2.73770    -999.25    -999.25    0.02340    0.00820
 8000.00000   28.76730   51.97250    9.20940  -44.83710   60.82310   77.85800  126.06310    9.28540    0.12140   22.37620    2.76430    -999.25    -999.25    0.02970   -0.02790
 8050.00000   33.74730   52.10130    9.05970  -55.37300   44.17690   46.77110   65.14920    8.99920    0.02140   43.12540    2.69180    -999.25    -999.25    0.04170    0.00450
 8100.00000   27.93750   52.26590    8.91580  -73.04170  192.38560  264.03780  314.75280    8.84320    0.05530   28.62040    2.69300    -999.25    -999.25    0.03110    0.02680
 8150.00000   40.96840   55.01970    9.02280  -57.44320   65.76780   74.87920   87.40910    8.85810    0.00980   42.71270    2.64890    -999.25    -999.25    0.05990    0.03780
 8200.00000   55.93350   56.86370    9.05000  -51.59020   28.08520   31.00800   47.00570    8.89330    0.00940   57.26500    2.66320    -999.25    -999.25    0.07990    0.01430
 8250.00000   42.16300   52.11480    8.85380  -72.31130  425.26070 1329.54930  917.36430    8.80240    0.02680   56.27360    2.68540    -999.25    -999.25    0.06440    0.00890
 8300.00000   32.70980   53.63360    8.88030  -81.17430   44.31740   50.67670   52.15100    8.80790   -0.00350   48.68070    2.69220    -999.25    -999.25    0.07430   -0.00090
 8350.00000   28.78940   50.62770    8.78720  -95.99730  290.44100  423.32920  400.90140    8.94260    0.01550   36.07230    2.69330    -999.25    -999.25    0.05630    0.03770
 8400.00000   14.10250   48.23950    9.26780 -133.20320 1352.08460 1549.94730 1500.80860   10.11350    0.24980   11.78680    2.76910    -999.25    -999.25    0.02000    0.00480
 8450.00000   11.44100   48.14410    9.41830 -155.11980 1520.31360 1317.96040 1202.77190   10.32520    0.24820   11.45510    2.55270    -999.25    -999.25    0.01160    0.08470
 8500.00000   12.33470   48.14980    9.40880 -157.98190  400.80700  192.78100  309.29790   10.39880    0.18420    7.30640    2.59530    -999.25    -999.25    0.00330    0.05050
 8550.00000   14.31960   51.40390    9.49020 -137.62040  268.34310  284.20840  360.57480   11.50930    0.18620   12.16440    2.53960    -999.25    -999.25    0.02270    0.10440
 8600.00000   12.36990   51.15970   10.05840 -163.20180 1564.22330 1354.40690 1490.86900   11.99240    0.15970   10.97500    2.46370    -999.25    -999.25    0.01600    0.13370
 8650.00000   11.06560   47.16170    9.04070 -150.86010   88.36420   95.11720  297.76560    8.86070    0.02270    5.87330    2.63770    -999.25    -999.25    0.00840    0.02890
 8700.00000   12.64100   49.24280    9.57830 -147.91680  302.85870  895.90790  551.71010   11.64190    0.22600   12.36880    2.56240    -999.25    -999.25    0.01060    0.07100
 8750.00000   15.90870   49.52190    9.39810 -150.16230  473.70950  391.87370  362.98060   11.48460    0.21620   13.29300    2.57130    -999.25    -999.25    0.01190    0.09350
 8800.00000    8.88340   48.21900    9.26490 -146.72870  113.62650  119.20390  144.06840   10.15330    0.19590   11.40810    2.72400    -999.25    -999.25    0.01210    0.00600
 8850.00000    5.97140   50.09580    9.09390 -183.31090   25.79930   32.73130  149.76070    9.08970    0.13140    7.92160    2.64570    -999.25    -999.25    0.03470    0.04710
 8900.00000    5.92040   49.33210    9.47510 -142.69090   78.87670   92.11920  140.49510    9.47540    0.01460    7.17410    2.67410    -999.25    -999.25    0.00850    0.01310
 8950.00000    8.42860   46.28730    9.22820 -142.59380   87.46220  112.88660  135.51050    9.74720    0.14920    8.85010    2.70680    -999.25    -999.25    0.01460   -0.00690
 9000.00000   13.91070   49.10320    9.44860 -135.06070  106.36010   84.96030  231.85970   12.28070    0.26340   16.54580    2.38920    -999.25    -999.25    0.07110    0.15340
 9050.00000   12.33820   48.62670    8.68090 -142.57170   27.55100   57.81430  349.63900    8.44440    0.19700   17.80450    2.69060    -999.25    -999.25    0.09450    0.00990
 9100.00000   48.64310   53.09600    9.14640  -96.11570   17.36410   18.34450   17.56320    9.13560    0.10420   73.43180    2.68000    -999.25    -999.25    0.07940    0.00290
 9150.00000   22.72450   51.40120    9.43560 -119.61330   50.22670   41.53600   61.42480   11.34610    0.22720   18.61230    2.56760    -999.25    -999.25    0.08980    0.08320
 9200.00000   18.35060   49.24120    8.85350 -127.02850   37.05160   75.07530  140.94930    9.30530    0.18000   18.22060    2.68950    -999.25    -999.25    0.10570    0.01830
 9250.00000   21.15400   46.43240    9.30070 -116.07130   53.99790   57.40330   65.50810   12.22960    -999.25   25.60280    2.58180    -999.25    -999.25    0.07390    0.10060
 9300.00000   30.07060   52.74010    9.02280  -49.34380  132.96150  177.79930  187.55510    9.08550    0.02020   34.67130    2.71180    -999.25    -999.25    0.04090    0.02460
 9350.00000   28.10400   52.67450    9.03980  -45.53160  111.24660  157.89330  168.54220    8.99400    0.02230   29.64970    2.71550    -999.25    -999.25    0.03810   -0.00200
 9400.00000   48.91820   57.22400    9.38850  -28.42490   20.57530   22.77340   25.72560    9.45450   -0.00420   49.63410    2.69010    -999.25    -999.25    0.09200    0.01020
 9450.00000   65.43170   59.20540    9.22310  -32.17870   14.10420   15.51060   20.16810    9.15150    0.01510   67.57900    2.70050    -999.25    -999.25    0.13660    0.00690
 9500.00000   52.98600   58.54690    9.24630  -33.19590   19.49110   22.19290   27.67770    9.17260    0.00750   57.11630    2.67710    -999.25    -999.25    0.10560    0.00690
 9550.00000   64.86450   62.51820    9.18720  -29.37320   12.04750   13.76280   17.20420    9.21670    0.01060   66.29220    2.66200    -999.25    -999.25    0.14250    0.02000
 9600.00000   61.28310   61.64870    9.36520  -25.26040   13.87440   15.77850   19.95080    9.41280    0.00680   65.65840    2.67710    -999.25    -999.25    0.13770    0.00090
 9650.00000   79.55510   62.38300    9.15260  -22.54720   32.34900   40.13170   50.22630    9.17780   -0.00340   77.97930    2.62890    -999.25    -999.25    0.16420    0.04240
 9700.00000   47.57830   57.43900    9.76230  -22.30760   11.52650   15.30270   55.64370   11.27480    0.22730   71.51210    2.63570    -999.25    -999.25    0.10610    0.07300
 9750.00000   82.63070   60.59330   10.41560  -32.42870    7.54600    7.59830   11.38960   12.19820    0.26210  108.13490    2.38240    -999.25    -999.25    0.22030    0.13540
 9800.00000   79.39440   63.63730    9.25500  -19.66670   20.54070   24.90490   56.54950    9.62110    0.19090   92.30400    2.60990    -999.25    -999.25    0.14340    0.09120
 9850.00000   90.42770   65.92900    9.41800  -21.59970   11.03970   11.84660   15.54390    9.96000    0.22880   91.78120    2.63690    -999.25    -999.25    0.17030    0.02950
 9900.00000   66.60230   61.03230    9.17290  -19.76980   16.85600   19.67670   23.59070    9.56700    0.18400   56.32020    2.72120    -999.25    -999.25    0.10720    0.01760
 9950.00000  109.72340   72.25880    9.54700  -23.09060    7.66850    8.25510   10.56140   10.47560    0.26290  106.56300    2.50940    -999.25    -999.25    0.22180    0.15530
 10000.00000  108.29930   70.77560    9.38470  -22.63200    8.51330    9.44550   12.21770   10.06270    -999.25  105.79590    2.60600    -999.25    -999.25    0.21110    0.03250
 10050.00000  108.84150   69.68110    8.79380  -18.33340   12.66580   15.14250   21.39660    8.94970    0.00520  108.28940    2.62320    -999.25    -999.25    0.20050    0.05230
 10100.00000   39.61640   50.09900    8.86520  -30.18560   54.18300   94.36730 1499.91000    9.24560    0.21270   28.59440    2.70010    -999.25    -999.25    0.08200    0.05390
 10150.00000   24.57970   53.46990    8.79270  -49.23500 1372.97960 1006.61170 1310.41830    9.75450    0.21650   61.49460    2.64920    -999.25    -999.25    0.04540    0.06910
 10200.00000   64.50210   52.09630    8.72190  -54.84740  181.51690  214.57280  288.08530    9.88570    0.13580   86.11380    2.56680    -999.25    -999.25    0.03610    0.03930
