~Version ---------------------------------------------------
VERS.      2.0 : CWLS log ASCII Standard -VERSION 2.0
WRAP.       NO : One line per depth step
CREA. 01/03/18 : LAS Creation Date
~Well ------------------------------------------------------
STRT.FT                      800.0 : START DEPTH
STOP.FT                     8150.0 : STOP DEPTH
STEP.FT                   50.00000 : STEP LENGTH
NULL.                      -999.25 : NULL VALUE
COMP.          TOTAL PETROLEUM LTD : COMPANY
WELL. TOTAL PCP KINAKIN 16-27-63-9 : WELL
FLD .                              : FIELD
LOC .                              : LOCATION
CTRY.                       CANADA : COUNTRY
SRVC.                 Schlumberger : SERVICE COMPANY
DATE.                  08-Mar-1974 : LOGDATE
PROV.                      Alberta : PROVINCE
UWI .             100162706309W500 : UNIQUE WELL ID
SLAT.WGS84                54.48436 : SURFACE LATITUDE
SLON.WGS84               -115.2648 : SURFACE LONGITUDE
~Curve Information -----------------------------------------
DEPT    .FT    : Depth Curve
CALDED  .IN    : CALIPER CNFD (ADJ TO RES.)
CALSED  .IN    : CALIPER SONIC (ADJ TO RES.)
CALWS   .IN    : CALIPER [CALSED]
CONDWS  .MMHO  : CONDUCTIVITY (1000/DRESWS)
DCORWS  .G/C3  : DENSITY CORRECTION (DRHOED)
DENWS   .G/C3  : BULK DENSITY  (RHOBED)
DPHILSED.V/V   : DENSITY POROSITY LIMESTONE (ADJ TO RES.)
DPHISSED.V/V   : DENSITY POROSITY SANDSTONE (ADJ TO RES.)
DPOLSWS .V/V   : DENSITY POROSITY (M=2.71 F=1.00 FROM DENWS)
DRESWS  .OHMM  : DEEP RESISTIVITY (ILDED)
DRHOED  .G/C3  : DENSITY CORRECTION
DTED    .US/F  : DELTA TIME
DTWS    .US/F  : DELTA TIME (DTED)
GRDED   .GAPI  : GAMMA RAY CNFD (ADJ TO RES.)
GRSED   .GAPI  : GAMMA RAY SONIC (ADJ TO RES.)
GRWS    .GAPI  : GAMMA RAY (GRSED)
ILDED   .OHMM  : DEEP INDUCTION RESISTIVITY
ILMED   .OHMM  : MEDIUM INDUCTION RESISTIVITY
LL8ED   .OHMM  : LATEROLOG-8 RESISTIVITY
MRESWS  .OHMM  : MEDIUM RESISTIVITY (ILMED)
NPHILSED.V/V   : NEUTRON POROSITY LIMESTONE (ADJ TO RES.)
NPHISSED.V/V   : NEUTRON POROSITY SANDSTONE (ADJ TO RES.)
NPOLSWS .V/V   : NEUTRON POROSITY LIMESTONE (NPHISSED CONVERTED TO LS/NPHILSED @ 4396')
RHOBED  .G/C3  : BULK DENSITY
SPRED   .MV    : Spontaneous Potential  DIL
SPWS    .MV    : SPONTANEOUS POTENTIAL BASELINE 0 MV (SPRED)
SRESWS  .OHMM  : SHALLOW RESISTIVITY (LL8ED)
~Params ----------------------------------------------------
PD  .                     GL : PERMANENT DATUM
EPD .FT               2924.5 : ELEVATION PERMANENT DATUM
LMF .                     KB : LOG MEASURED FROM
DAPD.FT                 13.5 : FEET ABOVE PERMANENT DATUM
EKB .FT                 2938 : KELLY BUSHING
EGL .FT               2924.5 : GROUND LEVEL
DATE.               03/08/74 : RUN DATE
RUN .                      1 : RUN NUMBER
DD  .FT                 8170 : DEPTH DRILLER
DL  .FT                 8169 : DEPTH LOGGER
BLI .FT                 8163 : BOTTOM LOG INTERVAL
TLI .FT                  836 : TOP LOG INTERVAL
CBD .FT                  835 : CASING BOTTOM DRILLER
BS  .IN                 8.75 : BIT SIZE
BSD .FT                 8170 : BIT SIZE AT DEPTH
DFT .               GEL CHEM : DRILLING FLUID TYPE
DFD .                    9.0 : DRILLING FLUID DENSITY
DFV .                     78 : DRILLING FLUID VISCOSITY
DFPH.                     10 : DRILLING FLUID PH
DFL .                    7.8 : DRILLING FLUID LOSS
MSS .             CALCULATED : MUD SAMPLE SOURCE
RMF .OHMM               1.34 : RESISTIVITY MUD FILTRATE SAMPLE
MFST.DEGF                 62 : MUD FILTRATE SAMPLE TEMPERATURE
RMB .OHMM               0.64 : RESISTIVITY MUD AT BHT
TCS .HRS                   3 : TIME CIRCULATED STOPPED
LUN .                   7692 : LOGGING UNIT NUMBER
LUL .                    EDM : LOGGING UNIT LOCATION
ENGI.                   WOON : RECORDING ENGINEER
WITN.              MACKENZIE : WITNESSED BY
CLNT.                A2DTECH : CLIENT CODE
ORIG.            2" 5" PRINT : ORIGIN OF DATA
UWI .       100162706309W500 : UNIQUE WELL ID
DICO. A2D Technologies, Inc. : DIGITIZING COMPANY
~Other -----------------------------------------------------
~ASCII -----------------------------------------------------
# ...
 3400.00000    -999.25   10.78440   10.78440  201.42610    -999.25    -999.25    -999.25    -999.25    -999.25    4.96460    -999.25   96.14820   96.14820    -999.25  103.26660  103.26660    4.96460    4.66820    5.29390    4.66820    -999.25    -999.25    -999.25    -999.25  -63.03880   -4.83110    5.29390
 3450.00000    -999.25   10.93570   10.93570  219.60170    -999.25    -999.25    -999.25    -999.25    -999.25    4.55370    -999.25  100.99320  100.99320    -999.25  106.38140  106.38140    4.55370    4.25740    5.16690    4.25740    -999.25    -999.25    -999.25    -999.25  -59.82870   -2.07660    5.16690
 3500.00000    -999.25   10.22720   10.22720  184.25370    -999.25    -999.25    -999.25    -999.25    -999.25    5.42730    -999.25   96.50290   96.50290    -999.25  103.23740  103.23740    5.42730    5.03130    5.80480    5.03130    -999.25    -999.25    -999.25    -999.25  -62.25150   -4.95040    5.80480
 3550.00000    -999.25   10.14170   10.14170  127.34470    -999.25    -999.25    -999.25    -999.25    -999.25    7.85270    -999.25   95.58990   95.58990    -999.25  100.74860  100.74860    7.85270    7.31970    7.74390    7.31970    -999.25    -999.25    -999.25    -999.25  -64.88940   -8.04160    7.74390
 3600.00000    -999.25   11.41310   11.41310  207.50760    -999.25    -999.25    -999.25    -999.25    -999.25    4.81910    -999.25   94.76650   94.76650    -999.25  103.61440  103.61440    4.81910    4.61180    5.58290    4.61180    -999.25    -999.25    -999.25    -999.25  -60.38650   -3.99210    5.58290
 3650.00000    -999.25   10.68730   10.68730  213.40160    -999.25    -999.25    -999.25    -999.25    -999.25    4.68600    -999.25   97.36890   97.36890    -999.25  120.07320  120.07320    4.68600    4.30050    5.32080    4.30050    -999.25    -999.25    -999.25    -999.25  -61.83670   -5.89560    5.32080
 3700.00000    -999.25   11.02420   11.02420  373.60150    -999.25    -999.25    -999.25    -999.25    -999.25    2.67670    -999.25  111.36470  111.36470    -999.25  127.29090  127.29090    2.67670    2.54860    3.32780    2.54860    -999.25    -999.25    -999.25    -999.25  -56.95670   -1.47120    3.32780
 3750.00000    -999.25   10.71680   10.71680  509.91790    -999.25    -999.25    -999.25    -999.25    -999.25    1.96110    -999.25  119.41170  119.41170    -999.25  104.40230  104.40230    1.96110    1.80660    2.47510    1.80660    -999.25    -999.25    -999.25    -999.25  -60.70160   -5.66710    2.47510
 3800.00000    -999.25   10.45510   10.45510  308.78490    -999.25    -999.25    -999.25    -999.25    -999.25    3.23850    -999.25   97.63420   97.63420    -999.25   94.60010   94.60010    3.23850    3.10520    3.68230    3.10520    -999.25    -999.25    -999.25    -999.25  -57.03490   -2.45380    3.68230
 3850.00000    -999.25   11.13940   11.13940  268.98350    -999.25    -999.25    -999.25    -999.25    -999.25    3.71770    -999.25  100.44400  100.44400    -999.25  104.00200  104.00200    3.71770    3.56710    4.23050    3.56710    -999.25    -999.25    -999.25    -999.25  -58.40010   -4.27230    4.23050
 3900.00000    -999.25    9.72310    9.72310  117.48810    -999.25    -999.25    -999.25    -999.25    -999.25    8.51150    -999.25   83.17140   83.17140    -999.25   89.31850   89.31850    8.51150    8.19630    8.84270    8.19630    -999.25    -999.25    -999.25    -999.25  -61.13750   -7.46300    8.84270
 3950.00000    -999.25   10.19220   10.19220  644.32690    -999.25    -999.25    -999.25    -999.25    -999.25    1.55210    -999.25  149.38110  149.38110    -999.25  102.96510  102.96510    1.55210    1.37690    2.01720    1.37690    -999.25    -999.25    -999.25    -999.25  -58.60980   -5.39090    2.01720
 4000.00000    -999.25    9.44400    9.44400  130.48700    -999.25    -999.25    -999.25    -999.25    -999.25    7.66360    -999.25   77.05960   77.05960    -999.25   61.26350   61.26350    7.66360    7.78860    9.56220    7.78860    -999.25    -999.25    -999.25    -999.25  -64.66690  -11.50050    9.56220
 4050.00000    -999.25   10.29440   10.29440   84.60310    -999.25    -999.25    -999.25    -999.25    -999.25   11.81990    -999.25   92.02440   92.02440    -999.25   67.13010   67.13010   11.81990   12.57320   13.47040   12.57320    -999.25    -999.25    -999.25    -999.25  -62.59160   -9.31720   13.47040
 4100.00000    -999.25   10.03900   10.03900  152.54370    -999.25    -999.25    -999.25    -999.25    -999.25    6.55550    -999.25   84.10820   84.10820    -999.25   90.54570   90.54570    6.55550    6.86770    6.39440    6.86770    -999.25    -999.25    -999.25    -999.25  -64.26760  -10.88520    6.39440
 4150.00000    -999.25   13.68770   13.68770  120.93360    -999.25    -999.25    -999.25    -999.25    -999.25    8.26900    -999.25   97.90710   97.90710    -999.25   73.49130   73.49130    8.26900    8.72190    9.03350    8.72190    -999.25    -999.25    -999.25    -999.25  -61.47510   -7.98470    9.03350
 4200.00000    -999.25    9.68270    9.68270  156.34130    -999.25    -999.25    -999.25    -999.25    -999.25    6.39910    -999.25   90.55490   90.55490    -999.25   79.91320   79.91320    6.39910    7.68450   13.02020    7.68450    -999.25    -999.25    -999.25    -999.25  -76.46630  -22.86740   13.02020
 4250.00000    -999.25    9.59850    9.59850  177.67990    -999.25    -999.25    -999.25    -999.25    -999.25    5.62810    -999.25   87.23460   87.23460    -999.25   95.45770   95.45770    5.62810    5.75010    6.45020    5.75010    -999.25    -999.25    -999.25    -999.25  -60.14370   -6.43730    6.45020
 4300.00000    -999.25    9.19160    9.19160  213.31060    -999.25    -999.25    -999.25    -999.25    -999.25    4.68800    -999.25   80.50090   80.50090    -999.25   67.71600   67.71600    4.68800    7.20870   14.98040    7.20870    -999.25    -999.25    -999.25    -999.25 -105.53640  -51.72200   14.98040
 4350.00000    -999.25   10.31040   10.31040  147.02860    -999.25    -999.25    -999.25    -999.25    -999.25    6.80140    -999.25   96.25540   96.25540    -999.25  104.88640  104.88640    6.80140    7.04550    8.58780    7.04550    -999.25    -999.25    -999.25    -999.25  -61.65610   -7.73360    8.58780
 4400.00000   11.38410   10.37240   10.37240  173.39440    0.07250    2.61110    -999.25    0.04320    0.05780    5.76720    0.07250   82.02930   82.02930   85.49800   83.91810   83.91810    5.76720    5.89430    6.73420    5.89430    -999.25    0.29830    0.35350    2.61110  -63.98210   -9.95160    6.73420
 4450.00000   11.39340   10.70270   10.70270  174.29600    0.02850    2.55540    -999.25    0.06340    0.09040    5.73750    0.02850   84.59430   84.59430   83.89690   86.61590   86.61590    5.73750    5.89730    6.51890    5.89730    -999.25    0.29140    0.34800    2.55540  -59.59340   -5.45430    6.51890
 4500.00000   11.25440   10.16560   10.16560  159.20780    0.17850    2.53220    -999.25    0.07130    0.10400    6.28110    0.17850   83.26190   83.26190   81.00390   89.19660   89.19660    6.28110    8.26550    9.46230    8.26550    -999.25    0.33030    0.37840    2.53220  -68.30460  -14.30080    9.46230
 4550.00000   10.87280   10.10750   10.10750   87.50360    0.01910    2.54310    -999.25    0.07310    0.09760   11.42810    0.01910   58.10550   58.10550   91.06950   91.20180   91.20180   11.42810   12.11430   14.65770   12.11430    -999.25    0.25770    0.32070    2.54310  -58.46180   -4.78330   14.65770
 4600.00000   10.53370    9.67190    9.67190   87.01400    0.02180    2.59060    0.09630    0.03660    0.06980   11.49240    0.02180   73.60020   73.60020   54.36060   47.08840   47.08840   11.49240   13.59280   14.48660   13.59280    0.11610    0.16190    0.11610    2.59060  -97.24200  -43.88880   14.48660
 4650.00000    9.28730    8.96570    8.96570    7.38910    0.01570    2.67420    0.01970    -999.25    0.02090  135.33450    0.01570   62.10460   62.10460   20.58990   18.85440   18.85440  135.33450  375.88450  103.85220  375.88450    0.41730    -999.25    0.41730    2.67420  -78.88910  -25.86130  103.85220
