~Version ---------------------------------------------------
VERS.      2.0 : CWLS log ASCII Standard -VERSION 2.0
WRAP.       NO : One line per depth step
CREA. 08/26/13 : LAS Creation Date
~Well ------------------------------------------------------
STRT.M                             350.0 : START DEPTH
STOP.M                            3450.0 : STOP DEPTH
STEP.M                          50.00000 : STEP LENGTH
NULL.                            -999.25 : NULL VALUE
COMP. CANADIAN NATURAL RESOURCES LIMITED : COMPANY
WELL.          RAX WASKAHIGAN 3-32-63-22 : WELL
FLD .                                 WC : FIELD
LOC .                                    : LOCATION
CTRY.                             CANADA : COUNTRY
SRVC.                       Schlumberger : SERVICE COMPANY
DATE.                        20-Aug-1985 : LOGDATE
PROV.                            Alberta : PROVINCE
UWI .                   100033206322W500 : UNIQUE WELL ID
SLAT.WGS84                      54.49004 : SURFACE LATITUDE
SLON.WGS84                     -117.2927 : SURFACE LONGITUDE
~Curve Information -----------------------------------------
DEPT  .M                 : DEPTH METERS
C2    .MM   70 280 24 00 : CALIPER 2
CALD  .MM   45 280 60 00 : CALIPER FROM DENSITY LOG
CALR  .MM                : CALIPER FROM RESISTIVITY LOG
DPHILS.V/V               : DENSITY POROSITY LIMESTONE [M=2710 F=1000] FROM DENSITY LOG
DPHISS.V/V               : DENSITY POROSITY SANDSTONE[M=2650 F=1000] FROM DENSITY LOG
DRHO  .K/M3 45 356 01 00 : BULK DENSITY CORRECTION
DT    .US/M 60 500 00 00 : DELTA-T (INTERVAL TRANSIT TIME)
GRD   .GAPI 45 310 01 00 : GAMMA RAY FROM DENSITY LOG
GRR   .GAPI 07 310 01 00 : GAMMA RAY FROM RESISTIVITY LOG
ILD   .OHMM 07 120 46 00 : INDUCTION DEEP RESISTIVITY
ILM   .OHMM 07 120 44 00 : INDUCTION MEDIUM RESISTIVITY
NPHILS.V/V               : NEUTRON POROSITY LIMESTONE [M=2710 F=1000] FROM DENSITY LOG
NPHISS.V/V               : NEUTRON POROSITY SANDSTONE [M=2650 F=1000] FROM DENSITY LOG
PEF   .B/E  45 358 01 00 : PHOTOELECTRIC FACTOR
RHOB  .K/M3 45 350 01 00 : BULK DENSITY
SFLU  .OHMM 07 220 01 00 : SHALLOW FOCUSED RESISTIVITY (UNAVERAGED)
SPR   .MV   07 010 01 00 : SPONTANEOUS POTENTIAL FROM RESISTIVITY LOG
TEND  .N    45 635 00 00 : TENSION FROM DENSITY LOG
TENR  .N    07 635 00 00 : TENSION FROM RESISTIVITY LOG
~Params ----------------------------------------------------
PD  .                     GL : PERMANENT DATUM
EPD .M                 821.2 : ELEVATION PERMANENT DATUM
LMF .                     KB : LOG MEASURED FROM
DAPD.M                   6.4 : FEET ABOVE PERMANENT DATUM
DMF .                     KB : DRILLING MEASURED FROM
EKB .M                 827.6 : KELLY BUSHING
EDF .M                 827.2 : DRILLING FLOOR
EGL .M                 821.2 : GROUND LEVEL
DATE.               08/20/85 : RUN DATE
RUN .                      1 : RUN NUMBER
DD  .M                  3450 : DEPTH DRILLER
DL  .M                3454.7 : DEPTH LOGGER
BLI .M                  3454 : BOTTOM LOG INTERVAL
TLI .M                 444.5 : TOP LOG INTERVAL
CS  .MM                244.5 : CASING SIZE
CBD .M                   444 : CASING BOTTOM DRILLER
CBL .M                   444 : CASING BOTTOM LOGGER
BS  .MM                  222 : BIT SIZE
BSD .M                  3450 : BIT SIZE AT DEPTH
DFT .               GEL CHEM : DRILLING FLUID TYPE
DFD .                   1125 : DRILLING FLUID DENSITY
DFV .                    135 : DRILLING FLUID VISCOSITY
DFPH.                   10.5 : DRILLING FLUID PH
DFL .                    8.2 : DRILLING FLUID LOSS
MSS .               FLOWLINE : MUD SAMPLE SOURCE
RMS .OHMM                1.9 : RESISTIVITY MUD SAMPLE
MST .DEGC               18.0 : MUD SAMPLE TEMPERATURE
RMF .OHMM               1.76 : RESISTIVITY MUD FILTRATE SAMPLE
MFST.DEGC               18.0 : MUD FILTRATE SAMPLE TEMPERATURE
RMC .OHMM               1.59 : RESISTIVITY MUD CAKE
MCST.DEGC               19.0 : MUD CAKE SAMPLE TEMPERATURE
MFSS.                   MEAS : MUD FILTRATE SAMPLE SOURCE
MCSS.                   MEAS : MUD CAKE SAMPLE SOURCE
RMB .OHMM              0.528 : RESISTIVITY MUD AT BHT
TCS .HRS                1030 : TIME CIRCULATED STOPPED
TLAB.HRS                2100 : TIME LOGGER AT BOTTOM
LUN .                   8204 : LOGGING UNIT NUMBER
LUL .                     GP : LOGGING UNIT LOCATION
ENGI.          HOWELL MACKAY : RECORDING ENGINEER
WITN.         SALAZAR SHARPE : WITNESSED BY
CLNT.                A2DTECH : CLIENT CODE
ORIG.       6.5" 16.5" PRINT : ORIGIN OF DATA
UWI .       100033206322W500 : UNIQUE WELL ID
DICO. A2D Technologies, Inc. : DIGITIZING COMPANY
~Other -----------------------------------------------------
~ASCII -----------------------------------------------------
  350.00000    -999.25    -999.25    -999.25    -999.25    -999.25    -999.25    -999.25    -999.25   43.64010    -999.25    -999.25    -999.25    -999.25    -999.25    -999.25    -999.25    -999.25    -999.25    -999.25
  400.00000    -999.25    -999.25    -999.25    -999.25    -999.25    -999.25    -999.25    -999.25   46.01800    -999.25    -999.25    -999.25    -999.25    -999.25    -999.25    -999.25    -999.25    -999.25    -999.25
  450.00000  283.02550  295.76110  252.51680    -999.25    -999.25    -999.25  364.99260   85.88170   82.47900    4.34230    3.60520    -999.25    -999.25    -999.25    -999.25    3.68790  -27.45830 6543.04200 5357.16650
  500.00000  299.39780  279.57320  266.43290    -999.25    -999.25    -999.25  324.18350   70.73570   72.18050    4.63760    4.08500    -999.25    -999.25    -999.25    -999.25    4.13040  -21.58950 6952.25340 5601.57180
  550.00000  222.07040  306.00270  251.13980    -999.25    -999.25    -999.25  303.54680   58.28620   62.37090    7.80390    6.84780    -999.25    -999.25    -999.25    -999.25    7.94250  -25.01310 7232.28030 6167.73100
  600.00000  200.92780  325.14470  253.97390    -999.25    -999.25    -999.25  328.56680   72.81210   78.71000    4.79730    4.07040    -999.25    -999.25    -999.25    -999.25    3.62040  -27.99360 8208.52930 6164.88870
  650.00000  219.88960  316.26590  241.34590    -999.25    -999.25    -999.25  316.69690   82.17900   83.20180    5.84710    5.15560    -999.25    -999.25    -999.25    -999.25    3.79330  -24.65360 8329.84280 6549.20560
  700.00000  227.54520  287.31720  239.81460    -999.25    -999.25    -999.25  329.01930   68.47990   71.37920    3.91930    3.65210    -999.25    -999.25    -999.25    -999.25    4.08240  -25.41570 8331.13960 6787.35210
  750.00000  218.36870  234.32190  219.47790    -999.25    -999.25    -999.25  311.89580   62.23490   62.79460    4.74890    4.47300    -999.25    -999.25    -999.25    -999.25    4.16380  -25.56160 8613.77730 6846.68650
  800.00000  228.63080  223.58170  226.02510    -999.25    -999.25    -999.25  279.97220   73.16640   69.06830    7.29670    6.86300    -999.25    -999.25    -999.25    -999.25    7.08990  -22.58940 8659.63380 7145.15040
  850.00000  264.16260  272.03670  232.35300    -999.25    -999.25    -999.25  313.98000   60.88580   62.15000    4.75450    4.27600    -999.25    -999.25    -999.25    -999.25    4.37670  -22.00640 9263.78910 7595.52830
  900.00000  195.65160  230.58410  223.13370    -999.25    -999.25    -999.25  287.07200   46.42880   55.29740   13.75610   13.32340    -999.25    -999.25    -999.25    -999.25   15.73180  -27.85590 9660.75390 7866.41410
  950.00000  212.93500  242.94700  237.66870    -999.25    -999.25    -999.25  247.61150   46.97440   60.01550    8.59460    9.23530    -999.25    -999.25    -999.25    -999.25    7.95380  -21.96240 9739.11040 8111.68750
 1000.00000  228.08900  260.47300  230.32970    -999.25    0.08660  340.09170  273.44210   63.23080   63.58580    8.16470    7.73160    -999.25    0.28820    2.60860 2512.50000    8.35820  -20.06150 9550.95700 8253.27340
 1050.00000  263.31820  464.26650  334.63420    -999.25    0.54020  125.12880  288.07830   75.16860   79.99340    8.28590    7.15070    -999.25    0.39580    2.03410 1690.20000    6.95770  -22.27370 9678.40820 8551.59570
 1100.00000  363.44710  226.76220  225.82210    -999.25    0.20660  147.77720  292.91400   95.85020  111.96180   11.53200   11.06340    -999.25    0.40690    2.51280 2314.00000   13.13730  -21.01130 9911.09080 8627.06250
 1150.00000  202.79000  441.59910  321.61750    -999.25    0.46860   62.99750  307.22690   85.42670   95.01520    7.40630    6.41120    -999.25    0.43440    2.09160 1789.00000    6.81940  -22.04060 9924.22750 9223.53910
 1200.00000  203.00590  329.52370  281.70770    -999.25    0.31860   68.04590  285.16220   94.37540   97.26800    8.71290    8.18570    -999.25    0.36140    2.39460 2035.20000    8.78680  -20.84590 10469.49220 9308.86520
 1250.00000  257.58020  250.49480  241.25220    -999.25    0.23670   27.23770  279.87710  100.88690   98.48260    8.75250    8.05670    -999.25    0.37120    2.61840 2256.60000    8.22110  -20.85400 10652.01460 9408.40630
 1300.00000  236.46060  274.78900  243.80250    -999.25    0.16130   61.76840  270.86570   95.19560  113.10410    9.97010    9.44520    -999.25    0.29810    2.53790 2382.00000   10.00940  -17.36250 10988.25390 9934.01660
 1350.00000  242.62720  288.61300  242.31040    -999.25    0.33310  158.67170  284.86600   96.05140  106.41740    8.25430    7.91200    -999.25    0.34310    2.49750 2092.00000    9.09510  -16.43500 10898.88090 9909.87990
 1400.00000  239.83830  274.38530  234.45610    -999.25    0.32200  193.93920  292.75810  105.30960  112.58760    8.90640    8.77270    -999.25    0.33100    2.58790 2118.60000   10.21460  -12.79230 11360.59180 10058.44430
 1450.00000  233.07270  225.75280  221.87650    -999.25    0.13850  227.15750  319.59220  129.42100  139.59590   13.54330   13.73950    -999.25    0.41640    3.32410 2417.90000   19.76570  -17.66620 11092.86910 10458.25590
 1500.00000  251.04520  285.24390  267.80910    -999.25    0.32090  232.91690  255.80340   84.28220   92.58100    8.10830    7.72020    -999.25    0.32070    2.27980 2085.10000    8.03710  -23.42730 11838.10450 10594.53320
 1550.00000  305.99280  222.27200  246.88830    -999.25    0.15420  268.23020  266.10930   98.63410  106.14060    8.65560    8.09400    -999.25    0.33410    2.40560 2397.60000    8.33850  -18.57950 12246.08300 11133.37400
 1600.00000  182.73280  384.40660  238.46220    -999.25    0.12350  209.71690  259.26750   78.35990   90.97590    7.40960    6.93760    -999.25    0.28630    2.87750 2439.50000    7.14680  -17.57030 12628.12300 11343.83010
 1650.00000  382.94060  478.29110  387.14280    -999.25    0.80210   19.12230  326.40530   67.34180   64.58330    2.93520    2.34860    -999.25    0.55150    1.47150 1315.40000    2.87260  -18.93130 12769.98050 11067.89940
 1700.00000  297.89750  338.13490  299.68810    -999.25    0.71950   46.36510  330.13770   82.37710   85.38320    1.52330    1.28270    -999.25    0.47470    1.76830 1564.60000    1.08590  -23.03720 12973.88670 11028.49320
 1750.00000  256.75580  288.54790  264.64120    -999.25    0.23560  100.53440  256.04530   66.34160   69.64020   11.69800    9.08390    -999.25    0.34270    3.06370 2246.60000    9.50020  -27.76970 13045.29490 11897.32230
 1800.00000  277.65920  328.09730  288.87610    -999.25    0.54050  -48.68680  286.96040   81.68430   87.99500   10.21270    8.41230    -999.25    0.48170    2.48400 1779.30000   10.51500  -28.07390 13549.72560 12025.12890
 1850.00000  279.66740  266.46440  275.93030    -999.25    0.07200   70.28060  249.54130   84.30270   82.39680   13.97220   13.47010    -999.25    0.30590    3.34610 2543.50000   16.40670  -26.00960 13771.11620 12453.83200
 1900.00000  244.28210  246.88310  238.93290    -999.25    0.09040    8.01420  219.80020   46.35710   42.96750   17.31120   19.07390    -999.25    0.22380    3.07500 2494.60000   19.53040  -46.44170 13716.47560 12568.62300
 1950.00000  264.66730  241.64740  261.51440    -999.25    0.01850  -12.73090  238.80780   78.82630   76.94390   15.20120   15.89410    -999.25    0.26230    3.42780 2620.90000   19.39020    7.42020 14016.02250 12767.01170
 2000.00000  265.14670  257.48460  262.50340    -999.25    0.00570  -13.86400  214.14860   71.59600   82.63330   31.91260   31.22630    -999.25    0.17130    3.18580 2633.30000   72.63150  -36.66340 14588.24710 12938.09670
 2050.00000  272.63240  262.70040  272.76370    -999.25    0.02390  -16.28590  215.53120   78.86400   78.59300   31.70910   31.61270    -999.25    0.25160    2.88410 2610.70000   34.91590  -40.46570 14757.26370 13322.74120
 2100.00000  226.93460  250.64990  231.16620    -999.25    0.13690   33.33870  228.90520   26.08000   22.63150    8.07040   11.95440    -999.25    0.13380    2.15060 2452.80000   25.26230 -146.76400 14183.35450 12914.82130
 2150.00000  235.03980  265.65850  252.42850    0.07730    -999.25  -10.46620  211.79580   77.91130   77.65450   19.95730   19.85160    0.10080    -999.25    3.00350 2572.50000   23.58640  -70.10770 14790.89840 13767.43460
