~Version ---------------------------------------------------
VERS.      2.0 : CWLS log ASCII Standard -VERSION 2.0
WRAP.       NO : One line per depth step
CREA. 10/27/17 : LAS Creation Date
~Well ------------------------------------------------------
STRT.FT                           900.0 : START DEPTH
STOP.FT                          9800.0 : STOP DEPTH
STEP.FT                        50.00000 : STEP LENGTH
NULL.                           -999.25 : NULL VALUE
COMP.      CANADIAN HOMESTEAD OILS LTD. : COMPANY
WELL. HOMESTEAD SHELL SNIPE 12-29-68-18 : WELL
FLD .                                   : FIELD
LOC .                                   : LOCATION
CTRY.                            CANADA : COUNTRY
SRVC.                      Schlumberger : SERVICE COMPANY
DATE.                       11-Apr-1970 : LOGDATE
PROV.                           Alberta : PROVINCE
UWI .                  100122906818W500 : UNIQUE WELL ID
SLAT.WGS84                     54.91763 : SURFACE LATITUDE
SLON.WGS84                    -116.7151 : SURFACE LONGITUDE
~Curve Information -----------------------------------------
DEPT    .FT    : Depth Curve
CALSED  .IN    : CALIPER FROM SONIC LOG [ADJ. TO RESISTIVITY LOG]
CALWS   .IN    : CALIPER [CALSED]
CONDWS  .MMHO  : CONDUCTIVITY [1000/DRESWS]
DRESWS  .OHMM  : DEEP RESISTIVITY [ILDED]
DTED    .US/F  : DELTA TIME FROM SONIC LOG [ADJ. TO RESISTIVITY LOG]
DTWS    .US/F  : COMPRESSIONAL SONIC [DTED]
GRSED   .GAPI  : GAMMA RAY FROM SONIC LOG [ADJ. TO RESISTIVITY LOG]
GRWS    .GAPI  : GAMMA RAY [GRSED]
ILDED   .OHMM  : DEEP INDUCTION RESISTIVITY FROM RESISTIVITY LOG
ILMED   .OHMM  : MEDIUM INDUCTION RESISTIVITY FROM RESISTIVITY LOG
LL8ED   .OHMM  : LATEROLOG 8 FROM RESISTIVITY LOG
MRESWS  .OHMM  : MEDIUM RESISTIVITY [ILMED]
SPHILSED.V/V   : SONIC POROSITY LIMESTONE [DTM=47.6,DTF=189.0] FROM SONIC LOG [ADJ. TO RESISTIVITY LOG]
SPHISSED.V/V   : SONIC POROSITY SANDSTONE [DTM=55.6,DTF=189.0] FROM SONIC LOG [ADJ. TO RESISTIVITY LOG]
SPOWS   .V/V   : SONIC POROSITY [SPHISSED SPL. TO SPHILSED @ 5500']
SPRED   .MV    : SPONTANEOUS POTENTIAL FROM RESISTIVITY LOG
SPWS    .MV    : SPONTANEOUS POTENTIAL [BASELINE 0 MV, SPRED]
SRESWS  .OHMM  : SHALLOW RESISTIVITY [LL8ED]
~Params ----------------------------------------------------
PD  .                     GL : PERMANENT DATUM
EPD .FT                 2869 : ELEVATION PERMANENT DATUM
LMF .                     KB : LOG MEASURED FROM
DAPD.FT                   14 : FEET ABOVE PERMANENT DATUM
EKB .FT                 2883 : KELLY BUSHING
EGL .FT                 2869 : GROUND LEVEL
DATE.               04/11/70 : RUN DATE
RUN .                      1 : RUN NUMBER
DD  .FT                 9835 : DEPTH DRILLER
DL  .FT                 9820 : DEPTH LOGGER
BLI .FT                 9816 : BOTTOM LOG INTERVAL
TLI .FT                 1012 : TOP LOG INTERVAL
CBD .FT                 1008 : CASING BOTTOM DRILLER
CBL .FT                 1012 : CASING BOTTOM LOGGER
BS  .IN                7.875 : BIT SIZE
BSD .FT                 9835 : BIT SIZE AT DEPTH
DFT .               CHEM GEL : DRILLING FLUID TYPE
DFD .                     93 : DRILLING FLUID DENSITY
DFV .                     75 : DRILLING FLUID VISCOSITY
DFPH.                   10.5 : DRILLING FLUID PH
DFL .                    9.2 : DRILLING FLUID LOSS
MSS .               FLOWLINE : MUD SAMPLE SOURCE
RMS .OHMM               2.03 : RESISTIVITY MUD SAMPLE
MST .DEGF                 73 : MUD SAMPLE TEMPERATURE
RMF .OHMM               1.92 : RESISTIVITY MUD FILTRATE SAMPLE
MFST.DEGF                 71 : MUD FILTRATE SAMPLE TEMPERATURE
RMC .OHMM               2.16 : RESISTIVITY MUD CAKE
MCST.DEGF                 73 : MUD CAKE SAMPLE TEMPERATURE
TCS .HRS                   3 : TIME CIRCULATED STOPPED
LUN .                   5630 : LOGGING UNIT NUMBER
LUL .                    EDM : LOGGING UNIT LOCATION
ENGI.                 SLADEN : RECORDING ENGINEER
WITN.           SLOAN ELFORD : WITNESSED BY
CLNT.                A2DTECH : CLIENT CODE
ORIG.            2" 5" PRINT : ORIGIN OF DATA
UWI .       100122906818W500 : UNIQUE WELL ID
DICO. A2D Technologies, Inc. : DIGITIZING COMPANY
~Other -----------------------------------------------------
DIL-BCS TOOL RUN
~ASCII -----------------------------------------------------
# ...
 8700.00000    8.97160    8.97160  106.47590    9.39180   68.41140   68.41140   69.56150   69.56150    9.39180   10.46100   14.06470   10.46100    0.14610    -999.25    0.14610  -68.22350  -87.02250   14.06470
 8750.00000    9.78390    9.78390  147.05020    6.80040   72.32350   72.32350   71.59740   71.59740    6.80040    7.32790    9.12970    7.32790    0.17270    -999.25    0.17270  -19.60350  -25.70110    9.12970
 8800.00000    8.95040    8.95040  131.18010    7.62350   73.45920   73.45920   79.77550   79.77550    7.62350    8.32100   10.40190    8.32100    0.18120    -999.25    0.18120  -11.35020   -7.05290   10.40190
 8850.00000    8.56920    8.56920   93.61810   10.68170   66.75040   66.75040   67.05180   67.05180   10.68170   11.86930   15.84750   11.86930    0.13540    -999.25    0.13540  -22.05520  -16.35700   15.84750
 8900.00000    8.80610    8.80610  159.34780    6.27630   74.67120   74.67120   79.85230   79.85230    6.27630    7.17980   10.78980    7.17980    0.18750    -999.25    0.18750  -16.45470   -9.36470   10.78980
 8950.00000    9.99290    9.99290  136.92250    7.30340   76.47950   76.47950   89.09780   89.09780    7.30340    7.69920    9.66090    7.69920    0.20860    -999.25    0.20860  -26.15450  -17.66350    9.66090
 9000.00000    8.53840    8.53840   75.85070   13.18380   67.47000   67.47000   61.47230   61.47230   13.18380   14.29170   18.16100   14.29170    0.13950    -999.25    0.13950  -48.01640  -38.13360   18.16100
 9050.00000   12.78190   12.78190   37.67630   26.54190   89.49530   89.49530   88.80480   88.80480   26.54190   15.84370   23.77630   15.84370    0.30040    -999.25    0.30040  -66.34040  -55.06580   23.77630
 9100.00000    8.84660    8.84660   31.93980   31.30890   57.43250   57.43250   42.74690   42.74690   31.30890   36.59280   44.48460   36.59280    0.07060    -999.25    0.07060  -59.75150  -47.07590   44.48460
 9150.00000    8.77120    8.77120   28.26370   35.38120   59.13230   59.13230   37.59440   37.59440   35.38120   36.86360   36.68450   36.86360    0.08050    -999.25    0.08050  -43.61240  -29.54500   36.68450
 9200.00000    8.71930    8.71930   41.28190   24.22370   60.41290   60.41290   43.28810   43.28810   24.22370   27.81470   30.00980   27.81470    0.08990    -999.25    0.08990  -39.40490  -23.93650   30.00980
 9250.00000    8.66060    8.66060   31.13740   32.11570   59.40300   59.40300   48.86090   48.86090   32.11570   35.58410   40.79060   35.58410    0.08260    -999.25    0.08260  -28.24110  -11.38090   40.79060
 9300.00000    8.51480    8.51480   19.63730   51.19360   59.68400   59.68400   67.45790   67.45790   51.19360   41.20720   44.71700   41.20720    0.08390    -999.25    0.08390  -34.66550  -16.41350   44.71700
 9350.00000    8.49800    8.49800   30.07070   33.25500   61.62730   61.62730   66.68150   66.68150   33.25500   35.23390   36.34470   35.23390    0.09810    -999.25    0.09810  -44.68980  -25.03680   36.34470
 9400.00000    8.83220    8.83220    0.56330 1775.20600   51.09880   51.09880    7.84510    7.84510 1775.20600 2029.02100 1745.53200 2029.02100    0.02410    -999.25    0.02410 -126.53010 -105.48530 1745.53200
 9450.00000    8.39460    8.39460    0.53700 1862.16370   54.02630   54.02630   18.68800   18.68800 1862.16370 2167.35520 1758.39610 2167.35520    0.04400    -999.25    0.04400  -76.10530  -53.65960 1758.39610
 9500.00000    8.13470    8.13470  177.56940    5.63160   58.82830   58.82830   50.69950   50.69950    5.63160    7.69210   14.63310    7.69210    0.07650    -999.25    0.07650 -114.04770  -90.21020   14.63310
 9550.00000    8.30160    8.30160   79.51470   12.57810   61.06070   61.06070  129.84780  129.84780   12.57810   11.95530   23.45530   11.95530    0.09330    -999.25    0.09330  -27.55580   -2.32640   23.45530
 9600.00000    8.71260    8.71260   78.91230   12.67230   89.62470   89.62470  136.92050  136.92050   12.67230   12.85380   13.83230   12.85380    0.23950    -999.25    0.23950  -88.37590  -63.09160   13.83230
 9650.00000    7.61470    7.61470 1140.49100    0.87860   68.48690   68.48690   65.32110   65.32110    0.87860    1.18040    7.47190    1.18040    0.14860    -999.25    0.14860 -199.66530 -174.38100    7.47190
 9700.00000    8.38100    8.38100  112.92160    8.85570   77.31260   77.31260  160.00000  160.00000    8.85570    8.64730   12.13890    8.64730    0.21140    -999.25    0.21140  -81.31870  -56.03440   12.13890
 9750.00000    7.76540    7.76540  392.46470    2.54800   61.90390   61.90390   11.19300   11.19300    2.54800    4.08640   42.47040    4.08640    0.09810    -999.25    0.09810 -196.64810 -171.36380   42.47040
 9800.00000    8.21560    8.21560   89.32840   11.21220   62.80130   62.80130    -999.25    -999.25   11.21220   12.88080   21.05710   12.88080    0.10550    -999.25    0.10550 -135.74600 -110.46170   21.05710
