~Version ---------------------------------------------------
VERS.      2.0 : CWLS log ASCII Standard -VERSION 2.0
WRAP.       NO : One line per depth step
CREA. 12/11/17 : LAS Creation Date
~Well ------------------------------------------------------
STRT.FT                          1000.0 : START DEPTH
STOP.FT                         10450.0 : STOP DEPTH
STEP.FT                        50.00000 : STEP LENGTH
NULL.                           -999.25 : NULL VALUE
COMP.     CANADIAN SUPERIOR OIL COMPANY : COMPANY
WELL. CDN-SUP CEGO FOX CR 10-11SH-62-18 : WELL
FLD .                                   : FIELD
LOC .                                   : LOCATION
CTRY.                            CANADA : COUNTRY
SRVC.                      Schlumberger : SERVICE COMPANY
DATE.                       29-Mar-1977 : LOGDATE
PROV.                           Alberta : PROVINCE
UWI .                  102101106218W500 : UNIQUE WELL ID
SLAT.WGS84                     54.35151 : SURFACE LATITUDE
SLON.WGS84                    -116.5828 : SURFACE LONGITUDE
~Curve Information -----------------------------------------
DEPT    .FT    : Depth Curve
CALDED  .IN    : CALIPER) FROM DENSITY LOG [ADJ. TO RESISTIVITY LOG]
CALSED  .IN    : CALIPER) FROM SONIC LOG [ADJ. TO RESISTIVITY LOG]
CALWS   .IN    : CALIPER [CALDED]
CILDED  .MMHO  : CONDUCTIVITY FROM RESISTIVITY LOG
CONDWS  .MMHO  : CONDUCIVITY [1000/DRESWS]
DCORED  .G/C3  : DENSITY CORRECTION FROM DENSITY LOG [ADJ. TO RESISTIVITY LOG]
DCORWS  .G/C3  : DENSITY CORRECTION [DCORED]
DENWS   .G/C3  : FORMATION BULK DENSITY [RHOBED]
DPOLSWS .V/V   : DENSITY POROSITY LIMESTONE [CALC. FROM DENWS M=2.71, F=1.00]
DPORLSED.V/V   : DENSITY POROSITY LIMESTONE [M=2.71, F=1.00] FROM DENSITY LOG [ADJ. TO RESISTIVITY LOG]
DPORSSED.V/V   : DENSITY POROSITY SANDSTONE [M=2.65, F=1.00] FROM DENSITY LOG [ADJ. TO RESISTIVITY LOG]
DRESWS  .OHMM  : DEEP RESISTIVITY [ILDED]
DTED    .US/F  : DELTA-T FROM SONIC LOG [ADJ. TO RESISTIVITY LOG]
DTWS    .US/F  : COMPRESSIONAL SONIC [DTED]
GRDED   .GAPI  : GAMMA RAY FROM DENSITY LOG [ADJ. TO RESISTIVITY LOG]
GRSED   .GAPI  : GAMMA RAY FROM SONIC LOG [ADJ. TO RESISTIVITY LOG]
GRWS    .GAPI  : GAMMA RAY [GRSED SPL. TO GRDED @ 1070']
ILDED   .OHMM  : DEEP INDUCTION FROM RESISTIVITY LOG
ILMED   .OHMM  : MEDIUM INDUCTION FROM RESISTIVITY LOG
LL8ED   .OHMM  : LATEROLOG-8 FROM RESISTIVITY LOG
MRESWS  .OHMM  : MEDIUM RESISTIVITY [ILMED]
NPOLSWS .V/V   : NEUTRON POROSITY LIMESTONE [NPHISSED MATRIX CONVERSION FOR LIMESTONE, SPL. TO NPHILSED @ 6496']
NPORLSED.V/V   : NEUTRON POROSITY LIMESTONE FROM DENISTY LOG [ADJ. TO RESISTIVITY LOG]
NPORSSED.V/V   : NEUTRON POROSITY SANDSTONE FROM DENSITY LOG [ADJ. TO RESISTIVITY LOG]
RHOBED  .G/C3  : BULK DENSITY FROM DENSITY LOG [ADJ. TO RESISTIVITY LOG]
SPRED   .MV    : SPONTANEOUS POTENTIAL FROM RESISTIVITY LOG
SPWS    .MV    : SPONTANEOUS POTENTIAL [BASELINE 0 MV, SPRED]
SRESWS  .OHMM  : SHALLOW RESISTIVITY [LL8ED]
~Params ----------------------------------------------------
PD  .                     GL : PERMANENT DATUM
EPD .FT                 2963 : ELEVATION PERMANENT DATUM
LMF .                     KB : LOG MEASURED FROM
DAPD.FT                   13 : FEET ABOVE PERMANENT DATUM
EKB .FT                 2976 : KELLY BUSHING
EGL .FT                 2963 : GROUND LEVEL
DATE.               03/29/77 : RUN DATE
RUN .                      1 : RUN NUMBER
DD  .FT                10475 : DEPTH DRILLER
DL  .FT                10478 : DEPTH LOGGER
BLI .FT                10472 : BOTTOM LOG INTERVAL
TLI .FT                 1071 : TOP LOG INTERVAL
CBD .FT                 1070 : CASING BOTTOM DRILLER
CBL .FT                 1071 : CASING BOTTOM LOGGER
BS  .IN                 8.75 : BIT SIZE
BSD .FT                10475 : BIT SIZE AT DEPTH
DFT .               GEL CHEM : DRILLING FLUID TYPE
DFD .                    9.2 : DRILLING FLUID DENSITY
DFV .                     81 : DRILLING FLUID VISCOSITY
DFPH.                    9.5 : DRILLING FLUID PH
DFL .                      8 : DRILLING FLUID LOSS
MSS .             CIRCULATED : MUD SAMPLE SOURCE
RMS .OHMM                1.1 : RESISTIVITY MUD SAMPLE
MST .DEGF                 62 : MUD SAMPLE TEMPERATURE
RMF .OHMM               0.76 : RESISTIVITY MUD FILTRATE SAMPLE
MFST.DEGF                 62 : MUD FILTRATE SAMPLE TEMPERATURE
TCS .HRS                   4 : TIME CIRCULATED STOPPED
LUN .                   7690 : LOGGING UNIT NUMBER
LUL .                    EDM : LOGGING UNIT LOCATION
ENGI.                WOROWUK : RECORDING ENGINEER
WITN.                  KELLY : WITNESSED BY
CLNT.                A2DTECH : CLIENT CODE
ORIG.            2" 5" PRINT : ORIGIN OF DATA
UWI .       102101106218W500 : UNIQUE WELL ID
DICO. A2D Technologies, Inc. : DIGITIZING COMPANY
~Other -----------------------------------------------------
DIL-BHC-CNL-FDC LOG RUN
SCH(CNL-NPHI) USED FOR NEUTRON MATRIX CONVERSION
CILD DIG'ED FROM 2" LINEAR LOG
~ASCII -----------------------------------------------------
# ...
 4750.00000    9.27490    9.55910    9.27490    -999.25  126.91480    0.07050    0.07050    2.48450    0.13190    -999.25    0.10080    7.87930   93.58380   93.58380  111.45930   82.95320  111.45930    7.87930    8.54600   11.09430    8.54600    0.33840    -999.25    0.38160    2.48450 -126.13860   -4.35030   11.09430
 4800.00000    9.73040    9.92200    9.73040    -999.25  167.07320    0.20130    0.20130    2.39670    0.18320    -999.25    0.15280    5.98540   93.50730   93.50730  105.20670   79.51040  105.20670    5.98540    6.36880    8.21450    6.36880    0.35920    -999.25    0.40200    2.39670 -123.69510   -2.51040    8.21450
 4850.00000   10.32430   10.47780   10.32430    -999.25  192.11190    0.17770    0.17770    2.34780    0.21180    -999.25    0.17700    5.20530   86.48170   86.48170   81.56220   63.61690   81.56220    5.20530    5.57170    5.86060    5.57170    0.30310    -999.25    0.34680    2.34780 -123.73610   -3.14690    5.86060
 4900.00000   10.59810   10.27000   10.59810    -999.25  205.92230    0.21180    0.21180    2.42260    0.16810    -999.25    0.13720    4.85620   86.99700   86.99700   91.02780   68.13090   91.02780    4.85620    5.03470    5.75590    5.03470    0.28420    -999.25    0.32800    2.42260 -123.27690   -3.27940    5.75590
 4950.00000   10.11930   10.24510   10.11930    -999.25  191.67000    0.12330    0.12330    2.52880    0.10600    -999.25    0.06810    5.21730   85.74460   85.74460   96.89240   68.98850   96.89240    5.21730    5.61180    6.36240    5.61180    0.28380    -999.25    0.32760    2.52880 -123.13200   -3.73000    6.36240
 5000.00000   10.69260   10.16700   10.69260    -999.25  207.17660    0.13450    0.13450    2.49960    0.12300    -999.25    0.08610    4.82680   87.21450   87.21450   95.77080   76.17110   95.77080    4.82680    5.10090    5.77150    5.10090    0.28330    -999.25    0.32710    2.49960 -121.83670   -3.02640    5.77150
 5050.00000   10.63350   10.11280   10.63350    -999.25   99.49950    0.06200    0.06200    2.52960    0.10550    -999.25    0.07010   10.05030   77.88730   77.88730   64.57990   48.41070   64.57990   10.05030   11.72110   16.95000   11.72110    0.18260    -999.25    0.22630    2.52960 -143.22240  -25.36980   16.95000
 5100.00000   11.68280   11.29320   11.68280    -999.25  193.88490    0.08730    0.08730    2.53060    0.10490    -999.25    0.07370    5.15770   84.76760   84.76760   90.02700   70.99110   90.02700    5.15770    5.38660    6.41140    5.38660    0.31300    -999.25    0.35660    2.53060 -119.28070   -2.71510    6.41140
 5150.00000   12.71260   12.06980   12.71260    -999.25  268.99800    0.09740    0.09740    2.46130    0.14540    -999.25    0.10960    3.71750   93.10310   93.10310   96.75720   75.79390   96.75720    3.71750    3.86990    4.76750    3.86990    0.35630    -999.25    0.39920    2.46130 -117.91220   -2.62520    4.76750
 5200.00000   12.83100   11.98780   12.83100    -999.25  208.45060    0.07690    0.07690    2.56420    0.08530    -999.25    0.04540    4.79730   86.24590   86.24590   96.56130   78.60340   96.56130    4.79730    5.01400    6.27880    5.01400    0.31560    -999.25    0.35910    2.56420 -116.62540   -2.62550    6.27880
 5250.00000   12.16240   11.15670   12.16240    -999.25  307.55040    0.07920    0.07920    2.49920    0.12330    -999.25    0.08480    3.25150   97.64330   97.64330  131.76510   92.57700  131.76510    3.25150    3.40300    4.15080    3.40300    0.31770    -999.25    0.36120    2.49920 -116.51720   -3.79590    4.15080
 5300.00000   13.65860    9.99440   13.65860    -999.25  371.76100    0.06080    0.06080    2.39630    0.18350    -999.25    0.15720    2.68990   94.31510   94.31510   93.82660   72.32470   93.82660    2.68990    2.57000    3.43580    2.57000    0.35080    -999.25    0.39380    2.39630 -115.02440   -3.58170    3.43580
 5350.00000   14.61310   11.02010   14.61310    -999.25  287.81950    0.18470    0.18470    2.47680    0.13640    -999.25    0.10330    3.47440   89.18260   89.18260   90.12050   72.29540   90.12050    3.47440    3.64570    3.92730    3.64570    0.31650    -999.25    0.36000    2.47680 -113.86310   -3.03700    3.92730
 5400.00000   12.83300   10.64710   12.83300    -999.25  173.92210    0.15240    0.15240    2.37470    0.19610    -999.25    0.16180    5.74970   83.10810   83.10810   84.93980   66.29060   84.93980    5.74970    6.35950    7.40380    6.35950    0.25140    -999.25    0.29540    2.37470 -116.47820   -6.06720    7.40380
 5450.00000   11.77460   11.13970   11.77460    -999.25  157.37620    0.23480    0.23480    2.19530    0.30100    -999.25    0.28100    6.35420   78.78040   78.78040   71.36970   52.99050   71.36970    6.35420    6.69920    7.48320    6.69920    0.23460    -999.25    0.27860    2.19530 -115.40490   -5.41160    7.48320
 5500.00000   10.56820   10.35680   10.56820    -999.25   98.62710    0.05040    0.05040    2.57780    0.07730    -999.25    0.04340   10.13920   73.50350   73.50350   51.04150   41.20930   51.04150   10.13920   11.56900   15.29250   11.56900    0.21590    -999.25    0.25990    2.57780 -123.79930  -14.22930   15.29250
 5550.00000   11.47260   11.36520   11.47260    -999.25  100.04900    0.24480    0.24480    2.21380    0.29010    -999.25    0.26780    9.99510   80.83170   80.83170   69.71730   53.45780   69.71730    9.99510   10.71910   13.38270   10.71910    0.33030    -999.25    0.37360    2.21380 -117.06280   -7.94450   13.38270
 5600.00000   10.99470   10.73550   10.99470    -999.25  106.42830    0.05900    0.05900    2.59340    0.06820    -999.25    0.03300    9.39600   78.47860   78.47860   65.49350   47.69450   65.49350    9.39600    9.57220   10.77480    9.57220    0.23270    -999.25    0.27670    2.59340 -128.20320  -19.53970   10.77480
 5650.00000   11.04160   11.37620   11.04160    -999.25  111.27060    0.12400    0.12400    2.35340    0.20850    -999.25    0.18870    8.98710   87.91310   87.91310   75.64090   56.49910   75.64090    8.98710   10.88630   11.36380   10.88630    0.36610    -999.25    0.40880    2.35340 -109.28870   -1.07690   11.36380
 5700.00000   10.66770   10.54890   10.66770    -999.25   76.96390    0.04080    0.04080    2.58680    0.07200    -999.25    0.03550   12.99310   69.56080   69.56080   55.83230   42.24210   55.83230   12.99310   14.03360   14.94680   14.03360    0.15230    -999.25    0.19570    2.58680 -125.51710  -17.32310   14.94680
 5750.00000   11.29410   11.34320   11.29410    -999.25   91.47290    0.02530    0.02530    2.56650    0.08390    -999.25    0.04500   10.93220   67.19340   67.19340   47.08410   30.91830   47.08410   10.93220   12.28160   13.68000   12.28160    0.12680    -999.25    0.16980    2.56650 -138.56500  -30.37100   13.68000
 5800.00000   12.29770   12.02530   12.29770    -999.25   45.26010    0.01610    0.01610    1.57290    0.66500    -999.25    0.57960   22.09450  112.38030  112.38030   42.55470   26.77490   42.55470   22.09450   27.45720   74.61120   27.45720    0.54860    -999.25    0.58370    1.57290 -111.04950   -2.85550   74.61120
 5850.00000   11.01030   10.33640   11.01030    -999.25   93.85440    0.13920    0.13920    2.44190    0.15680    -999.25    0.13180   10.65480   83.12270   83.12270   80.12010   61.86670   80.12010   10.65480   11.18560   12.49060   11.18560    0.22830    -999.25    0.27230    2.44190 -114.73360   -7.79360   12.49060
 5900.00000    9.42370    8.70370    9.42370    -999.25   73.80400    0.05800    0.05800    2.39800    0.18250    -999.25    0.15540   13.54940   73.42850   73.42850   38.05950   29.40500   38.05950   13.54940   16.72420   20.90050   16.72420    0.16540    -999.25    0.20890    2.39800 -156.28400  -50.76660   20.90050
 5950.00000   10.40110   10.57440   10.40110    -999.25   96.18160    0.07900    0.07900    2.58430    0.07350    -999.25    0.03840   10.39700   66.59260   66.59260   44.68540   36.07540   44.68540   10.39700   12.74840   19.53310   12.74840    0.13630    -999.25    0.17940    2.58430 -143.55670  -39.47120   19.53310
