~Version ---------------------------------------------------
VERS.      2.0 : CWLS log ASCII Standard -VERSION 2.0
WRAP.       NO : One line per depth step
CREA. 01/03/18 : LAS Creation Date
~Well ------------------------------------------------------
STRT.FT                             300.0 : START DEPTH
STOP.FT                            8850.0 : STOP DEPTH
STEP.FT                          50.00000 : STEP LENGTH
NULL.                             -999.25 : NULL VALUE
COMP.            HOME OIL COMPANY LIMITED : COMPANY
WELL. HOME FPC ET AL MORSE RIVER 4-2-66-9 : WELL
FLD .                                     : FIELD
LOC .                                     : LOCATION
CTRY.                              CANADA : COUNTRY
SRVC.              Schlumberger of Canada : SERVICE COMPANY
DATE.                         16-Jan-1959 : LOGDATE
PROV.                             Alberta : PROVINCE
UWI .                    100040206609W500 : UNIQUE WELL ID
SLAT.WGS84                       54.67779 : SURFACE LATITUDE
SLON.WGS84                      -115.2573 : SURFACE LONGITUDE
~Curve Information -----------------------------------------
DEPT  .FT     : Depth Curve
CALDED.IN     : CALIPER FROM DENSITY LOG [ADJ TO MCALED]
CALWS .IN     : CALIPER [MCALED]
CILDED.MMHO   : CONDUCTIVITY FROM IE LOG
CONDWS.MMHO   : CONDUCTIVITY [1000/DRESWS]
DENED .KG/M3  : DENSITY FROM DENSITY LOG [ADJ TO MCALED]
DRESWS.OHMM   : DEEP RESISTIVITY [ILDED]
DTED  .US/F   : DELTA TIME FROM SONIC LOG [ADJ TO SPRED]
DTWS  .US/F   : DELTA TIME [DTED]
GRED  .CU     : GAMMA RAY FROM GR LOG
GRWS  .CU     : GAMMA RAY [GRED]
ILDED .OHMM   : INDUCTION LOG DEEP RESISTIVITY FROM IE LOG
LLED  .OHMM   : LATEROLOG RESISTIVITY FROM LATEROLOG
MCALED.IN     : CALIPER MICROLOG
SNED  .OHMM   : 16 INCH SHORT NORMAL RESISTIVITY FROM IE LOG
SPRED .MV     : SPONTANEOUS POTENTIAL FROM IE LOG
SPSED .MV     : SPONTANEOUS POTENTIAL FROM SONIC LOG [ADJ TO SPRED]
SPWS  .MV     : SPONTANEOUS POTENTIAL [BASELINE 0 MV] [SPRED]
SRESWS.OHMM   : SHALLOW RESISTIVITY [SNED]
~Params ----------------------------------------------------
LMF .                     KB : LOG MEASURED FROM
DMF .                     KB : DRILLING MEASURED FROM
EKB .FT                 3358 : KELLY BUSHING
EGL .FT                 3345 : GROUND LEVEL
DATE.               01/16/59 : RUN DATE
RUN .                      2 : RUN NUMBER
DD  .FT                 8880 : DEPTH DRILLER
DL  .FT                 8891 : DEPTH LOGGER
BLI .FT                 8886 : BOTTOM LOG INTERVAL
TLI .FT                 5006 : TOP LOG INTERVAL
BS  .IN                    9 : BIT SIZE
BSD .FT                 8880 : BIT SIZE AT DEPTH
DFT .                    GEL : DRILLING FLUID TYPE
DFD .                   10.3 : DRILLING FLUID DENSITY
DFV .                    109 : DRILLING FLUID VISCOSITY
DFPH.                    9.5 : DRILLING FLUID PH
DFL .                    6.2 : DRILLING FLUID LOSS
RMS .OHMM                3.2 : RESISTIVITY MUD SAMPLE
MST .DEGF                 54 : MUD SAMPLE TEMPERATURE
RMF .OHMM                2.4 : RESISTIVITY MUD FILTRATE SAMPLE
MFST.DEGF                 64 : MUD FILTRATE SAMPLE TEMPERATURE
RMC .OHMM                3.4 : RESISTIVITY MUD CAKE
MCST.DEGF                 56 : MUD CAKE SAMPLE TEMPERATURE
RMB .OHMM                1.1 : RESISTIVITY MUD AT BHT
TCS .HRS                 2.5 : TIME CIRCULATED STOPPED
LUN .                   2765 : LOGGING UNIT NUMBER
LUL .                     SH : LOGGING UNIT LOCATION
ENGI.                  KEYES : RECORDING ENGINEER
WITN.                  BEARD : WITNESSED BY
CLNT.                A2DTECH : CLIENT CODE
ORIG.            2" 5" PRINT : ORIGIN OF DATA
UWI .       100040206609W500 : UNIQUE WELL ID
DICO. A2D Technologies, Inc. : DIGITIZING COMPANY
~Other -----------------------------------------------------
IE-LL-ML-GR-DEN-SONIC LOGS RUN
~ASCII -----------------------------------------------------
# ...
 4200.00000    9.45940    9.36720  202.04850  217.24960 2463.60000    4.60300    -999.25    -999.25   39.83840   39.83840    4.60300    -999.25    9.36720    5.27800  -87.14570    -999.25  -11.29390    5.27800
 4250.00000    9.25760    9.17020  123.71620  114.32490 1925.70000    8.74700    -999.25    -999.25   40.54580   40.54580    8.74700    -999.25    9.17020    9.74480  -85.23810    -999.25  -10.20760    9.74480
 4300.00000    8.66220    8.57700  354.94490  354.94490 2228.55000    2.81760    -999.25    -999.25   23.85560   23.85560    1.94190    -999.25    8.57700   14.13890 -172.76060    -999.25  -98.54720   14.13890
 4350.00000    8.98050    8.81340  259.58430  259.58430 2216.50000    3.85230    -999.25    -999.25   36.21300   36.21300    2.92140    -999.25    8.81340   10.10390 -153.60580    -999.25  -80.21780   10.10390
 4400.00000    8.79560    8.98180  246.67910  246.67910 2376.45000    4.05480    -999.25    -999.25   37.11950   37.11950    3.32180    -999.25    8.98180    6.74950 -116.49640    -999.25  -43.92560    6.74950
 4450.00000    8.82100    8.75190  287.94260  287.94260 2342.60000    3.47290    -999.25    -999.25   23.35070   23.35070    2.57390    -999.25    8.75190   21.23440 -186.29390    -999.25 -114.54840   21.23440
 4500.00000    9.32700    9.29710  156.08820  152.16760 2395.70000    6.57170    -999.25    -999.25   43.92870   43.92870    6.57170    -999.25    9.29710    7.28980  -88.21160    -999.25  -17.28740    7.28980
 4550.00000    9.33580    9.27580  141.25840  139.13100 2543.25000    7.20060    -999.25    -999.25   40.70880   40.70880    7.20060    -999.25    9.27580    7.40030  -83.01350    -999.25  -12.90650    7.40030
 4600.00000    9.41600    9.32540  213.60090  237.38310 2592.20000    4.21260    -999.25    -999.25   44.19930   44.19930    4.21260    -999.25    9.32540    5.15350  -79.38800    -999.25  -10.10630    5.15350
 4650.00000    9.00880    8.88120  215.41600  238.12900 2359.55000    4.20010    -999.25    -999.25   40.94290   40.94290    4.20010    -999.25    8.88120    5.70090  -82.64440    -999.25  -14.17980    5.70090
 4700.00000    8.97350    8.94090   37.02800   32.41500 2601.90000   30.84990    -999.25    -999.25   20.47640   20.47640   30.84990    -999.25    8.94090   42.34800  -88.76580    -999.25  -21.12670   42.34800
 4750.00000    9.07740    9.05280  109.29900  100.92450 2530.20000    9.90840    -999.25    -999.25   44.38830   44.38830    9.90840    -999.25    9.05280   10.11130  -81.67260    -999.25  -14.30580   10.11130
 4800.00000    9.14090    9.12990  125.79170  119.61620 2546.55000    8.36820    -999.25    -999.25   37.02530   37.02530    8.36820    -999.25    9.12990    8.60750  -81.00650    -999.25  -13.51520    8.60750
 4850.00000   10.03510    9.18480  138.17150  131.39740 2622.85000    7.61050    -999.25    -999.25   38.66760   38.66760    7.61050    -999.25    9.18480    9.22100  -84.50850    -999.25  -16.89150    9.22100
 4900.00000    9.31680    9.08040   23.31840   20.97860 2602.85000   47.67750    -999.25    -999.25    8.36570    8.36570   47.67750    -999.25    9.08040   88.32650 -149.25970    -999.25  -81.51820   88.32650
 4950.00000    9.01450    9.00880  111.17060  100.40260 2400.80000    9.95990    -999.25    -999.25    8.30690    8.30690    9.95990    -999.25    9.00880   25.41510 -139.49790    -999.25  -71.63070   25.41510
 5000.00000    9.52090    9.06610  104.14000   94.86950 2658.10000   10.54080    -999.25    -999.25   33.12230   33.12230   10.54080    -999.25    9.06610   11.18900  -92.94380    -999.25  -24.95150   11.18900
 5050.00000   10.19580   10.26790  177.48060  174.59170 2649.35000    5.72760    -999.25    -999.25   46.09860   46.09860    5.72760    -999.25   10.26790    7.32890  -99.96760    -999.25  -31.85080    7.32890
 5100.00000    9.95680    9.99160  166.65800  163.77600 2688.00000    6.10590    -999.25    -999.25   47.61580   47.61580    6.10590    -999.25    9.99160    7.91900  -98.74040    -999.25  -30.49780    7.91900
 5150.00000   10.04930   10.10650  155.96550  151.24610 2690.50000    6.61170    -999.25    -999.25   43.48760   43.48760    6.61170    -999.25   10.10650    8.35950  -97.80820    -999.25  -29.44120    8.35950
 5200.00000    9.70130    9.73950  118.88170  112.55680 2699.90000    8.88440    -999.25    -999.25   41.70300   41.70300    8.88440    -999.25    9.73950   11.01690 -104.42790    -999.25  -35.93510   11.01690
 5250.00000    9.72620    9.75290  105.24060   99.78750 2693.20000   10.02130    -999.25    -999.25   34.12580   34.12580   10.02130    -999.25    9.75290   12.05350 -100.37080    -999.25  -31.75290   12.05350
 5300.00000    9.40590    9.42560   42.22520   36.27740 2736.65000   27.88740    -999.25    -999.25   25.36930   25.36930   27.88740    -999.25    9.42560   29.37460 -119.94010    -999.25  -51.19770   29.37460
 5350.00000    9.63840    9.65490   97.77760   92.70500 2672.50000   10.78690    -999.25    -999.25   38.98680   38.98680   10.78690    -999.25    9.65490   12.47330 -104.72970    -999.25  -35.86160   12.47330
 5400.00000    9.23600    9.24320    6.26300    2.93000 2746.40000  341.72920    -999.25    -999.25    8.24840    8.24840  341.72920    -999.25    9.24320  111.02340 -123.42550    -999.25  -54.43290  111.02340
 5450.00000    8.67290    8.78730   15.62290    9.12230 2653.10000  109.62200    -999.25    -999.25    7.31160    7.31160  109.62200    -999.25    8.78730  109.76870 -253.70870    -999.25 -184.59030  109.76870
 5500.00000    8.95510    8.99970    9.48420    4.56930 2738.40000  218.85160    -999.25    -999.25    8.22130    8.22130  218.85160    -999.25    8.99970   97.69960 -155.81390    -999.25  -86.57040   97.69960
 5550.00000    8.45260    8.50640   12.14580    8.17850 2518.60000  122.28310    -999.25    -999.25    8.21400    8.21400  122.28310    -999.25    8.50640  138.46330    -999.25    -999.25    -999.25  138.46330
 5600.00000    9.15480    9.18170    5.20650    -999.25 2645.80000    -999.25    -999.25    -999.25    8.62350    8.62350    -999.25    -999.25    9.18170  127.56430 -207.49660    -999.25 -138.00290  127.56430
 5650.00000    8.25310    8.28060   27.69450   24.73400 2347.65000   40.52080    -999.25    -999.25    9.46110    9.46110   40.52080    -999.25    8.28060   91.44460 -231.49180    -999.25 -161.87360   91.44460
 5700.00000    8.67310    8.91700   23.94150   15.74770 2519.30000   63.50150    -999.25    -999.25    7.75180    7.75180   63.50150    -999.25    8.91700   92.65590 -248.13460    -999.25 -178.39070   92.65590
 5750.00000    8.42500    8.44890  650.16660  650.16660 2342.70000    1.53810    -999.25    -999.25    8.48470    8.48470    2.44670    -999.25    8.44890   10.06760 -259.70420    -999.25 -189.83510   10.06760
 5800.00000    8.64080    8.68200  170.77570  165.82610 2426.15000    6.03480    -999.25    -999.25    6.78550    6.78550    6.03480    -999.25    8.68200   39.28760 -258.78660    -999.25 -188.79300   39.28760
 5850.00000    8.42520    8.55230   66.32850   61.41900 2558.10000   16.28160    -999.25    -999.25    8.72350    8.72350   16.28160    -999.25    8.55230   73.73240 -262.60740    -999.25 -192.48810   73.73240
 5900.00000    8.28000    8.43290   48.39080   37.92070 2582.30000   26.37610    -999.25    -999.25    6.74780    6.74780   26.37610    -999.25    8.43290   88.04140 -247.33530    -999.25 -177.09150   88.04140
 5950.00000    8.95110    9.01530   10.43480    4.20970 2750.00000  237.54410    -999.25    -999.25   10.32860   10.32860  237.54410    -999.25    9.01530  134.53790 -196.15970    -999.25 -125.79020  134.53790
 6000.00000    9.03730    9.13300    9.73550    1.99880 2731.60000  500.31120    -999.25    -999.25    6.75000    6.75000  500.31120    -999.25    9.13300  116.79300 -215.94840    -999.25 -145.45380  116.79300
 6050.00000    8.23320    8.28020  119.41720  118.33980 2461.10000    8.45500    -999.25    -999.25    6.19940    6.19940    8.45500    -999.25    8.28020   51.22850 -257.85780    -999.25 -187.23870   51.22850
 6100.00000    8.19960    8.21590   79.37390   69.66210 2458.10000   14.35500    -999.25    -999.25    9.73830    9.73830   14.35500    -999.25    8.21590   73.84660 -247.82280    -999.25 -177.07790   73.84660
