~Version ---------------------------------------------------
VERS. 2.0 : CWLS log ASCII Standard -VERSION 2.0
WRAP.  NO : ONE LINE PER DEPTH STEP
~Well ------------------------------------------------------
STRT.F                           1100.0 : START DEPTH
STOP.F                          10200.0 : STOP DEPTH
STEP.F                         50.00000 : STEP LENGTH
NULL.                           -999.25 : NULL VALUE
COMP.              CHEVRON STANDARD LTD : COMPANY
WELL. CHEVRON GULF FOX CREEK 7-14-62-18 : WELL
FLD .                         FOX CREEK : FIELD
LOC .                                   : LOCATION
CTRY.                            CANADA : COUNTRY
SRVC.                      Schlumberger : SERVICE COMPANY
DATE.                       09-Dec-1976 : LOGDATE
PROV.                           Alberta : PROVINCE
UWI .                  100071406218W500 : UNIQUE WELL ID
SLAT.WGS84                     54.36034 : SURFACE LATITUDE
SLON.WGS84                    -116.5836 : SURFACE LONGITUDE
~Curve Information -----------------------------------------
DEPT   .F                 : 
CALD   .IN   70 280 01 00 : CALIPER FROM DENSITY LOG
CALS   .IN                : CALIPER FROM SONIC LOG
DPHI_LS.DEC  45 890 10 00 : DENSITY POROSITY LIMESTONE
DT     .US/F 60 520 00 00 : DELTA TIME FROM SONIC LOG
GRD    .GAPI              : GAMMA RAY FROM DENSITY LOG
GRS    .GAPI              : GAMMA RAY FROM SONIC LOG
ILD    .OHMM 06 121 12 00 : INDUCTION LOG RESISTIVITY
ILM    .OHMM 07 120 44 00 : INDUCTION LOG MEDIUM RESISTIVITY
LL8    .OHMM              : LATEROLOG-8 RESISTIVITY
NPHI_LS.DEC               : ENCHANCED THERMAL NEUTRON POROSITY IN SELECTED LITHOLOGY SANDSTONE
NPHI_SS.DEC               : NEUTRON POROSITY SANDSTONE
RHOB   .G/C3 45 350 01 00 : BULK DENSITY
SPR    .MV                : SPONTANEOUS POTENTIAL FROM RESISTIVITY
TEND   .LB                : TENSION FROM DENSITY LOG
TENS   .LB   15 635 01 00 : TENSION FROM GAMMA RAY-NEUTRON LOG
DRHO   .G/C3 45 356 01 00 : DENSITY CORRECTION
DPHI_SS.DEC               : POROSITY SANDSTONE
~Params ----------------------------------------------------
PD  .                     GL : PERMANENT DATUM
EPD .FT               2939.3 : ELEVATION PERMANENT DATUM
LMF .                     KB : LOG MEASURED FROM
DAPD.FT                 14.7 : FEET ABOVE PERMANENT DATUM
EKB .FT                 2954 : KELLY BUSHING
EDF .FT                 2939 : DRILLING FLOOR
DATE.               12/09/76 : RUN DATE
RUN .                      1 : RUN NUMBER
DD  .FT                10196 : DEPTH DRILLER
DL  .FT                10201 : DEPTH LOGGER
BLI .FT                10195 : BOTTOM LOG INTERVAL
TLI .FT                 1133 : TOP LOG INTERVAL
CBD .FT                 1131 : CASING BOTTOM DRILLER
CBL .FT                 1133 : CASING BOTTOM LOGGER
BS  .IN                 8.75 : BIT SIZE
BSD .FT                10196 : BIT SIZE AT DEPTH
DFT .               GEL CHEM : DRILLING FLUID TYPE
DFD .                    8.9 : DRILLING FLUID DENSITY
DFV .                     84 : DRILLING FLUID VISCOSITY
DFPH.                   10.5 : DRILLING FLUID PH
DFL .                      9 : DRILLING FLUID LOSS
MSS .               FLOWLINE : MUD SAMPLE SOURCE
RMS .OHMM               2.18 : RESISTIVITY MUD SAMPLE
MST .DEGF                 95 : MUD SAMPLE TEMPERATURE
RMF .OHMM               2.63 : RESISTIVITY MUD FILTRATE SAMPLE
MFST.DEGF                 66 : MUD FILTRATE SAMPLE TEMPERATURE
RMC .OHMM               2.34 : RESISTIVITY MUD CAKE
MCST.DEGF                 56 : MUD CAKE SAMPLE TEMPERATURE
TCS .HRS                 6.5 : TIME CIRCULATED STOPPED
LUN .                   7691 : LOGGING UNIT NUMBER
LUL .                    WCT : LOGGING UNIT LOCATION
ENGI.                  LEGEE : RECORDING ENGINEER
WITN.             RICHARDSON : WITNESSED BY
CLNT.                A2DTECH : CLIENT CODE
ORIG.            2" 5" PRINT : ORIGIN OF DATA
UWI .       100071406218W500 : UNIQUE WELL ID
DICO. A2D Technologies, Inc. : DIGITIZING COMPANY
~Other -----------------------------------------------------
~ASCII -----------------------------------------------------
# ...
 3150.00000    9.11900    8.99520    -999.25   80.06230   67.30590   84.81710    5.91410    5.84160    6.84220    -999.25    0.32590    2.34480  -16.81740 2276.91310 2835.57540    0.17470    0.22560
 3200.00000    8.81440    8.78380    -999.25   86.63720   45.55710   69.42240   12.57210   13.62510   14.31840    -999.25    0.32920    2.42120  -27.70380 2236.76810 2608.51050    0.08400    0.15020
 3250.00000   12.04180   10.31580    -999.25  128.84480   63.53210   78.35820    3.77410    4.07050    7.59320    -999.25    0.40380    1.91370  -17.79660 2194.13380 2562.27760    0.15750    0.33300
 3300.00000    9.96580    9.16890    -999.25   91.02130   63.57180   82.17590    6.69700    7.33810    8.51260    -999.25    0.27020    2.41170  -18.36280 2152.66890 2391.53250    0.02700    0.14780
 3350.00000   10.96610    9.47710    -999.25   84.75510   58.71510   73.03250    7.81070    7.46990    9.15800    -999.25    0.29170    2.42640  -21.94650 2230.21440 2346.68160    0.05030    0.15000
 3400.00000   10.99560    9.48730    -999.25   76.13850   66.62150   90.03200   10.83100   10.16970   15.02580    -999.25    0.22520    -999.25  -20.87450    -999.25 2257.56230    -999.25    0.05650
 3450.00000    -999.25   10.24770    -999.25   95.68220    -999.25   98.63540    5.23360    4.92650    6.17220    -999.25    -999.25    -999.25  -18.45290    -999.25 2266.26730    -999.25    -999.25
 3500.00000    -999.25   11.09050    -999.25   89.69180    -999.25  119.90360    6.77490    6.40330    7.56630    -999.25    -999.25    -999.25  -23.02040    -999.25 2285.60160    -999.25    -999.25
 3550.00000    -999.25   11.24090    -999.25   91.48260    -999.25  113.47140    6.60590    6.31700    7.53240    -999.25    -999.25    -999.25  -21.93440    -999.25 1872.50420    -999.25    -999.25
 3600.00000    -999.25   10.93650    -999.25   97.56300    -999.25  120.00280    6.66580    6.35210    7.59070    -999.25    -999.25    -999.25  -21.55560    -999.25 2076.61670    -999.25    -999.25
 3650.00000    -999.25   10.77430    -999.25   95.05360    -999.25  158.70960    8.35720    7.80490   11.29670    -999.25    -999.25    -999.25  -18.76000    -999.25 2145.38720    -999.25    -999.25
 3700.00000    -999.25    9.75640    -999.25   94.70490    -999.25  131.09610    8.12580    7.75910   10.18140    -999.25    -999.25    -999.25  -18.94310    -999.25 2078.66310    -999.25    -999.25
 3750.00000    -999.25    9.63770    -999.25   96.39380    -999.25  128.69200    7.12850    6.79990    8.20250    -999.25    -999.25    -999.25  -20.30290    -999.25 1854.82040    -999.25    -999.25
 3800.00000    -999.25   10.27350    -999.25   97.52080    -999.25  121.17680    6.17220    5.93220    7.71520    -999.25    -999.25    -999.25  -22.47090    -999.25 1606.57190    -999.25    -999.25
 3850.00000    -999.25   10.73570    -999.25   93.02500    -999.25  121.68910    6.37670    6.00990    7.62750    -999.25    -999.25    -999.25  -20.58760    -999.25 1899.96680    -999.25    -999.25
 3900.00000    -999.25    9.99190    -999.25   89.07680    -999.25  119.02580    7.41810    7.02780    8.96050    -999.25    -999.25    -999.25  -22.09100    -999.25 1549.23780    -999.25    -999.25
 3950.00000    -999.25   10.11840    -999.25   85.19280    -999.25  125.06860    7.29720    7.04720    7.90700    -999.25    -999.25    -999.25  -19.85280    -999.25 1588.03200    -999.25    -999.25
 4000.00000    -999.25   10.74900    -999.25   88.18700    -999.25  129.71380    7.21740    6.96780    9.13420    -999.25    -999.25    -999.25  -19.52190    -999.25 1700.99100    -999.25    -999.25
 4050.00000    -999.25    9.30490    -999.25   93.02250    -999.25  135.03100    6.37240    5.97060    7.27830    -999.25    -999.25    -999.25  -19.98770    -999.25 1646.08690    -999.25    -999.25
 4100.00000    -999.25    9.55980    -999.25  103.59600    -999.25  125.43420    6.89050    6.40930    7.45290    -999.25    -999.25    -999.25  -20.69460    -999.25 1399.54140    -999.25    -999.25
 4150.00000    -999.25    9.24130    -999.25   91.90900    -999.25  126.23630    6.35150    5.93630    7.32810    -999.25    -999.25    -999.25  -20.19400    -999.25 2259.77440    -999.25    -999.25
 4200.00000    -999.25    9.64630    -999.25   80.04460    -999.25  113.65160    9.57080   10.03740   12.61040    -999.25    -999.25    -999.25  -25.66750    -999.25 2231.12840    -999.25    -999.25
 4250.00000    -999.25    9.34060    -999.25   82.82280    -999.25  136.76990    6.98000    7.25350    8.52890    -999.25    -999.25    -999.25  -22.78860    -999.25 2221.06880    -999.25    -999.25
 4300.00000    -999.25    9.41120    -999.25   84.40990    -999.25  133.97500    6.45370    6.91740    7.62000    -999.25    -999.25    -999.25  -22.88500    -999.25 2168.97780    -999.25    -999.25
 4350.00000    -999.25    9.29920    -999.25   81.87470    -999.25  129.94530    7.26650    7.46450    8.60820    -999.25    -999.25    -999.25  -21.91310    -999.25 2145.08890    -999.25    -999.25
 4400.00000    -999.25    9.43000    -999.25   87.10730    -999.25  137.93400    6.23790    6.48390    8.46770    -999.25    -999.25    -999.25  -21.16050    -999.25 1892.61670    -999.25    -999.25
 4450.00000    -999.25    9.70570    -999.25   89.48800    -999.25  132.01270    6.58810    6.95030    9.14870    -999.25    -999.25    -999.25  -20.30330    -999.25 1821.99040    -999.25    -999.25
 4500.00000    -999.25    9.29050    -999.25   95.85720    -999.25  148.16470    6.93170    7.35940    9.97890    -999.25    -999.25    -999.25  -19.08030    -999.25 1697.93850    -999.25    -999.25
 4550.00000    -999.25    9.28250    -999.25   92.35380    -999.25  154.00440    7.60680    8.04580   10.93110    -999.25    -999.25    -999.25  -18.32040    -999.25 1873.49160    -999.25    -999.25
 4600.00000    -999.25    9.09040    -999.25   92.81430    -999.25  165.47140    9.58620   10.30640   15.25490    -999.25    -999.25    -999.25  -18.30220    -999.25 1688.92000    -999.25    -999.25
 4650.00000    -999.25    9.07860    -999.25   94.20570    -999.25  160.11110    9.03290    9.29800   13.85640    -999.25    -999.25    -999.25  -17.46490    -999.25 1757.85950    -999.25    -999.25
 4700.00000    -999.25    9.22590    -999.25   85.54590    -999.25  170.03490   12.98870   14.72690   37.98280    -999.25    -999.25    -999.25  -18.14010    -999.25 1617.48770    -999.25    -999.25
 4750.00000    -999.25    9.50020    -999.25   96.08430    -999.25  155.49230    6.46540    6.92040    9.84700    -999.25    -999.25    -999.25  -17.14470    -999.25 1687.19060    -999.25    -999.25
 4800.00000    -999.25    9.74440    -999.25   88.25780    -999.25  116.76800    5.79830    6.11360    8.40100    -999.25    -999.25    -999.25  -19.68960    -999.25 2029.77860    -999.25    -999.25
 4850.00000    -999.25    9.86010    -999.25   85.95690    -999.25  138.44960    5.31550    5.56940    7.44150    -999.25    -999.25    -999.25  -16.59600    -999.25 2172.96440    -999.25    -999.25
 4900.00000    -999.25    9.87490    -999.25   79.19300    -999.25  134.60750    6.28390    6.74120    8.51780    -999.25    -999.25    -999.25  -17.74210    -999.25 1981.83750    -999.25    -999.25
 4950.00000    -999.25   10.54190    -999.25   90.24110    -999.25  136.89670    4.84220    5.04020    5.90010    -999.25    -999.25    -999.25  -16.13390    -999.25 1913.12000    -999.25    -999.25
 5000.00000    -999.25   10.04770    -999.25   83.04690    -999.25  126.78190    7.69640    8.15910    8.72440    -999.25    -999.25    -999.25  -17.00510    -999.25 2084.85010    -999.25    -999.25
 5050.00000    -999.25    9.65650    -999.25   85.98470    -999.25  130.54190    5.33950    5.61440    6.90790    -999.25    -999.25    -999.25  -15.95560    -999.25 1858.86120    -999.25    -999.25
 5100.00000    -999.25    9.53670    -999.25   91.09340    -999.25  137.78530    3.40790    3.55040    4.79250    -999.25    -999.25    -999.25  -16.08170    -999.25 1873.57810    -999.25    -999.25
 5150.00000    -999.25   10.99590    -999.25   98.97420    -999.25  165.32030    3.91630    4.12050    5.55760    -999.25    -999.25    -999.25  -13.77380    -999.25 1800.25960    -999.25    -999.25
