~Version ---------------------------------------------------
VERS. 2.0 : CWLS log ASCII Standard -VERSION 2.0
WRAP.  NO : ONE LINE PER DEPTH STEP
~Well ------------------------------------------------------
STRT.F                             1050.0 : START DEPTH
STOP.F                            10300.0 : STOP DEPTH
STEP.F                           50.00000 : STEP LENGTH
NULL.                             -999.25 : NULL VALUE
COMP.        CANADIAN HOMESTEAD OILS LTD. : COMPANY
WELL. HOMESTEAD S. SNIPE LAKE 10-14-68-19 : WELL
FLD .                                     : FIELD
LOC .                                     : LOCATION
CTRY.                              CANADA : COUNTRY
SRVC.              Schlumberger of Canada : SERVICE COMPANY
DATE.                         04-Mar-1963 : LOGDATE
PROV.                             Alberta : PROVINCE
UWI .                    100101406819W500 : UNIQUE WELL ID
SLAT.WGS84                       54.88835 : SURFACE LATITUDE
SLON.WGS84                      -116.7806 : SURFACE LONGITUDE
~Curve Information -----------------------------------------
DEPT.F                 : 
DT  .US/F 60 520 00 00 : ACOUSTIC TRANSIT TIME SLOWNESS, DELTA T
DT_1.US/F 60 520 00 00 : ACOUSTIC TRANSIT TIME SLOWNESS, DELTA T
GRS .GAPI              : GAMMA RAY FROM SONIC LOG
CALS.IN   60 280 50 00 : CALIPER FROM SONIC LOG
ILD .OHMM              : DEEP INDUCTION RESISTIVITY
SN  .OHMM 01 040 00 00 : SHORT NORMAL
CILD.MMHO 07 110 46 00 : CONDUCTIVITY INDUCTION LOG DEEP
SPR .MV                : SPONTANEOUS POTENTIAL FROM RESISTIVITY
~Params ----------------------------------------------------
PD  .                     GL : PERMANENT DATUM
EPD .FT               2807.4 : ELEVATION PERMANENT DATUM
LMF .                     KB : LOG MEASURED FROM
DAPD.FT                 13.6 : FEET ABOVE PERMANENT DATUM
EKB .FT                 2821 : KELLY BUSHING
EDF .FT               2807.4 : DRILLING FLOOR
DATE.               03/04/63 : RUN DATE
RUN .                      1 : RUN NUMBER
DD  .FT                10320 : DEPTH DRILLER
DL  .FT                10325 : DEPTH LOGGER
BLI .FT                10324 : BOTTOM LOG INTERVAL
TLI .FT                 1073 : TOP LOG INTERVAL
CBD .FT                 1075 : CASING BOTTOM DRILLER
CBL .FT                 1073 : CASING BOTTOM LOGGER
BS  .IN                    9 : BIT SIZE
BSD .FT                10320 : BIT SIZE AT DEPTH
DFT .                    GEL : DRILLING FLUID TYPE
DFD .                    9.9 : DRILLING FLUID DENSITY
DFV .                     84 : DRILLING FLUID VISCOSITY
DFPH.                      9 : DRILLING FLUID PH
DFL .                    8.6 : DRILLING FLUID LOSS
RMS .OHMM               3.51 : RESISTIVITY MUD SAMPLE
MST .DEGF                 55 : MUD SAMPLE TEMPERATURE
RMF .OHMM               1.98 : RESISTIVITY MUD FILTRATE SAMPLE
MFST.DEGF                 74 : MUD FILTRATE SAMPLE TEMPERATURE
RMC .OHMM               1.05 : RESISTIVITY MUD CAKE
MCST.DEGF                171 : MUD CAKE SAMPLE TEMPERATURE
RMB .OHMM               1.15 : RESISTIVITY MUD AT BHT
TCS .HRS                 3.5 : TIME CIRCULATED STOPPED
LUN .                   1571 : LOGGING UNIT NUMBER
LUL .                    WCT : LOGGING UNIT LOCATION
ENGI.                 PAVLIN : RECORDING ENGINEER
WITN.                   EARL : WITNESSED BY
CLNT.                A2DTECH : CLIENT CODE
ORIG.            2" 5" PRINT : ORIGIN OF DATA
UWI .       100101406819W500 : UNIQUE WELL ID
DICO. A2D Technologies, Inc. : DIGITIZING COMPANY
~Other -----------------------------------------------------
~ASCII -----------------------------------------------------
 1050.00000    -999.25    -999.25   48.12240    -999.25    -999.25    -999.25    -999.25    -999.25
 1100.00000  110.41780    -999.25   63.31340    9.55460    7.37810    8.03250  135.79630  -54.03010
 1150.00000  128.58600    -999.25   71.27390   11.72120    3.25490    4.18190  327.24860  -43.86050
 1200.00000  146.91110    -999.25   52.46350   12.21350    4.30530    5.16470  307.15920  -50.68160
 1250.00000  141.38580    -999.25   71.63280   11.18640    4.87390    5.48630  206.57040  -47.06220
 1300.00000  130.29690    -999.25   77.94120   10.99590    3.40050    4.32810  322.44750  -43.44890
 1350.00000  110.86520    -999.25   57.92990    9.00160    9.23170    9.73440   98.14360  -56.49000
 1400.00000  104.77120    -999.25   59.39670    9.16640    7.61910    6.81840  123.04370  -49.03760
 1450.00000  116.19100    -999.25   69.93940    8.60910    6.69690    7.04990  145.76540  -56.69290
 1500.00000   96.91220    -999.25   56.50930    9.77490    5.58950    6.02730  154.41210  -48.52910
 1550.00000  127.33750    -999.25   54.31180   14.54850    4.30210    5.17170  248.09540  -43.71690
 1600.00000  130.47310    -999.25   62.93040   12.09330    3.20300    4.19390  351.56810  -40.53540
 1650.00000  136.43440    -999.25   55.93820   11.43960    3.64550    4.57340  293.18090  -39.22760
 1700.00000  112.13810    -999.25   58.43060   12.38120    4.67310    5.11680  204.19040  -39.41850
 1750.00000  111.98960    -999.25   62.92760    9.35870    5.11240    5.87660  193.36090  -38.95520
 1800.00000  105.44430    -999.25   64.43040    9.78540    4.26500    5.27780  230.32830  -39.06640
 1850.00000  107.42090    -999.25   98.30510    9.79030    3.48850    5.08810  304.40230  -38.79230
 1900.00000  138.10820    -999.25   57.77960   10.44430    3.15990    4.25710  366.56000  -39.05540
 1950.00000  109.69430    -999.25   50.39950   10.05980    5.46890    6.46440  179.13640  -41.43970
 2000.00000   95.06130    -999.25   57.85620    9.64690    5.86510    6.24440  167.46250  -49.12810
 2050.00000  118.95430    -999.25   61.67240   12.23280    4.18080    5.00390  244.12390  -35.84510
 2100.00000  119.42460    -999.25   49.69720    9.62290    4.85590    7.10760  201.93620  -52.12330
 2150.00000  111.62680    -999.25   50.95090   10.46100    4.77170    5.91220  211.19800  -38.99330
 2200.00000  113.33980    -999.25   57.73830   11.70260    3.50190    4.64700  307.88570  -36.31950
 2250.00000  117.14540    -999.25   66.91180   11.45990    3.21960    4.34770  337.73050  -35.60850
 2300.00000  113.23950    -999.25   69.46030   11.05100    4.40820    5.74520  227.03050  -36.24940
 2350.00000   99.47060    -999.25   79.50090   12.80240    6.11920    7.11200  158.58370  -39.55600
 2400.00000  107.87110    -999.25   91.90030   13.14460    5.26910    6.51660  182.95970  -40.55140
 2450.00000  117.50290    -999.25   99.24710    9.99900    5.25250    7.43510  187.50270  -42.75640
 2500.00000  112.74890    -999.25  121.81390   12.39340    5.87750    8.54550  165.89290  -40.08020
 2550.00000  108.52750    -999.25   93.31700   11.00340    4.73430    6.85410  206.07620  -36.58840
 2600.00000  114.73000    -999.25   91.33900   12.46710    5.27110    6.99660  185.38980  -40.29880
 2650.00000  104.31220    -999.25   80.45260   13.11470    5.46230    7.20370  181.52920  -42.28110
 2700.00000  110.71010    -999.25   84.48630   13.10130    6.36360    8.40870  151.69040  -40.58180
 2750.00000  104.78650    -999.25   77.38660   10.58730    6.59400    7.51870  146.31630  -41.52390
 2800.00000   99.48790    -999.25   82.57210   12.57330    6.67190    7.98070  144.06730  -41.11980
 2850.00000  111.21350    -999.25   86.95160   12.25140    5.65100    7.20260  169.02840  -41.46750
 2900.00000  110.19120    -999.25   80.48500   13.33540    6.86280    8.19540  141.29890  -40.84030
 2950.00000  112.06410    -999.25   77.61730   13.95600    6.90730    8.27110  138.97310  -40.89440
 3000.00000   93.26280    -999.25   78.73480   12.27320    6.19150    7.69600  154.53010  -42.18380
 3050.00000   85.46950    -999.25   79.49760   12.42000    7.52650    7.92430  120.82650  -43.73620
 3100.00000  101.06390    -999.25   90.09510   11.41710    5.39800    6.66740  181.00430  -44.43080
 3150.00000  105.57600    -999.25   89.32450   11.83200    4.86740    6.53770  199.68290  -41.75250
 3200.00000  104.77630    -999.25   92.05670   12.16400    5.58490    7.59960  171.65720  -43.11950
 3250.00000  104.88830    -999.25   96.41260   11.86710    5.51470    7.58770  177.52070  -42.88100
 3300.00000   98.16320    -999.25  110.70310   10.41330    9.36020   12.46630  102.26110  -40.82000
 3350.00000  105.35030    -999.25  120.78140   10.39190    7.40460   10.72560  136.76170  -41.13740
 3400.00000   95.60510    -999.25   89.04910   11.60000    4.71030    6.49970  203.89970  -46.48850
 3450.00000   79.25750    -999.25   77.30560   10.58250    7.27190    8.55840  134.36170  -47.24010
 3500.00000  104.15630    -999.25   96.29400   10.72910    5.59620    8.14310  170.90670  -44.65950
 3550.00000   90.97610    -999.25   88.26290   11.03690    5.15640    7.13960  192.02440  -46.59660
 3600.00000   92.89550    -999.25   96.65120   10.23740    5.38880    7.71920  181.42130  -47.44930
 3650.00000   84.94870    -999.25   84.80660   10.38620    4.84670    6.60630  204.92890  -46.36810
 3700.00000   92.11580    -999.25   89.74600   11.90790    4.33060    5.95470  235.18810  -46.59420
 3750.00000   94.97110    -999.25   85.73070   11.98250    4.97910    7.03280  195.19030  -46.29540
 3800.00000   94.07600    -999.25   95.99070   11.65400    4.59530    6.70570  217.19780  -48.82890
 3850.00000  110.65280    -999.25  109.29840   10.66440    2.85990    4.38480  410.31730  -45.32040
 3900.00000  118.06700    -999.25   85.19150    9.80570    2.64550    3.89850  463.54100  -46.14760
 3950.00000   95.99150    -999.25   73.33310   10.96890    3.72470    5.39590  273.52750  -49.97020
 4000.00000  100.63750    -999.25   88.60410   11.17430    3.53210    5.26590  298.58020  -48.96370
 4050.00000  102.09050    -999.25   92.50030   10.49900    2.85230    4.61310  411.54170  -52.89310
 4100.00000   93.27020    -999.25   89.68370   11.69310    4.23830    6.91740  228.97090  -54.91910
 4150.00000  107.45670    -999.25   68.75870   11.25610    4.71310    8.89310  193.90540  -83.28500
 4200.00000   84.83700    -999.25   71.49200   10.70010    5.76440    9.56580  165.95070  -57.15680
 4250.00000   98.34830    -999.25   62.74350    9.15350    6.80260   21.01430  131.57470  -91.58610
 4300.00000   97.27890    -999.25   77.48480   10.83800    5.36630    8.65340  190.10500  -53.47620
 4350.00000   70.10750    -999.25   33.18350    8.14740    8.17260   19.45800  118.37660  -95.86090
 4400.00000   79.22090    -999.25   43.85330    7.93520    6.16950   25.64700  158.70820 -131.44100
 4450.00000   85.85770  139.63490   75.78700    9.42940    7.37860   12.85640  130.52970  -55.67770
 4500.00000  138.94920  137.09450   44.76850   11.82090    6.00780    9.60810  172.90910  -51.26390
 4550.00000   76.71170  132.51100   80.59420    9.44600    5.58020    8.74610  171.01500  -57.47260
 4600.00000   85.28800  139.57530   81.81500   10.24420    3.97670    6.95080  257.06210  -55.59400
 4650.00000   70.60390  114.19190   46.49770    9.58750    5.73580    9.65800  184.40080  -57.22450
 4700.00000   77.99860  134.77670   54.39280    9.91260    4.54020    9.30130  223.15700  -77.46640
 4750.00000   84.17650  139.45630   76.38340   10.67520    4.92530    7.53470  198.88580  -52.36980
 4800.00000   79.65940  138.92740   49.28580    8.46120    6.40080   24.89170  152.81630 -139.13220
 4850.00000   73.51070  123.26670   60.18700   10.86110    4.44280    7.04660  229.39490  -56.79840
 4900.00000   77.80810  133.28920   57.70150   11.02890    6.31280    8.89970  157.28240  -56.69570
 4950.00000   84.57310  139.74630   76.31980   11.63840    4.67370    7.69300  208.82310  -52.48230
 5000.00000   82.10710  139.48000   83.81640   11.89340    4.60050    7.09950  212.04390  -52.67380
