~Version ---------------------------------------------------
VERS.      2.0 : CWLS log ASCII Standard -VERSION 2.0
WRAP.       NO : One line per depth step
CREA. 08/31/13 : LAS Creation Date
~Well ------------------------------------------------------
STRT.M                         450.0 : START DEPTH
STOP.M                        3050.0 : STOP DEPTH
STEP.M                      50.00000 : STEP LENGTH
NULL.                        -999.25 : NULL VALUE
COMP.  AMOCO CANADA COMPANY LIMITED. : COMPANY
WELL. AMOCO ET AL MEEKWAP 4-33-66-16 : WELL
FLD .                                : FIELD
LOC .                                : LOCATION
CTRY.                         CANADA : COUNTRY
SRVC.                  Dresser Atlas : SERVICE COMPANY
DATE.                    27-Feb-1984 : LOGDATE
PROV.                        Alberta : PROVINCE
UWI .               100043306616W500 : UNIQUE WELL ID
SLAT.WGS84                  54.75214 : SURFACE LATITUDE
SLON.WGS84                  -116.363 : SURFACE LONGITUDE
~Curve Information -----------------------------------------
DEPT  .M      : DEPTH METER
AC    .US/M   : ACOUSTIC FROM SONIC LOG
C13   .MM     : CALIPER 1-3 PAD ELECTRODE FROM DENSITY LOG
C24   .MM     : CALIPER 2-4 PAD ELECTRODE FROM DENSITY LOG
CALS  .MM     : CALIPER FROM SONIC LOG
CORR  .KG/M3  : DENSITY CORRECTION FROM DENSITY LOG
DPHILS.V/V    : DENSITY POROSITY LIMESTONE [M=2710, F=1000] FROM DENSITY LOG
DPHISS.V/V    : DENSITY POROSITY SANDSTONE [M=2650, F=1000] FROM DENSITY LOG
GRD   .GAPI   : GAMMA RAY FROM DENSITY LOG
GRR   .GAPI   : GAMMA RAY FROM RESISTIVITY LOG
NPHILS.V/V    : NEUTRON POROSITY LIMESTONE FROM DENSITY LOG
NPHISS.V/V    : NEUTRON POROSITY SANDSTONE FROM DENSITY LOG
RFOC  .OHMM   : SHALLOW FOCUSED LOG RESISTIVITY FROM RESISTIVITY LOG
RHOB  .KG/M3  : BULK DENSITY FROM DENSITY LOG
RILD  .OHMM   : INDUCTION DEEP RESISTIVITY FROM RESISTIVITY LOG
RILM  .OHMM   : INDUCTION MEDIUM RESISTIVITY FROM RESISTIVITY LOG
SPR   .MV     : SPONTANEOUS POTENTIAL FROM RESISTIVITY LOG
TEND  .KG     : TENSION FROM DENSITY LOG
TENR  .KG     : TENSION FROM RESISTIVITY LOG
~Params ----------------------------------------------------
PD  .                         GL : PERMANENT DATUM
EPD .M                    849.31 : ELEVATION PERMANENT DATUM
LMF .                         KB : LOG MEASURED FROM
DAPD.M                       5.5 : FEET ABOVE PERMANENT DATUM
DMF .                         KB : DRILLING MEASURED FROM
EGL .M                    849.31 : GROUND LEVEL
DATE.                   02/27/84 : RUN DATE
RUN .                          1 : RUN NUMBER
DD  .M                      3064 : DEPTH DRILLER
DL  .M                    3062.6 : DEPTH LOGGER
BLI .M                      3062 : BOTTOM LOG INTERVAL
TLI .M                       466 : TOP LOG INTERVAL
CS  .MM                    244.5 : CASING SIZE
CBD .M                       466 : CASING BOTTOM DRILLER
CBL .M                       466 : CASING BOTTOM LOGGER
BS  .MM                    215.9 : BIT SIZE
BSD .M                      3064 : BIT SIZE AT DEPTH
DFT .                   GEL CHEM : DRILLING FLUID TYPE
DFD .                       1070 : DRILLING FLUID DENSITY
DFPH.                          9 : DRILLING FLUID PH
MSS .                CIRCULATION : MUD SAMPLE SOURCE
RMS .OHMM                      2 : RESISTIVITY MUD SAMPLE
MST .DEGC                   14.4 : MUD SAMPLE TEMPERATURE
RMF .OHMM                    1.8 : RESISTIVITY MUD FILTRATE SAMPLE
MFST.DEGC                   14.4 : MUD FILTRATE SAMPLE TEMPERATURE
RMC .OHMM                    2.5 : RESISTIVITY MUD CAKE
MCST.DEGC                   14.4 : MUD CAKE SAMPLE TEMPERATURE
MFSS.                       MEAS : MUD FILTRATE SAMPLE SOURCE
MCSS.                       MEAS : MUD CAKE SAMPLE SOURCE
LUN .                    HL 6219 : LOGGING UNIT NUMBER
LUL .                         GP : LOGGING UNIT LOCATION
ENGI.                      MARYC : RECORDING ENGINEER
CLNT.                    A2DTECH : CLIENT CODE
ORIG. 6.5"/100M 16.5"/100M PRINT : ORIGIN OF DATA
UWI .           100043306616W500 : UNIQUE WELL ID
DICO.     A2D Technologies, Inc. : DIGITIZING COMPANY
~Other -----------------------------------------------------
~ASCII -----------------------------------------------------
  450.00000    -999.25    -999.25    -999.25    -999.25    -999.25    -999.25    -999.25    -999.25   28.12780    -999.25    -999.25    -999.25    -999.25    -999.25    -999.25    -999.25    -999.25    -999.25
  500.00000  406.78650  266.04030  249.20900  254.37090  204.51910    -999.25    0.26050   65.59750   63.96140    -999.25    0.37110    3.07380 2202.78050    3.14320    2.78290  -47.11890  858.28420  -31.49990
  550.00000  345.27720  307.67770  233.57990  245.40680  180.66480    -999.25    0.12800   63.72310   57.75230    -999.25    0.32090    5.48150 2439.75000    7.36530    6.04140  -42.36520  910.38190  -19.67120
  600.00000  408.33110  335.31080  244.18990  281.32110  145.95020    -999.25    0.20100   51.94690   50.19980    -999.25    0.35340    3.55760 2322.98540    3.90770    3.56730  -41.53380  925.19400  -20.55870
  650.00000  365.83780  244.44250  210.84030  223.18980  193.04950    -999.25    0.17360   46.60010   41.73720    -999.25    0.32600    7.06490 2384.82250    8.02620    7.52200  -60.61000  875.76480  -25.70040
  700.00000  348.85800  282.55060  234.07850  245.40390  169.50950    -999.25    0.15370   82.32160   75.56210    -999.25    0.36060    4.65200 2368.57840    5.22760    4.38280  -44.54220  945.98740  -26.88150
  750.00000  344.86730  298.03210  223.99700  233.21110  128.56580    -999.25    0.19120  101.10570   95.73090    -999.25    0.33950    5.08290 2362.97880    5.59190    4.86700  -47.44900  989.11980  -29.43230
  800.00000  335.67820  354.84160  224.54420  228.56560  232.94270    -999.25    0.16980  110.56800   97.89140    -999.25    0.36820    5.84650 2384.06150    6.01710    5.19500  -45.72500  946.94760  -21.86500
  850.00000  320.71270  347.75890  219.56820  225.08920  167.62980    -999.25    0.14980   94.70050   96.38200    -999.25    0.27950    6.93370 2429.71120    8.16320    7.41920  -48.35770  891.89890  -26.39900
  900.00000  325.92030  317.72600  211.10840  220.99710  215.18330    -999.25    0.18190  115.08920  104.54630    -999.25    0.31340    5.13170 2353.53200    5.61790    4.92200  -47.96610  890.69220  -24.05760
  950.00000  326.40140  284.04480  319.21650  276.51720  164.96250    -999.25    0.29280  100.24800   88.35820    -999.25    0.27100    5.66160 2176.16670    7.30570    6.31180  -50.32900  818.59320  -23.19730
 1000.00000  342.60960  239.42360  255.70520  222.86860  223.78680    -999.25    0.05420  126.80390  121.69770    -999.25    0.34190    6.46030 2521.37770    6.09970    5.86760  -45.74340  896.21260  -20.27360
 1050.00000  330.89600  247.34590  219.37570  226.73620  113.35730    -999.25    0.11240  146.49380  129.45830    -999.25    0.30730    7.29130 2463.53250    7.02120    6.68030  -47.97520  913.58010  -30.80980
 1100.00000  296.57960  263.51870  252.51190  236.70810  178.55690    -999.25    0.03540  102.11360   97.62950    -999.25    0.32010    5.79710 2600.11990    5.70470    5.58120  -44.35080  906.43350  -19.35320
 1150.00000  310.42200  315.65650  236.84880  249.56030  172.48600    -999.25    0.11810  112.90240  101.83190    -999.25    0.29790    5.24950 2461.87080    4.88630    4.71480  -40.35180  915.21670  -20.88690
 1200.00000  351.36570  324.65930  239.10140  240.18220  190.41050    -999.25    0.17960  100.72340   93.29210    -999.25    0.35850    2.83620 2376.10330    2.57400    2.47090  -36.89660  863.38640  -20.05130
 1250.00000  232.85670  235.37280  226.93080  209.73450   80.93450    -999.25    0.02130   53.27690   46.29270    -999.25    0.19110   10.38420 2604.93850    9.91660   10.24660  -53.46730  828.16390  -32.04300
 1300.00000  316.46410  234.41130  284.28740  230.73440   55.72940    -999.25    0.28960   83.50960   75.01580    -999.25    0.37440    9.35560 2145.06400    7.75590    7.42520  -40.08900  829.11090  -27.22930
 1350.00000  281.45830  250.73920  293.79590  242.50510  429.77730    -999.25    0.16890   84.57620   79.40460    -999.25    0.27820    5.61940 2477.88650    5.17110    4.49640  -34.96000  935.37000  -27.88660
 1400.00000  275.24550  243.44600  287.79150  244.59820  178.23180    -999.25    0.06730   85.16640   77.95140    -999.25    0.26390    5.22000 2544.34620    5.57390    5.09410  -30.70790  851.97230  -32.42030
 1450.00000  258.99280  244.39220  276.22220  252.03330  240.41140    -999.25    0.06000   52.79910   53.66080    -999.25    0.25430    9.87510 2552.94600    3.93870    4.78670  -64.48400  867.15920  -21.83640
 1500.00000  358.92000  267.88660  351.85760  268.19800  189.73410    0.23820    0.19060   98.58430   88.20390    0.44640    0.53290    3.70250 2405.29250    4.09090    3.95290  -32.43550  982.93780  -25.00110
 1550.00000  229.35560  264.37440  275.07570  245.68720   12.50880    0.04480    0.00740   57.59750   76.51360    0.16460    0.20730   21.88860 2634.21700   13.38820   15.07990  -27.06860  882.27210  -28.59900
 1600.00000  243.69190  202.71660  210.69080  199.27420  180.70100    0.16550    0.13880   42.45750   36.71400    0.19740    0.23450   31.09330 2419.56400    3.98240    7.08820 -170.23850  940.41190  -19.45770
 1650.00000  192.11050  257.11020  263.06970  249.10300   71.71300    0.00510    -999.25   43.66840   41.28190    0.12560    -999.25   41.41820 2703.08840   13.44870   17.10970  -86.44820  841.34310  -28.66740
 1700.00000  190.55670  259.78530  271.90130  247.19360  103.88220   -0.01820    -999.25   47.28300   40.08810    0.08810    -999.25   24.44930 2741.30980   16.39220   18.59130  -89.85850  927.47860  -18.63740
 1750.00000  176.63930  252.08710  284.42910  247.66460   75.75120    0.02420    -999.25   10.83830   11.14600    0.04720    -999.25  156.50610 2663.41990   26.41120   39.84090 -187.13200  871.81840  -22.69100
 1800.00000  214.66030  273.02680  284.28420  260.41220   93.42160   -0.02530    -999.25   57.03100   61.16170    0.13450    -999.25   17.88540 2763.35910    3.25120    3.86930 -149.07080  959.68680  -24.24020
 1850.00000  177.86760  230.76970  239.78790  216.50540  124.65460   -0.04830    -999.25   35.39430   36.08960    0.03180    -999.25  233.70900 2785.22340   79.26500   86.84750  -75.75750  918.49560  -21.57720
 1900.00000  177.92290  230.22370  221.19400  197.27780  113.99330   -0.02520    -999.25   29.48450   25.09930    0.03270    -999.25   54.80930 2757.83840   47.16440   49.77910  -37.25430  908.60370  -25.00510
 1950.00000  222.13300  243.80390  270.85930  226.08270  124.56330    0.00960    -999.25  112.60280   61.45610    0.13760    -999.25   21.33040 2696.40310   16.20840   17.17190  -65.67450  905.08260  -28.16740
 2000.00000  164.14760  232.98460  268.68170  220.79950   67.45130   -0.01980    -999.25   10.65390   11.28270    0.01510    -999.25  335.34470 2749.31080  177.06520  159.79720 -136.47580  892.76890  -24.28620
 2050.00000  161.62270  229.99880  256.44220  211.82490   69.84280   -0.01930    -999.25    7.29490    8.49870    0.01530    -999.25  266.17300 2745.22850  216.64940  196.39710 -180.43580  965.61900  -32.85210
 2100.00000  166.51240  231.23840  257.62380  220.25600   87.13250   -0.00370    -999.25    5.22400    7.11150    0.02880    -999.25  178.52300 2720.43070   86.73180   91.29380 -116.40150  808.02480  -37.89480
 2150.00000  160.83230  230.16670  285.44940  213.83640  108.88340   -0.03040    -999.25   10.15670   10.75830    0.00420    -999.25    -999.25 2773.95360    -999.25 2004.62080 -141.81390  916.90920  -20.07220
 2200.00000  156.75240  233.05740  277.24290  220.05090  121.78030   -0.01720    -999.25   18.80480   19.12690    0.05500    -999.25  130.70820 2732.07300  133.21050   62.89580 -115.38610  904.30870   -7.19020
 2250.00000  160.49000  255.52930  223.92010  218.12500  130.21680   -0.04920    -999.25   22.42380   21.44830    0.08250    -999.25   89.78470 2799.76030   41.06470   54.88460    3.45840  852.41860  -34.23020
 2300.00000  169.64570  254.15290  223.86770  210.96440  103.16030    0.00150    -999.25    5.55920   13.69060    0.05350    -999.25  135.02870 2702.81050   58.78380   51.56590 -133.25370  889.25850  -21.37490
 2350.00000  172.33110  244.80570  298.71430  243.02490   76.75510    0.02930    -999.25   55.99550   60.73110    0.09690    -999.25   14.11890 2616.75950   10.79770   10.44940  -37.96070  943.04430  -19.34690
