~Version ---------------------------------------------------
VERS.      2.0 : CWLS log ASCII Standard -VERSION 2.0
WRAP.       NO : One line per depth step
CREA. 10/24/17 : LAS Creation Date
~Well ------------------------------------------------------
STRT.FT                        650.0 : START DEPTH
STOP.FT                       4200.0 : STOP DEPTH
STEP.FT                     50.00000 : STEP LENGTH
NULL.                        -999.25 : NULL VALUE
COMP. CANADIAN OIL COMPANIES LIMITED : COMPANY
WELL. WHITE ROSE DUVERNAY 11-22-55-1 : WELL
FLD .                                : FIELD
LOC .                                : LOCATION
CTRY.                         CANADA : COUNTRY
SRVC.                        Unknown : SERVICE COMPANY
DATE.                    08-Aug-1961 : LOGDATE
PROV.                        Alberta : PROVINCE
UWI .               100112205512W400 : UNIQUE WELL ID
SLAT.WGS84                  53.76748 : SURFACE LATITUDE
SLON.WGS84                 -111.7019 : SURFACE LONGITUDE
~Curve Information -----------------------------------------
DEPT  .FT         : Depth Curve
CALSED.IN         : CALIPER FROM SONIC LOG [ADJ. TO IEL &LL LOG]
CALWS .IN         : CALIPER [MCALED SPL. TO CALSED @ 3562']
CILDED.MMHO       : CONDUCTIVITY FROM IEL LOG
CLLDED.MMHO       : CONDUCTIVITY FROM LL LOG [ADJ. TO IEL LOG]
CONDWS.MMHO       : CONDUCTIVITY [1000/DRESWS]
DRESWS.OHMM       : DEEP RESISTIVITY [1000/CILDED,IF ILDED <5,ILDED,SPL. TO LLED @ 3646']
DTED  .US/F       : DELTA-T FROM SONIC LOG [ADJ. TO IEL &LL LOG]
DTWS  .US/F       : COMPRESSIONAL SONIC [DTED]
GRSED .UgRa-Eq/T  : GAMMA RAY FROM SONIC LOG [ADJ. TO IEL & LL LOG]
GRWS  .GAPI       : GAMMA RAY [GRSED*16.5]
ILDED .OHMM       : DEEP INDUCTION RESISTIVITY FROM IEL LOG
LLED  .OHMM       : LATEROLOG RESISTIVITY FROM LL LOG [ADJ. TO IEL LOG]
MCALED.IN         : CALIPER FROM MICRO LOG
SNED  .OHMM       : SHORT NORMAL RESISTIVITY FROM IEL LOG
SPRED .MV         : SPONTANEOUS POTENTIAL FROM IEL & LL LOG [SPR FROM IEL & SPR_1 FROM LL LOG] [ADJ. TO IEL LOG]
SPWS  .MV         : SPONTANEOUS POTENTIAL [BASELINE 0 MV, SPRED]
SRESWS.OHMM       : SHALLOW RESISTIVITY [SNED]
~Params ----------------------------------------------------
LMF .                     KB : LOG MEASURED FROM
DMF .                     KB : DRILLING MEASURED FROM
EKB .FT                 1948 : KELLY BUSHING
EGL .FT                 1937 : GROUND LEVEL
DATE.               09/08/61 : RUN DATE
RUN .                      1 : RUN NUMBER
DD  .FT                 4221 : DEPTH DRILLER
DL  .FT                 4223 : DEPTH LOGGER
BLI .FT                 4218 : BOTTOM LOG INTERVAL
TLI .FT                 3600 : TOP LOG INTERVAL
BS  .IN                 6.25 : BIT SIZE
BSD .FT                 4221 : BIT SIZE AT DEPTH
DFT .               SALT GEL : DRILLING FLUID TYPE
DFD .                   10.8 : DRILLING FLUID DENSITY
DFV .                     53 : DRILLING FLUID VISCOSITY
DFL .                    8.2 : DRILLING FLUID LOSS
RMS .OHMM               0.05 : RESISTIVITY MUD SAMPLE
MST .DEGF                 57 : MUD SAMPLE TEMPERATURE
RMB .OHMM               0.03 : RESISTIVITY MUD AT BHT
TCS .HRS                   2 : TIME CIRCULATED STOPPED
LUN .                   1574 : LOGGING UNIT NUMBER
LUL .                    EDM : LOGGING UNIT LOCATION
ENGI.          MILLS PARTHER : RECORDING ENGINEER
WITN.                MCNEALY : WITNESSED BY
CLNT.                A2DTECH : CLIENT CODE
ORIG.            2" 5" PRINT : ORIGIN OF DATA
UWI .       100112205512W400 : UNIQUE WELL ID
DICO. A2D Technologies, Inc. : DIGITIZING COMPANY
~Other -----------------------------------------------------
IEL-LL-BHC-MICRO LOG RAN
LLED IS IN INFINITY SCALE HENCE MAX VALUE COMES AS 87708 OHMM
~ASCII -----------------------------------------------------
  650.00000    -999.25   15.65750  275.95820    -999.25  275.95820    3.62370    -999.25    -999.25    -999.25    -999.25    3.67140    -999.25   15.65750    3.47030  -37.87700  -37.87700    3.47030
  700.00000    -999.25   11.28990  202.74490    -999.25  202.74490    4.93230    -999.25    -999.25    -999.25    -999.25    4.81490    -999.25   11.28990    5.08000  -49.74980  -49.74980    5.08000
  750.00000    -999.25   10.36180  231.74690    -999.25  231.74690    4.31510    -999.25    -999.25    -999.25    -999.25    4.21010    -999.25   10.36180    4.56520  -50.72600  -50.72600    4.56520
  800.00000    -999.25   13.24620  251.74510    -999.25  251.74510    3.97230    -999.25    -999.25    -999.25    -999.25    3.98680    -999.25   13.24620    4.11040  -45.18610  -45.18610    4.11040
  850.00000    -999.25    8.48250  184.97700    -999.25  191.22460    5.22970    -999.25    -999.25    -999.25    -999.25    5.22970    -999.25    8.48250    6.48500  -40.04160  -40.04160    6.48500
  900.00000    -999.25    8.40480  181.93540    -999.25  190.42900    5.25130    -999.25    -999.25    -999.25    -999.25    5.25130    -999.25    8.40480    5.71860  -41.61520  -41.61520    5.71860
  950.00000    -999.25    8.95420  216.71760    -999.25  216.71760    4.61450    -999.25    -999.25    -999.25    -999.25    4.45930    -999.25    8.95420    5.10550  -38.28310  -38.28310    5.10550
 1000.00000    -999.25   13.79740  200.85530    -999.25  200.85530    4.97870    -999.25    -999.25    -999.25    -999.25    4.92090    -999.25   13.79740    5.07100  -43.60810  -43.60810    5.07100
 1050.00000    -999.25   15.69060  241.18140    -999.25  241.18140    4.14630    -999.25    -999.25    -999.25    -999.25    4.14110    -999.25   15.69060    4.69210  -48.46930  -48.46930    4.69210
 1100.00000    -999.25   13.18330  247.03830    -999.25  251.63340    3.97410    -999.25    -999.25    -999.25    -999.25    3.97410    -999.25   13.18330    4.20950  -50.21160  -50.21160    4.20950
 1150.00000    -999.25   10.53100  290.34560    -999.25  290.34560    3.44420    -999.25    -999.25    -999.25    -999.25    3.49330    -999.25   10.53100    3.72860  -33.59680  -33.59680    3.72860
 1200.00000    -999.25    8.38950  259.05260    -999.25  259.05260    3.86050    -999.25    -999.25    -999.25    -999.25    3.89330    -999.25    8.38950    4.37570  -35.35030  -35.35030    4.37570
 1250.00000    -999.25    8.64070  356.82340    -999.25  356.82340    2.80250    -999.25    -999.25    -999.25    -999.25    2.76740    -999.25    8.64070    2.99060  -29.74420  -29.74420    2.99060
 1300.00000    -999.25   12.24550  465.47740    -999.25  465.47740    2.14830    -999.25    -999.25    -999.25    -999.25    2.19650    -999.25   12.24550    2.35310  -30.66410  -30.66410    2.35310
 1350.00000    -999.25   12.11640  379.94160    -999.25  379.94160    2.63240    -999.25    -999.25    -999.25    -999.25    2.51810    -999.25   12.11640    2.69810  -32.70230  -32.70230    2.69810
 1400.00000    -999.25   12.08980  343.89910    -999.25  343.89910    2.90780    -999.25    -999.25    -999.25    -999.25    2.73280    -999.25   12.08980    2.96840  -34.29640  -34.29640    2.96840
 1450.00000    -999.25   15.15880  442.60910    -999.25  442.60910    2.25930    -999.25    -999.25    -999.25    -999.25    2.25920    -999.25   15.15880    2.48840  -31.62070  -31.62070    2.48840
 1500.00000    -999.25   14.67470  422.05270    -999.25  422.05270    2.36940    -999.25    -999.25    -999.25    -999.25    2.49850    -999.25   14.67470    2.17360  -31.63360  -31.63360    2.17360
 1550.00000    -999.25   14.20050  467.88640    -999.25  467.88640    2.13730    -999.25    -999.25    -999.25    -999.25    2.23830    -999.25   14.20050    1.91080  -30.66200  -30.66200    1.91080
 1600.00000    -999.25   15.60740  464.75600    -999.25  464.75600    2.15170    -999.25    -999.25    -999.25    -999.25    2.25790    -999.25   15.60740    1.94880  -34.17290  -34.17290    1.94880
 1650.00000    -999.25   15.58870  396.20890    -999.25  396.20890    2.52390    -999.25    -999.25    -999.25    -999.25    2.64530    -999.25   15.58870    2.15380  -50.73930  -50.73930    2.15380
 1700.00000    -999.25    8.93920  242.88510    -999.25  242.88510    4.11970    -999.25    -999.25    -999.25    -999.25    4.14110    -999.25    8.93920    4.58190  -40.27480  -40.27480    4.58190
 1750.00000    -999.25    8.51830  334.34800    -999.25  334.34800    2.99090    -999.25    -999.25    -999.25    -999.25    3.14370    -999.25    8.51830    3.17060  -40.35110  -40.35110    3.17060
 1800.00000    -999.25   14.97300  389.70830    -999.25  389.70830    2.56600    -999.25    -999.25    -999.25    -999.25    2.70990    -999.25   14.97300    2.53160  -44.77070  -44.77070    2.53160
 1850.00000    -999.25    8.56770  281.18190    -999.25  281.18190    3.55640    -999.25    -999.25    -999.25    -999.25    3.51930    -999.25    8.56770    3.66170  -37.31510  -37.31510    3.66170
 1900.00000    -999.25    8.51550  412.01640    -999.25  412.01640    2.42710    -999.25    -999.25    -999.25    -999.25    2.61500    -999.25    8.51550    2.20420  -38.94480  -38.94480    2.20420
 1950.00000    -999.25    7.27000  344.90280    -999.25  344.90280    2.89980    -999.25    -999.25    -999.25    -999.25    3.07520    -999.25    7.27000    4.34650  -72.17240  -72.17240    4.34650
 2000.00000    -999.25    7.38350  295.76730    -999.25  295.76730    3.38100    -999.25    -999.25    -999.25    -999.25    3.46660    -999.25    7.38350    5.15930  -67.31490  -67.31490    5.15930
 2050.00000    -999.25   15.69440  306.83420    -999.25  306.83420    3.25910    -999.25    -999.25    -999.25    -999.25    3.54630    -999.25   15.69440    3.77650  -43.24490  -43.24490    3.77650
 2100.00000    -999.25    7.54860  269.00900    -999.25  269.00900    3.71780    -999.25    -999.25    -999.25    -999.25    3.78640    -999.25    7.54860    5.63300  -69.72240  -69.72240    5.63300
 2150.00000    -999.25    7.39780  615.50240    -999.25  615.50240    1.62470    -999.25    -999.25    -999.25    -999.25    1.83430    -999.25    7.39780    5.06500 -103.71050 -103.71050    5.06500
 2200.00000    -999.25    9.20030  184.46800    -999.25  187.12050    5.34420    -999.25    -999.25    -999.25    -999.25    5.34420    -999.25    9.20030    6.21310  -40.17360  -40.17360    6.21310
 2250.00000    -999.25    9.83850  181.28820    -999.25  185.28470    5.39710    -999.25    -999.25    -999.25    -999.25    5.39710    -999.25    9.83850    6.44480  -39.30630  -39.30630    6.44480
 2300.00000    -999.25    8.43120   84.42820    -999.25   81.52280   12.26650    -999.25    -999.25    -999.25    -999.25   12.26650    -999.25    8.43120   13.53680  -47.35250  -47.35250   13.53680
 2350.00000    -999.25    9.12550  181.24010    -999.25  189.29840    5.28450    -999.25    -999.25    -999.25    -999.25    5.28450    -999.25    9.12550    6.01910  -41.52950  -41.52950    6.01910
 2400.00000    -999.25    8.90830   90.43510    -999.25   89.61220   11.15920    -999.25    -999.25    -999.25    -999.25   11.15920    -999.25    8.90830   12.33190  -44.99940  -44.99940   12.33190
 2450.00000    -999.25    9.51370  122.88600    -999.25  118.52380    8.44910    -999.25    -999.25    -999.25    -999.25    8.44910    -999.25    9.51370    9.45830  -48.29750  -48.29750    9.45830
 2500.00000    -999.25   10.47320  259.01150    -999.25  259.01150    3.86080    -999.25    -999.25    -999.25    -999.25    3.86680    -999.25   10.47320    4.39940  -47.47220  -47.47220    4.39940
 2550.00000    -999.25   13.87300  291.32580    -999.25  291.32580    3.43260    -999.25    -999.25    -999.25    -999.25    3.40130    -999.25   13.87300    3.63150  -47.96060  -47.96060    3.63150
 2600.00000    -999.25    9.28900   90.61530    -999.25   89.97520   11.12650    -999.25    -999.25    -999.25    -999.25   11.12650    -999.25    9.28900   13.92490  -35.98070  -35.98070   13.92490
 2650.00000    -999.25   10.48780   93.51730    -999.25   91.43360   10.93690    -999.25    -999.25    -999.25    -999.25   10.93690    -999.25   10.48780   12.97860  -35.68450  -35.68450   12.97860
