~Version ---------------------------------------------------
VERS.      2.0 : CWLS log ASCII Standard -VERSION 2.0
WRAP.       NO : One line per depth step
CREA. 08/31/17 : LAS Creation Date
~Well ------------------------------------------------------
STRT.FT                            1500.0 : START DEPTH
STOP.FT                           12250.0 : STOP DEPTH
STEP.FT                          50.00000 : STEP LENGTH
NULL.                             -999.25 : NULL VALUE
COMP.            CHEVRON STANDARD LIMITED : COMPANY
WELL. CHEVRON NORCEN PL BRAZEAU 7-4-49-12 : WELL
FLD .                                     : FIELD
LOC .                                     : LOCATION
CTRY.                              CANADA : COUNTRY
SRVC.                        Schlumberger : SERVICE COMPANY
DATE.                         05-Jun-1978 : LOGDATE
PROV.                             Alberta : PROVINCE
UWI .                    100070404912W500 : UNIQUE WELL ID
SLAT.WGS84                       53.19691 : SURFACE LATITUDE
SLON.WGS84                      -115.6898 : SURFACE LONGITUDE
~Curve Information -----------------------------------------
DEPT    .FT    : Depth Curve
CALDED  .IN    : CALIPER FROM CNFD LOG
CALSED  .IN    : CALIPER FROM SONIC LOG [ADJ.TO GRDED]
CALWS   .IN    : CALIPER [CALSED]
CONDWS  .MMHO  : CONDUCTIVITY [1000/DRESWS]
DCORED  .G/C3  : DENSITY CORRECTION FROM CNFD LOG
DCORWS  .G/C3  : DENSITY CORRECTION [DCORED]
DENWS   .G/C3  : FORMATION BULK DENSITY [CALCULATED FROM DPOLSWS, M=2.71, F=1.00]
DPHILSED.V/V   : DENSITY POROSITY LIMESTONE [M=2.71, F=1.0] FROM CNFD LOG [ADJ.TO RHOBED]
DPHISSED.V/V   : DENSITY POROSITY SANDSTONE [M=2.65, F=1.0] FROM CNFD LOG [ADJ.TO RHOBED]
DPOLSWS .V/V   : DENSITY POROSITY LIMESTONE [DPHISSED CONVERTED TO LIMESTONE MATRIX,M=2.71, F=1.0, SPL.TO DPHILSED @ 2605.3']
DRESWS  .OHMM  : DEEP RESISTIVITY [ILDED]
DTED    .US/F  : DELTA-T FROM BCS LOG [ADJ.TO GRDED]
DTWS    .US/F  : COMPRESSIONAL SONIC [DTED]
GRDED   .GAPI  : GAMMA RAY FROM CNFD LOG
GRSED   .GAPI  : GAMMA RAY FROM BCS LOG [ADJ.TO GRDED]
GRWS    .GAPI  : GAMMA RAY [GRSED]
ILDED   .OHMM  : DEEP INDUCTION FROM DIL-LAT LOG
ILMED   .OHMM  : MEDIUM INDUCTION FROM DIL-LAT LOG
LL8ED   .OHMM  : LATEROLOG-8 FROM DIL-LAT LOG
MRESWS  .OHMM  : MEDIUM RESISTIVITY [ILMED]
NPHILSED.V/V   : NEUTRON POROSITY LIMESTONE FROM CNFD LOG [ADJ.TO RHOBED]
NPHISSED.V/V   : NEUTRON POROSITY SANDSTONE FROM CNFD LOG [ADJ.TO RHOBED]
NPOLSWS .V/V   : NEUTRON POROSITY LIMESTONE [NPHISSED CONVERTED TO LIMESTONE MATRIX & SPL. TO NPHILSED @ 2605']
RHOBED  .G/C3  : FORMATION BULK DENSITY FROM CNFD LOG
SPRED   .MV    : SPONTANEOUS POTENTIAL FROM DIL-LAT LOG
SPWS    .MV    : SPONTANEOUS POTENTIAL [BASELINE 0 MV,SPRED]
SRESWS  .OHMM  : SHALLOW RESISTIVITY [LL8ED]
~Params ----------------------------------------------------
PD  .                     GL : PERMANENT DATUM
EPD .FT               3221.1 : ELEVATION PERMANENT DATUM
LMF .                     KB : LOG MEASURED FROM
DAPD.FT                 18.9 : FEET ABOVE PERMANENT DATUM
DMF .                     KB : DRILLING MEASURED FROM
EKB .FT                 3240 : KELLY BUSHING
EGL .FT               3221.1 : GROUND LEVEL
DATE.               06/05/78 : RUN DATE
RUN .                      1 : RUN NUMBER
DD  .FT                12300 : DEPTH DRILLER
DL  .FT                12303 : DEPTH LOGGER
BLI .FT                12297 : BOTTOM LOG INTERVAL
TLI .FT                 1518 : TOP LOG INTERVAL
CBD .FT                 1518 : CASING BOTTOM DRILLER
CBL .FT                 1518 : CASING BOTTOM LOGGER
BS  .IN                 8.75 : BIT SIZE
BSD .FT                12300 : BIT SIZE AT DEPTH
DFT .                    GEL : DRILLING FLUID TYPE
DFD .                     11 : DRILLING FLUID DENSITY
DFV .                     68 : DRILLING FLUID VISCOSITY
DFPH.                   10.5 : DRILLING FLUID PH
MSS .               FLOWLINE : MUD SAMPLE SOURCE
RMS .OHMM               3.34 : RESISTIVITY MUD SAMPLE
MST .DEGF                 68 : MUD SAMPLE TEMPERATURE
TCS .HRS                 350 : TIME CIRCULATED STOPPED
LUN .                   7802 : LOGGING UNIT NUMBER
LUL .                    EDM : LOGGING UNIT LOCATION
ENGI.            STEENBERGEN : RECORDING ENGINEER
WITN.             RICHARDSON : WITNESSED BY
CLNT.                A2DTECH : CLIENT CODE
ORIG.            2" 5" PRINT : ORIGIN OF DATA
UWI .       100070404912W500 : UNIQUE WELL ID
DICO. A2D Technologies, Inc. : DIGITIZING COMPANY
~Other -----------------------------------------------------
~ASCII -----------------------------------------------------
 1500.00000    -999.25    -999.25    -999.25    -999.25    -999.25    -999.25    -999.25    -999.25    -999.25    -999.25    -999.25    -999.25    -999.25    -999.25   38.50070   38.50070    -999.25    -999.25    -999.25    -999.25    -999.25    -999.25    -999.25    -999.25    -999.25    -999.25    -999.25
 1550.00000    -999.25    9.50720    9.50720   65.91520    -999.25    -999.25    -999.25    -999.25    -999.25    -999.25   15.17100   94.09770   94.09770    -999.25   61.37050   61.37050   15.17100   12.66970   10.26610   12.66970    -999.25    -999.25    -999.25    -999.25  -18.55630   -9.28410   10.26610
 1600.00000    -999.25    9.42960    9.42960   37.52800    -999.25    -999.25    -999.25    -999.25    -999.25    -999.25   26.64680   91.64110   91.64110    -999.25   56.23010   56.23010   26.64680   22.97830   20.00090   22.97830    -999.25    -999.25    -999.25    -999.25  -16.90840   -6.56410   20.00090
 1650.00000    -999.25   10.17410   10.17410   66.02490    -999.25    -999.25    -999.25    -999.25    -999.25    -999.25   15.14580   93.23220   93.23220    -999.25   68.05370   68.05370   15.14580   12.91060   12.34250   12.91060    -999.25    -999.25    -999.25    -999.25  -21.30210  -10.95780   12.34250
 1700.00000    -999.25   10.15480   10.15480  137.94360    -999.25    -999.25    -999.25    -999.25    -999.25    -999.25    7.24960   94.19730   94.19730    -999.25   95.27930   95.27930    7.24960    8.14790    9.30590    8.14790    -999.25    -999.25    -999.25    -999.25  -16.33010   -5.98580    9.30590
 1750.00000    -999.25   10.33750   10.33750   76.70830    -999.25    -999.25    -999.25    -999.25    -999.25    -999.25   13.03640   92.02560   92.02560    -999.25   85.70030   85.70030   13.03640    9.67410   25.13240    9.67410    -999.25    -999.25    -999.25    -999.25  -20.77340  -10.42910   25.13240
 1800.00000    -999.25   10.60820   10.60820  176.38550    -999.25    -999.25    -999.25    -999.25    -999.25    -999.25    5.66940  120.68100  120.68100    -999.25   74.91090   74.91090    5.66940    6.97850   12.11040    6.97850    -999.25    -999.25    -999.25    -999.25  -16.19150   -5.84720   12.11040
 1850.00000    -999.25   10.13050   10.13050  199.91200    -999.25    -999.25    -999.25    -999.25    -999.25    -999.25    5.00220   93.47580   93.47580    -999.25  111.62810  111.62810    5.00220    4.33550    5.93220    4.33550    -999.25    -999.25    -999.25    -999.25  -15.30570   -4.96140    5.93220
 1900.00000    -999.25    9.81240    9.81240  182.31540    -999.25    -999.25    -999.25    -999.25    -999.25    -999.25    5.48500   92.34840   92.34840    -999.25   79.60710   79.60710    5.48500    6.96800    9.53060    6.96800    -999.25    -999.25    -999.25    -999.25  -20.73110  -10.38680    9.53060
 1950.00000    -999.25    9.62840    9.62840   97.95670    -999.25    -999.25    -999.25    -999.25    -999.25    -999.25   10.20910   82.23610   82.23610    -999.25   60.29290   60.29290   10.20910    9.75100    9.13420    9.75100    -999.25    -999.25    -999.25    -999.25  -20.04430   -9.70000    9.13420
 2000.00000    -999.25    9.70860    9.70860   26.45870    -999.25    -999.25    -999.25    -999.25    -999.25    -999.25   37.79470  126.64220  126.64220    -999.25   57.28450   57.28450   37.79470   51.58270  199.46290   51.58270    -999.25    -999.25    -999.25    -999.25  -17.24880   -6.90450  199.46290
 2050.00000    -999.25    9.79940    9.79940  132.74920    -999.25    -999.25    -999.25    -999.25    -999.25    -999.25    7.53300   85.54260   85.54260    -999.25   79.45080   79.45080    7.53300    6.84670    6.63470    6.84670    -999.25    -999.25    -999.25    -999.25  -17.19940   -6.85510    6.63470
 2100.00000    -999.25   10.39980   10.39980   86.86140    -999.25    -999.25    -999.25    -999.25    -999.25    -999.25   11.51260   83.19700   83.19700    -999.25   53.98730   53.98730   11.51260   10.28910    9.11780   10.28910    -999.25    -999.25    -999.25    -999.25  -24.72350  -14.37920    9.11780
 2150.00000    -999.25   10.31060   10.31060  135.26860    -999.25    -999.25    -999.25    -999.25    -999.25    -999.25    7.39270   86.72710   86.72710    -999.25   85.54770   85.54770    7.39270    6.80310    6.22520    6.80310    -999.25    -999.25    -999.25    -999.25  -18.59030   -8.24600    6.22520
 2200.00000    -999.25   10.17340   10.17340   85.07020    -999.25    -999.25    -999.25    -999.25    -999.25    -999.25   11.75700   77.08510   77.08510    -999.25   93.25470   93.25470   11.75700   11.08670   10.51500   11.08670    -999.25    -999.25    -999.25    -999.25  -19.64260   -9.29830   10.51500
 2250.00000    -999.25    9.74270    9.74270  437.71340    -999.25    -999.25    -999.25    -999.25    -999.25    -999.25    2.28460  118.60440  118.60440    -999.25  102.18380  102.18380    2.28460    3.03860    3.38900    3.03860    -999.25    -999.25    -999.25    -999.25  -16.30070   -5.95640    3.38900
 2300.00000    -999.25    9.44190    9.44190  442.73250    -999.25    -999.25    -999.25    -999.25    -999.25    -999.25    2.25870  104.26570  104.26570    -999.25  120.41890  120.41890    2.25870    2.38950    2.74890    2.38950    -999.25    -999.25    -999.25    -999.25  -16.75700   -6.41260    2.74890
 2350.00000    -999.25   10.02430   10.02430  185.76310    -999.25    -999.25    -999.25    -999.25    -999.25    -999.25    5.38320   81.75510   81.75510    -999.25   88.99920   88.99920    5.38320    6.00620    6.19200    6.00620    -999.25    -999.25    -999.25    -999.25  -17.01250   -6.66810    6.19200
 2400.00000    -999.25   10.12670   10.12670  206.19410    -999.25    -999.25    -999.25    -999.25    -999.25    -999.25    4.84980   93.32410   93.32410    -999.25   98.89370   98.89370    4.84980    5.59480    5.76600    5.59480    -999.25    -999.25    -999.25    -999.25  -17.53370   -7.18930    5.76600
 2450.00000    -999.25   10.11370   10.11370  129.09070    -999.25    -999.25    -999.25    -999.25    -999.25    -999.25    7.75190   78.53530   78.53530    -999.25  105.72000  105.72000    7.75190    8.32590    9.14430    8.32590    -999.25    -999.25    -999.25    -999.25  -17.19680   -6.85240    9.14430
 2500.00000    -999.25   10.02210   10.02210  127.79720    -999.25    -999.25    -999.25    -999.25    -999.25    -999.25    7.82490   80.68040   80.68040    -999.25   86.09240   86.09240    7.82490    7.37900    6.97100    7.37900    -999.25    -999.25    -999.25    -999.25  -17.88070   -7.53630    6.97100
 2550.00000    -999.25    9.95200    9.95200  204.86350    -999.25    -999.25    -999.25    -999.25    -999.25    -999.25    4.88130   93.93410   93.93410    -999.25   98.34940   98.34940    4.88130    5.37110    6.11640    5.37110    -999.25    -999.25    -999.25    -999.25  -17.58080   -7.23640    6.11640
 2600.00000    -999.25    9.94070    9.94070  129.18900    -999.25    -999.25    -999.25    -999.25    -999.25    -999.25    7.74060   78.27470   78.27470    -999.25   92.40190   92.40190    7.74060    8.19230    8.91870    8.19230    -999.25    -999.25    -999.25    -999.25  -21.25490  -10.91050    8.91870
 2650.00000    -999.25   10.05550   10.05550   87.66930    -999.25    -999.25    -999.25    -999.25    -999.25    -999.25   11.40650   75.13750   75.13750    -999.25   82.38740   82.38740   11.40650   10.68940   10.39010   10.68940    -999.25    -999.25    -999.25    -999.25  -24.35860  -14.01420   10.39010
 2700.00000    -999.25    9.94740    9.94740  139.42080    -999.25    -999.25    -999.25    -999.25    -999.25    -999.25    7.17270   82.38130   82.38130    -999.25   88.87190   88.87190    7.17270    6.74470    6.20980    6.74470    -999.25    -999.25    -999.25    -999.25  -18.75850   -8.41410    6.20980
 2750.00000    -999.25    9.88340    9.88340  149.93180    -999.25    -999.25    -999.25    -999.25    -999.25    -999.25    6.66970   77.23730   77.23730    -999.25   97.93270   97.93270    6.66970    6.93020    7.43760    6.93020    -999.25    -999.25    -999.25    -999.25  -18.56390   -8.21950    7.43760
