~Version ---------------------------------------------------
VERS.      2.0 : CWLS log ASCII Standard -VERSION 2.0
WRAP.       NO : One line per depth step
CREA. 11/03/17 : LAS Creation Date
~Well ------------------------------------------------------
STRT.FT                         1550.0 : START DEPTH
STOP.FT                        12000.0 : STOP DEPTH
STEP.FT                       50.00000 : STEP LENGTH
NULL.                          -999.25 : NULL VALUE
COMP. AMOCO CANADA PETROLEUM CO., LTD. : COMPANY
WELL.  AMOCO C-2 WASKAHIGAN 7-22-63-24 : WELL
FLD .                       WASKAHIGAN : FIELD
LOC .                                  : LOCATION
CTRY.                           CANADA : COUNTRY
SRVC.                          Unknown : SERVICE COMPANY
DATE.                      14-Dec-1976 : LOGDATE
PROV.                          Alberta : PROVINCE
UWI .                 100072206324W500 : UNIQUE WELL ID
SLAT.WGS84                    54.46349 : SURFACE LATITUDE
SLON.WGS84                   -117.5411 : SURFACE LONGITUDE
~Curve Information -----------------------------------------
DEPT    .FT    : Depth Curve
CALDED  .IN    : CALIPER FROM DENSITY LOG [ADJ. TO RESISTIVITY LOG]
CALSED  .IN    : CALIPER FROM SONIC LOG [ADJ. TO RESISTIVITY LOG]
CALWS   .IN    : CALIPER [CALDED]
CONDWS  .MMHO  : CONDUCTIVITY [1000/DRESWS]
DCORED  .G/C3  : DENSITY CORRECTION FROM DENSITY LOG [ADJ. TO RESISTIVITY LOG]
DCORWS  .G/C3  : DENSITY CORRECTION [DCORED]
DENWS   .G/C3  : FORMATION BULK DENSITY [RHOBED]
DPHILSED.V/V   : DENSITY POROSITY LIMESTONE [M=2.71, F=1.00 ASSUMED] FROM DENSITY LOG [ADJ. TO RESISTIVITY LOG]
DPHISSED.V/V   : DENSITY POROSITY SANDSTONE [M=2.65, F=1.00 ASSUMED] FROM DENSITY LOG [ADJ. TO RESISTIVITY LOG]
DPOLSWS .V/V   : DENSITY POROSITY LIMESTONE [CALC FROM DENWS, M=2710,F=1000 ASSUMED]
DRESWS  .OHMM  : DEEP RESISTIVITY [ILDED]
DTED    .US/F  : DELTA TIME FROM SONIC LOG [ADJ. TO RESISTIVITY LOG]
DTWS    .US/F  : COMPRESSIONAL SONIC [DTED]
GRDED   .GAPI  : GAMMA RAY FROM DENSITY LOG [ADJ. TO RESISTIVITY LOG]
GRSED   .GAPI  : GAMMA RAY FROM SONIC LOG [ADJ. TO RESISTIVITY LOG]
GRSRED  .GAPI  : GAMMA RAY (REPEAT SECTION) FROM SONIC LOG [ADJ. TO RESISTIVITY LOG]
GRWS    .GAPI  : GAMMA RAY [GRDED SPL. TO GRSRED @ 11982']
ILDED   .OHMM  : DEEP INDUCTION LOG RESISTIVITY FROM RESISTIVITY LOG
ILMED   .OHMM  : MEDIUM INDUCTION LOG RESISTIVITY FROM RESISTIVITY LOG
LL8ED   .OHMM  : 8 INCH LATEROLOG RESISTIVITY FROM RESISTIVITY LOG
MRESWS  .OHMM  : MEDIUM RESISTIVITY [ILMED]
NPHILSED.V/V   : NEUTRON POROSITY LIMESTONE FROM DENSITY LOG [ADJ. TO RESISTIVITY LOG]
NPHISSED.V/V   : NEUTRON POROSITY SANDSTONE FROM DENSITY LOG [ADJ. TO RESISTIVITY LOG]
NPOLSWS .V/V   : NEUTRON POROSITY LIMESTONE [SCHL. NPHISSED MATRIX CONVERSION FOR LIMESTONE, SPL. TO NPHILSED @ 7464']
RHOBED  .G/C3  : BULK DENSITY FROM DENSITY LOG [ADJ. TO RESISTIVITY LOG]
SPRED   .MV    : SPONTANEOUS POTENTIAL FROM RESISTIVITY LOG
SPWS    .MV    : SPONTANEOUS POTENTIAL [BASELINE 0 MV, SPRED]
SRESWS  .OHMM  : SHALLOW RESISTIVITY [LL8ED]
~Params ----------------------------------------------------
PD  .                     GL : PERMANENT DATUM
EPD .FT               2789.5 : ELEVATION PERMANENT DATUM
LMF .                     KB : LOG MEASURED FROM
DAPD.FT                 20.5 : FEET ABOVE PERMANENT DATUM
EKB .FT               2810.0 : KELLY BUSHING
EGL .FT               2789.5 : GROUND LEVEL
DATE.               12/14/76 : RUN DATE
RUN .                      1 : RUN NUMBER
DD  .FT                12005 : DEPTH DRILLER
DL  .FT                12008 : DEPTH LOGGER
BLI .FT                12002 : BOTTOM LOG INTERVAL
TLI .FT                 1519 : TOP LOG INTERVAL
CBD .FT                 1519 : CASING BOTTOM DRILLER
CBL .FT                 1519 : CASING BOTTOM LOGGER
BS  .IN                  8.5 : BIT SIZE
BSD .FT                12005 : BIT SIZE AT DEPTH
DFT .                    GEL : DRILLING FLUID TYPE
DFD .                    9.0 : DRILLING FLUID DENSITY
DFV .                     75 : DRILLING FLUID VISCOSITY
DFPH.                    9.5 : DRILLING FLUID PH
DFL .                   12.2 : DRILLING FLUID LOSS
MSS .               FLOWLINE : MUD SAMPLE SOURCE
RMS .OHMM               2.89 : RESISTIVITY MUD SAMPLE
MST .DEGF                 44 : MUD SAMPLE TEMPERATURE
RMF .OHMM               2.32 : RESISTIVITY MUD FILTRATE SAMPLE
MFST.DEGF                 62 : MUD FILTRATE SAMPLE TEMPERATURE
TCS .HRS                   4 : TIME CIRCULATED STOPPED
LUN .                   7635 : LOGGING UNIT NUMBER
LUL .                    EDM : LOGGING UNIT LOCATION
ENGI.                 PAQUIN : RECORDING ENGINEER
WITN.       MACDONALD FARLEY : WITNESSED BY
CLNT.                A2DTECH : CLIENT CODE
ORIG.            2" 5" PRINT : ORIGIN OF DATA
UWI .       100072206324W500 : UNIQUE WELL ID
DICO. A2D Technologies, Inc. : DIGITIZING COMPANY
~Other -----------------------------------------------------
DIL-CNFD-BCS TOOL RUN
GAPS IN DT AS PER IMAGE SPLICED
~ASCII -----------------------------------------------------
# ...
 6550.00000    9.06050    9.06680    9.06050   36.69210    0.02980    0.02980    1.56880    -999.25    0.60060    0.66740   27.25380  119.19830  119.19830   80.08920   81.22910    -999.25   80.08920   27.25380   28.02510  108.88430   28.02510    -999.25    0.76300    0.74150    1.56880 -141.63250   -9.81730  108.88430
 6600.00000    8.52600    8.87910    8.52600   65.07370    0.03090    0.03090    2.56860    -999.25    0.05360    0.08270   15.36720   72.05300   72.05300   95.43020  101.68800    -999.25   95.43020   15.36720   16.04030   19.74790   16.04030    -999.25    0.34250    0.29870    2.56860 -154.40610  -22.77550   19.74790
 6650.00000    8.61250    8.84070    8.61250   93.93730    0.00120    0.00120    2.48080    -999.25    0.13870    0.13400   10.64540   77.55830   77.55830   76.47240   83.96950    -999.25   76.47240   10.64540   11.13810   16.50130   11.13810    -999.25    0.37890    0.33570    2.48080 -154.25830  -23.42190   16.50130
 6700.00000    8.65970    8.84760    8.65970   34.36570    0.00560    0.00560    2.54740    -999.25    0.06580    0.09510   29.09880   65.03150   65.03150   45.75500   51.75410    -999.25   45.75500   29.09880   37.42680   68.47900   37.42680    -999.25    0.21920    0.17550    2.54740 -170.97640  -40.98720   68.47900
 6750.00000    8.66620    9.12450    8.66620   29.30250   -0.00370   -0.00370    1.93050    -999.25    0.41790    0.45580   34.12680  109.69610  109.69610   43.06260   48.72550    -999.25   43.06260   34.12680   21.18290  378.22480   21.18290    -999.25    0.71190    0.68620    1.93050 -150.18010  -21.03810  378.22480
 6800.00000    8.60490    8.95830    8.60490   91.50140   -0.00650   -0.00650    2.52130    -999.25    0.08260    0.11040   10.92880   73.11390   73.11390   71.52650   77.70470    -999.25   71.52650   10.92880   11.56440   11.50140   11.56440    -999.25    0.33350    0.28970    2.52130 -151.40540  -23.11060   11.50140
 6850.00000    8.58610    8.79680    8.58610   62.06520   -0.00920   -0.00920    2.59430    -999.25    0.03690    0.06770   16.11210   73.79390   73.79390  106.09690  121.96570    -999.25  106.09690   16.11210   16.84830   18.84500   16.84830    -999.25    0.35920    0.31570    2.59430 -135.82670   -8.37920   18.84500
 6900.00000    9.25140    9.15560    9.25140   89.45660    0.20480    0.20480    2.24100    -999.25    0.26050    0.27430   11.17860   80.51730   80.51730  100.98730  108.16620    -999.25  100.98730   11.17860   13.27680   18.25840   13.27680    -999.25    0.42360    0.38120    2.24100 -133.81580   -7.35250   18.25840
 6950.00000    8.55190    9.49300    8.55190   81.69270    0.02060    0.02060    2.54600    -999.25    0.05820    0.09590   12.24100   79.61010   79.61010  130.94920  137.16610    -999.25  130.94920   12.24100   12.52530   14.33760   12.52530    -999.25    0.40250    0.35970    2.54600 -147.60080  -22.45720   14.33760
 7000.00000    8.36330    8.76610    8.36330   32.05240    0.00760    0.00760    2.59560    -999.25    0.03610    0.06690   31.19890   68.28590   68.28590   70.61250   75.10360    -999.25   70.61250   31.19890   32.36220   33.63260   32.36220    -999.25    0.22510    0.18140    2.59560 -154.01090  -30.18700   33.63260
 7050.00000    8.69860    8.69870    8.69860   43.10070    0.03660    0.03660    2.49140    -999.25    0.10010    0.12780   23.20150   77.67600   77.67600  124.29040  128.78510    -999.25  124.29040   23.20150   24.66260   50.39690   24.66260    -999.25    0.36770    0.32430    2.49140 -137.15800  -14.65380   50.39690
 7100.00000    8.83360    8.97760    8.83360   39.43360   -0.00280   -0.00280    2.56210    -999.25    0.05540    0.08650   25.35910   73.56670   73.56670  128.84500  142.53250    -999.25  128.84500   25.35910   26.21650   35.03850   26.21650    -999.25    0.32980    0.28600    2.56210 -144.90600  -23.72150   35.03850
 7150.00000    8.89260    9.06500    8.89260   34.45060   -0.00250   -0.00250    2.64450    -999.25    0.00560    0.03830   29.02710   64.44590   64.44590  113.65890  121.53450    -999.25  113.65890   29.02710   30.82990   37.08380   30.82990    -999.25    0.23060    0.18680    2.64450 -138.76420  -18.89940   37.08380
 7200.00000    9.82760    9.22720    9.82760   55.02820    0.20450    0.20450    2.39520    -999.25    0.16830    0.18410   18.17250   75.09110   75.09110  123.93660  128.70250    -999.25  123.93660   18.17250   18.80600   20.33810   18.80600    -999.25    0.30850    0.26460    2.39520 -122.87490   -4.32980   20.33810
 7250.00000   10.06180    9.24300   10.06180   67.11680    0.23740    0.23740    2.37210    -999.25    0.13060    0.19760   14.89940   78.83090   78.83090  147.25540  148.67690    -999.25  147.25540   14.89940   15.39840   21.68290   15.39840    -999.25    0.34370    0.30000    2.37210 -137.17090  -19.13840   21.68290
 7300.00000    8.91930    8.87440    8.91930   66.13010    0.05850    0.05850    2.42710    -999.25    0.12940    0.16540   15.12170   74.17100   74.17100   53.92150   64.51200    -999.25   53.92150   15.12170   16.80040   31.28630   16.80040    -999.25    0.21000    0.16640    2.42710 -178.59720  -60.92350   31.28630
 7350.00000   10.97830    9.56120   10.97830  246.06300    0.10060    0.10060    2.14720    -999.25    0.31390    0.32910    4.06400   99.04310   99.04310  127.63470  128.45800    -999.25  127.63470    4.06400    4.26310    5.65620    4.26310    -999.25    0.57820    0.54280    2.14720 -133.16290  -15.84800    5.65620
 7400.00000    8.28880    8.45100    8.28880   67.97080    0.04200    0.04200    2.44290    -999.25    0.12590    0.15620   14.71220   67.38810   67.38810   45.08500   45.42010    -999.25   45.08500   14.71220   21.38160   62.07750   21.38160    -999.25    0.17680    0.13370    2.44290 -186.08590  -69.12990   62.07750
 7450.00000   12.39240   10.73840   12.39240  254.13610    0.13520    0.13520    2.09750    -999.25    0.31830    0.35820    3.93490   89.78620   89.78620  124.87080  118.40600    -999.25  124.87080    3.93490    4.09430    5.09310    4.09430    -999.25    0.55390    0.51700    2.09750 -128.85540  -12.25820    5.09310
 7500.00000    8.63620    9.11350    8.63620    5.48220   -0.01870   -0.01870    2.42990    0.16340    -999.25    0.16380  182.40910   82.01850   82.01850  196.95030  227.67020    -999.25  196.95030  182.40910  272.83420  389.51050  272.83420    0.37250    -999.25    0.37250    2.42990 -117.83380   -1.59550  389.51050
 7550.00000    8.63570    8.77410    8.63570    0.75740   -0.02050   -0.02050    2.37090    0.19140    -999.25    0.19830 1320.29660   78.24380   78.24380  300.00000  300.00000    -999.25  300.00000 1320.29660 1341.21570 1520.18510 1341.21570    0.31790    -999.25    0.31790    2.37090 -130.25950  -14.59610 1520.18510
 7600.00000    8.64970    8.73060    8.64970   19.64200   -0.00590   -0.00590    2.59960    0.06530    -999.25    0.06460   50.91120   60.81830   60.81830   99.89840  108.10970    -999.25   99.89840   50.91120   55.79760   64.14540   55.79760    0.14080    -999.25    0.14080    2.59960 -156.30660  -41.33460   64.14540
 7650.00000    8.73380    8.86570    8.73380   25.34820    0.00800    0.00800    2.67760    0.01960    -999.25    0.01890   39.45050   62.72950   62.72950  113.17660  114.83760    -999.25  113.17660   39.45050   41.31550   47.58740   41.31550    0.16700    -999.25    0.16700    2.67760 -119.21010   -4.92940   47.58740
 7700.00000    8.60170    8.71450    8.60170   29.84370   -0.01020   -0.01020    2.61290    0.06060    -999.25    0.05680   33.50790   60.99400   60.99400   97.87020  100.88150    -999.25   97.87020   33.50790   34.59420   39.79160   34.59420    0.11510    -999.25    0.11510    2.61290 -156.07960  -42.49030   39.79160
 7750.00000    8.54800    8.66950    8.54800   16.04610   -0.01160   -0.01160    2.64360    0.03820    -999.25    0.03880   62.32040   58.13420   58.13420  102.90250  109.35470    -999.25  102.90250   62.32040   67.24950   80.74960   67.24950    0.11430    -999.25    0.11430    2.64360 -133.73040  -20.83240   80.74960
