~Version ---------------------------------------------------
VERS.      2.0 : CWLS log ASCII Standard -VERSION 2.0
WRAP.       NO : One line per depth step
CREA. 11/15/17 : LAS Creation Date
~Well ------------------------------------------------------
STRT.FT                            1100.0 : START DEPTH
STOP.FT                           11050.0 : STOP DEPTH
STEP.FT                          50.00000 : STEP LENGTH
NULL.                             -999.25 : NULL VALUE
COMP.        CANADIAN HOMESTEAD OILS LTD. : COMPANY
WELL. HOMESTEAD ET AL ROSEVEAR 9-34-53-15 : WELL
FLD .                                     : FIELD
LOC .                                     : LOCATION
CTRY.                              CANADA : COUNTRY
SRVC.              Schlumberger of Canada : SERVICE COMPANY
DATE.                         06-May-1975 : LOGDATE
PROV.                             Alberta : PROVINCE
UWI .                    100093405315W500 : UNIQUE WELL ID
SLAT.WGS84                       53.62182 : SURFACE LATITUDE
SLON.WGS84                      -116.1151 : SURFACE LONGITUDE
~Curve Information -----------------------------------------
DEPT    .FT    : Depth Curve
CALDED  .IN    : CALIPER FROM CND LOG[DSH TO GRSED/ILDED]
CALSED  .IN    : CALIPER FROM SONIC LOG
CALWS   .IN    : CALIPER [CALSED]
CONDWS  .MMHO  : CONDUCTIVITY [1000/DRESWS]
DCORED  .G/C3  : DENSITY CORRECTION FROM CND LOG[DSH TO GRSED/ILDED]
DCORWS  .G/C3  : DENSITY CORRECTION DCORED]
DENWS   .G/C3  : BULK FORMATION DENSITY[RHOBED]
DPHILSED.V/V   : DENSITY POROSITY LIMESTONE[M=2.71, F=1.00]FROM CND LOG[DSH TO GRSED/ILDED]
DPHISSED.V/V   : DENSITY POROSITY SANDSTONE[M=2.65, F=1.00]FROM CND LOG[DSH TO GRSED/ILDED]
DPOLSWS .V/V   : DENSITY POROSITY LIMESTONE[M=2.71, F=1.00][CALCULATED FROM DENWS]
DRESWS  .OHMM  : DEEP RESISTIVITY [ILDED]
DTED    .US/F  : ACOUSTIC TRANSIT TIME SLOWNESS, DELTA T
DTWS    .US/F  : ACOUSTIC TRANSIT TIME SLOWNESS[DTED]
GRDED   .GAPI  : GAMMA RAY FROM DENSITY LOG[DSH TO GRSED/ILDED]
GRSED   .GAPI  : GAMMA RAY FROM SONIC LOG
GRWS    .GAPI  : GAMMA RAY [GRSED]
ILDED   .OHMM  : INDUCTION LOG DEEP RESISTIVITY
ILMED   .OHMM  : INDUCTION LOG MEDIUM RESISTIVITY
LL8ED   .OHMM  : 8 INCH LATEROLOG RESISTIVITY
MRESWS  .OHMM  : MEDIUM RESISTIVITY [ILMED]
NPHILSED.V/V   : NEUTRON POROSITY LIMESTONE FROM CND LOG[DSH TO GRSED/ILDED]
NPHISSED.V/V   : NEUTRON POROSITY SANDSTONE FROM CND LOG[DSH TO GRSED/ILDED]
NPOLSWS .V/V   : NEUTRON POROSITY LIMESTONE[ NPHSSED CONVERTED TO LIMESTONE AND SPLICED TO NPHILSED AT 7521']
RHOBED  .G/C3  : BULK FORMATION DENSITY FROM CND LOG[DSH TO GRSED/ILDED]
SPHIED  .V/V   : SONIC POROSITY [DTM=55.6, DF=189<7520' and 47.6 DF=189>7520']FROM SONIC LOG
SPOWS   .V/V   : SONIC POROSITY [SPHIED]
SPRED   .MV    : SPONTANEOUS POTENTIAL FROM RESISTIVITY LOG
SPWS    .MV    : SPONTANEOUS POTENTIAL [BASELINE 0 MV] [SPRED]
SRESWS  .OHMM  : SHALLOW RESISTIVITY [LL8ED]
~Params ----------------------------------------------------
PD  .                     GL : PERMANENT DATUM
EPD .FT               2932.7 : ELEVATION PERMANENT DATUM
LMF .                     KB : LOG MEASURED FROM
DAPD.FT                 18.3 : FEET ABOVE PERMANENT DATUM
EKB .FT                 2951 : KELLY BUSHING
EGL .FT               2932.7 : GROUND LEVEL
DATE.               05/06/75 : RUN DATE
RUN .                      1 : RUN NUMBER
DD  .FT                11081 : DEPTH DRILLER
DL  .FT                11087 : DEPTH LOGGER
BLI .FT                11081 : BOTTOM LOG INTERVAL
TLI .FT                 1136 : TOP LOG INTERVAL
CBD .FT                 1136 : CASING BOTTOM DRILLER
CBL .FT                 1134 : CASING BOTTOM LOGGER
BS  .IN                 8.75 : BIT SIZE
BSD .FT                11081 : BIT SIZE AT DEPTH
DFT .               CHEM GEL : DRILLING FLUID TYPE
DFD .                    9.2 : DRILLING FLUID DENSITY
DFV .                     90 : DRILLING FLUID VISCOSITY
DFPH.                     11 : DRILLING FLUID PH
DFL .                    8.4 : DRILLING FLUID LOSS
MSS .              CIRULATED : MUD SAMPLE SOURCE
RMS .OHMM               1.22 : RESISTIVITY MUD SAMPLE
MST .DEGF                 72 : MUD SAMPLE TEMPERATURE
RMF .OHMM               0.98 : RESISTIVITY MUD FILTRATE SAMPLE
MFST.DEGF                 70 : MUD FILTRATE SAMPLE TEMPERATURE
LUN .                   7690 : LOGGING UNIT NUMBER
LUL .                    EDM : LOGGING UNIT LOCATION
ENGI.                  BORLE : RECORDING ENGINEER
WITN.                   KING : WITNESSED BY
CLNT.                A2DTECH : CLIENT CODE
ORIG.            2" 5" PRINT : ORIGIN OF DATA
UWI .       100093405315W500 : UNIQUE WELL ID
DICO. A2D Technologies, Inc. : DIGITIZING COMPANY
~Other -----------------------------------------------------
~ASCII -----------------------------------------------------
# ...
 3600.00000    -999.25   10.96330   10.96330  160.10500    -999.25    -999.25    -999.25    -999.25    -999.25    -999.25    6.24590   86.57870   86.57870    -999.25   67.21190   67.21190    6.24590    5.72460    5.57780    5.72460    -999.25    -999.25    -999.25    -999.25    0.24630    0.24630 -107.48210   -2.88950    5.57780
 3650.00000    -999.25   11.42660   11.42660  140.79350    -999.25    -999.25    -999.25    -999.25    -999.25    -999.25    7.10260   85.11100   85.11100    -999.25   68.81770   68.81770    7.10260    6.91870    6.46460    6.91870    -999.25    -999.25    -999.25    -999.25    0.23160    0.23160 -106.41420   -2.05730    6.46460
 3700.00000    -999.25   11.36170   11.36170  152.32290    -999.25    -999.25    -999.25    -999.25    -999.25    -999.25    6.56500   84.10500   84.10500    -999.25   68.60690   68.60690    6.56500    6.13190    5.93840    6.13190    -999.25    -999.25    -999.25    -999.25    0.22190    0.22190 -106.83660   -2.63680    5.93840
 3750.00000    -999.25   11.25860   11.25860  149.05130    -999.25    -999.25    -999.25    -999.25    -999.25    -999.25    6.70910   84.49880   84.49880    -999.25   55.10890   55.10890    6.70910    5.90150    4.89600    5.90150    -999.25    -999.25    -999.25    -999.25    0.22000    0.22000 -107.33310   -3.27080    4.89600
 3800.00000    -999.25   11.10290   11.10290  124.70690    -999.25    -999.25    -999.25    -999.25    -999.25    -999.25    8.01880   87.58320   87.58320    -999.25   60.09930   60.09930    8.01880    7.72880    6.78220    7.72880    -999.25    -999.25    -999.25    -999.25    0.24710    0.24710 -107.65550   -3.73060    6.78220
 3850.00000    -999.25   11.34180   11.34180  172.58040    -999.25    -999.25    -999.25    -999.25    -999.25    -999.25    5.79440   92.16880   92.16880    -999.25   66.28150   66.28150    5.79440    4.98480    4.44600    4.98480    -999.25    -999.25    -999.25    -999.25    0.28780    0.28780 -105.54280   -1.75540    4.44600
 3900.00000    -999.25   10.81960   10.81960   84.46870    -999.25    -999.25    -999.25    -999.25    -999.25    -999.25   11.83870   78.50570   78.50570    -999.25   43.26310   43.26310   11.83870   11.17060   10.07810   11.17060    -999.25    -999.25    -999.25    -999.25    0.18900    0.18900 -107.39190   -3.74190   10.07810
 3950.00000    -999.25   11.54000   11.54000  160.68900    -999.25    -999.25    -999.25    -999.25    -999.25    -999.25    6.22320   88.54140   88.54140    -999.25   60.82090   60.82090    6.22320    5.81730    4.96160    5.81730    -999.25    -999.25    -999.25    -999.25    0.25370    0.25370 -104.87140   -1.35880    4.96160
 4000.00000    -999.25   11.36450   11.36450  163.40670    -999.25    -999.25    -999.25    -999.25    -999.25    -999.25    6.11970   85.11800   85.11800    -999.25   63.95690   63.95690    6.11970    5.71350    5.47690    5.71350    -999.25    -999.25    -999.25    -999.25    0.25140    0.25140 -104.97470   -1.59960    5.47690
 4050.00000    -999.25   11.31140   11.31140  135.49950    -999.25    -999.25    -999.25    -999.25    -999.25    -999.25    7.38010   83.79600   83.79600    -999.25   63.27640   63.27640    7.38010    7.80290    7.05510    7.80290    -999.25    -999.25    -999.25    -999.25    0.21640    0.21640 -105.81330   -2.57560    7.05510
 4100.00000    -999.25   10.51220   10.51220   44.44090    -999.25    -999.25    -999.25    -999.25    -999.25    -999.25   22.50180   75.63110   75.63110    -999.25   36.34940   36.34940   22.50180   26.26890   27.78200   26.26890    -999.25    -999.25    -999.25    -999.25    0.15820    0.15820 -116.01880  -12.91850   27.78200
 4150.00000    -999.25   12.18470   12.18470  151.63230    -999.25    -999.25    -999.25    -999.25    -999.25    -999.25    6.59490   87.24210   87.24210    -999.25   66.28180   66.28180    6.59490    6.31230    6.19240    6.31230    -999.25    -999.25    -999.25    -999.25    0.25570    0.25570 -103.77080   -0.80800    6.19240
 4200.00000    -999.25   11.78400   11.78400   81.47640    -999.25    -999.25    -999.25    -999.25    -999.25    -999.25   12.27350   76.12240   76.12240    -999.25   55.93900   55.93900   12.27350   12.41230   11.28230   12.41230    -999.25    -999.25    -999.25    -999.25    0.16520    0.16520 -105.44450   -2.61910   11.28230
 4250.00000    -999.25   11.14950   11.14950  150.00380    -999.25    -999.25    -999.25    -999.25    -999.25    -999.25    6.66650   85.80590   85.80590    -999.25   69.36700   69.36700    6.66650    6.89220    7.00300    6.89220    -999.25    -999.25    -999.25    -999.25    0.24300    0.24300 -104.25420   -1.56630    7.00300
 4300.00000    -999.25   11.24770   11.24770  159.02550    -999.25    -999.25    -999.25    -999.25    -999.25    -999.25    6.28830   83.25530   83.25530    -999.25   67.30570   67.30570    6.28830    6.82220    7.24460    6.82220    -999.25    -999.25    -999.25    -999.25    0.22840    0.22840 -104.25370   -1.70320    7.24460
 4350.00000    -999.25   12.16550   12.16550  155.40500    -999.25    -999.25    -999.25    -999.25    -999.25    -999.25    6.43480  112.57210  112.57210    -999.25   55.36700   55.36700    6.43480    7.34980   12.02390    7.34980    -999.25    -999.25    -999.25    -999.25    0.40080    0.40080 -104.08730   -1.67420   12.02390
 4400.00000    -999.25   11.19310   11.19310   82.73490    -999.25    -999.25    -999.25    -999.25    -999.25    -999.25   12.08680   79.81800   79.81800    -999.25   61.73810   61.73810   12.08680   13.07230   14.38140   13.07230    -999.25    -999.25    -999.25    -999.25    0.18590    0.18590 -106.00890   -3.73330   14.38140
 4450.00000    -999.25   11.46460   11.46460  145.75350    -999.25    -999.25    -999.25    -999.25    -999.25    -999.25    6.86090   86.15420   86.15420    -999.25   64.55750   64.55750    6.86090    7.19990    8.07100    7.19990    -999.25    -999.25    -999.25    -999.25    0.23950    0.23950 -102.75420   -0.61600    8.07100
 4500.00000    -999.25   12.11500   12.11500  100.36330    -999.25    -999.25    -999.25    -999.25    -999.25    -999.25    9.96380   83.05880   83.05880    -999.25   80.89960   80.89960    9.96380   10.75200   11.91570   10.75200    -999.25    -999.25    -999.25    -999.25    0.21630    0.21630 -104.21660   -2.21580   11.91570
 4550.00000    -999.25   12.15410   12.15410  110.00010    -999.25    -999.25    -999.25    -999.25    -999.25    -999.25    9.09090   82.68660   82.68660    -999.25   90.19900   90.19900    9.09090    9.59770   10.03970    9.59770    -999.25    -999.25    -999.25    -999.25    0.21330    0.21330 -105.33340   -3.47010   10.03970
 4600.00000    -999.25   12.21220   12.21220  100.14120    -999.25    -999.25    -999.25    -999.25    -999.25    -999.25    9.98590   83.00090   83.00090    -999.25   93.08010   93.08010    9.98590   10.37200   10.82880   10.37200    -999.25    -999.25    -999.25    -999.25    0.21780    0.21780 -104.42020   -2.69430   10.82880
 4650.00000    -999.25   11.58810   11.58810   81.58870    -999.25    -999.25    -999.25    -999.25    -999.25    -999.25   12.25660   79.14090   79.14090    -999.25   90.15030   90.15030   12.25660   13.12530   14.24110   13.12530    -999.25    -999.25    -999.25    -999.25    0.19060    0.19060 -105.20520   -3.61680   14.24110
 4700.00000    -999.25   11.46140   11.46140   86.85680    -999.25    -999.25    -999.25    -999.25    -999.25    -999.25   11.51320   82.03190   82.03190    -999.25   94.14190   94.14190   11.51320   12.19090   12.86420   12.19090    -999.25    -999.25    -999.25    -999.25    0.20560    0.20560 -105.66690   -4.21590   12.86420
 4750.00000    -999.25   11.59050   11.59050   79.73080    -999.25    -999.25    -999.25    -999.25    -999.25    -999.25   12.54220   84.21420   84.21420    -999.25   96.10280   96.10280   12.54220   13.39850   14.77710   13.39850    -999.25    -999.25    -999.25    -999.25    0.23270    0.23270 -104.37800   -3.06440   14.77710
 4800.00000    -999.25   11.49200   11.49200   91.74560    -999.25    -999.25    -999.25    -999.25    -999.25    -999.25   10.89970   89.34700   89.34700    -999.25  110.63440  110.63440   10.89970   11.84080   13.53210   11.84080    -999.25    -999.25    -999.25    -999.25    0.26240    0.26240 -103.54070   -2.36460   13.53210
