~Version ---------------------------------------------------
VERS.      2.0 : CWLS log ASCII Standard -VERSION 2.0
WRAP.       NO : One line per depth step
CREA. 09/29/17 : LAS Creation Date
~Well ------------------------------------------------------
STRT.FT                         1450.0 : START DEPTH
STOP.FT                        11100.0 : STOP DEPTH
STEP.FT                       50.00000 : STEP LENGTH
NULL.                          -999.25 : NULL VALUE
COMP. AMOCO CANADA PETROLEUM CO., LTD. : COMPANY
WELL.       AMOCO PEX TONY 10-16-64-22 : WELL
FLD .                                  : FIELD
LOC .                                  : LOCATION
CTRY.                           CANADA : COUNTRY
SRVC.           Schlumberger of Canada : SERVICE COMPANY
DATE.                      08-Apr-1978 : LOGDATE
PROV.                          Alberta : PROVINCE
UWI .                 100101606422W500 : UNIQUE WELL ID
SLAT.WGS84                    54.53914 : SURFACE LATITUDE
SLON.WGS84                   -117.2632 : SURFACE LONGITUDE
~Curve Information -----------------------------------------
DEPT    .FT    : Depth Curve
CALDED  .IN    : CALIPER FROM DENSITY LOG [ADJ. TO RESISTIVITY LOG]
CALSED  .IN    : CALIPER FROM SONIC LOG [ADJ. TO RESISTIVITY LOG]
CALWS   .IN    : CALIPER [CALDED]
CONDWS  .MMHO  : CONDUCTIVITY [1000/DRESWS]
DCORWS  .G/C3  : DENSITY CORRECTION [DRHOED]
DENWS   .G/C3  : BULK DENSITY [RHOBED]
DPHILSED.V/V   : DENSITY POROSITY LIMESTONE [M=2710,F=1000] FROM DENSITY LOG [ADJ. TO RESISTIVITY LOG]
DPHISSED.V/V   : DENSITY POROSITY SANDSTONE [M=2650,F=1000] FROM DENSITY LOG [ADJ. TO RESISTIVITY LOG]
DPOLSWS .V/V   : DENSITY POROSITY LIMESTONE [CALC. FROM DENWS,M=2710,F=1000]
DRESWS  .OHMM  : DEEP RESISTIVITY [ILDED]
DRHOED  .G/C3  : BULK DENSITY CORRECTION FROM DENSITY LOG [ADJ. TO RESISTIVITY LOG]
DTED    .US/F  : DELTA -T FROM SONIC LOG [ADJ. TO RESISTIVITY LOG]
DTWS    .US/F  : COMPRESSIONAL SONIC [DTED]
GRDED   .GAPI  : GAMMA RAY FROM DENSITY LOG [ADJ. TO RESISTIVITY LOG]
GRED    .GAPI  : GAMMA RAY FROM CBL LOG [ADJ. TO RESISTIVITY LOG]
GRSED   .GAPI  : GAMMA RAY FROM SONIC LOG [ADJ. TO RESISTIVITY LOG]
GRWS    .GAPI  : GAMMA RAY [GRED SPL. TO GRDED SPL. TO 458M]
ILDED   .OHMM  : DEEP INDUCTION RESISTIVITY FROM RESISTIVITY LOG
ILMED   .OHMM  : MEDIUM INDUCTION RESISTIVITY FROM RESISTIVITY LOG
LL8ED   .OHMM  : LATEROLOG-8 RESISTIVITY FROM RESISTIVITY LOG
MRESWS  .OHMM  : MEDIUM RESISTIVITY [ILMED]
NEUTED  .NAPI  : NEUTRON FROM CBL LOG [ADJ. TO RESISTIVITY LOG
NEUTWS  .NAPI  : NEUTRON [NEUTED]
NPHILSED.V/V   : NEUTRON POROSITY LIMESTONE FROM DENSITY LOG [ADJ. TO RESISTIVITY LOG]
NPHISSED.V/V   : NEUTRON POROSITY SANDSTONE FROM DENSITY LOG [ADJ. TO RESISTIVITY LOG]
NPOLSWS .V/V   : NEUTRON POROSITY LIMESTONE [NPHISSED CONVERTED TO LIMESTONE MATRIX,SPL. TO NPHILSED @2035M ]
RHOBED  .G/C3  : BULK DENSITYFROM DENSITY LOG [ADJ. TO RESISTIVITY LOG]
SPRED   .MV    : SPONTANEOUS POTENTIAL FROM RESISTIVITY LOG
SPWS    .MV    : SPONTANEOUS POTENTIAL [BASELINE 0 MV,SPRED]
SRESWS  .OHMM  : SHALLOW RESISTIVITY [LL8ED]
~Params ----------------------------------------------------
PD  .                     GL : PERMANENT DATUM
EPD .FT               2639.4 : ELEVATION PERMANENT DATUM
LMF .                     KB : LOG MEASURED FROM
DAPD.FT                 21.4 : FEET ABOVE PERMANENT DATUM
EKB .FT               2660.8 : KELLY BUSHING
EGL .FT               2639.4 : GROUND LEVEL
DATE.               04/08/78 : RUN DATE
RUN .                      2 : RUN NUMBER
DD  .FT                11105 : DEPTH DRILLER
DL  .FT                11103 : DEPTH LOGGER
BLI .FT                11099 : BOTTOM LOG INTERVAL
TLI .FT                 6000 : TOP LOG INTERVAL
CBD .FT                 1528 : CASING BOTTOM DRILLER
CBL .FT                 1528 : CASING BOTTOM LOGGER
BS  .IN                 8.75 : BIT SIZE
BSD .FT                11105 : BIT SIZE AT DEPTH
DFT .              GEL GELEX : DRILLING FLUID TYPE
DFD .                      9 : DRILLING FLUID DENSITY
DFV .                     92 : DRILLING FLUID VISCOSITY
DFPH.                      9 : DRILLING FLUID PH
DFL .                    9.8 : DRILLING FLUID LOSS
MSS .               FLOWLINE : MUD SAMPLE SOURCE
RMS .OHMM               1.91 : RESISTIVITY MUD SAMPLE
MST .DEGF                 52 : MUD SAMPLE TEMPERATURE
RMF .OHMM               1.45 : RESISTIVITY MUD FILTRATE SAMPLE
MFST.DEGF                 60 : MUD FILTRATE SAMPLE TEMPERATURE
TCS .HRS                 2.5 : TIME CIRCULATED STOPPED
LUN .              OSU C 244 : LOGGING UNIT NUMBER
LUL .                    EDM : LOGGING UNIT LOCATION
ENGI.                   GUNN : RECORDING ENGINEER
WITN.                   WALL : WITNESSED BY
CLNT.                A2DTECH : CLIENT CODE
ORIG.            2" 5" PRINT : ORIGIN OF DATA
UWI .       100101606422W500 : UNIQUE WELL ID
DICO. A2D Technologies, Inc. : DIGITIZING COMPANY
~Other -----------------------------------------------------
~ASCII -----------------------------------------------------
# ...
 8650.00000    9.22050    9.75200    9.22050    1.69480    0.20530    2.68900    0.01170    -999.25    0.01230  590.02440    0.20530   49.10250   49.10250   10.53330    -999.25   13.55160   10.53330  590.02440  473.52100 1384.07850  473.52100    -999.25    -999.25    0.00400    -999.25    0.00400    2.68900 -151.16100 -120.99030 1384.07850
 8700.00000   10.01350   10.12830   10.01350    2.10750    0.25230    2.71270   -0.00010    -999.25   -0.00160  474.49910    0.25230   49.68130   49.68130   15.76960    -999.25   18.30960   15.76960  474.49910  685.34670  803.61870  685.34670    -999.25    -999.25    0.00280    -999.25    0.00280    2.71270 -135.40380 -103.08390  803.61870
 8750.00000   10.59150   10.23950   10.59150    1.69170    0.21590    2.65610    0.03440    -999.25    0.03150  591.11180    0.21590   48.49280   48.49280   11.37960    -999.25   13.77200   11.37960  591.11180 1490.58420 1388.12130 1490.58420    -999.25    -999.25   -0.00390    -999.25   -0.00390    2.65610 -150.23550 -115.78040 1388.12130
 8800.00000    9.40710   10.00600    9.40710    7.47280    0.15960    2.71560   -0.00260    -999.25   -0.00330  133.81920    0.15960   49.85030   49.85030    7.51890    -999.25    8.99350    7.51890  133.81920  119.07250  213.68270  119.07250    -999.25    -999.25    0.00020    -999.25    0.00020    2.71570 -133.74530  -97.15490  213.68270
 8850.00000   10.52240   10.25100   10.52240    1.89550    0.19300    2.61800    0.05550    -999.25    0.05380  527.56670    0.19300   49.75730   49.75730    9.96840    -999.25   13.02040    9.96840  527.56670 1227.08220 1390.24070 1227.08220    -999.25    -999.25    0.00180    -999.25    0.00180    2.61800 -146.23450 -107.49490 1390.24070
 8900.00000   10.94420   10.23360   10.94420    2.43100    0.22770    2.62880    0.04560    -999.25    0.04750  411.35230    0.22770   48.35940   48.35940   11.73680    -999.25   16.29950   11.73680  411.35230  479.63230 1385.82340  479.63230    -999.25    -999.25   -0.00010    -999.25   -0.00010    2.62870 -140.32480  -99.44990 1385.82340
 8950.00000   11.07470   10.22320   11.07470    3.80610    0.23890    2.65600    0.03230    -999.25    0.03160  262.73680    0.23890   48.55360   48.55360   11.77280    -999.25   12.09030   11.77280  262.73680  251.91380  315.77460  251.91380    -999.25    -999.25    0.00280    -999.25    0.00280    2.65590 -138.03010  -95.00600  315.77460
 9000.00000   10.58610   10.18990   10.58610    1.76380    0.25490    2.61820    0.06150    -999.25    0.05370  566.96000    0.25490   48.38800   48.38800   13.34940    -999.25   14.17510   13.34940  566.96000  545.35500 1395.01210  545.35500    -999.25    -999.25   -0.00220    -999.25   -0.00220    2.61820 -149.57770 -104.41830 1395.01210
 9050.00000   10.98910    9.94860   10.98910    3.02070    0.25730    2.52550    0.11160    -999.25    0.10790  331.72300    0.25730   48.00750   48.00750   12.00780    -999.25   13.37450   12.00780  331.72300  176.61310  679.28210  176.61310    -999.25    -999.25    0.00230    -999.25    0.00230    2.52560 -148.55610 -101.26150  679.28210
 9100.00000   11.32060   10.25730   11.32060    6.95780    0.25090    2.62770    0.05010    -999.25    0.04810  143.72390    0.25090   48.62050   48.62050    7.59140    -999.25   12.14730    7.59140  143.72390  128.38870  153.84140  128.38870    -999.25    -999.25    0.00160    -999.25    0.00160    2.62780 -136.26250  -86.81870  153.84140
 9150.00000    9.64200    9.87880    9.64200   15.58050    0.18030    2.73580   -0.01540    -999.25   -0.01510   64.18280    0.18030   49.11640   49.11640    7.83580    -999.25   11.51100    7.83580   64.18280  301.51460   89.96510  301.51460    -999.25    -999.25    0.00460    -999.25    0.00460    2.73590 -139.19420  -87.61510   89.96510
 9200.00000    9.98700   10.04830    9.98700   17.10810    0.14750    2.49090    0.12930    -999.25    0.12810   58.45190    0.14750   49.45150   49.45150   10.27860    -999.25   14.11630   10.27860   58.45190   72.49980   84.89310   72.49980    -999.25    -999.25    0.00840    -999.25    0.00840    2.49090 -135.94520  -82.21690   84.89310
 9250.00000    8.64100    9.83040    8.64100   53.24390    0.04210    2.74780   -0.02560    -999.25   -0.02210   18.78150    0.04210   51.80310   51.80310   19.32520    -999.25   23.93460   19.32520   18.78150   22.50080   38.76450   22.50080    -999.25    -999.25    0.06260    -999.25    0.06260    2.74770 -123.96040  -68.09680   38.76450
 9300.00000    8.25140    9.51850    8.25140   27.60930    0.20850    2.75910   -0.03120    -999.25   -0.02870   36.35240    0.20850   49.30480   49.30480   17.27050    -999.25   20.06430   17.27050   36.35240   55.90700  187.69360   55.90700    -999.25    -999.25    0.08210    -999.25    0.08210    2.75920 -173.03580 -115.03700  187.69360
 9350.00000    7.96830    9.50280    7.96830   29.26300    0.22690    2.73630   -0.01890    -999.25   -0.01540   34.17290    0.22690   48.76430   48.76430   15.23410    -999.25   17.23000   15.23410   34.17290   57.65060  143.01880   57.65060    -999.25    -999.25    0.08180    -999.25    0.08180    2.73630 -196.37560 -136.22750  143.01880
 9400.00000   11.22850   10.16140   11.22850   11.84600    0.25150    2.52330    0.12010    -999.25    0.10920   84.41640    0.25150   51.83750   51.83750   24.71650    -999.25   26.89370   24.71650   84.41640   74.52580   84.21060   74.52580    -999.25    -999.25    0.07100    -999.25    0.07100    2.52330 -207.30890 -145.02560   84.21060
 9450.00000    8.57960    9.93440    8.57960    2.74670    0.03000    2.76010   -0.03250    -999.25   -0.02930  364.07180    0.03000   50.01460   50.01460   28.32870    -999.25   32.07080   28.32870  364.07180  403.27740  923.84890  403.27740    -999.25    -999.25    0.01820    -999.25    0.01820    2.76010 -181.96010 -117.52760  923.84890
 9500.00000    9.17500    9.90220    9.17500    2.27380    0.02650    2.77980   -0.05290    -999.25   -0.04080  439.78840    0.02650   49.75430   49.75430   20.15380    -999.25   22.59650   20.15380  439.78840  533.35630  946.71740  533.35630    -999.25    -999.25    0.00550    -999.25    0.00550    2.77970 -208.19040 -141.62260  946.71740
 9550.00000    8.93550    9.82510    8.93550    2.45370    0.19410    2.73700   -0.01790    -999.25   -0.01580  407.61560    0.19410   49.41890   49.41890   24.76280    -999.25   24.07290   24.76280  407.61560  224.50650  636.48860  224.50650    -999.25    -999.25    0.00580    -999.25    0.00580    2.73700 -208.27740 -139.57440  636.48860
 9600.00000    8.84010    9.77090    8.84010    5.54220    0.01160    2.72110   -0.00690    -999.25   -0.00650  180.43240    0.01160   51.29790   51.29790   32.29120    -999.25   31.19740   32.29120  180.43240  160.08680  377.75640  160.08680    -999.25    -999.25    0.00870    -999.25    0.00870    2.72120 -151.04620  -80.19390  377.75640
 9650.00000    8.68430    9.78320    8.68430    6.54470    0.00080    2.71150    0.00640    -999.25   -0.00090  152.79550    0.00080   51.62010   51.62010   29.31280    -999.25   30.04190   29.31280  152.79550  148.61370  219.14790  148.61370    -999.25    -999.25    0.00950    -999.25    0.00950    2.71150 -127.94910  -54.96160  219.14790
 9700.00000    8.70450    9.76860    8.70450   17.77660    0.01780    2.73390   -0.01730    -999.25   -0.01400   56.25360    0.01780   53.68750   53.68750   37.87120    -999.25   35.51390   37.87120   56.25360   58.96670   82.70560   58.96670    -999.25    -999.25    0.02200    -999.25    0.02200    2.73400 -106.91970  -31.78290   82.70560
 9750.00000    8.70450    9.74760    8.70450   18.29260    0.01130    2.72570   -0.01840    -999.25   -0.00920   54.66700    0.01130   54.35790   54.35790   37.74740    -999.25   38.11220   37.74740   54.66700   56.69290   81.97900   56.69290    -999.25    -999.25    0.03160    -999.25    0.03160    2.72570 -102.85970  -25.58770   81.97900
 9800.00000    8.65060    9.76600    8.65060   15.90370    0.02620    2.72080   -0.01520    -999.25   -0.00630   62.87920    0.02620   54.14440   54.14440   31.52470    -999.25   34.05880   31.52470   62.87920   65.37360  108.62970   65.37360    -999.25    -999.25    0.02210    -999.25    0.02210    2.72090 -103.51040  -24.10320  108.62970
