~Version ---------------------------------------------------
VERS.      2.0 : CWLS log ASCII Standard -VERSION 2.0
WRAP.       NO : One line per depth step
CREA. 01/03/18 : LAS Creation Date
~Well ------------------------------------------------------
STRT.FT                      800.0 : START DEPTH
STOP.FT                     8150.0 : STOP DEPTH
STEP.FT                   50.00000 : STEP LENGTH
NULL.                      -999.25 : NULL VALUE
COMP.          TOTAL PETROLEUM LTD : COMPANY
WELL. TOTAL PCP KINAKIN 16-27-63-9 : WELL
FLD .                              : FIELD
LOC .                              : LOCATION
CTRY.                       CANADA : COUNTRY
SRVC.                 Schlumberger : SERVICE COMPANY
DATE.                  08-Mar-1974 : LOGDATE
PROV.                      Alberta : PROVINCE
UWI .             100162706309W500 : UNIQUE WELL ID
SLAT.WGS84                54.48436 : SURFACE LATITUDE
SLON.WGS84               -115.2648 : SURFACE LONGITUDE
~Curve Information -----------------------------------------
DEPT    .FT    : Depth Curve
CALDED  .IN    : CALIPER CNFD (ADJ TO RES.)
CALSED  .IN    : CALIPER SONIC (ADJ TO RES.)
CALWS   .IN    : CALIPER [CALSED]
CONDWS  .MMHO  : CONDUCTIVITY (1000/DRESWS)
DCORWS  .G/C3  : DENSITY CORRECTION (DRHOED)
DENWS   .G/C3  : BULK DENSITY  (RHOBED)
DPHILSED.V/V   : DENSITY POROSITY LIMESTONE (ADJ TO RES.)
DPHISSED.V/V   : DENSITY POROSITY SANDSTONE (ADJ TO RES.)
DPOLSWS .V/V   : DENSITY POROSITY (M=2.71 F=1.00 FROM DENWS)
DRESWS  .OHMM  : DEEP RESISTIVITY (ILDED)
DRHOED  .G/C3  : DENSITY CORRECTION
DTED    .US/F  : DELTA TIME
DTWS    .US/F  : DELTA TIME (DTED)
GRDED   .GAPI  : GAMMA RAY CNFD (ADJ TO RES.)
GRSED   .GAPI  : GAMMA RAY SONIC (ADJ TO RES.)
GRWS    .GAPI  : GAMMA RAY (GRSED)
ILDED   .OHMM  : DEEP INDUCTION RESISTIVITY
ILMED   .OHMM  : MEDIUM INDUCTION RESISTIVITY
LL8ED   .OHMM  : LATEROLOG-8 RESISTIVITY
MRESWS  .OHMM  : MEDIUM RESISTIVITY (ILMED)
NPHILSED.V/V   : NEUTRON POROSITY LIMESTONE (ADJ TO RES.)
NPHISSED.V/V   : NEUTRON POROSITY SANDSTONE (ADJ TO RES.)
NPOLSWS .V/V   : NEUTRON POROSITY LIMESTONE (NPHISSED CONVERTED TO LS/NPHILSED @ 4396')
RHOBED  .G/C3  : BULK DENSITY
SPRED   .MV    : Spontaneous Potential  DIL
SPWS    .MV    : SPONTANEOUS POTENTIAL BASELINE 0 MV (SPRED)
SRESWS  .OHMM  : SHALLOW RESISTIVITY (LL8ED)
~Params ----------------------------------------------------
PD  .                     GL : PERMANENT DATUM
EPD .FT               2924.5 : ELEVATION PERMANENT DATUM
LMF .                     KB : LOG MEASURED FROM
DAPD.FT                 13.5 : FEET ABOVE PERMANENT DATUM
EKB .FT                 2938 : KELLY BUSHING
EGL .FT               2924.5 : GROUND LEVEL
DATE.               03/08/74 : RUN DATE
RUN .                      1 : RUN NUMBER
DD  .FT                 8170 : DEPTH DRILLER
DL  .FT                 8169 : DEPTH LOGGER
BLI .FT                 8163 : BOTTOM LOG INTERVAL
TLI .FT                  836 : TOP LOG INTERVAL
CBD .FT                  835 : CASING BOTTOM DRILLER
BS  .IN                 8.75 : BIT SIZE
BSD .FT                 8170 : BIT SIZE AT DEPTH
DFT .               GEL CHEM : DRILLING FLUID TYPE
DFD .                    9.0 : DRILLING FLUID DENSITY
DFV .                     78 : DRILLING FLUID VISCOSITY
DFPH.                     10 : DRILLING FLUID PH
DFL .                    7.8 : DRILLING FLUID LOSS
MSS .             CALCULATED : MUD SAMPLE SOURCE
RMF .OHMM               1.34 : RESISTIVITY MUD FILTRATE SAMPLE
MFST.DEGF                 62 : MUD FILTRATE SAMPLE TEMPERATURE
RMB .OHMM               0.64 : RESISTIVITY MUD AT BHT
TCS .HRS                   3 : TIME CIRCULATED STOPPED
LUN .                   7692 : LOGGING UNIT NUMBER
LUL .                    EDM : LOGGING UNIT LOCATION
ENGI.                   WOON : RECORDING ENGINEER
WITN.              MACKENZIE : WITNESSED BY
CLNT.                A2DTECH : CLIENT CODE
ORIG.            2" 5" PRINT : ORIGIN OF DATA
UWI .       100162706309W500 : UNIQUE WELL ID
DICO. A2D Technologies, Inc. : DIGITIZING COMPANY
~Other -----------------------------------------------------
~ASCII -----------------------------------------------------
# ...
 7300.00000    -999.25    8.69390    8.69390   75.42450    -999.25    -999.25    -999.25    -999.25    -999.25   13.25830    -999.25   61.91180   61.91180    -999.25   56.35650   56.35650   13.25830   14.52130   19.00460   14.52130    -999.25    -999.25    -999.25    -999.25  -24.50090   -7.37600   19.00460
 7350.00000    -999.25    8.74000    8.74000   91.02490    -999.25    -999.25    -999.25    -999.25    -999.25   10.98600    -999.25   68.18430   68.18430    -999.25   71.48400   71.48400   10.98600   11.78670   13.29760   11.78670    -999.25    -999.25    -999.25    -999.25  -22.88340   -6.46110   13.29760
 7400.00000    -999.25    8.29260    8.29260   46.21800    -999.25    -999.25    -999.25    -999.25    -999.25   21.63660    -999.25   58.06780   58.06780    -999.25   42.85710   42.85710   21.63660   25.57050   32.92820   25.57050    -999.25    -999.25    -999.25    -999.25  -26.00860  -10.28890   32.92820
 7450.00000    -999.25   12.29420   12.29420  215.72640    -999.25    -999.25    -999.25    -999.25    -999.25    4.63560    -999.25   83.05830   83.05830    -999.25   91.93300   91.93300    4.63560    4.77050    6.27580    4.77050    -999.25    -999.25    -999.25    -999.25  -35.66890  -20.65520    6.27580
 7500.00000    -999.25   12.31100   12.31100  214.51400    -999.25    -999.25    -999.25    -999.25    -999.25    4.66170    -999.25   79.38420   79.38420    -999.25   87.15520   87.15520    4.66170    4.48590    6.36200    4.48590    -999.25    -999.25    -999.25    -999.25  -35.44940  -21.13490    6.36200
 7550.00000    -999.25    8.57020    8.57020   27.95110    -999.25    -999.25    -999.25    -999.25    -999.25   35.77680    -999.25   58.02990   58.02990    -999.25   34.87790   34.87790   35.77680   45.72210   59.26470   45.72210    -999.25    -999.25    -999.25    -999.25  -22.03270   -8.42070   59.26470
 7600.00000    -999.25    8.96690    8.96690  130.33220    -999.25    -999.25    -999.25    -999.25    -999.25    7.67270    -999.25   64.74230   64.74230    -999.25   59.34610   59.34610    7.67270    8.64150   13.16940    8.64150    -999.25    -999.25    -999.25    -999.25  -29.26510  -16.35570   13.16940
 7650.00000    -999.25    8.61570    8.61570  115.40150    -999.25    -999.25    -999.25    -999.25    -999.25    8.66540    -999.25   65.46960   65.46960    -999.25   62.30900   62.30900    8.66540    9.58440   11.45120    9.58440    -999.25    -999.25    -999.25    -999.25  -17.91010   -5.70330   11.45120
 7700.00000    -999.25    8.54820    8.54820   38.54850    -999.25    -999.25    -999.25    -999.25    -999.25   25.98360    -999.25   56.06310   56.06310    -999.25   33.71870   33.71870   25.98360   33.09120   33.44830   33.09120    -999.25    -999.25    -999.25    -999.25  -19.32690   -7.82620   33.44830
 7750.00000    -999.25    8.52780    8.52780   44.01680    -999.25    -999.25    -999.25    -999.25    -999.25   22.71860    -999.25   56.48850   56.48850    -999.25   34.04510   34.04510   22.71860   29.15500   47.68310   29.15500    -999.25    -999.25    -999.25    -999.25  -19.34000   -8.53840   47.68310
 7800.00000    -999.25    8.52940    8.52940   18.76920    -999.25    -999.25    -999.25    -999.25    -999.25   53.27890    -999.25   59.64000   59.64000    -999.25   38.68120   38.68120   53.27890   63.65760   64.89780   63.65760    -999.25    -999.25    -999.25    -999.25  -21.14040  -11.04130   64.89780
 7850.00000    -999.25    8.54710    8.54710    4.34960    -999.25    -999.25    -999.25    -999.25    -999.25  229.90880    -999.25   52.35180   52.35180    -999.25   22.79270   22.79270  229.90880  507.19910  248.76600  507.19910    -999.25    -999.25    -999.25    -999.25  -26.56830  -17.17180  248.76600
 7900.00000    -999.25    8.62160    8.62160  164.16050    -999.25    -999.25    -999.25    -999.25    -999.25    6.09160    -999.25   67.90830   67.90830    -999.25   68.42930   68.42930    6.09160    6.84110    8.65770    6.84110    -999.25    -999.25    -999.25    -999.25  -23.53670  -14.84280    8.65770
 7950.00000    -999.25    8.60150    8.60150   16.12640    -999.25    -999.25    -999.25    -999.25    -999.25   62.86390    -999.25   58.42600   58.42600    -999.25   49.53490   49.53490   62.86390   92.32080  157.65820   92.32080    -999.25    -999.25    -999.25    -999.25  -25.76450  -17.77670  157.65820
 8000.00000    -999.25    8.54300    8.54300    1.19450    -999.25    -999.25    -999.25    -999.25    -999.25  837.15890    -999.25   52.48080   52.48080    -999.25   26.94660   26.94660  837.15890 1484.77590  213.54550 1484.77590    -999.25    -999.25    -999.25    -999.25  -58.63810  -51.34940  213.54550
 8050.00000    -999.25    8.56930    8.56930   29.97560    -999.25    -999.25    -999.25    -999.25    -999.25   33.36050    -999.25   57.77620   57.77620    -999.25   81.90780   81.90780   33.36050   40.35550   43.63310   40.35550    -999.25    -999.25    -999.25    -999.25  -15.94020   -9.35410   43.63310
 8100.00000    -999.25    8.28320    8.28320  109.22630    -999.25    -999.25    -999.25    -999.25    -999.25    9.15530    -999.25   61.13400   61.13400    -999.25  151.56730  151.56730    9.15530   10.85490   22.97980   10.85490    -999.25    -999.25    -999.25    -999.25  -30.57490  -24.62810   22.97980
 8150.00000    -999.25    8.52580    8.52580  184.08070    -999.25    -999.25    -999.25    -999.25    -999.25    5.43240    -999.25   64.67270   64.67270    -999.25    -999.25    -999.25    5.43240    5.87340    6.98700    5.87340    -999.25    -999.25    -999.25    -999.25  -41.69570  -35.74890    6.98700
