~Version ---------------------------------------------------
VERS.      2.0 : CWLS log ASCII Standard -VERSION 2.0
WRAP.       NO : One line per depth step
CREA. 11/22/17 : LAS Creation Date
~Well ------------------------------------------------------
STRT.FT                              1100.0 : START DEPTH
STOP.FT                             10450.0 : STOP DEPTH
STEP.FT                            50.00000 : STEP LENGTH
NULL.                               -999.25 : NULL VALUE
COMP. HUDSONS BAY OIL & GAS COMPANY LIMITED : COMPANY
WELL.       HB ET AL EAGLE TOWER 7-14-63-17 : WELL
FLD .                                       : FIELD
LOC .                                       : LOCATION
CTRY.                                CANADA : COUNTRY
SRVC.                          Schlumberger : SERVICE COMPANY
DATE.                           30-Mar-1973 : LOGDATE
PROV.                               Alberta : PROVINCE
UWI .                      100071406317W500 : UNIQUE WELL ID
SLAT.WGS84                         54.44795 : SURFACE LATITUDE
SLON.WGS84                        -116.4526 : SURFACE LONGITUDE
~Curve Information -----------------------------------------
DEPT  .FT    : Depth Curve
CALSED.IN    : CALIPER FROM SONIC LOG
CALWS .IN    : CALIPER [CALSED]
CILDED.MMHO  : CONDUCTIVITY FROM RESISTIVITY LOG
CONDWS.MMHO  : CONDUCTIVITY [1000/DRESWS]
DRESWS.OHMM  : DEEP RESISTIVITY [1080' 1000/CILDED 10472' ILDED]
DTED  .US/F  : DELTA TIME FROM SONIC LOG
DTWS  .US/F  : DELTA TIME [DTED]
GRSED .GAPI  : GAMMA RAY FROM SONIC LOG
GRWS  .GAPI  : GAMMA RAY [GRSED]
ILDED .OHMM  : INDUCTION LOG DEEP RESISTIVITY
ILMED .OHMM  : INDUCTION LOG MEDIUM RESISTIVITY
LL8ED .OHMM  : 8 INCH LATEROLOG RESISTIVITY
MRESWS.OHMM  : MEDIUM RESISTIVITY [ILMED]
SPRED .MV    : SPONTANEOUS POTENTIAL FROM RESISTIVITY LOG [NUMEROUS SHIFTS ARE REMOVED, PATCHED, TOOK HOURS]
SPWS  .MV    : SPONTANEOUS POTENTIAL [BASELINE 0 MV] [SPRED] [STILL, PL. USE W/ A HUGE RESERVATION]
SRESWS.OHMM  : SHALLOW RESISTIVITY [LL8ED]
~Params ----------------------------------------------------
PD  .                     GL : PERMANENT DATUM
EPD .FT                 3394 : ELEVATION PERMANENT DATUM
LMF .                     KB : LOG MEASURED FROM
DAPD.FT                   13 : FEET ABOVE PERMANENT DATUM
EKB .FT                 3407 : KELLY BUSHING
EGL .FT                 3394 : GROUND LEVEL
DATE.               03/30/73 : RUN DATE
RUN .                      1 : RUN NUMBER
DD  .FT                10470 : DEPTH DRILLER
DL  .FT                10480 : DEPTH LOGGER
BLI .FT                10474 : BOTTOM LOG INTERVAL
TLI .FT                 1076 : TOP LOG INTERVAL
CBD .FT                 1075 : CASING BOTTOM DRILLER
CBL .FT                 1076 : CASING BOTTOM LOGGER
BS  .IN                 8.75 : BIT SIZE
BSD .FT                10470 : BIT SIZE AT DEPTH
DFT .               GEL CHEM : DRILLING FLUID TYPE
DFD .                    9.6 : DRILLING FLUID DENSITY
DFV .                    126 : DRILLING FLUID VISCOSITY
DFPH.                   11.4 : DRILLING FLUID PH
DFL .                    9.2 : DRILLING FLUID LOSS
RMF .OHMM                1.1 : RESISTIVITY MUD FILTRATE SAMPLE
MFST.DEGF                 60 : MUD FILTRATE SAMPLE TEMPERATURE
LUN .                   7636 : LOGGING UNIT NUMBER
LUL .                    EDM : LOGGING UNIT LOCATION
ENGI.                  SCOTT : RECORDING ENGINEER
WITN.                  WIEBE : WITNESSED BY
CLNT.                A2DTECH : CLIENT CODE
ORIG.            2" 5" PRINT : ORIGIN OF DATA
UWI .       100071406317W500 : UNIQUE WELL ID
DICO. A2D Technologies, Inc. : DIGITIZING COMPANY
~Other -----------------------------------------------------
~ASCII -----------------------------------------------------
# ...
 5400.00000   10.66580   10.66580    -999.25  252.51460    3.96220   93.65530   93.65530   86.04180   86.04180    3.96230    4.23060    4.95590    4.23060  -21.40040   -7.15440    4.95590
 5450.00000   10.63260   10.63260    -999.25  227.12300    4.40290   92.66910   92.66910   89.25910   89.25910    4.40290    4.58940    5.30960    4.58940  -21.99400   -7.88000    5.30960
 5500.00000    9.37440    9.37440    -999.25  109.88290    9.10060   78.79650   78.79650   79.87580   79.87580    9.10060    9.75790   11.00550    9.75790  -30.10640  -16.12370   11.00550
 5550.00000    8.77120    8.77120    -999.25  857.63570    1.16640  170.91810  170.91810   86.32670   86.32670    1.16640    1.27490    2.20910    1.27490  -21.41240   -7.56040    2.20910
 5600.00000   10.05860   10.05860    -999.25   78.00920   12.81900  103.07210  103.07210   63.49540   63.49540   12.81900   11.08200   16.07850   11.08200  -34.75590  -21.03590   16.07850
 5650.00000    9.67510    9.67510    -999.25  116.89920    8.56400   75.18660   75.18660   68.76910   68.76910    8.56400    9.37090   10.91160    9.37090  -30.31710  -16.72780   10.91160
 5700.00000   10.11100   10.11100    -999.25  170.39550    5.86870   89.06020   89.06020   89.31180   89.31180    5.86870    6.43300    7.19100    6.43300  -24.35240  -10.89510    7.19100
 5750.00000   14.63180   14.63180    -999.25  338.81080    2.95150  152.59350  152.59350   76.89290   76.89290    2.95150    4.55160    9.15560    4.55160  -25.41090  -12.08490    9.15560
 5800.00000    9.54940    9.54940    -999.25  135.62830    7.37320   78.83220   78.83220   71.96390   71.96390    7.37320    7.59780    9.60800    7.59780  -24.06640  -10.87110    9.60800
 5850.00000    9.68110    9.68110    -999.25  107.24550    9.32440   76.30090   76.30090   83.91630   83.91630    9.32440    9.98570   13.63730    9.98570  -18.60950   -5.54620   13.63730
 5900.00000    9.84750    9.84750    -999.25  104.50530    9.56890   77.80940   77.80940   76.69680   76.69680    9.56890   10.12800   12.85430   10.12800  -35.78660  -20.80230   12.85430
 5950.00000    9.54830    9.54830    -999.25  147.34700    6.78670   78.86270   78.86270   48.11870   48.11870    6.78670    9.52440   21.36310    9.52440 -103.83000  -86.56590   21.36310
 6000.00000   10.26110   10.26110    -999.25  176.58800    5.66290   79.52770   79.52770   55.62200   55.62200    5.66290    6.22760   10.88680    6.22760  -82.56220  -63.02980   10.88680
 6050.00000    9.26320    9.26320    -999.25  133.52690    7.49090   84.78050   84.78050   56.90330   56.90330    7.49090   10.74740   22.30620   10.74740 -112.19610  -90.40670   22.30620
 6100.00000    9.82010    9.82010    -999.25  158.19530    6.32130   77.41090   77.41090   70.88320   70.88320    6.32130    6.62080    8.72570    6.62080 -109.55720  -85.48800    8.72570
 6150.00000    9.71440    9.71440    -999.25  119.91080    8.33950   76.03610   76.03610   80.09830   80.09830    8.33950    8.86220   12.35420    8.86220 -128.15210 -101.82580   12.35420
 6200.00000   10.02190   10.02190    -999.25  120.52840    8.29680   77.58860   77.58860   77.59640   77.59640    8.29680    8.97490   10.68360    8.97490 -120.02930  -91.42340   10.68360
 6250.00000   10.78160   10.78160    -999.25  173.14220    5.77560   84.78400   84.78400   91.38150   91.38150    5.77560    6.08870    7.45580    6.08870 -133.36240 -102.48810    7.45580
 6300.00000    9.39770    9.39770    -999.25   38.14530   26.21670   65.82070   65.82070   39.64940   39.64940   26.21670   31.59590   55.91280   31.59590 -142.63210 -109.50080   55.91280
 6350.00000    9.64560    9.64560    -999.25  114.32620    8.74690   70.08910   70.08910   71.69000   71.69000    8.74690   10.42300   15.08190   10.42300 -138.32680 -102.91580   15.08190
 6400.00000    9.35170    9.35170    -999.25  111.20770    8.99280   84.42360   84.42360   68.53400   68.53400    8.99280   10.11500   16.71150   10.11500 -128.37860  -90.71050   16.71150
 6450.00000   13.15060   13.15060    -999.25  297.06210    3.36630   91.90370   91.90370   80.15820   80.15820    3.36630    3.19140    5.81210    3.19140 -103.34270  -63.39490    5.81210
 6500.00000   13.29030   13.29030    -999.25  184.96940    5.40630   99.01860   99.01860   89.76440   89.76440    5.40630    6.05470    8.56550    6.05470  -78.89940  -36.68320    8.56550
 6550.00000   12.18490   12.18490    -999.25  160.94740    6.21920   88.72240   88.72240   87.15240   87.15240    6.21920    5.77170    9.41920    5.77170  -57.74200  -13.26880    9.41920
 6600.00000    8.91140    8.91140    -999.25   13.90970   71.89210   66.06450   66.06450   42.96660   42.96660   71.89210   88.05240  124.65250   88.05240  -53.66050   -6.56410  124.65250
 6650.00000    8.86170    8.86170    -999.25    2.21980  450.56670   67.16380   67.16380  107.36270  107.36270  450.56680  552.86390 1530.01940  552.86390  -83.70550  -28.65580 1530.01940
 6700.00000    8.57470    8.57470    -999.25  190.40730    5.25190   69.58020   69.58020   40.24860   40.24860    5.25190    8.86690   17.46820    8.86690 -168.10430 -120.86990   17.46820
 6750.00000    8.68980    8.68980    -999.25  109.99650    9.09120   58.23650   58.23650   20.76210   20.76210    9.09120   10.92740   25.36050   10.92740 -159.07290 -120.70540   25.36050
 6800.00000    8.95990    8.95990    -999.25   91.30690   10.97310   56.85630   56.85630   32.25560   32.25560   10.97310   11.71220   21.58690   11.71220  -78.94930  -49.40430   21.58690
 6850.00000    9.20990    9.20990    -999.25   16.44870   60.79500   54.63240   54.63240   54.12460   54.12460   60.79500   68.20620  162.94310   68.20620  -29.86150   -6.92990  162.94310
 6900.00000    8.68710    8.68710    -999.25  518.06520    1.93440   69.19410   69.19410   39.34400   39.34400    1.93440    2.50070   12.78730    2.50070 -114.26710  -91.99240   12.78730
 6950.00000    9.16140    9.16140    -999.25  109.23590    9.15450   62.38820   62.38820   54.82590   54.82590    9.15450    9.67800   16.02700    9.67800  -80.87400  -59.26280   16.02700
 7000.00000    9.25640    9.25640    -999.25   25.34760   39.45150   53.67750   53.67750   26.65530   26.65530   39.45150   48.07910  145.60710   48.07910 -100.96690  -80.01600  145.60710
 7050.00000    9.22830    9.22830    -999.25   19.99590   50.51000   51.62970   51.62970   19.32290   19.32290   50.51000  111.84800  212.57340  111.84800 -134.46910 -131.38880  212.57340
 7100.00000    9.05790    9.05790    -999.25   65.82590   15.19160   53.77600   53.77600   20.26480   20.26480   15.19160   25.09340  115.17970   25.09340 -122.98250 -140.11340  115.17970
 7150.00000    9.13970    9.13970    -999.25   35.10110   28.49190   54.71660   54.71660   17.18180   17.18180   28.49190   37.20220  210.87110   37.20220  -89.39600 -126.53710  210.87110
 7200.00000    9.88940    9.88940    -999.25  361.67670    2.76490   66.66530   66.66530   57.40200   57.40200    2.76490    3.01770    4.58000    3.01770   28.23870  -36.55440    4.58000
 7250.00000    9.41330    9.41330    -999.25  112.16420    8.91550   60.12680   60.12680   62.36470   62.36470    8.91550    9.46310   17.30840    9.46310   51.46300  -45.82180   17.30840
 7300.00000    9.51520    9.51520    -999.25   71.01820   14.17190   55.71840   55.71840   39.94690   39.94690   14.17190   18.09740   35.80050   18.09740   20.15210  -72.99380   35.80050
 7350.00000    9.21700    9.21700    -999.25   14.82210   67.46670   52.91560   52.91560   16.82620   16.82620   67.46670   85.06050  602.79880   85.06050   21.43750  -67.52790  602.79880
 7400.00000   10.15490   10.15490    -999.25   11.80860   85.86660   53.00000   53.00000   26.81420   26.81420   85.86660   83.50920  157.31320   83.50920   -9.61510  -94.44160  157.31320
 7450.00000    9.24490    9.24490    -999.25   34.19060   29.24780   57.60220   57.60220   50.65650   50.65650   29.24780   33.40750   38.17670   33.40750  -25.34420 -105.99020   38.17670
 7500.00000    8.80900    8.80900    -999.25   17.09000   58.51390   41.10480   41.10480   31.78070   31.78070   58.51390   63.35430   93.80590   63.35430   13.96210  -62.52420   93.80590
