~Version ---------------------------------------------------
VERS.      2.0 : CWLS log ASCII Standard -VERSION 2.0
WRAP.       NO : One line per depth step
CREA. 11/17/17 : LAS Creation Date
~Well ------------------------------------------------------
STRT.FT                                1400.0 : START DEPTH
STOP.FT                               13450.0 : STOP DEPTH
STEP.FT                              50.00000 : STEP LENGTH
NULL.                                 -999.25 : NULL VALUE
COMP. SUPERTEST PETROLEUM CORPORATION LIMITED : COMPANY
WELL.    SUPTST ALMINEX MED FERRIERW 8-9-39-9 : WELL
FLD .                                         : FIELD
LOC .                                         : LOCATION
CTRY.                                  CANADA : COUNTRY
SRVC.                  Schlumberger of Canada : SERVICE COMPANY
DATE.                             01-Oct-1960 : LOGDATE
PROV.                                 Alberta : PROVINCE
UWI .                        100080903909W500 : UNIQUE WELL ID
SLAT.WGS84                           52.33911 : SURFACE LATITUDE
SLON.WGS84                          -115.2267 : SURFACE LONGITUDE
~Curve Information -----------------------------------------
DEPT  .FT         : Depth Curve
CALWS .IN         : CALIPER [MCALED]
CILDED.MMHO       : CONDUCTIVITY FROM RESISTIVITY LOG
CONDWS.MMHO       : CONDUCTIVITY [1000/DRESWS]
DRESWS.OHMM       : DEEP RESISTIVITY [ILDED]
DTED  .US/F       : DELTA-TIME FROM SONIC LOG
DTWS  .US/F       : CPOMPRESSIONAL SONIC [DTED]
GRSED .UgRa-Eq/T  : GAMMA RAY FROM SONIC LOG
GRWS  .GAPI       : GAMMA RAY [GRSED*16.5]
ILDED .OHMM       : DEEP INDUCTION 40"  RESISTIVITY FROM RESISTIVITY LOG
MCALED.IN         : MICRO CALIPER FROM ML LOG
SNED  .OHMM       : SHORT NORMAL 16"  RESISTIVITY FROM RESISTIVITY LOG
SPRED .MV         : SPONTANEOUS POTENTIAL FROM RESISTIVITY LOG
SPWS  .MV         : SPONTANEOUS POTENTIAL [BASELINE 0 MV, SPRED]
SRESWS.OHMM       : SHALLOW RESISTIVITY [SNED]
~Params ----------------------------------------------------
LMF .                     KB : LOG MEASURED FROM
DMF .                     KB : DRILLING MEASURED FROM
EKB .FT                 3787 : KELLY BUSHING
EGL .FT                 3770 : GROUND LEVEL
DATE.               10/01/60 : RUN DATE
RUN .                      2 : RUN NUMBER
DD  .FT                13500 : DEPTH DRILLER
DL  .FT                13492 : DEPTH LOGGER
BLI .FT                13486 : BOTTOM LOG INTERVAL
TLI .FT                10594 : TOP LOG INTERVAL
BS  .IN                 8.75 : BIT SIZE
BSD .FT                13500 : BIT SIZE AT DEPTH
DFT .              LIME BASE : DRILLING FLUID TYPE
DFD .                    9.6 : DRILLING FLUID DENSITY
DFV .                    194 : DRILLING FLUID VISCOSITY
DFPH.                   13.5 : DRILLING FLUID PH
DFL .                      7 : DRILLING FLUID LOSS
MSS .            CIRCULATION : MUD SAMPLE SOURCE
RMS .OHMM               0.59 : RESISTIVITY MUD SAMPLE
MST .DEGF                 70 : MUD SAMPLE TEMPERATURE
RMF .OHMM               0.43 : RESISTIVITY MUD FILTRATE SAMPLE
MFST.DEGF                 70 : MUD FILTRATE SAMPLE TEMPERATURE
RMC .OHMM               0.91 : RESISTIVITY MUD CAKE
MCST.DEGF                 70 : MUD CAKE SAMPLE TEMPERATURE
RMB .OHMM               0.18 : RESISTIVITY MUD AT BHT
TCS .HRS                   6 : TIME CIRCULATED STOPPED
LUN .                   1575 : LOGGING UNIT NUMBER
LUL .                      C : LOGGING UNIT LOCATION
ENGI.                 YUNKER : RECORDING ENGINEER
CLNT.                A2DTECH : CLIENT CODE
ORIG.            2" 5" PRINT : ORIGIN OF DATA
UWI .       100080903909W500 : UNIQUE WELL ID
DICO. A2D Technologies, Inc. : DIGITIZING COMPANY
~Other -----------------------------------------------------
IE-BCS-ML LOGS RUN
ALL RESISTIVITY DATA FROM SMALL SECTION @ TOP-7980'
~ASCII -----------------------------------------------------
# ...
 11200.00000    -999.25   12.02600   10.97280   91.13420   53.67270   53.67270    2.84700   46.97550   91.13420    -999.25   30.83230 -101.34630  -64.19430   30.83230
 11250.00000    -999.25    0.12340    2.09660  476.97110   52.65880   52.65880    1.91120   31.53480  476.97110    -999.25   73.52020 -114.68430  -78.39880   73.52020
 11300.00000    -999.25    2.47430    2.09780  477.83060   51.50140   51.50140    2.06890   34.13680  477.83060    -999.25   42.84550 -113.38900  -77.96550   42.84550
 11350.00000    -999.25    2.02730    3.06430  326.34350   45.77750   45.77750    1.16740   19.26210  326.34350    -999.25   44.76110 -112.90210  -78.34950   44.76110
 11400.00000    -999.25    1.80080    2.00000  500.00000   48.57330   48.57330    0.82710   13.64720  500.00000    -999.25   62.07580  -98.97980  -65.29360   62.07580
 11450.00000    -999.25   10.64410    9.13630  109.45380   49.13230   49.13230    1.31460   21.69090  109.45380    -999.25   49.78130  -63.65380  -30.83410   49.78130
 11500.00000    -999.25    6.35380    5.74360  174.10620   48.68840   48.68840    0.97590   16.10240  174.10620    -999.25   48.96240  -46.39130  -14.43800   48.96240
 11550.00000    -999.25   11.57400    9.89300  102.10790   45.91570   45.91570    0.97950   16.16090  102.10790    -999.25   75.23070  -98.27220  -68.92100   75.23070
 11600.00000    -999.25    2.69150    3.80100  263.09120   46.24670   46.24670    1.11670   18.42560  263.09120    -999.25   63.45670  -97.53700  -71.17620   63.45670
 11650.00000    -999.25   12.97890   11.97420   83.51320   46.67000   46.67000    1.19950   19.79180   83.51320    -999.25   60.79380 -173.09860 -149.71330   60.79380
 11700.00000    -999.25    0.71480    2.93490  340.72650   49.09620   49.09620    0.83850   13.83530  340.72650    -999.25   63.18400 -282.08000 -261.67020   63.18400
 11750.00000    -999.25   24.04660   23.90330   41.83520   48.20890   48.20890    1.18350   19.52780   41.83520    -999.25   48.27340 -189.68570 -172.25140   48.27340
 11800.00000    -999.25   13.27920   17.22520   62.68100   42.93740   42.93740    1.21490   20.04590   62.68100    -999.25   50.18610 -119.48720 -105.01360   50.18610
 11850.00000    -999.25   29.87870   26.57320   37.63190   54.67700   54.67700    1.55030   25.58000   37.63190    -999.25   60.80280 -125.11630 -113.63310   60.80280
 11900.00000    -999.25   12.11200   10.41990   95.97020   46.10590   46.10590    0.98660   16.27890   95.97020    -999.25   50.92940  -73.48530  -64.97760   50.92940
 11950.00000    -999.25    2.52990    3.46420  288.66830   50.55840   50.55840    0.51050    8.42320  288.66830    -999.25   68.63280  -84.11070  -78.57850   68.63280
 12000.00000    -999.25    0.00040    3.61230  276.83040   48.47910   48.47910    1.13800   18.77700  276.83040    -999.25   63.29620 -195.39610 -192.83940   63.29620
 12050.00000    -999.25    2.30530    3.00640  339.08900   50.16740   50.16740    0.87150   14.37970  339.08900    -999.25   61.55740 -203.84520 -204.24920   61.55740
 12100.00000    -999.25    7.51460    6.46650  154.64390   49.37360   49.37360    1.20820   19.93530  154.64390    -999.25   41.02630 -269.57010 -272.96450   41.02630
 12150.00000    -999.25   20.78380   19.42480   51.48070   48.93300   48.93300    1.90970   31.51010   51.48070    -999.25   27.24810 -186.66680 -193.03670   27.24810
 12200.00000    -999.25   15.36830   13.77400   72.60050   50.38850   50.38850    1.82590   30.12740   72.60050    -999.25   43.35130   -3.03340  -12.37880   43.35130
 12250.00000    -999.25    8.36280    7.67080  130.36510   46.57070   46.57070    1.05630   17.42900  130.36510    -999.25   45.63920 -108.91810 -119.94720   45.63920
 12300.00000    -999.25    3.39070    3.80000  263.22620   46.04530   46.04530    1.05930   17.47850  263.22620    -999.25   43.18500 -181.70520 -194.04700   43.18500
 12350.00000    -999.25    6.87410    7.56570  132.17560   43.49920   43.49920    0.92430   15.25100  132.17560    -999.25   50.23230 -202.82280 -216.49050   50.23230
 12400.00000    -999.25   20.37860   18.65410   53.60750   49.50400   49.50400    3.81610   62.96570   53.60750    -999.25   33.63630 -218.90660 -233.89360   33.63630
 12450.00000    -999.25   29.50700   27.63160   36.19040   57.48270   57.48270    4.10120   67.66980   36.19040    -999.25   20.26040 -251.84810 -268.15450   20.26040
 12500.00000    -999.25  141.22430  152.55760    6.55490   67.44920   67.44920    6.53310  107.79620    6.55490    -999.25    7.71000 -125.12190 -142.74760    7.71000
 12550.00000    -999.25  119.60550  126.92950    7.87850   63.54450   63.54450    6.17200  101.83800    7.87850    -999.25    9.06670 -204.31200 -223.25040    9.06670
 12600.00000    -999.25   90.09790   90.50270   11.04940   62.65090   62.65090    6.28380  103.68270   11.04940    -999.25   11.27270  -77.43040  -97.69470   11.27270
 12650.00000    -999.25  125.20050  140.07960    7.13880   65.41290   65.41290    6.12070  100.99160    7.13880    -999.25    8.18850 -178.32970 -199.91330    8.18850
 12700.00000    -999.25   86.18340   89.81980   11.13340   63.52410   63.52410    6.27980  103.61670   11.13340    -999.25   11.20520  -64.48490  -87.38790   11.20520
 12750.00000    -999.25   90.66800   92.91180   10.76290   62.45940   62.45940    5.77990   95.36830   10.76290    -999.25   10.56450 -201.92880 -226.46750   10.56450
 12800.00000    -999.25   84.41080   92.74710   10.78250   63.04710   63.04710    5.54090   91.42490   10.78250    -999.25   11.76790 -171.04700 -197.39030   11.76790
 12850.00000    -999.25   78.00660   80.51980   12.41930   62.90930   62.90930    5.65620   93.32730   12.41930    -999.25   11.22780 -219.97610 -248.14220   11.22780
 12900.00000    -999.25   70.66340   73.79310   13.55140   61.29370   61.29370    5.34970   88.27010   13.55140    -999.25   12.73560  -29.35220  -59.33200   12.73560
 12950.00000    -999.25   71.47080   74.04340   13.50560   59.37400   59.37400    4.22290   69.67790   13.50560    -999.25   11.52220 -174.14130 -205.93480   11.52220
 13000.00000    -999.25  104.18010  115.72200    8.64140   64.24190   64.24190    5.12920   84.63180    8.64140    -999.25    8.85240 -251.91220 -285.51940    8.85240
 13050.00000    -999.25    4.13780    5.41720  184.99630   62.84870   62.84870    4.66150   76.91390  184.99630    -999.25   47.06350 -300.46950 -335.88140   47.06350
 13100.00000    -999.25    4.38180    5.35610  186.70330   70.13850   70.13850    8.51160  140.44140  186.70330    -999.25   44.80010 -271.34210 -308.57670   44.80010
 13150.00000    -999.25   14.67300   12.56490   79.58700   52.85520   52.85520    2.67980   44.21670   79.58700    -999.25   36.51860 -266.91010 -305.95840   36.51860
 13200.00000    -999.25    9.21090    8.45700  118.24540   49.73090   49.73090    1.41850   23.40530  118.24540    -999.25   58.61580 -105.71110 -145.81140   58.61580
 13250.00000    -999.25   23.43950   21.91080   45.63950   51.72380   51.72380    2.34900   38.75850   45.63950    -999.25   26.09500  -68.39530 -108.49560   26.09500
 13300.00000    -999.25   21.86470   18.16760   56.18160   57.23310   57.23310    4.92570   81.27410   56.18160    -999.25   34.69520 -141.71090 -181.81120   34.69520
 13350.00000    -999.25    9.26240    9.22630  108.38590   50.22090   50.22090    1.91260   31.55790  108.38590    -999.25   31.07640 -207.46050 -247.56080   31.07640
 13400.00000    -999.25   88.17660   84.56450   11.82530    -999.25    -999.25    -999.25    -999.25   11.82530    -999.25   10.73720 -219.73080 -259.83110   10.73720
 13450.00000    -999.25    3.01180    3.35650  297.93080    -999.25    -999.25    -999.25    -999.25  297.93080    -999.25   48.51120 -154.30970 -194.41000   48.51120
