~Version ---------------------------------------------------
VERS.      2.0 : CWLS log ASCII Standard -VERSION 2.0
WRAP.       NO : One line per depth step
CREA. 11/10/17 : LAS Creation Date
~Well ------------------------------------------------------
STRT.FT                            300.0 : START DEPTH
STOP.FT                          12850.0 : STOP DEPTH
STEP.FT                         50.00000 : STEP LENGTH
NULL.                            -999.25 : NULL VALUE
COMP.            TRIAD OIL COMPANY, LTD. : COMPANY
WELL. TRIAD H.B. MOOSE CREEK 10-27-51-17 : WELL
FLD .                                    : FIELD
LOC .                                    : LOCATION
CTRY.                             CANADA : COUNTRY
SRVC.                       Schlumberger : SERVICE COMPANY
DATE.                        21-May-1958 : LOGDATE
PROV.                            Alberta : PROVINCE
UWI .                   100102705117W500 : UNIQUE WELL ID
SLAT.WGS84                      53.43327 : SURFACE LATITUDE
SLON.WGS84                     -116.4188 : SURFACE LONGITUDE
~Curve Information -----------------------------------------
DEPT  .FT         : Depth Curve
CALSED.IN         : CALIPER FROM SONIC LOG
CALWS .IN         : CALIPER [MCALED SPL. CALSED @ 8179'-9461']
CONDWS.MMHO       : CONDUCTIVITY [1000/DRESWS]
DRESWS.OHMM       : DEEP RESISTIVITY [LNED]
DTED  .US/F       : DELTA-TIME FROM SONIC LOG
DTWS  .US/F       : COMPRESSIONAL SONIC [DTED]
GRNED .UgRa-Eq/T  : GAMMA RAY [GRNED*16.5] FROM GRN LOG
GRSED .GAPI       : GAMMA RAY FROM SONIC LOG
GRWS  .GAPI       : GAMMA RAY [GRNED SPL. TO GRSED @ 8179'-9461']
LATED .OHMM       : LATERAL 18' 8" RESISTIVITY FROM RESISTIVITY LOG
LNED  .OHMM       : LONG NORMAL 64" RESISTIVITY FROM RESISTIVITY LOG
MCALED.IN         : MICRO CALIPER FROM MICROLOG
NEUTED.CPS        : NEUTRON FROM GRN LOG
NEUTWS.CPS        : NEUTRON [NEUTED]
SNED  .OHMM       : SHORT NORMAL 16" RESISTIVITY FROM RESISTIVITY LOG
SPRED .MV         : SPONTANEOUS POTENTIAL FROM RESISTIVITY LOG
SPWS  .MV         : SPONTANEOUS POTENTIAL [BASELINE 0 MV, SPRED]
SRESWS.OHMM       : SHALLOW RESISTIVITY [SNED]
~Params ----------------------------------------------------
LMF .                     KB : LOG MEASURED FROM
DMF .                     KB : DRILLING MEASURED FROM
EKB .FT                 3293 : KELLY BUSHING
DATE.               05/21/58 : RUN DATE
RUN .                      2 : RUN NUMBER
DD  .FT                12881 : DEPTH DRILLER
DL  .FT                12871 : DEPTH LOGGER
BLI .FT                12870 : BOTTOM LOG INTERVAL
TLI .FT                 8178 : TOP LOG INTERVAL
CBD .FT                 8182 : CASING BOTTOM DRILLER
CBL .FT                 8178 : CASING BOTTOM LOGGER
BS  .IN                8.625 : BIT SIZE
BSD .FT                12861 : BIT SIZE AT DEPTH
DFT .                   LIME : DRILLING FLUID TYPE
DFD .                   10.2 : DRILLING FLUID DENSITY
DFV .                     72 : DRILLING FLUID VISCOSITY
MSS .               FLOWLINE : MUD SAMPLE SOURCE
RMS .OHMM               0.52 : RESISTIVITY MUD SAMPLE
MST .DEGF                 65 : MUD SAMPLE TEMPERATURE
RMF .OHMM               0.25 : RESISTIVITY MUD FILTRATE SAMPLE
MFST.DEGF                 85 : MUD FILTRATE SAMPLE TEMPERATURE
RMC .OHMM               0.68 : RESISTIVITY MUD CAKE
MCST.DEGF                 85 : MUD CAKE SAMPLE TEMPERATURE
TCS .HRS                 300 : TIME CIRCULATED STOPPED
LUN .                   1571 : LOGGING UNIT NUMBER
LUL .                    EDM : LOGGING UNIT LOCATION
ENGI.                  JAMES : RECORDING ENGINEER
WITN.                 AITKEN : WITNESSED BY
CLNT.                A2DTECH : CLIENT CODE
ORIG.            2" 5" PRINT : ORIGIN OF DATA
UWI .       100102705117W500 : UNIQUE WELL ID
DICO. A2D Technologies, Inc. : DIGITIZING COMPANY
~Other -----------------------------------------------------
~ASCII -----------------------------------------------------
# ...
 4200.00000    -999.25   12.74560   27.88450   35.86220    -999.25    -999.25    -999.25    -999.25    -999.25   37.52340   35.86220   12.74560    -999.25    -999.25   24.74000  -86.40670   -8.49580   24.74000
 4250.00000    -999.25   12.98980   34.12680   29.30250    -999.25    -999.25    -999.25    -999.25    -999.25   17.46790   29.30250   12.98980    -999.25    -999.25   21.49650  -85.32660   -6.62110   21.49650
 4300.00000    -999.25   13.76810   85.88700   11.64320    -999.25    -999.25    -999.25    -999.25    -999.25   10.36160   11.64320   13.76810    -999.25    -999.25    8.97510  -82.83810   -3.34190    8.97510
 4350.00000    -999.25   13.49210   72.71300   13.75270    -999.25    -999.25    -999.25    -999.25    -999.25   14.73050   13.75270   13.49210    -999.25    -999.25    8.98540  -83.69880   -3.40400    8.98540
 4400.00000    -999.25   12.68350   42.88040   23.32420    -999.25    -999.25    -999.25    -999.25    -999.25   22.94660   23.32420   12.68350    -999.25    -999.25   14.60580  -83.68640   -2.60100   14.60580
 4450.00000    -999.25   13.20110  120.12730    8.32450    -999.25    -999.25    -999.25    -999.25    -999.25    8.45580    8.32450   13.20110    -999.25    -999.25    5.80850  -82.97110   -2.11980    5.80850
 4500.00000    -999.25   12.03540   28.10790   35.57720    -999.25    -999.25    -999.25    -999.25    -999.25   24.39050   35.57720   12.03540    -999.25    -999.25   22.21160  -88.96600   -8.41870   22.21160
 4550.00000    -999.25   13.81210   56.53420   17.68850    -999.25    -999.25    -999.25    -999.25    -999.25   22.94960   17.68850   13.81210    -999.25    -999.25   11.07260  -83.62940   -3.46530   11.07260
 4600.00000    -999.25   13.00320  110.36550    9.06080    -999.25    -999.25    -999.25    -999.25    -999.25    6.29050    9.06080   13.00320    -999.25    -999.25    4.86230  -82.46110   -3.04150    4.86230
 4650.00000    -999.25   11.51730   22.74630   43.96760    -999.25    -999.25    -999.25    -999.25    -999.25   25.59670   43.96760   11.51730    -999.25    -999.25   32.73250  -85.82780   -7.14510   32.73250
 4700.00000    -999.25   11.72950   16.04870   62.31040    -999.25    -999.25    -999.25    -999.25    -999.25   69.38600   62.31040   11.72950    -999.25    -999.25   38.59050  -97.85460  -19.91630   38.59050
 4750.00000    -999.25   13.06240   30.18020   33.13430    -999.25    -999.25    -999.25    -999.25    -999.25   47.02180   33.13430   13.06240    -999.25    -999.25   19.72950  -81.08450   -3.88690   19.72950
 4800.00000    -999.25   13.75900   56.40270   17.73400    -999.25    -999.25    -999.25    -999.25    -999.25   20.96990   17.73400   13.75900    -999.25    -999.25   11.80690  -79.65950   -3.19890   11.80690
 4850.00000    -999.25   12.61630   22.99330   43.49100    -999.25    -999.25    -999.25    -999.25    -999.25   38.70150   43.49100   12.61630    -999.25    -999.25   27.13180  -84.79690   -9.08060   27.13180
 4900.00000    -999.25   12.52280   48.30850   20.70050    -999.25    -999.25    -999.25    -999.25    -999.25   17.59920   20.70050   12.52280    -999.25    -999.25   15.75850  -75.24360   -0.26420   15.75850
 4950.00000    -999.25   13.83840   54.39570   18.38380    -999.25    -999.25    -999.25    -999.25    -999.25   18.24210   18.38380   13.83840    -999.25    -999.25   11.36900  -75.78940   -1.55440   11.36900
 5000.00000    -999.25   12.00710   32.29340   30.96610    -999.25    -999.25    -999.25    -999.25    -999.25   16.91930   30.96610   12.00710    -999.25    -999.25   22.60010  -79.22490   -5.73060   22.60010
 5050.00000    -999.25   12.27940   29.64290   33.74840    -999.25    -999.25    -999.25    -999.25    -999.25   22.36630   33.74840   12.27940    -999.25    -999.25   20.92500  -76.71380   -3.92240   20.92500
 5100.00000    -999.25   13.58510   42.83240   23.34680    -999.25    -999.25    -999.25    -999.25    -999.25   19.32320   23.34680   13.58510    -999.25    -999.25   14.07660  -74.53700   -1.12080   14.07660
 5150.00000    -999.25   13.82100   46.81760   21.35970    -999.25    -999.25    -999.25    -999.25    -999.25   18.71770   21.35970   13.82100    -999.25    -999.25   13.54250  -75.82760   -1.79290   13.54250
 5200.00000    -999.25   12.75670   16.92640   59.07930    -999.25    -999.25    -999.25    -999.25    -999.25   28.46940   59.07930   12.75670    -999.25    -999.25   40.09350  -78.22220   -3.56270   40.09350
 5250.00000    -999.25   13.37180   41.66890   23.99870    -999.25    -999.25    -999.25    -999.25    -999.25   45.14440   23.99870   13.37180    -999.25    -999.25   15.92260  -82.22040   -6.93930   15.92260
 5300.00000    -999.25   13.23080   32.82080   30.47340    -999.25    -999.25    -999.25    -999.25    -999.25   33.87810   30.47340   13.23080    -999.25    -999.25   23.70750  -81.05920   -5.15950   23.70750
 5350.00000    -999.25   13.82120   37.71680   26.51340    -999.25    -999.25    -999.25    -999.25    -999.25   50.87610   26.51340   13.82120    -999.25    -999.25   17.24680  -80.33210   -3.63760   17.24680
 5400.00000    -999.25   13.70240   17.96210   55.67440    -999.25    -999.25    -999.25    -999.25    -999.25   43.99610   55.67440   13.70240    -999.25    -999.25   26.15610  -82.32520   -4.75180   26.15610
 5450.00000    -999.25   13.74240   23.27030   42.97330    -999.25    -999.25    -999.25    -999.25    -999.25  106.14700   42.97330   13.74240    -999.25    -999.25   19.11990  -86.07540   -7.61440   19.11990
 5500.00000    -999.25   12.28430   24.88430   40.18590    -999.25    -999.25    -999.25    -999.25    -999.25   19.35740   40.18590   12.28430    -999.25    -999.25   26.50800 -101.54520  -23.32890   26.50800
 5550.00000    -999.25   12.83610   35.20260   28.40710    -999.25    -999.25    -999.25    -999.25    -999.25   56.99680   28.40710   12.83610    -999.25    -999.25   16.59790  -82.37940   -4.75980   16.59790
 5600.00000    -999.25   12.81440   54.63820   18.30220    -999.25    -999.25    -999.25    -999.25    -999.25   18.52390   18.30220   12.81440    -999.25    -999.25   14.61230  -79.44650   -2.16140   14.61230
 5650.00000    -999.25   12.62750   65.52770   15.26130    -999.25    -999.25    -999.25    -999.25    -999.25   13.48450   15.26130   12.62750    -999.25    -999.25   12.51200  -81.93530   -4.72380   12.51200
 5700.00000    -999.25   13.79350   52.43590   19.07090    -999.25    -999.25    -999.25    -999.25    -999.25   16.28110   19.07090   13.79350    -999.25    -999.25   14.24900  -83.16890   -6.03170   14.24900
 5750.00000    -999.25   12.68760   52.59560   19.01300    -999.25    -999.25    -999.25    -999.25    -999.25   19.14710   19.01300   12.68760    -999.25    -999.25   14.76520  -81.74890   -4.68570   14.76520
 5800.00000    -999.25   12.78620   51.73410   19.32970    -999.25    -999.25    -999.25    -999.25    -999.25   18.87000   19.32970   12.78620    -999.25    -999.25   14.70500  -83.72860   -6.73900   14.70500
 5850.00000    -999.25   12.65070   44.51730   22.46320    -999.25    -999.25    -999.25    -999.25    -999.25   25.40120   22.46320   12.65070    -999.25    -999.25   17.75900  -82.64530   -5.73000   17.75900
 5900.00000    -999.25   12.61320   60.32350   16.57790    -999.25    -999.25    -999.25    -999.25    -999.25   18.03920   16.57790   12.61320    -999.25    -999.25   13.84210  -80.77230   -3.93050   13.84210
 5950.00000    -999.25   13.08230   50.71050   19.71980    -999.25    -999.25    -999.25    -999.25    -999.25   17.77920   19.71980   13.08230    -999.25    -999.25   15.80850  -80.58010   -3.81270   15.80850
 6000.00000    -999.25   12.64990   45.81780   21.82560    -999.25    -999.25    -999.25    -999.25    -999.25   18.69980   21.82560   12.64990    -999.25    -999.25   15.88490  -81.20940   -4.51590   15.88490
 6050.00000    -999.25   12.94490   36.06140   27.73100    -999.25    -999.25    -999.25    -999.25    -999.25   21.04220   27.73100   12.94490    -999.25    -999.25   20.38430  -78.72660   -2.10670   20.38430
 6100.00000    -999.25   13.19500   50.90870   19.64300    -999.25    -999.25    -999.25    -999.25    -999.25   21.64770   19.64300   13.19500    -999.25    -999.25   15.13020  -82.53040   -4.34510   15.13020
