~Version ---------------------------------------------------
VERS.      2.0 : CWLS log ASCII Standard -VERSION 2.0
WRAP.       NO : One line per depth step
CREA. 08/16/13 : LAS Creation Date
~Well ------------------------------------------------------
STRT.M                      350.0 : START DEPTH
STOP.M                     2000.0 : STOP DEPTH
STEP.M                   50.00000 : STEP LENGTH
NULL.                     -999.25 : NULL VALUE
COMP.         MARK RESOURCES INC. : COMPANY
WELL. MARK RED WILLOW 14-11-39-17 : WELL
FLD .                             : FIELD
LOC .                             : LOCATION
CTRY.                      CANADA : COUNTRY
SRVC.                     Unknown : SERVICE COMPANY
DATE.                 06-Nov-1987 : LOGDATE
PROV.                     Alberta : PROVINCE
UWI .            100141103917W400 : UNIQUE WELL ID
SLAT.WGS84                52.3462 : SURFACE LATITUDE
SLON.WGS84              -112.3454 : SURFACE LONGITUDE
~Curve Information -----------------------------------------
DEPT    .M      : DEPTH METER
C2DED   .MM     : CALIPER 2 FROM DENSITY LOG [ADJ. TO RESISTIVITY LOG]
CALDED  .MM     : CALIPER FROM DENSITY LOG [ADJ. TO RESISTIVITY LOG]
CALSED  .MM     : CALIPER FROM SONIC LOG [ADJ. TO RESISTIVITY LOG]
CALWS   .MM     : CALIPER [CALDED]
CONDWS  .MMHO   : CONDUCTIVITY [1000/DRESWS]
DCORWS  .KG/M3  : DENSITY CORRECTION [DRHOED]
DENWS   .KG/M3  : FORMATION BULK DENSITY [CALC FROM DPOLSWS, M=2710,F=1000]
DPHILSED.V/V    : DENSITY POROSITY LIMESTONE [M=2710,F=1000] FROM DENSITY LOG [ADJ. TO RESISTIVITY LOG]
DPHISSED.V/V    : DENSITY POROSITY SANDSTONE [M=2650,F=1000] FROM DENSITY LOG [ADJ. TO RESISTIVITY LOG]
DPOLSWS .V/V    : DENSITY POROSITY LIMESTONE [DPHISSED CONVERTED TO LIMESTONE MATRIX, M=2710,F=1000, SPL. TO DPHILSED @ 1291M]
DRESWS  .OHMM   : DEEP RESISTIVITY [ILDED]
DRHOED  .KG/M3  : DENSITY CORRECTION FROM DENSITY LOG [ADJ. TO RESISTIVITY LOG]
DTED    .US/M   : DELTA TIME FROM SONIC LOG [ADJ. TO RESISTIVITY LOG]
DTWS    .US/M   : COMPRESSIONAL SONIC [DTED]
GRDED   .GAPI   : GAMMA RAY FROM DENSITY LOG [ADJ. TO RESISTIVITY LOG]
GRSED   .GAPI   : GAMMA RAY FROM SONIC LOG [ADJ. TO RESISTIVITY LOG]
GRWS    .GAPI   : GAMMA RAY [GRDED]
ILDED   .OHMM   : DEEP INDUCTION RESISTIVITY FROM RESISTIVITY LOG
ILMED   .OHMM   : MEDIUM INDUCTION RESISTIVITY FROM RESISTIVITY LOG
MRESWS  .OHMM   : MEDIUM RESISTIVITY [ILMED]
NPHILSED.V/V    : NEUTRON POROSITY LIMESTONE FROM DENSITY LOG [ADJ. TO RESISTIVITY LOG]
NPHISSED.V/V    : NEUTRON POROSITY SANDSTONE FROM DENSITY LOG [ADJ. TO RESISTIVITY LOG]
NPOLSWS .V/V    : NEUTRON POROSITY LIMESTONE [SCHL. NPHISSED MATRIX CONVERSION FOR LIMESTONE, SPL. TO NPHILSED @ 1290M]
PEFED   .B/E    : PHOTOELECTRIC FACTOR FROM DENSITY LOG [ADJ. TO RESISTIVITY LOG]
PEFWS   .B/E    : PHOTOELECTRIC FACTOR [PEFED]
RHOBED  .KG/M3  : BULK DENSITY FROM DENSITY LOG [ADJ. TO RESISTIVITY LOG]
SFLUED  .OHMM   : SHALLOW FOCUS LOG FROM RESISTIVITY LOG
SPRED   .MV     : SPONTANEOUS POTENTIAL FROM RESISTIVITY LOG
SPWS    .MV     : SPONTANEOUS POTENTIAL [BASELINE 0 MV, SPRED]
SRESWS  .OHMM   : SHALLOW RESISTIVITY [SFLUED]
TENDED  .N      : TENSION FROM DENSITY LOG [ADJ. TO RESISTIVITY LOG]
TENRED  .N      : TENSION FROM RESISTIVITY LOG
TENSED  .N      : TENSION FROM SONIC LOG [ADJ. TO RESISTIVITY LOG]
~Params ----------------------------------------------------
PD  .                         GL : PERMANENT DATUM
EPD .M                     792.2 : ELEVATION PERMANENT DATUM
LMF .                         KB : LOG MEASURED FROM
DAPD.M                       4.1 : FEET ABOVE PERMANENT DATUM
DMF .                         KB : DRILLING MEASURED FROM
EKB .M                     796.3 : KELLY BUSHING
EGL .M                     792.2 : GROUND LEVEL
DATE.                   11/06/87 : RUN DATE
RUN .                          2 : RUN NUMBER
DD  .M                      2025 : DEPTH DRILLER
DL  .M                    2023.1 : DEPTH LOGGER
BLI .M                      2021 : BOTTOM LOG INTERVAL
TLI .M                      1275 : TOP LOG INTERVAL
CS  .MM                      244 : CASING SIZE
CBD .M                       364 : CASING BOTTOM DRILLER
CBL .M                       364 : CASING BOTTOM LOGGER
BS  .MM                      222 : BIT SIZE
BSD .M                      2025 : BIT SIZE AT DEPTH
DFT .                   GEL CHEM : DRILLING FLUID TYPE
DFD .                       1075 : DRILLING FLUID DENSITY
DFV .                         50 : DRILLING FLUID VISCOSITY
DFPH.                       11.5 : DRILLING FLUID PH
DFL .                       19.6 : DRILLING FLUID LOSS
MSS .                   FLOWLINE : MUD SAMPLE SOURCE
RMS .OHMM                    0.2 : RESISTIVITY MUD SAMPLE
MST .DEGC                     32 : MUD SAMPLE TEMPERATURE
RMF .OHMM                   0.14 : RESISTIVITY MUD FILTRATE SAMPLE
MFST.DEGC                     27 : MUD FILTRATE SAMPLE TEMPERATURE
RMC .OHMM                  0.082 : RESISTIVITY MUD CAKE
MCST.DEGC                     61 : MUD CAKE SAMPLE TEMPERATURE
MFSS.                      PRESS : MUD FILTRATE SAMPLE SOURCE
RMB .OHMM                   0.13 : RESISTIVITY MUD AT BHT
TCS .HRS                     700 : TIME CIRCULATED STOPPED
TLAB.HRS                    1630 : TIME LOGGER AT BOTTOM
LUN .                       8063 : LOGGING UNIT NUMBER
LUL .                         RD : LOGGING UNIT LOCATION
ENGI.                     BRKICH : RECORDING ENGINEER
WITN.                     CHIZEN : WITNESSED BY
CLNT.                    A2DTECH : CLIENT CODE
ORIG. 6.5"/100M 16.5"/100M PRINT : ORIGIN OF DATA
UWI .           100141103917W400 : UNIQUE WELL ID
DICO.     A2D Technologies, Inc. : DIGITIZING COMPANY
~Other -----------------------------------------------------
DIL-SFL-CNL-LDT-BHC SONIC-GR TOOL RUN
RHOB FROM SMALL SCALE LOG
~ASCII -----------------------------------------------------
# ...
 1450.00000  261.61900  247.90450  254.87670  247.90450   88.96080    6.58140 2724.70600   -0.00860    -999.25   -0.00860   11.24090    6.58140  221.66610  221.66610   82.48560   78.16960   82.48560   11.24090   12.61130   12.61130    0.20770    -999.25    0.20770    3.00350    3.00350 2727.35570   11.31690  -61.41110   -4.59940   11.31690 11177.14550 10194.82810 10255.40630
 1500.00000  284.83610  260.84730  274.93950  260.84730  114.94650   -5.08440 2703.50200    0.00380    -999.25    0.00380    8.69970   -5.08440  227.22850  227.22850   99.37900   91.06210   99.37900    8.69970    8.28230    8.28230    0.19030    -999.25    0.19030    3.43760    3.43760 2703.34300    9.57910  -58.73780   -4.15860    9.57910 11445.58980 10516.36040 10484.93950
 1550.00000  252.40320  233.35980  246.09950  233.35980    0.50030   -1.90490 2671.52500    0.02250    -999.25    0.02250 1998.87230   -1.90490  186.94870  186.94870   38.67650   34.85000   38.67650 1998.87230 2000.00000 2000.00000    0.07460    -999.25    0.07460    5.17470    5.17470 2664.03420 1115.35620  -85.76220  -32.36760 1115.35620 11507.38570 10651.32520 10693.82520
 1600.00000  252.43310  235.52560  248.49880  235.52560    0.63530    1.77480 2732.91400   -0.01340    -999.25   -0.01340 1574.03220    1.77480  168.80090  168.80090   15.38320   15.53230   15.38320 1574.03220 2000.00000 2000.00000    0.01370    -999.25    0.01370    5.32010    5.32010 2732.71140  787.80600  -71.58660  -21.72850  787.80600 11919.44240 10876.37400 10784.55860
 1650.00000  276.70100  240.93530  260.76970  240.93530    2.84060   -3.81120 2689.99300    0.01170    -999.25    0.01170  352.04430   -3.81120  166.59790  166.59790    8.34720   10.44440    8.34720  352.04430 2000.00000 2000.00000    0.02400    -999.25    0.02400    5.21600    5.21600 2687.13260   88.65550 -102.18440  -60.30800   88.65550 12012.00980 11146.11620 11148.72170
 1700.00000  263.10970  241.09250  251.18660  241.09250  179.25640   -0.70220 2644.16500    0.03850    -999.25    0.03850    5.57860   -0.70220  181.48410  181.48410   12.93940    9.28900   12.93940    5.57860    5.72470    5.72470    0.10280    -999.25    0.10280    4.07230    4.07230 2638.77980    6.08010 -101.08180  -67.18720    6.08010 11978.07520 11335.77150 11299.12700
 1750.00000  275.30040  262.00890  280.92460  262.00890   43.20900   -1.06100 2648.09800    0.03620    -999.25    0.03620   23.14330   -1.06100  176.93160  176.93160   11.34460    9.41720   11.34460   23.14330   27.14720   27.14720    0.09790    -999.25    0.09790    4.07960    4.07960 2647.10720   25.63300  -53.87760  -27.96480   25.63300 12518.00290 11594.90920 11656.31050
 1800.00000  242.25350  228.54530  236.48470  228.54530   26.70160   -9.29900 2694.26800    0.00920    -999.25    0.00920   37.45090   -9.29900  170.37580  170.37580   12.68620   12.85030   12.68620   37.45090   42.11190   42.11190    0.03960    -999.25    0.03960    4.64040    4.64040 2689.71310   31.41440  -52.01730  -31.99500   31.41440 12718.16600 11899.00680 11850.72170
 1850.00000  240.72860  227.69120  239.43780  227.69120    0.50400    2.36430 2729.83600   -0.01160    -999.25   -0.01160 1984.17630    2.36430  162.31280  162.31280   14.71570   12.48360   14.71570 1984.17630 1978.05850 1978.05850    0.01430    -999.25    0.01430    5.17510    5.17510 2731.40500  233.93520  -54.78690  -34.76460  233.93520 12986.19820 12134.55080 12117.98540
 1900.00000  230.70300  221.90860  232.82670  221.90860    0.88660  -24.13200 2737.01800   -0.01580    -999.25   -0.01580 1127.91990  -24.13200  163.01110  163.01110   19.04530   19.41700   19.04530 1127.91990 2000.00000 2000.00000    0.01470    -999.25    0.01470    5.14550    5.14550 2731.39940  548.61550  -49.91150  -29.88920  548.61550 13142.91990 12302.21390 12278.69040
 1950.00000  432.48790  433.90370  407.03890  433.90370    0.50000  -14.05090 2054.21500    0.38350    -999.25    0.38350 2000.00000  -14.05090  224.47370  224.47370   12.15310   11.81270   12.15310 2000.00000    3.43580    3.43580    0.01380    -999.25    0.01380    4.08430    4.08430 2053.10250 1726.12120 -109.81390  -84.54760 1726.12120 12992.81930 12395.64940 12479.80570
 2000.00000  218.16600  213.80740  206.39730  213.80740 1158.74860  -22.07770 2560.88800    0.08720    -999.25    0.08720    0.86300  -22.07770  227.50180  227.50180   82.03790   87.73970   82.03790    0.86300    1.09480    1.09480    0.23150    -999.25    0.23150    2.94420    2.94420 2571.29050    1.90630  -50.73720  -29.19310    1.90630 13768.39750 12860.08300 12862.32420
