~Version ---------------------------------------------------
VERS. 2.0 : CWLS log ASCII Standard -VERSION 2.0
WRAP.  NO : ONE LINE PER DEPTH STEP
~Well ------------------------------------------------------
STRT.F                              1350.0 : START DEPTH
STOP.F                             12000.0 : STOP DEPTH
STEP.F                            50.00000 : STEP LENGTH
NULL.                              -999.25 : NULL VALUE
COMP.                 CHEVRON STANDARD LTD : COMPANY
WELL. CHEVRON AMOCO WASKAHIGAN 10-17-64-24 : WELL
FLD .                                      : FIELD
LOC .                                      : LOCATION
CTRY.                               CANADA : COUNTRY
SRVC.                         Schlumberger : SERVICE COMPANY
DATE.                          17-Sep-1977 : LOGDATE
PROV.                              Alberta : PROVINCE
UWI .                     100101706424W500 : UNIQUE WELL ID
SLAT.WGS84                        54.54045 : SURFACE LATITUDE
SLON.WGS84                       -117.5875 : SURFACE LONGITUDE
~Curve Information -----------------------------------------
DEPT   .F                 : 
SPR    .MV   99 010 00 00 : SELF POTENTIAL
ILD    .OHMM 06 121 12 00 : INDUCTION LOG RESISTIVITY
ILM    .OHMM 07 120 44 00 : INDUCTION LOG MEDIUM RESISTIVITY
DFL    .OHMM 07 220 01 00 : DIGITAL FOCUSED LATEROLOG
GRS    .GAPI              : GAMMA RAY FROM SONIC LOG
CALS   .IN                : CALIPER FROM SONIC LOG
TENS   .LB   60 635 01 00 : TENSION FROM SONIC LOG
DRHO   .G/C3 00 000 00 01 : DENSITY CORRECTION
RHOB   .G/C3 45 350 01 00 : BULK DENSITY
CALD   .IN   70 280 01 00 : CALIPER FROM DENSITY LOG
GRD    .GAPI              : GAMMA RAY FROM DENSITY LOG
TEND   .LB                : TENSION FROM DENSITY LOG
DPHI_SS.DEC  45 890 12 00 : DENSITY POROSITY SANDSTONE
NPHI_SS.DEC               : NEUTRON POROSITY SANDSTONE
NPHI_LS.DEC               : NEUTRON POROSITY IN SELECTED LITHOLOGY SANDSTONE
DPHI_LS.DEC  45 890 00 00 : DENSITY POROSITY
DT     .US/F 60 520 00 00 : DELTA TIME FROM SONIC LOG
~Params ----------------------------------------------------
PD  .                     GL : PERMANENT DATUM
EPD .FT               2874.1 : ELEVATION PERMANENT DATUM
LMF .                     KB : LOG MEASURED FROM
DAPD.FT                 18.5 : FEET ABOVE PERMANENT DATUM
EKB .FT               2892.6 : KELLY BUSHING
EGL .FT               2874.1 : GROUND LEVEL
DATE.               09/17/77 : RUN DATE
RUN .                      1 : RUN NUMBER
DD  .FT                11989 : DEPTH DRILLER
DL  .FT                11985 : DEPTH LOGGER
BLI .FT                11979 : BOTTOM LOG INTERVAL
TLI .FT                 1516 : TOP LOG INTERVAL
CBD .FT              1516.87 : CASING BOTTOM DRILLER
CBL .FT                 1516 : CASING BOTTOM LOGGER
BS  .IN                 8.75 : BIT SIZE
BSD .FT                11989 : BIT SIZE AT DEPTH
DFT .                    GEL : DRILLING FLUID TYPE
DFD .                      9 : DRILLING FLUID DENSITY
DFV .                     90 : DRILLING FLUID VISCOSITY
DFPH.                    9.5 : DRILLING FLUID PH
DFL .                    8.4 : DRILLING FLUID LOSS
MSS .               FLOWLINE : MUD SAMPLE SOURCE
RMS .OHMM               1.53 : RESISTIVITY MUD SAMPLE
MST .DEGF                 68 : MUD SAMPLE TEMPERATURE
RMF .OHMM               1.36 : RESISTIVITY MUD FILTRATE SAMPLE
MFST.DEGF                 62 : MUD FILTRATE SAMPLE TEMPERATURE
RMC .OHMM               1.37 : RESISTIVITY MUD CAKE
MCST.DEGF                 62 : MUD CAKE SAMPLE TEMPERATURE
TCS .HRS                   5 : TIME CIRCULATED STOPPED
LUN .                   7772 : LOGGING UNIT NUMBER
LUL .                    EDM : LOGGING UNIT LOCATION
ENGI.         BERNISKY TRACY : RECORDING ENGINEER
WITN.             RICHARDSON : WITNESSED BY
CLNT.                A2DTECH : CLIENT CODE
ORIG.            2" 5" PRINT : ORIGIN OF DATA
UWI .       100101706424W500 : UNIQUE WELL ID
DICO. A2D Technologies, Inc. : DIGITIZING COMPANY
~Other -----------------------------------------------------
~ASCII -----------------------------------------------------
# ...
 9550.00000  -86.59440 1407.37040 1527.36230 1212.82700   13.69090    9.11400 4556.85060    -999.25    -999.25    -999.25    -999.25    -999.25    -999.25    -999.25    -999.25    -999.25   48.09920
 9600.00000 -107.30160 1495.49980  687.61770  606.92720   13.32230    9.16750 4438.62650    -999.25    -999.25    -999.25    -999.25    -999.25    -999.25    -999.25    -999.25    -999.25   47.90210
 9650.00000  -94.40950 1451.88750 1048.62300  685.39450   12.22260    9.31670 4211.95750    -999.25    -999.25    -999.25    -999.25    -999.25    -999.25    -999.25    -999.25    -999.25   47.93870
 9700.00000 -121.46420 1291.57400 1548.43590  853.50720   10.43310    9.27180 4300.01370    0.23430    2.37800   12.71960   14.43210 3934.43700    -999.25    -999.25    0.02130    0.14620   47.40920
 9750.00000 -113.72400  133.65570  102.82260  163.35440    6.62490    8.94690 4201.88280    0.24910    2.54130   10.66920    8.66800 3904.31250    -999.25    -999.25    0.02580    0.04440   49.09030
 9800.00000  -94.21430  345.92670  222.78760  261.80110   10.42440    9.18970 4109.61570    0.24700    2.47860   11.27370   13.98550 3907.98880    -999.25    -999.25    0.02680    0.18800   48.44460
 9850.00000 -114.75160  687.17690  407.09830  545.70930   12.02420    9.32800 4108.11720    0.18030    2.30270   12.61130   13.75820 3917.27830    -999.25    -999.25    0.04120    0.21130   50.75930
 9900.00000 -124.12050   88.93780  103.80070  109.78230   13.29410    8.86870 4013.54810    0.01550    2.72040    9.33650   14.22240 3875.52730    -999.25    -999.25    0.03220    0.00450   49.70840
 9950.00000 -153.24780  303.73580  220.98500  284.80020   10.17810    8.98000 4026.96290    0.10130    2.67020    9.84440   12.94850 3852.45460    -999.25    -999.25    0.01040    0.02110   49.54790
 10000.00000 -178.92050  323.39210  235.07870  443.26990   11.43290    9.15780 3840.73660    0.22440    2.63200   11.01620   15.18710 3828.36520    -999.25    -999.25    0.00740    0.03800   49.44410
 10050.00000 -176.62590  413.89500  183.09690  247.43410    9.14540    9.33110 3779.84080    0.22310    2.49550   12.16390   11.46810 3822.69780    -999.25    -999.25    0.00800    0.15370   49.89600
 10100.00000 -196.01680   28.44310   30.40000  128.07530    8.17860    8.79690 3681.96730    0.02280    2.71060    9.26180    9.79650 3762.42140    -999.25    -999.25    0.01620   -0.00100   51.51590
 10150.00000 -182.73540    4.45050    6.29880   17.33640   12.09230    8.05350 3779.14360    0.23770    2.56030    8.16790   14.31220 3823.05910    -999.25    -999.25    0.16380    0.08620   57.28710
 10200.00000 -102.97460   18.81140   20.49730   49.71860   19.74460    8.45080 3639.79130    0.17680    2.71360    8.87140   24.75650 3747.19730    -999.25    -999.25    0.13150    0.04120   53.27370
 10250.00000  -90.70410   51.66900   81.08130  233.74370   20.88520    8.64490 3536.79790    0.14580    2.79790    8.74480   15.67850 3737.45120    -999.25    -999.25    0.07080   -0.05090   48.89160
 10300.00000  -83.73540   28.43670   52.73150  242.25240    9.66600    8.31050 3405.03930    0.08420    2.78130    8.66500   15.99910 3704.05760    -999.25    -999.25    0.08150   -0.05010   51.62130
 10350.00000   10.17680   15.39580   16.25190   17.08300   36.88880    9.27230 3068.07100    0.14390    2.71060    9.96730   46.17390 3569.29150    -999.25    -999.25    0.10860    0.02640   51.99360
 10400.00000   50.27600  259.73970  361.57460  758.40580   17.25360    9.50400 3142.01340    0.24840    2.40900   12.32600   21.72360 3558.40190    -999.25    -999.25    0.02320    0.15630   50.66830
 10450.00000   62.09950   98.24500  108.54160  121.18740   26.00240    8.69170 5036.95700    0.01690    2.72830    9.14930   30.05120 3598.27880    -999.25    -999.25    0.01460   -0.03040   51.36590
 10500.00000   54.82490  160.86850  171.15650  223.37170   23.68980    8.83550 4890.45560    0.04320    2.73730    9.45780   25.89740 3557.57080    -999.25    -999.25    0.01290   -0.02340   50.90230
 10550.00000   85.55820   67.46260   97.48780  109.63060   33.88130    8.77530 4847.01030    0.00790    2.71160    8.97230   34.10510 3536.72120    -999.25    -999.25    0.03030   -0.01960   52.77720
 10600.00000   26.72370  102.13860  153.43960  190.87850   27.96530    8.77520 4841.63380    0.01470    2.72360    9.02990   32.53030 3510.59230    -999.25    -999.25    0.04600   -0.00380   51.80500
 10650.00000  -39.37000  164.30590  483.95810  219.70540   25.56440    9.20690 4634.39890    0.02230    2.63840    9.08620   30.85170 3510.07080    -999.25    -999.25    0.07040    0.04460   51.87650
 10700.00000  -54.49120  149.64170  337.16840  235.01210   26.06940    8.84830 4538.72120    0.00870    2.70680    8.89060   31.80940 3468.51710    -999.25    -999.25    0.05310    0.00780   51.78460
 10750.00000  -55.46710   57.04000   68.54890   71.60280   32.85350    8.69510 4452.95610    0.00980    2.69910    8.97730   38.57550 3476.57320    -999.25    -999.25    0.06300   -0.01350   54.82580
 10800.00000  -42.16870   67.32490   97.90300  100.01320   30.38130    8.70460 4450.07860   -0.00700    2.70730    8.99340   34.31120 3452.07130    -999.25    -999.25    0.03480    0.00210   53.48760
 10850.00000  -19.08950   92.48000  156.41880  146.65230   30.36520    8.72530 4306.39310   -0.00150    2.69360    9.04430   36.20290 3422.90920    -999.25    -999.25    0.03990   -0.00560   54.08810
 10900.00000   30.94660   32.33990   55.36630   60.81620   81.53000    9.13830 4206.99020    0.03470    2.60220    9.43710   91.65810 3396.01030    -999.25    -999.25    0.22210    0.06690   71.27540
 10950.00000   27.99200    3.51030    3.62330    4.80370   91.60130   10.59680 4074.76390    0.19830    2.37990   12.19730  104.85620 3395.02730    -999.25    -999.25    0.31370    0.22500   83.43430
 11000.00000   30.64230    3.93920    4.16570    5.05000   76.31530    9.95860 4029.99560    0.24970    2.31410   11.18740   76.33930 3449.57960    -999.25    -999.25    0.23730    0.24170   71.74140
 11050.00000   56.91040    3.35050    3.46800    4.64460   88.17030   11.91280 4003.09570    -999.25    -999.25    -999.25    -999.25    -999.25    -999.25    -999.25    -999.25    -999.25   79.04040
 11100.00000   61.35040    3.72680    3.93210    5.11640   86.38600   11.73290 3865.58860    -999.25    -999.25    -999.25    -999.25    -999.25    -999.25    -999.25    -999.25    -999.25   81.65040
 11150.00000   63.40470    6.09980    6.68410    7.76510   72.86360    8.86750 3763.48490    -999.25    -999.25    -999.25    -999.25    -999.25    -999.25    -999.25    -999.25    -999.25   68.08340
 11200.00000   47.75160    6.26750    6.87280    8.49710   84.13340    8.75880 3590.28250    -999.25    -999.25    -999.25    -999.25    -999.25    -999.25    -999.25    -999.25    -999.25   69.11240
 11250.00000   29.42850    6.94790    7.67470    9.66160   82.60510    8.73810 3593.56250    -999.25    -999.25    -999.25    -999.25    -999.25    -999.25    -999.25    -999.25    -999.25   67.90400
 11300.00000   47.77180    6.48440    6.99090    9.02400   89.41390    8.69850 3459.94580    -999.25    -999.25    -999.25    -999.25    -999.25    -999.25    -999.25    -999.25    -999.25   69.64580
 11350.00000   42.04360    7.29970    7.98320    8.49510   99.48980    8.21240 3486.44240    -999.25    -999.25    -999.25    -999.25    -999.25    -999.25    -999.25    -999.25    -999.25   73.43050
 11400.00000   44.95400    4.45170    4.57660    5.78210  118.32310    9.51990 3383.46830    -999.25    -999.25    -999.25    -999.25    -999.25    -999.25    -999.25    -999.25    -999.25   81.02120
 11450.00000   54.95960    7.94380    8.50210   15.36700  125.53560    9.06790 3344.95070    -999.25    -999.25    -999.25    -999.25    -999.25    -999.25    -999.25    -999.25    -999.25   81.72310
 11500.00000   46.09350   46.51140   57.92880   71.96410  160.28440    8.37010 3393.66040    0.00790    2.52620    8.73270  178.65420 3368.48540    -999.25    -999.25    0.19870    0.12270   79.10770
 11550.00000   39.98560   28.41720   40.22460   52.55550   67.83010    8.54340 3398.52980    0.02790    2.68760    9.02270   69.51250 3385.15580    -999.25    -999.25    0.12960    0.00100   62.46690
