~Version ---------------------------------------------------
VERS.      2.0 : CWLS log ASCII Standard -VERSION 2.0
WRAP.       NO : One line per depth step
CREA. 01/03/18 : LAS Creation Date
~Well ------------------------------------------------------
STRT.FT                     1000.0 : START DEPTH
STOP.FT                     9900.0 : STOP DEPTH
STEP.FT                   50.00000 : STEP LENGTH
NULL.                      -999.25 : NULL VALUE
COMP.       CALIFORNIA STANDARD CO : COMPANY
WELL. CAL STAN MEEKWAP 10-11-65-19 : WELL
FLD .                              : FIELD
LOC .                              : LOCATION
CTRY.                       CANADA : COUNTRY
SRVC.       Schlumberger of Canada : SERVICE COMPANY
DATE.                  22-Nov-1960 : LOGDATE
PROV.                      Alberta : PROVINCE
UWI .             100101106519W500 : UNIQUE WELL ID
SLAT.WGS84                54.61203 : SURFACE LATITUDE
SLON.WGS84               -116.7575 : SURFACE LONGITUDE
~Curve Information -----------------------------------------
DEPT  .FT         : Depth Curve
CALWS .IN         : CALIPER [CALSED]
CILDED.MMHO       : CONDUCTIVITY FROM RESISTIVITY LOG
CONDWS.MMHO       : CONDUCTIVITY [1000/DRESWS]
DRESWS.OHMM       : DEEP RESISTIVITY [ILDED] IF ILDED<5;1000/CILDED;ELSE ILDED
DTED  .US/F       : DELTA TIME FROM SONIC LOG
DTWS  .US/F       : DELTA TIME [DTED]
GRSED .UgRa-Eq/T  : GAMMA RAY FROM SONIC LOG
GRWS  .GAPI       : GAMMA RAY [GRSED] [CONVERTED SCALE *16.5 API]
ILDED .OHMM       : INDUCTION LOG DEEP RESISTIVITY
MCALED.IN         : MICROCALIPER
SNED  .OHMM       : 16 INCH SHORT NORMAL RESISTIVITY FROM IEL
SPRED .MV         : SPONTANEOUS POTENTIAL FROM RESISTIVITY LOG
SPWS  .MV         : SPONTANEOUS POTENTIAL [BASELINE 0 MV] [SPRED]
SRESWS.OHMM       : SHALLOW RESISTIVITY [SNED]
~Params ----------------------------------------------------
LMF .                     KB : LOG MEASURED FROM
DMF .                     KB : DRILLING MEASURED FROM
EKB .FT                 2664 : KELLY BUSHING
EGL .FT               2652.4 : GROUND LEVEL
DATE.               11/22/60 : RUN DATE
RUN .                      1 : RUN NUMBER
DD  .FT                 9934 : DEPTH DRILLER
DL  .FT                 9940 : DEPTH LOGGER
BLI .FT                 9934 : BOTTOM LOG INTERVAL
TLI .FT                 1001 : TOP LOG INTERVAL
CBD .FT               1000.5 : CASING BOTTOM DRILLER
CBL .FT                 1001 : CASING BOTTOM LOGGER
BS  .IN                    9 : BIT SIZE
BSD .FT                 9934 : BIT SIZE AT DEPTH
DFT .                    GEL : DRILLING FLUID TYPE
DFD .                   10.6 : DRILLING FLUID DENSITY
DFV .                     93 : DRILLING FLUID VISCOSITY
DFPH.                    9.5 : DRILLING FLUID PH
DFL .                    8.8 : DRILLING FLUID LOSS
RMS .OHMM               0.73 : RESISTIVITY MUD SAMPLE
MST .DEGF                182 : MUD SAMPLE TEMPERATURE
RMB .OHMM               0.73 : RESISTIVITY MUD AT BHT
TCS .HRS                   3 : TIME CIRCULATED STOPPED
LUN .                   1534 : LOGGING UNIT NUMBER
LUL .                    EDM : LOGGING UNIT LOCATION
ENGI.               WILLIAMS : RECORDING ENGINEER
WITN.                  CHANT : WITNESSED BY
CLNT.                A2DTECH : CLIENT CODE
ORIG.            2" 5" PRINT : ORIGIN OF DATA
UWI .       100101106519W500 : UNIQUE WELL ID
DICO. A2D Technologies, Inc. : DIGITIZING COMPANY
~Other -----------------------------------------------------
~ASCII -----------------------------------------------------
 1000.00000   10.21840    -999.25    -999.25    -999.25    -999.25    -999.25    -999.25    -999.25    -999.25   10.21840    -999.25    -999.25    -999.25    -999.25
 1050.00000   11.63020  276.54250  276.54250    3.61610  118.36930  118.36930    4.80080   79.21320    3.07150   11.63020    3.74610  -86.79030   -3.48350    3.74610
 1100.00000   11.94780  247.04990  247.04990    4.04780  119.34330  119.34330    5.25140   86.64810    3.59890   11.94780    5.07470  -88.43560   -5.25900    5.07470
 1150.00000   12.15880  361.87830  361.87830    2.76340  125.54430  125.54430    5.15330   85.02940    2.33130   12.15880    2.72700  -86.96060   -3.91410    2.72700
 1200.00000   11.35650  290.39430  290.39430    3.44360  111.99700  111.99700    6.44140  106.28310    3.08030   11.35650    3.46670  -86.08050   -3.16420    3.46670
 1250.00000   11.62890  316.82160  316.82160    3.15640  109.87300  109.87300    5.67470   93.63250    2.52360   11.62890    3.27570  -86.74060   -3.95440    3.27570
 1300.00000   12.67660  250.46910  250.46910    3.99250  104.47250  104.47250    5.49900   90.73350    3.44150   12.67660    3.80710  -86.72260   -4.06660    3.80710
 1350.00000   12.30420  242.16920  242.16920    4.12930   95.65220   95.65220    4.30110   70.96810    3.30520   12.30420    3.86580  -85.77330   -3.24740    3.86580
 1400.00000   12.76740  458.60640  458.60640    2.18050  140.03150  140.03150    8.63940  142.55010    1.79100   12.76740    2.65070  -86.78820   -4.39250    2.65070
 1450.00000   13.62840  371.84820  371.84820    2.68930  116.39150  116.39150    5.10380   84.21270    2.10750   13.62840    2.49860  -86.11300   -3.84740    2.49860
 1500.00000   10.29400  222.80880  222.80880    4.48820  104.13950  104.13950    5.07780   83.78370    4.20550   10.29400    5.72560  -91.57710   -9.44170    5.72560
 1550.00000    9.35160  198.90110  198.90110    5.02760  104.29230  104.29230    4.71160   77.74140    4.85180    9.35160    5.49430  -88.59680   -6.59150    5.49430
 1600.00000   10.22590  455.52660  455.52660    2.19530  138.52500  138.52500    6.38480  105.34920    1.73220   10.22590    2.12430  -86.13510   -4.26000    2.12430
 1650.00000   10.20790  225.86840  225.86840    4.42740  106.52470  106.52470    4.43330   73.14950    3.72230   10.20790    4.23990  -87.70730   -5.96230    4.23990
 1700.00000   11.06910  256.95940  256.95940    3.89170  107.54450  107.54450    4.34600   71.70900    3.47690   11.06910    4.45020  -87.79700   -6.18220    4.45020
 1750.00000    9.26380  237.36810  237.36810    4.21290  122.25630  122.25630    4.28380   70.68270    3.32480    9.26380    3.50550  -88.25450   -6.76980    3.50550
 1800.00000    9.45680  182.61010  182.61010    5.47610  106.25930  106.25930    4.93430   81.41600    4.97550    9.45680    5.62430  -86.69710   -5.34260    5.62430
 1850.00000   11.03800  267.72420  267.72420    3.73520  118.46580  118.46580    4.51810   74.54860    3.24400   11.03800    3.62270  -86.02750   -5.04140    3.62270
 1900.00000   10.62560  222.45900  222.45900    4.49520  106.00050  106.00050    4.15350   68.53280    3.79570   10.62560    4.05250  -85.92090   -5.32400    4.05250
 1950.00000   10.44090  213.81570  213.81570    4.67690  123.91600  123.91600    4.58300   75.61950    3.69430   10.44090    3.98730  -85.30890   -5.10120    3.98730
 2000.00000   11.63170  238.82790  238.82790    4.18710  119.11000  119.11000    2.79440   46.10760    3.45870   11.63170    3.93320  -85.01760   -5.19900    3.93320
 2050.00000   12.65150  250.35170  250.35170    3.99440  103.43630  103.43630    4.37520   72.19080    3.33880   12.65150    3.72720  -84.48180   -5.05240    3.72720
 2100.00000   12.27900  299.54560  299.54560    3.33840  113.60620  113.60620    5.69680   93.99720    3.12740   12.27900    3.46990  -84.21280   -5.17260    3.46990
 2150.00000   12.86710  244.40080  244.40080    4.09160  102.45700  102.45700    4.05190   66.85630    3.60790   12.86710    4.00270  -84.35730   -5.70620    4.00270
 2200.00000   12.76720  306.48280  306.48280    3.26280  118.67570  118.67570    4.88760   80.64540    2.63620   12.76720    3.36590  -83.69360   -5.43170    3.36590
 2250.00000   11.57250  256.45200  256.45200    3.89940  112.26750  112.26750    4.23920   69.94680    3.45920   11.57250    4.20590  -84.33850   -6.46580    4.20590
 2300.00000    8.67390   67.84550   68.34900   14.63080   98.55920   98.55920    3.00370   49.56100   14.63080    8.67390   16.73270 -100.55800  -23.07450   16.73270
 2350.00000   11.16360  195.58180  195.58180    5.11300   97.10500   97.10500    4.51560   74.50740    4.39470   11.16360    4.87340  -84.62010   -7.52570    4.87340
 2400.00000   11.53690  252.72670  252.72670    3.95680  110.34350  110.34350    4.66110   76.90820    3.48820   11.53690    3.74320  -83.88560   -7.18040    3.74320
 2450.00000   12.11200  216.88200  216.88200    4.61080  102.34700  102.34700    4.05400   66.89100    4.32840   12.11200    5.96100  -85.27250   -8.95650    5.96100
 2500.00000    8.80290   83.06020   85.65820   11.67430   90.89370   90.89370    2.37800   39.23700   11.67430    8.80290   12.85000 -102.40170  -26.47480   12.85000
 2550.00000   11.06640  195.61280  195.61280    5.11210  100.32300  100.32300    4.08350   67.37770    4.71130   11.06640    4.95280  -83.92740   -8.38970    4.95280
 2600.00000    9.57480  137.01470  151.35920    6.60680  100.56070  100.56070    4.58510   75.65420    6.60680    9.57480    7.69140  -85.94060  -10.79210    7.69140
 2650.00000   11.11560  178.56860  199.21110    5.01980   96.87970   96.87970    3.49540   57.67410    5.01980   11.11560    6.14750  -84.79750  -10.03810    6.14750
 2700.00000   11.63660  212.99110  212.99110    4.69500   98.00350   98.00350    3.85580   63.62070    4.10970   11.63660    4.94230  -83.53750   -9.16730    4.94230
 2750.00000   10.46890  165.62980  182.45840    5.48070   99.26700   99.26700    5.65100   93.24150    5.48070   10.46890    6.27200  -88.33500  -14.35400    6.27200
 2800.00000    -999.25  177.91920  184.42700    5.42220   98.27180   98.27180    5.61510   92.64920    5.42220    -999.25    6.70890  -79.71850   -6.12660    6.70890
 2850.00000    -999.25  192.47050  192.47050    5.19560  107.87330  107.87330    6.17980  101.96670    4.89940    -999.25    6.41770  -79.41250   -6.20980    6.41770
 2900.00000    -999.25  156.99340  160.14090    6.24450  108.48700  108.48700    7.80120  128.71980    6.24450    -999.25    8.84600  -77.58200   -4.76850    8.84600
 2950.00000    -999.25  127.69200  129.86000    7.70060   96.26200   96.26200    6.48820  107.05530    7.70060    -999.25    9.63020  -78.38510   -5.96070    9.63020
 3000.00000    -999.25  127.77520  129.40290    7.72780   98.55880   98.55880    5.84400   96.42600    7.72780    -999.25    8.72330  -78.97070   -6.93550    8.72330
 3050.00000    -999.25  187.89860  195.81350    5.10690  115.47920  115.47920    5.79340   95.59110    5.10690    -999.25    6.56470  -80.15180   -8.50580    6.56470
 3100.00000    -999.25  150.51940  154.08800    6.48980   93.24230   93.24230    6.03510   99.57910    6.48980    -999.25    7.77450  -80.06630   -8.80940    7.77450
 3150.00000    -999.25  107.99030  106.91760    9.35300   94.26800   94.26800    4.43230   73.13290    9.35300    -999.25   10.43660  -81.27960  -10.41190   10.43660
 3200.00000    -999.25  164.81410  171.97790    5.81470   98.42980   98.42980    5.59810   92.36860    5.81470    -999.25    7.33010  -78.77700   -8.29850    7.33010
 3250.00000    -999.25  173.43860  184.97970    5.40600   98.59370   98.59370    6.12020  100.98330    5.40600    -999.25    5.11480  -78.45990   -8.37050    5.11480
 3300.00000    -999.25  146.04180  149.81050    6.67510   94.75100   94.75100    6.33280  104.49120    6.67510    -999.25    5.72340  -78.64140   -8.94120    5.72340
 3350.00000    -999.25  155.70160  163.40940    6.11960   91.27280   91.27280    7.26370  119.85110    6.11960    -999.25    7.00010  -78.95830   -9.64730    7.00010
 3400.00000    -999.25  182.47830  192.42240    5.19690   94.57150   94.57150    7.07260  116.69790    5.19690    -999.25    6.36810  -78.00580   -9.08400    6.36810
