~Version ---------------------------------------------------
VERS.      2.0 : CWLS log ASCII Standard -VERSION 2.0
WRAP.       NO : One line per depth step
CREA. 11/07/17 : LAS Creation Date
~Well ------------------------------------------------------
STRT.FT                            650.0 : START DEPTH
STOP.FT                           5950.0 : STOP DEPTH
STEP.FT                         50.00000 : STEP LENGTH
NULL.                            -999.25 : NULL VALUE
COMP. CANADIAN NATURAL RESOURCES LIMITED : COMPANY
WELL.        LASMO IOE NIPISI 10-25-80-9 : WELL
FLD .                                    : FIELD
LOC .                                    : LOCATION
CTRY.                             CANADA : COUNTRY
SRVC.                       Schlumberger : SERVICE COMPANY
DATE.                        19-Apr-1966 : LOGDATE
PROV.                            Alberta : PROVINCE
UWI .                   100102508009W500 : UNIQUE WELL ID
SLAT.WGS84                 55.9653406195 : SURFACE LATITUDE
SLON.WGS84               -115.2632626844 : SURFACE LONGITUDE
~Curve Information -----------------------------------------
DEPT  .FT    : Depth Curve
CALSED.IN    : CALIPER FROM SONIC LOG [DEPTH SHIFTED TO RES.]
CALWS .IN    : CALIPER [CALSED]
CILDED.MMHO  : CONDUCTIVITY FROM RESISTIVITY LOG
CONDWS.MMHO  : CONDUCTIVITY [1000/DRESWS]
DRESWS.OHMM  : DEEP RESISTIVITY [ILDED] IF ILDED<1;1000/CILDED;ELSE ILDED
DTED  .US/F  : DELTA TIME FROM SONIC LOG [DEPTH SHIFTED TO RES.]
DTWS  .US/F  : DELTA TIME [DTED] [DEPTH SHIFTED TO RES.]
GRSED .GAPI  : GAMMA RAY FROM SONIC LOG [DEPTH SHIFTED TO RES.]
GRWS  .GAPI  : GAMMA RAY [GRSED]
ILDED .OHMM  : INDUCTION LOG DEEP RESISTIVITY
SNED  .OHMM  : 16 INCH SHORT NORMAL RESISTIVITY FROM IEL
SPRED .MV    : SPONTANEOUS POTENTIAL FROM RESISTIVITY LOG
SPWS  .MV    : SPONTANEOUS POTENTIAL [BASELINE 0 MV] [SPRED]
SRESWS.OHMM  : SHALLOW RESISTIVITY [SNED]
~Params ----------------------------------------------------
PD  .                     GL : PERMANENT DATUM
EPD .FT                 2171 : ELEVATION PERMANENT DATUM
LMF .                     KB : LOG MEASURED FROM
DAPD.FT                   12 : FEET ABOVE PERMANENT DATUM
EKB .FT                 2183 : KELLY BUSHING
EGL .FT                 2171 : GROUND LEVEL
DATE.               04/19/66 : RUN DATE
RUN .                      1 : RUN NUMBER
DD  .FT                 5985 : DEPTH DRILLER
DL  .FT                 5989 : DEPTH LOGGER
BLI .FT                 5988 : BOTTOM LOG INTERVAL
TLI .FT                  640 : TOP LOG INTERVAL
CBD .FT                  640 : CASING BOTTOM DRILLER
CBL .FT                  640 : CASING BOTTOM LOGGER
BS  .IN                7.875 : BIT SIZE
BSD .FT                 5985 : BIT SIZE AT DEPTH
DFT .                    GEL : DRILLING FLUID TYPE
DFD .                    9.2 : DRILLING FLUID DENSITY
DFV .                     52 : DRILLING FLUID VISCOSITY
DFPH.                     18 : DRILLING FLUID PH
DFL .                     11 : DRILLING FLUID LOSS
RMS .OHMM                0.6 : RESISTIVITY MUD SAMPLE
MST .DEGF                 74 : MUD SAMPLE TEMPERATURE
RMF .OHMM               0.32 : RESISTIVITY MUD FILTRATE SAMPLE
MFST.DEGF                 70 : MUD FILTRATE SAMPLE TEMPERATURE
RMC .OHMM                0.8 : RESISTIVITY MUD CAKE
MCST.DEGF                 72 : MUD CAKE SAMPLE TEMPERATURE
RMB .OHMM               0.37 : RESISTIVITY MUD AT BHT
TCS .HRS                   2 : TIME CIRCULATED STOPPED
LUN .                   2547 : LOGGING UNIT NUMBER
LUL .                     SL : LOGGING UNIT LOCATION
ENGI.                  CRAIN : RECORDING ENGINEER
WITN.              TURNQUIST : WITNESSED BY
CLNT.                A2DTECH : CLIENT CODE
ORIG.            2" 5" PRINT : ORIGIN OF DATA
UWI .       100102508009W500 : UNIQUE WELL ID
DICO. A2D Technologies, Inc. : DIGITIZING COMPANY
~Other -----------------------------------------------------
~ASCII -----------------------------------------------------
  650.00000   10.37460   10.37460  100.69630  123.83590    8.07520  160.80000  160.80000   48.32440   48.32440    8.07520    6.71560  -46.58180   -1.73450    6.71560
  700.00000   12.44730   12.44730  163.50020  229.31300    4.36110  166.90390  166.90390   57.66800   57.66800    4.36110    5.75480  -50.21440   -5.52430    5.75480
  750.00000   14.15570   14.15570  152.08660  215.22960    4.64620  147.56970  147.56970   55.43760   55.43760    4.64620    5.75650  -49.89080   -5.35630    5.75650
  800.00000   14.89990   14.89990  159.92370  220.14310    4.54250  174.95390  174.95390   62.05100   62.05100    4.54250    5.63770  -50.34140   -5.96330    5.63770
  850.00000   14.47150   14.47150  171.10800  246.67610    4.05390  109.99780  109.99780   47.11100   47.11100    4.05390    4.99690  -49.34410   -5.12240    4.99690
  900.00000   14.65720   14.65720  327.49740  592.27670    1.68840  157.40330  157.40330   82.96550   82.96550    1.68840    3.72270  -54.87650  -10.81120    3.72270
  950.00000   14.98560   14.98560  275.76860  452.58170    2.20970  161.86460  161.86460   67.41390   67.41390    2.20970    3.58270  -50.89420   -6.98610    3.58270
 1000.00000   12.83830   12.83830  251.25990  402.78730    2.48270  139.17450  139.17450   68.95800   68.95800    2.48270    4.13730  -54.39330  -10.64070    4.13730
 1050.00000   13.17890   13.17890  268.88660  454.00890    2.20260  142.83150  142.83150   60.65530   60.65530    2.20260    4.08150  -51.88470   -8.28850    4.08150
 1100.00000   15.00000   15.00000  479.67900  479.67900    2.08470  200.98160  200.98160   42.83500   42.83500    0.96710    2.75530  -46.13130   -2.69150    2.75530
 1150.00000    9.47160    9.47160  192.20080  260.74260    3.83520  122.92740  122.92740   58.64120   58.64120    3.83520    4.77560  -55.22400  -12.75460    4.77560
 1200.00000    7.95560    7.95560  173.70200  250.65060    3.99030  121.12530  121.12530   46.62570   46.62570    3.99030    7.27170  -66.05080  -24.03490    7.27170
 1250.00000   14.95490   14.95490  289.51650  473.30560    2.11280  140.14730  140.14730   31.49290   31.49290    2.11280    3.23260  -44.96910   -3.18980    3.23260
 1300.00000    8.88980    8.88980  145.11720  194.54500    5.14020  117.82590  117.82590   52.41590   52.41590    5.14020    7.85610  -64.89620  -23.35480    7.85610
 1350.00000    9.54520    9.54520  166.29550  233.45390    4.28350  120.11120  120.11120   56.84080   56.84080    4.28350    6.29370  -61.30710  -20.00360    6.29370
 1400.00000    8.93100    8.93100   52.02340   61.60180   16.23330   58.94680   58.94680   31.37250   31.37250   16.23330   35.58450  -60.37250  -19.30690   35.58450
 1450.00000   10.20330   10.20330  190.60860  269.34550    3.71290  120.11490  120.11490   52.22310   52.22310    3.71290    5.68810  -60.95140  -20.12500    5.68810
 1500.00000    9.15470    9.15470  157.01460  217.07510    4.60670  110.97120  110.97120   41.51300   41.51300    4.60670    7.96240  -65.36170  -24.77190    7.96240
 1550.00000    9.91450    9.91450  154.18230  205.35990    4.86950  113.73280  113.73280   55.09440   55.09440    4.86950    6.77500  -63.25460  -22.90260    6.77500
 1600.00000   11.03000   11.03000  167.57120  227.17460    4.40190  118.10190  118.10190   50.71030   50.71030    4.40190    6.78770  -61.01350  -20.89940    6.78770
 1650.00000   11.76080   11.76080  184.69830  265.15350    3.77140  116.86990  116.86990   53.63900   53.63900    3.77140    5.13590  -58.62860  -18.75240    5.13590
 1700.00000   13.79430   13.79430  169.16960  233.11820    4.28990  116.89160  116.89160   47.58590   47.58590    4.28990    4.99240  -54.15110  -14.51400    4.99240
 1750.00000   11.45550   11.45550  117.18900  140.75780    7.10440  119.04100  119.04100   59.37130   59.37130    7.10440    7.73250  -61.87640  -22.47600    7.73250
 1800.00000   15.00000   15.00000  146.36300  196.71100    5.08360  149.55740  149.55740   33.59180   33.59180    5.08360    5.81400  -59.98130  -20.81880    5.81400
 1850.00000   13.62990   13.62990  165.02790  216.63310    4.61610  106.36020  106.36020   31.67050   31.67050    4.61610   12.25080  -53.37350  -14.44880   12.25080
 1900.00000   12.30080   12.30080  119.79620  149.20030    6.70240   71.22290   71.22290   38.80380   38.80380    6.70240    7.23790  -56.89170  -18.20490    7.23790
 1950.00000   14.99650   14.99650  245.87430  358.18810    2.79960  169.91540  169.91540   35.33450   35.33450    2.79960    5.08870  -54.29960  -15.85190    5.08870
 2000.00000   13.09310   13.09310  135.75640  164.60360    6.07520   91.37500   91.37500   45.38150   45.38150    6.07520   15.46300  -59.16570  -20.95470   15.46300
 2050.00000   11.30330   11.30330  230.72830  315.71640    3.16740   63.88290   63.88290   15.20210   15.20210    3.16740   11.25280  -79.93790  -41.96480   11.25280
 2100.00000   11.81610   11.81610  152.50110  194.98880    5.12850   85.41050   85.41050   21.69870   21.69870    5.12850    9.01810  -46.75490   -9.01970    9.01810
 2150.00000   11.32010   11.32010   51.46080   59.68830   16.75370   71.80180   71.80180   29.49220   29.49220   16.75370   17.99890  -51.28860  -13.79120   17.99890
 2200.00000   11.51120   11.51120   54.78560   66.38530   15.52320   61.67190   61.67190    8.11940    8.11940   15.52320   16.67540  -53.32750  -16.06920   16.67540
 2250.00000    9.84910    9.84910   30.06230   34.82880   28.71190   57.65540   57.65540   15.99730   15.99730   28.71190   27.69210  -56.09950  -19.07790   27.69210
 2300.00000   10.07480   10.07480   50.29890   56.25250   17.77700   61.37340   61.37340   19.19030   19.19030   17.77700   19.93660  -39.57460   -2.79090   19.93660
 2350.00000   10.97710   10.97710  107.01470  133.93700    7.46620   72.07870   72.07870   24.50230   24.50230    7.46620    8.34420  -37.83560   -1.28980    8.34420
 2400.00000   15.00000   15.00000  219.23820  300.57110    3.32700   97.20850   97.20850   29.28990   29.28990    3.32700    4.25220  -37.52600   -1.21810    4.25220
 2450.00000   10.93300   10.93300  106.04290  127.95170    7.81590   75.47030   75.47030   18.65750   18.65750    7.81590    8.64470  -36.81800   -0.74920    8.64470
 2500.00000    9.75740    9.75740   59.86270   70.07270   14.27090   71.63870   71.63870   17.99690   17.99690   14.27090   15.23830  -40.84870   -5.01650   15.23830
 2550.00000    9.84740    9.84740   38.43070   45.09360   22.17610   59.04090   59.04090   14.82340   14.82340   22.17610   21.00950  -44.45150   -8.85720   21.00950
 2600.00000    9.05970    9.05970   36.04150   41.57020   24.05570   56.72890   56.72890    9.12030    9.12030   24.05570   28.41500  -50.99790  -15.58830   28.41500
 2650.00000    9.65890    9.65890   62.50000   74.09770   13.49570   68.69430   68.69430   19.52130   19.52130   13.49570   16.01000  -43.26130   -7.94170   16.01000
 2700.00000   14.66530   14.66530  160.68920  207.63750    4.81650   92.49590   92.49590   31.60690   31.60690    4.81650    6.03680  -37.89670   -2.66760    6.03680
 2750.00000   10.29510   10.29510   28.96570   33.33860   29.99530   55.02870   55.02870    8.11140    8.11140   29.99530   35.33800  -62.56800  -27.42850   35.33800
 2800.00000    9.57740    9.57740   30.09530   32.64940   30.62840   57.55710   57.55710    6.78950    6.78950   30.62840   36.50650  -95.99970  -60.95020   36.50650
 2850.00000    9.94330    9.94330   15.96540   18.00010   55.55510   53.90640   53.90640   11.66980   11.66980   55.55510   45.65820  -83.37700  -48.41760   45.65820
 2900.00000   10.05010   10.05010   17.06680   18.96550   52.72740   51.05890   51.05890    6.31060    6.31060   52.72740   49.09110  -78.01410  -43.14470   49.09110
 2950.00000    9.07750    9.07750   23.78440   26.70650   37.44980   55.87290   55.87290    8.30810    8.30810   37.44980   46.39690  -94.67920  -59.90040   46.39690
 3000.00000    8.14590    8.14590   34.97040   39.73990   25.16360   59.92690   59.92690    5.75590    5.75590   25.16360   50.00000 -103.61370  -68.92440   50.00000
 3050.00000    8.72720    8.72720   26.47200   29.92690   33.41480   58.05880   58.05880    5.46090    5.46090   33.41480   50.00000 -103.54720  -68.94800   50.00000
