~Version ---------------------------------------------------
VERS.      2.0 : CWLS log ASCII Standard -VERSION 2.0
WRAP.       NO : One line per depth step
CREA. 11/14/17 : LAS Creation Date
~Well ------------------------------------------------------
STRT.FT                       1050.0 : START DEPTH
STOP.FT                      10150.0 : STOP DEPTH
STEP.FT                     50.00000 : STEP LENGTH
NULL.                        -999.25 : NULL VALUE
COMP.           CHEVRON STANDARD LTD : COMPANY
WELL. CHEVRON GULF FOXCK 12-35-61-18 : WELL
FLD .                      FOX CREEK : FIELD
LOC .                                : LOCATION
CTRY.                         CANADA : COUNTRY
SRVC.                   Schlumberger : SERVICE COMPANY
DATE.                    30-Mar-1976 : LOGDATE
PROV.                        Alberta : PROVINCE
UWI .               100123506118W500 : UNIQUE WELL ID
SLAT.WGS84                  54.32239 : SURFACE LATITUDE
SLON.WGS84                 -116.5968 : SURFACE LONGITUDE
~Curve Information -----------------------------------------
DEPT    .FT    : Depth Curve
CALDED  .IN    : CALIPER FROM DENSITY LOG [ADJ. TO SONIC LOG]
CALSED  .IN    : CALIPER FROM SONIC LOG
CALWS   .IN    : CALIPER [CALSED]
CONDWS  .OHMM  : CONDUCTIVITY [1000/DRESWS]
DCORED  .G/C3  : DENSITY CORRECTION FROM DENSITY LOG [ADJ. TO SONIC LOG]
DCORWS  .G/C3  : DENSITY CORRECTION [DCORED]
DENWS   .G/C3  : FORMATION BULK DENSITY [RHOBED]
DPHILSED.V/V   : DENSITY POROSITY LIME FROM DENSITY LOG [ADJ. TO RHOBED]
DPHISSED.V/V   : DENSITY POROSITY SAND FROM DENSITY LOG [ADJ. TO RHOBED]
DPOWS   .V/V   : DENSITY POROSITY LIME [CALC. FROM DENWS M=2710, F=1000]
DRESWS  .OHMM  : DEEP RESISTIVITY [ILDED]
DTED    .US/F  : DELTA-T FROM SONIC LOG
DTWS    .US/F  : COMPRESSIONAL SONIC [DTED]
GRDED   .GAPI  : GAMMA RAY FROM DENSITY LOG [ADJ. TO SONIC LOG]
GRSED   .GAPI  : GAMMA RAY FROM SONIC LOG
GRWS    .GAPI  : GAMMA RAY [GRSED]
ILDED   .OHMM  : DEEP INDUCTION FROM RESISTIVITY LOG
ILMED   .OHMM  : MEDIUM INDUCTION FROM RESISTIVITY LOG
LL8ED   .OHMM  : LATEROLOG 8 FROM RESISTIVITY LOG
MRESWS  .OHMM  : MEDIUM RESISTIVITY [ILMED]
NPHILSED.V/V   : NEUTRON POROSITY LIME FROM DENSITY LOG [ADJ. TO RHOBED]
NPHISSED.V/V   : NEUTRON POROSITY SAND FROM DENSITY LOG [ADJ. TO RHOBED]
NPOWS   .V/V   : NEUTRON POROSITY LIME [SS MATRIX CONVERTED FOR LS, SPL. TO NPHISSED @ 6719']
RHOBED  .G/C3  : BULK DENSITY FROM DENSITY LOG [ADJ. TO SONIC LOG]
SPRED   .MV    : SPONTANEOUS POTENTIAL FROM RESISTIVITY LOG
SPWS    .MV    : SPONTANEOUS POTENTIAL [BASELINE 0 MV, SPRED]
SRESWS  .OHMM  : SHALLOW RESISTIVITY [LL8ED]
TENDED  .LBF   : TENSION FROM DENSITY LOG [ADJ. TO GRSED]
TENSED  .LBF   : TENSION FROM SONIC LOG
~Params ----------------------------------------------------
PD  .                     GL : PERMANENT DATUM
EPD .FT               2712.6 : ELEVATION PERMANENT DATUM
LMF .                     KB : LOG MEASURED FROM
DAPD.FT                 16.4 : FEET ABOVE PERMANENT DATUM
DMF .                     KB : DRILLING MEASURED FROM
EKB .FT                 2729 : KELLY BUSHING
EDF .FT               2712.6 : DRILLING FLOOR
DATE.               03/30/76 : RUN DATE
RUN .                      1 : RUN NUMBER
DD  .FT                10180 : DEPTH DRILLER
DL  .FT                10178 : DEPTH LOGGER
BLI .FT                10176 : BOTTOM LOG INTERVAL
TLI .FT                 1117 : TOP LOG INTERVAL
CBD .FT                 1117 : CASING BOTTOM DRILLER
CBL .FT              1116.91 : CASING BOTTOM LOGGER
BS  .IN                 8.75 : BIT SIZE
BSD .FT                10180 : BIT SIZE AT DEPTH
DFT .               GEL CHEM : DRILLING FLUID TYPE
DFD .                    9.6 : DRILLING FLUID DENSITY
DFV .                    110 : DRILLING FLUID VISCOSITY
DFPH.                   10.5 : DRILLING FLUID PH
DFL .                      9 : DRILLING FLUID LOSS
RMF .OHMM               1.22 : RESISTIVITY MUD FILTRATE SAMPLE
MFST.DEGF                 68 : MUD FILTRATE SAMPLE TEMPERATURE
TCS .HRS                   3 : TIME CIRCULATED STOPPED
LUN .                   7691 : LOGGING UNIT NUMBER
LUL .                    WCT : LOGGING UNIT LOCATION
ENGI.                 KOVACS : RECORDING ENGINEER
WITN.            WONG MCLEOD : WITNESSED BY
CLNT.                A2DTECH : CLIENT CODE
ORIG.            2" 5" PRINT : ORIGIN OF DATA
UWI .       100123506118W500 : UNIQUE WELL ID
DICO. A2D Technologies, Inc. : DIGITIZING COMPANY
~Other -----------------------------------------------------
~ASCII -----------------------------------------------------
# ...
 7300.00000    9.96830    9.87700    9.87700   16.87360    0.01040    0.01040    2.68470    0.01780    -999.25    0.01480   59.41050   52.17010   52.17010   44.44170   45.16470   45.16470   59.41050   69.86830  227.88720   69.86830    0.02510    -999.25    0.02510    2.68470  -65.99810  -29.74060  227.88720 2187.99120    0.00000
 7350.00000   11.56920   10.42860   10.42860    7.56550    0.05240    0.05240    2.61800    0.05510    -999.25    0.05380  132.17850   51.59670   51.59670   19.44940   20.59860   20.59860  132.17850  121.23760  205.49820  121.23760    0.00770    -999.25    0.00770    2.61800  -86.84950  -51.38100  205.49820 2282.23400  538.42510
 7400.00000    9.45030    9.20560    9.20560   13.11640    0.00320    0.00320    2.70280    0.00250    -999.25    0.00420   76.24160   53.08170   53.08170   35.54730   36.59850   36.59850   76.24160   80.51390  111.91820   80.51390    0.02050    -999.25    0.02050    2.70280  -78.96160  -44.27410  111.91820 3686.37980 1026.44170
 7450.00000    9.38240    9.25040    9.25040    9.22490    0.01690    0.01690    2.70720   -0.00560    -999.25    0.00160  108.40240   53.23120   53.23120   44.43140   37.28530   37.28530  108.40240  126.28770  164.77350  126.28770    0.01770    -999.25    0.01770    2.70720  -80.20260  -46.30410  164.77350 4140.71390 2027.27060
 7500.00000    9.42960    9.12090    9.12090    4.30930   -0.00940   -0.00940    2.68440    0.02090    -999.25    0.01500  232.05560   51.71500   51.71500   27.10500   22.31040   22.31040  232.05560  325.38250  500.45240  325.38250    0.00880    -999.25    0.00880    2.68440  -99.95650  -66.84300  500.45240 1590.44210 3023.13020
 7550.00000    9.47100    9.16230    9.16230    2.52820    0.00070    0.00070    2.66660    0.02520    -999.25    0.02540  395.89030   56.37220   56.37220   49.97060   45.92320   45.92320  395.89030  807.62360  843.75900  807.62360    0.02920    -999.25    0.02920    2.66660  -75.43720  -43.10470  843.75900 2075.25310 1289.41890
 7600.00000    9.73010    9.48580    9.48580   19.88660    0.00100    0.00100    2.68600    0.01720    -999.25    0.01400   50.28510   57.13290   57.13290   75.95050   72.37900   72.37900   50.28510   56.17970   71.48000   56.17970    0.06120    -999.25    0.06120    2.68600  -76.39930  -44.85580   71.48000 3807.94220 2189.34260
 7650.00000   10.93850    9.64910    9.64910    4.91130    0.22360    0.22360    2.61060    0.06730    -999.25    0.05810  203.83210   52.27480   52.27480   13.47560   11.63260   11.63260  203.83210  313.72990 1382.29710  313.72990    0.00280    -999.25    0.00280    2.61060  -93.04660  -62.28410 1382.29710 3837.64980 2317.36800
 7700.00000   10.73400    9.67470    9.67470    2.03280    0.08230    0.08230    2.57500    0.07740    -999.25    0.07890  491.94330   51.38160   51.38160   13.51510   14.09960   14.09960  491.94330 1156.21440  712.41360 1156.21440    0.00280    -999.25    0.00280    2.57500 -124.40970  -94.43620  712.41360 3937.60260  563.25230
 7750.00000   10.98890    9.77520    9.77520    4.08100    0.22810    0.22810    2.53810    0.10070    -999.25    0.10050  245.03740   49.29270   49.29270   21.08390   18.34160   18.34160  245.03740  387.74680  363.79310  387.74680    0.00140    -999.25    0.00140    2.53810 -132.37030 -103.18180  363.79310 4205.20420 1405.81680
 7800.00000   11.33130    9.65000    9.65000    3.09560    0.18490    0.18490    2.55480    0.08650    -999.25    0.09080  325.11090   49.35210   49.35210   15.04730   12.95870   12.95870  325.11090  582.09210  435.11700  582.09210   -0.00060    -999.25   -0.00060    2.55480 -151.96600 -123.55850  435.11700 4707.35660 2143.15580
 7850.00000   12.61890    9.42850    9.42850    3.92390    0.17270    0.17270    2.37210    0.18780    -999.25    0.19760  254.84530   49.00220   49.00220   12.74000   13.77120   13.77120  254.84530  414.00230  379.98630  414.00230    0.00250    -999.25    0.00250    2.37210 -155.83510 -128.21660  379.98630 5308.91880 3235.12040
 7900.00000   11.98810    9.60020    9.60020    5.69200    0.16290    0.16290    2.35930    0.20620    -999.25    0.20510  178.28680   49.98340   49.98340   14.92560   14.76620   14.76620  178.28680  344.03670  321.49790  344.03670    0.00200    -999.25    0.00200    2.35930 -147.34310 -120.50570  321.49790 5385.95960 2948.83640
 7950.00000   14.08910   10.31980   10.31980    3.95670    0.14340    0.14340    2.26530    0.26040    -999.25    0.26000  252.73300   50.30580   50.30580   12.34010   11.58500   11.58500  252.73300  514.71800  428.08900  514.71800    0.00380    -999.25    0.00380    2.26530 -155.00340 -128.95490  428.08900 2111.33060 4206.73600
 8000.00000   13.71470    9.66690    9.66690    8.91560    0.17440    0.17440    2.33760    0.21150    -999.25    0.21780  112.16270   51.63820   51.63820   14.68060   11.27010   11.27010  112.16270  184.68660  352.54190  184.68660    0.00990    -999.25    0.00990    2.33760 -133.45090 -108.18740  352.54190 3141.39360 2446.83580
 8050.00000   12.81840    9.77080    9.77080   14.44640    0.19590    0.19590    2.21740    0.29320    -999.25    0.28800   69.25100   49.89760   49.89760   12.73830   12.32570   12.32570   69.25100  251.92290  202.73540  251.92290    0.00960    -999.25    0.00960    2.21740 -134.38330 -109.90090  202.73540 3776.75260 2949.09990
 8100.00000   13.95980    9.72390    9.72390    6.66470    0.20000    0.20000    2.23860    0.27540    -999.25    0.27570  150.04370   49.65820   49.65820   15.60770   12.97830   12.97830  150.04370  448.28290  400.29680  448.28290    0.01220    -999.25    0.01220    2.23860 -149.59170 -125.89820  400.29680 3827.56940 2947.34010
 8150.00000   12.98990    9.92200    9.92200    7.51830    0.19620    0.19620    2.24030    0.27470    -999.25    0.27470  133.43690   50.69380   50.69380   16.80810   11.66450   11.66450  133.43690  336.12310  482.19090  336.12310    0.02040    -999.25    0.02040    2.24030 -158.25210 -135.33960  482.19090 4312.09800 1984.50050
 8200.00000   12.82930    9.72490    9.72490    5.92870    0.19030    0.19030    2.14930    0.32510    -999.25    0.32790  168.67210   50.03310   50.03310   17.07310   13.65870   13.65870  168.67210  340.47950  557.58240  340.47950    0.02560    -999.25    0.02560    2.14930 -151.88690 -129.76340  557.58240 5039.25960 2988.07790
 8250.00000   12.33190    9.61750    9.61750   14.43750    0.16520    0.16520    2.31780    0.24310    -999.25    0.22940   69.26410   51.79120   51.79120   11.12820   13.13140   13.13140   69.26410   59.82220   63.69600   59.82220    0.01070    -999.25    0.01070    2.31780 -146.42540 -125.08690   63.69600 1591.96280 3323.18460
 8300.00000    8.73390    9.02570    9.02570   25.69500    0.12520    0.12520    2.48550    0.13620    -999.25    0.13130   38.97700   49.31510   49.31510   14.00390   12.71300   12.71300   38.97700   58.07470  135.41640   58.07470    0.04850    -999.25    0.04850    2.48550 -182.10070 -161.54330  135.41640 1729.53240 3743.20730
 8350.00000   13.53710   10.37890   10.37890    0.81790    0.17670    0.17670    2.39920    0.19120    -999.25    0.18180 1222.62940   50.16100   50.16100   16.21770   13.64200   13.64200 1222.62940  349.70200  658.57390  349.70200    0.02130    -999.25    0.02130    2.39920 -154.86950 -135.10100  658.57390 2909.27220 3010.72660
 8400.00000    9.87890    9.43420    9.43420   79.20840    0.10020    0.10020    2.63350    0.03560    -999.25    0.04470   12.63820   56.59500   56.59500   38.31600   37.09600   37.09600   12.63820   14.46540   18.70440   14.46540    0.10070    -999.25    0.10070    2.63350 -100.36200  -81.37460   18.70440 4580.06980 1786.69630
 8450.00000    9.48150    9.23900    9.23900   37.19260    0.05730    0.05730    2.61900    0.05500    -999.25    0.05320   26.88710   50.01520   50.01520   26.53600   22.43720   22.43720   26.88710   36.72590  168.28540   36.72590    0.06950    -999.25    0.06950    2.61900 -130.33770 -112.13920  168.28540 4509.66380 2805.30170
 8500.00000   12.23450    9.54350    9.54350    2.60460    0.15630    0.15630    2.00280    0.40200    -999.25    0.41360  383.93950   50.16410   50.16410   26.51260   26.05820   26.05820  383.93950   92.78900  106.14290   92.78900    0.07380    -999.25    0.07380    2.00280 -119.27120 -101.85770  106.14290 5069.52620 2738.79540
