~Version ---------------------------------------------------
VERS.      2.0 : CWLS log ASCII Standard -VERSION 2.0
WRAP.       NO : One line per depth step
CREA. 07/27/17 : LAS Creation Date
~Well ------------------------------------------------------
STRT.FT                           800.0 : START DEPTH
STOP.FT                         10500.0 : STOP DEPTH
STEP.FT                        50.00000 : STEP LENGTH
NULL.                           -999.25 : NULL VALUE
COMP.        THE CALIFORNIA STANDARD CO : COMPANY
WELL. CALSTAN BA KAYBOB WEST 2-28-63-20 : WELL
FLD .                                WC : FIELD
LOC .                                   : LOCATION
CTRY.                            CANADA : COUNTRY
SRVC.            Schlumberger of Canada : SERVICE COMPANY
DATE.                       31-Dec-1960 : LOGDATE
PROV.                           Alberta : PROVINCE
UWI .                  100022806320W500 : UNIQUE WELL ID
SLAT.WGS84                     54.47443 : SURFACE LATITUDE
SLON.WGS84                    -116.9579 : SURFACE LONGITUDE
~Curve Information -----------------------------------------
DEPT  .FT         : Depth Curve
CALWS .IN         : CALIPER [MCALED]
CILDED.MMHO       : INDUCTION DEEP CONDUCTIVITY FROM IEL LOG
CONDWS.MMHO       : CONDUCTIVITY [1000/DRESWS]
DRESWS.OHMM       : DEEP RESISTIVITY [CALC FROM 1000/CILDED, IF ILDED<1, ILDED]
DTED  .US/F       : COMPRESSIONAL DELTA-T (INTERVAL TRANSIT TIME) FROM SONIC LOG
DTWS  .US/F       : COMPRESSIONAL SONIC [DTED]
GRSED .UgRa-Eq/T  : GAMMA RAY FROM SONIC LOG FROM SONIC LOG
GRWS  .GAPI       : GAMMA RAY [GRSED*16.5 CONVERTED TO API UNIT]
ILDED .OHMM       : DEEP INDUCTION FROM IEL LOG
MCALED.IN         : MLT (MICROLOG) CALIPER FROM ML LOG
SNED  .OHMM       : SHORT NORMAL INDUCTION FROM IEL LOG
SPRED .MV         : SPONTANEOUS POTENTIAL FROM IEL LOG
SPWS  .MV         : SPONTANEOUS POTENTIAL [BASELINE 0 MV, SPRED]
SRESWS.OHMM       : SHALLOW RESISTIVITY [SNED]
~Params ----------------------------------------------------
LMF .                     KB : LOG MEASURED FROM
DMF .                     KB : DRILLING MEASURED FROM
EKB .FT                 2582 : KELLY BUSHING
EGL .FT                 2568 : GROUND LEVEL
DATE.               12/31/60 : RUN DATE
RUN .                      2 : RUN NUMBER
DD  .FT                10548 : DEPTH DRILLER
DL  .FT                10549 : DEPTH LOGGER
BLI .FT                10548 : BOTTOM LOG INTERVAL
TLI .FT                 6778 : TOP LOG INTERVAL
BSD .FT                10548 : BIT SIZE AT DEPTH
DFT .               OIL EMUL : DRILLING FLUID TYPE
DFD .                   10.1 : DRILLING FLUID DENSITY
DFV .                    109 : DRILLING FLUID VISCOSITY
DFPH.                     10 : DRILLING FLUID PH
DFL .                   10.2 : DRILLING FLUID LOSS
MSS .             CIRCULATED : MUD SAMPLE SOURCE
RMS .OHMM                5.2 : RESISTIVITY MUD SAMPLE
MST .DEGF                 58 : MUD SAMPLE TEMPERATURE
RMF .OHMM               1.64 : RESISTIVITY MUD FILTRATE SAMPLE
MFST.DEGF                 74 : MUD FILTRATE SAMPLE TEMPERATURE
RMC .OHMM               2.22 : RESISTIVITY MUD CAKE
MCST.DEGF                 74 : MUD CAKE SAMPLE TEMPERATURE
RMB .OHMM               0.75 : RESISTIVITY MUD AT BHT
TCS .HRS                 2.5 : TIME CIRCULATED STOPPED
LUN .                   1534 : LOGGING UNIT NUMBER
LUL .                     WC : LOGGING UNIT LOCATION
ENGI.                   GRAY : RECORDING ENGINEER
WITN.               MALOWANY : WITNESSED BY
CLNT.                A2DTECH : CLIENT CODE
ORIG.            2" 5" PRINT : ORIGIN OF DATA
UWI .       100022806320W500 : UNIQUE WELL ID
DICO. A2D Technologies, Inc. : DIGITIZING COMPANY
~Other -----------------------------------------------------
~ASCII -----------------------------------------------------
# ...
 5700.00000    9.00460   68.06610   80.59840   12.40720   71.28950   71.28950    8.47850  139.89530   12.40720    9.00460   31.65090 -136.50520  -66.05630   31.65090
 5750.00000    9.83650   44.37670   49.23050   20.31260   67.25550   67.25550    9.53900  157.39350   20.31260    9.83650   32.80000  -75.85950   -6.97240   32.80000
 5800.00000    9.76970  107.24200  133.31560    7.50100   75.20840   75.20840    8.64480  142.63840    7.50100    9.76970   14.08050  -99.85450  -32.52920   14.08050
 5850.00000    9.52110   61.62370   72.49270   13.79450   75.70500   75.70500    9.77770  161.33200   13.79450    9.52110   20.10910  -80.90540  -15.15220   20.10910
 5900.00000   10.82480  228.25450  305.22240    3.27630  117.79140  117.79140    9.68030  159.72410    3.27630   10.82480    7.90820  -87.20250  -23.01110    7.90820
 5950.00000    9.87920   90.86870  108.84240    9.18760   79.26600   79.26600    9.64560  159.15240    9.18760    9.87920   14.79580  -82.65940  -20.04000   14.79580
 6000.00000    9.62320   38.40950   43.35070   23.06770   70.05330   70.05330    9.89880  163.33020   23.06770    9.62320   31.69220  -78.11970  -17.06210   31.69220
 6050.00000    9.17690   27.24420   27.60750   36.22210   57.30200   57.30200   10.31640  170.21980   36.22210    9.17690   44.95210  -76.93380  -17.43800   44.95210
 6100.00000    9.95230   51.12190   54.86250   18.22740   72.41350   72.41350    7.70490  127.13090   18.22740    9.95230   25.38540 -102.47750  -44.55380   25.38540
 6150.00000    9.06640   40.59070   43.76940   22.84700   73.40340   73.40340    9.26930  152.94430   22.84700    9.06640   38.75540  -95.00550  -38.64360   38.75540
 6200.00000    9.48940  110.85090  127.91980    7.81740   75.99850   75.99850    9.26550  152.88070    7.81740    9.48940   11.87150 -108.06980  -53.28000   11.87150
 6250.00000   10.80440  181.24950  246.94410    4.04950   79.01600   79.01600   10.25840  169.26360    4.04950   10.80440    7.71530  -85.31650  -32.08850    7.71530
 6300.00000   12.52450  299.98680  479.24850    2.08660   95.53390   95.53390    9.38580  154.86570    2.08660   12.52450    5.20640  -82.09690  -30.43070    5.20640
 6350.00000    9.44630   16.68650   17.43810   57.34560   97.17600   97.17600   12.50830  206.38700   57.34560    9.44630   80.98270  -76.01350  -25.91930   80.98270
 6400.00000    9.23940   47.17340   49.32990   20.27170   93.79190   93.79190   10.85340  179.08190   20.27170    9.23940   50.94720  -78.39410  -29.86170   50.94720
 6450.00000    9.35270   34.70840   36.51350   27.38710   59.27820   59.27820   10.11750  166.93880   27.38710    9.35270   36.47660 -123.55320  -76.59290   36.47660
 6500.00000    9.79330   37.58160   41.03120   24.37170   67.28580   67.28580    9.78700  161.48550   24.37170    9.79330   31.99670  -74.46720  -29.06870   31.99670
 6550.00000   10.23190   50.92630   55.46190   18.03040   68.65740   68.65740    9.73070  160.55650   18.03040   10.23190   24.84180  -56.18880  -12.35210   24.84180
 6600.00000    9.96490   30.64660   33.63330   29.73240   62.67070   62.67070    9.38800  154.90200   29.73240    9.96490   36.77760  -62.94310  -20.67850   36.77760
 6650.00000    9.52170   26.34040   29.50350   33.89430   61.12090   61.12090    9.61650  158.67220   33.89430    9.52170   40.48940  -74.85190  -34.14910   40.48940
 6700.00000    9.43620   20.86360   22.70460   44.04390   54.20920   54.20920    6.90720  113.96880   44.04390    9.43620   59.26220 -116.05530  -76.92450   59.26220
 6750.00000    8.81700    8.39880    9.27670  107.79710   52.38720   52.38720    7.14340  117.86610  107.79710    8.81700   96.77720 -126.37380  -88.80480   96.77720
 6800.00000    9.83050   22.90820   15.92870   62.77980   56.58580   56.58580    7.52800  124.21200   62.77980    9.83050   69.88010 -132.14950  -96.14230   69.88010
 6850.00000   13.92090   14.60530    8.32640  120.10020   51.72880   51.72880    6.88720  113.63880  120.10020   13.92090   69.43970  -84.42790  -49.99280   69.43970
 6900.00000    9.94770   28.60220   22.49600   44.45240   55.61290   55.61290    8.18790  135.10120   44.45240    9.94770   51.14910  -43.40030  -10.52700   51.14910
 6950.00000   12.94770   14.54980    6.92000  144.50870   52.18070   52.18070    7.16620  118.24230  144.50870   12.94770   98.10660  -61.38270  -29.98750   98.10660
 7000.00000    9.82670  213.89060  201.39770    4.96530   61.62200   61.62200    7.77300  128.25450    4.96530    9.82670   14.52910  -96.00420  -65.52150   14.52910
 7050.00000   10.28220   33.21510   27.48820   36.37920   58.94600   58.94600    7.88710  130.13720   36.37920   10.28220   47.15780  -61.22240  -31.65220   47.15780
 7100.00000   10.79210   45.64240   39.93990   25.03760   52.29820   52.29820    6.97050  115.01330   25.03760   10.79210   44.21660  -96.16060  -67.50890   44.21660
 7150.00000    9.77060   11.62170    5.48590  182.28390   52.67430   52.67430    6.31820  104.24950  182.28390    9.77060  148.07880 -143.59570 -115.85640  148.07880
 7200.00000   10.79120   26.12380   19.91930   50.20250   52.35460   52.35460    7.06210  116.52460   50.20250   10.79120   88.79190 -175.01730 -148.19650   88.79190
 7250.00000   10.68180   16.46820    9.22090  108.44880   53.41620   53.41620    6.46950  106.74680  108.44880   10.68180   84.41590 -200.00650 -174.09820   84.41590
 7300.00000    9.79830  103.03600  105.00010    9.52380   66.57940   66.57940    9.73620  160.64730    9.52380    9.79830   14.53700 -124.58900  -99.59320   14.53700
 7350.00000    9.67080   89.67610   87.53580   11.42390   66.98450   66.98450    9.22980  152.29170   11.42390    9.67080   17.85560  -97.96140  -73.88410   17.85560
 7400.00000   10.09420  305.68740  266.75910    3.74870   62.22240   62.22240    7.29730  120.40630    3.74870   10.09420   17.08780 -171.53820 -148.37340   17.08780
 7450.00000   11.39920   26.42960   20.02370   49.94090   60.95950   60.95950    7.45180  122.95470   49.94090   11.39920   48.79400 -115.65100  -93.40470   48.79400
 7500.00000   10.16240   16.11850   12.19180   82.02240   58.39520   58.39520    6.32880  104.42520   82.02240   10.16240   95.83560 -154.80570 -133.47190   95.83560
 7550.00000    9.34830    6.70830    4.91100  203.62280   57.43840   57.43840    6.72270  110.92450  203.62280    9.34830   94.10160 -100.48880  -80.06750   94.10160
 7600.00000    9.32750    6.45750    5.09670  196.20680   57.21230   57.21230    7.37860  121.74690  196.20680    9.32750  105.45460  -69.90290  -50.40010  105.45460
 7650.00000    9.84620   21.94090   20.44050   48.92260   60.95200   60.95200    8.32060  137.28990   48.92260    9.84620   48.61930  -42.11640  -23.52610   48.61930
 7700.00000    9.90610   13.43540    9.38570  106.54460   58.62680   58.62680    8.01890  132.31180  106.54460    9.90610   68.36700  -37.49870  -19.82690   68.36700
 7750.00000    9.15020    7.56860    4.22490  236.69380   60.09130   60.09130    8.16270  134.68450  236.69380    9.15020  126.45880  -28.47930  -11.72000  126.45880
 7800.00000    9.25250   16.96300   14.71940   67.93760   59.80240   59.80240    7.38240  121.80960   67.93760    9.25250   60.81300  -33.46180  -17.61500   60.81300
 7850.00000    9.35120   20.42120   18.10340   55.23810   60.57870   60.57870    7.97690  131.61880   55.23810    9.35120   50.23140  -27.43380  -12.27290   50.23140
 7900.00000    9.56480   18.95130    3.48630  286.83870   81.67380   81.67380   15.45740  255.04710  286.83870    9.56480   62.04840  -59.81740  -44.86220   62.04840
 7950.00000   10.31760    3.10870    1.78990  558.68590   50.78880   50.78880    6.17650  101.91230  558.68590   10.31760  236.26900  -41.10680  -26.35860  236.26900
 8000.00000   10.44800    3.75550    1.67600  596.64610   51.62580   51.62580    6.35430  104.84600  596.64610   10.44800  207.07420  -72.09770  -57.55510  207.07420
 8050.00000   10.49990    4.47610    1.66790  599.55630   51.06200   51.06200    5.68970   93.87920  599.55630   10.49990  247.84570  -88.79380  -74.45690  247.84570
 8100.00000   10.81490    3.89310    1.67800  595.94810   52.01000   52.01000    6.11150  100.83980  595.94810   10.81490  215.94600 -104.96370  -90.83380  215.94600
