~Version ---------------------------------------------------
VERS.      2.0 : CWLS log ASCII Standard -VERSION 2.0
WRAP.       NO : One line per depth step
CREA. 12/07/17 : LAS Creation Date
~Well ------------------------------------------------------
STRT.FT                                  350.0 : START DEPTH
STOP.FT                                 9450.0 : STOP DEPTH
STEP.FT                               50.00000 : STEP LENGTH
NULL.                                  -999.25 : NULL VALUE
COMP. THE BRITISH AMERICAN OIL COMPANY LIMITED : COMPANY
WELL.              B.A. GOOSE RIVER 4-32-66-18 : WELL
FLD .                                          : FIELD
LOC .                                          : LOCATION
CTRY.                                   CANADA : COUNTRY
SRVC.                             Schlumberger : SERVICE COMPANY
DATE.                              02-Dec-1964 : LOGDATE
PROV.                                  Alberta : PROVINCE
UWI .                         100043206618W500 : UNIQUE WELL ID
SLAT.WGS84                            54.75185 : SURFACE LATITUDE
SLON.WGS84                           -116.6939 : SURFACE LONGITUDE
~Curve Information -----------------------------------------
DEPT  .FT    : Depth Curve
CALSED.IN    : CALIPER FROM SONIC LOG  [ADJ. TO RESISTIVITY LOG]
CALWS .IN    : CALIPER [CALSED]
CILDED.MMHO  : DEEP INDUCTION CONDUCTIVITY FROM RESISTIVITY LOG
CONDWS.MMHO  : CONDUCTIVITY [1000/DRESWS]
DRESWS.OHMM  : DEEP RESISTIVITY [1000/CILDED IF ILDED <1, ILDED]
DT1ED .US/F  : DELTA-T (INTERVAL TRANSIT TIME) (SPAN 1') FROM SONIC LOG  [ADJ. TO RESISTIVITY LOG]
DTED  .US/F  : DELTA-T (INTERVAL TRANSIT TIME) (SPAN 3') FROM SONIC LOG [ADJ. TO RESISTIVITY LOG]
DTWS  .US/F  : COMPRESSIONAL SONIC [DTED]
GRED  .GAPI  : GAMMA RAY FROM CBL LOG
GRNED .GAPI  : GAMMA RAY FROM GRN LOG  [ADJ. TO RESISTIVITY LOG]
GRSED .GAPI  : GAMMA RAY FROM SONIC LOG  [ADJ. TO RESISTIVITY LOG]
GRWS  .GAPI  : GAMMA RAY [GRED SPL. TO GRSED @ 717']
ILDED .OHMM  : DEEP INDUCTION RESISTIVITY FROM RESISTIVITY LOG
NEUTED.NAPI  : NEUTRON  FROM GRN LOG  [ADJ. TO RESISTIVITY LOG]
NEUTWS.NAPI  : NEUTRON [NEUTED]
SNED  .OHMM  : SHORT NORMAL RESISTIVITY FROM RESISTIVITY LOG
SPRED .MV    : SPONTANEOUS POTENTIAL FROM RESISTIVITY LOG
SPWS  .MV    : SPONTANEOUS POTENTIAL [BASELINE 0 MV,SPRED]
SRESWS.OHMM  : SHALLOW RESISTIVITY [SNED]
~Params ----------------------------------------------------
PD  .                     GL : PERMANENT DATUM
EPD .FT                 2485 : ELEVATION PERMANENT DATUM
LMF .                     KB : LOG MEASURED FROM
DAPD.FT                   15 : FEET ABOVE PERMANENT DATUM
EKB .FT                 2500 : KELLY BUSHING
EGL .FT                 2485 : GROUND LEVEL
DATE.               12/02/64 : RUN DATE
RUN .                      1 : RUN NUMBER
DD  .FT                 9461 : DEPTH DRILLER
DL  .FT                 9460 : DEPTH LOGGER
BLI .FT                 9459 : BOTTOM LOG INTERVAL
TLI .FT                  781 : TOP LOG INTERVAL
CBD .FT                  784 : CASING BOTTOM DRILLER
CBL .FT                  781 : CASING BOTTOM LOGGER
BS  .IN                7.625 : BIT SIZE
BSD .FT                 9461 : BIT SIZE AT DEPTH
DFT .               GEL CHEM : DRILLING FLUID TYPE
DFD .                    9.8 : DRILLING FLUID DENSITY
DFV .                     95 : DRILLING FLUID VISCOSITY
DFPH.                    9.5 : DRILLING FLUID PH
DFL .                    7.4 : DRILLING FLUID LOSS
RMS .OHMM               2.38 : RESISTIVITY MUD SAMPLE
MST .DEGF                 64 : MUD SAMPLE TEMPERATURE
RMF .OHMM                2.1 : RESISTIVITY MUD FILTRATE SAMPLE
MFST.DEGF                 66 : MUD FILTRATE SAMPLE TEMPERATURE
RMC .OHMM               2.32 : RESISTIVITY MUD CAKE
MCST.DEGF                 66 : MUD CAKE SAMPLE TEMPERATURE
RMB .OHMM               0.84 : RESISTIVITY MUD AT BHT
TCS .HRS                   6 : TIME CIRCULATED STOPPED
LUN .                   3534 : LOGGING UNIT NUMBER
LUL .                    V V : LOGGING UNIT LOCATION
ENGI.               CHENOSKY : RECORDING ENGINEER
WITN.                  WEISS : WITNESSED BY
CLNT.                A2DTECH : CLIENT CODE
ORIG.            2" 5" PRINT : ORIGIN OF DATA
UWI .       100043206618W500 : UNIQUE WELL ID
DICO. A2D Technologies, Inc. : DIGITIZING COMPANY
~Other -----------------------------------------------------
IEL-BHC-GRN CBL LOG RUN
~ASCII -----------------------------------------------------
# ...
 4050.00000    7.59820    7.59820   79.98480   82.57130   12.11080   83.25640   84.25590   84.25590    -999.25    -999.25   39.33400   39.33400   12.11080    -999.25    -999.25   19.87980  -86.42480  -49.61030   19.87980
 4100.00000    9.58790    9.58790  163.29440  170.37230    5.86950   95.48390   84.67330   84.67330    -999.25    -999.25   84.47200   84.47200    5.86950    -999.25    -999.25    6.61460  -41.55390   -4.79350    6.61460
 4150.00000   13.68740   13.68740  254.93650  245.63730    4.11370    -999.25  116.04520  116.04520    -999.25    -999.25   60.86000   60.86000    4.11370    -999.25    -999.25    4.64730  -41.69440   -4.98780    4.64730
 4200.00000    8.21890    8.21890   79.99150   78.39510   12.75590    -999.25   81.22410   81.22410    -999.25    -999.25   39.13590   39.13590   12.75590    -999.25    -999.25   20.12100  -68.75330  -32.10080   20.12100
 4250.00000    8.94250    8.94250   89.97630   92.82100   10.78060    -999.25   79.22590   79.22590    -999.25    -999.25   65.07450   65.07450   10.78060    -999.25    -999.25   14.70620  -50.00810  -13.40940   14.70620
 4300.00000    8.85110    8.85110  100.36320  100.90500    9.91080    -999.25   78.47920   78.47920    -999.25    -999.25   64.54410   64.54410    9.91080    -999.25    -999.25   13.26640  -46.76550  -10.22060   13.26640
 4350.00000    9.62700    9.62700  111.39490  114.04590    8.76840    -999.25   82.09230   82.09230    -999.25    -999.25   78.61130   78.61130    8.76840    -999.25    -999.25   12.99380  -43.90400   -7.41330   12.99380
 4400.00000   10.00590   10.00590  171.26820  177.89520    5.62280    -999.25   83.97420   83.97420    -999.25    -999.25   82.64300   82.64300    5.62280    -999.25    -999.25    7.08320  -40.12700   -3.69000    7.08320
 4450.00000   10.25660   10.25660  101.29950   98.06040   10.19780    -999.25   93.89880   93.89880    -999.25    -999.25   81.25980   81.25980   10.19780    -999.25    -999.25   12.59680  -44.05440   -7.67160   12.59680
 4500.00000   10.14100   10.14100  136.71440  141.20150    7.08210    -999.25   83.61370   83.61370    -999.25    -999.25   76.89440   76.89440    7.08210    -999.25    -999.25    8.85870  -45.54290   -9.21390    8.85870
 4550.00000    9.68090    9.68090  119.80440  122.65420    8.15380    -999.25   81.31910   81.31910    -999.25    -999.25   72.63190   72.63190    8.15380    -999.25    -999.25   10.25220  -46.95120  -10.67590   10.25220
 4600.00000    9.68630    9.68630  183.74390  190.30580    5.25470    -999.25   76.40930   76.40930    -999.25    -999.25   50.75860   50.75860    5.25470    -999.25    -999.25   18.82390  -98.60770  -62.38660   18.82390
 4650.00000   10.50020   10.50020  218.82390  226.92930    4.40820    -999.25   82.12410   82.12410    -999.25    -999.25   72.78670   72.78670    4.40820    -999.25    -999.25    7.04500  -49.10460  -12.93730    7.04500
 4700.00000    9.04720    9.04720  188.12600  198.08260    5.04840    -999.25   90.55210   90.55210    -999.25    -999.25   50.72530   50.72530    5.04840    -999.25    -999.25    9.94540  -70.55150  -34.43830    9.94540
 4750.00000    9.93270    9.93270  142.62860  145.67240    6.86530    -999.25   81.65480   81.65480    -999.25    -999.25   78.97650   78.97650    6.86530    -999.25    -999.25    8.54490  -42.99390   -6.93450    8.54490
 4800.00000   10.17800   10.17800  134.20640  140.83280    7.10210    -999.25   75.79180   75.79180    -999.25    -999.25   76.41870   76.41870    7.10210    -999.25    -999.25    9.13570  -47.99040  -11.98480    9.13570
 4850.00000   10.83340   10.83340  163.37440  161.78610    6.18100    -999.25   86.69080   86.69080    -999.25    -999.25   70.80400   70.80400    6.18100    -999.25    -999.25    6.79520  -43.14000   -7.18850    6.79520
 4900.00000   10.00780   10.00780  173.84870  188.09290    5.31670    -999.25   79.92650   79.92650    -999.25    -999.25   77.64330   77.64330    5.31670    -999.25    -999.25    7.19890  -36.99480   -1.09710    7.19890
 4950.00000    9.98520    9.98520   94.73230   96.57730   10.35440    -999.25   77.76990   77.76990    -999.25    -999.25   83.31630   83.31630   10.35440    -999.25    -999.25   14.24540  -36.09960   -0.51010   14.24540
 5000.00000    9.92410    9.92410  103.87750  112.09170    8.92330    -999.25   68.62280   68.62280    -999.25    -999.25   58.25860   58.25860    8.92330    -999.25    -999.25   14.30090  -63.49570  -28.41970   14.30090
 5050.00000    9.56510    9.56510  192.77650  207.72280    4.81430    -999.25   80.52080   80.52080    -999.25    -999.25   57.20100   57.20100    4.81430    -999.25    -999.25   10.94180  -85.98880  -51.42630   10.94180
 5100.00000   13.23360   13.23360  256.52530  273.49310    3.65640    -999.25   91.03660   91.03660    -999.25    -999.25   80.03850   80.03850    3.65640    -999.25    -999.25    4.30680  -40.87060   -6.82490    4.30680
 5150.00000   13.41480   13.41480  342.23150  402.57670    2.49270    -999.25  102.05360  102.05360    -999.25    -999.25   80.76010   80.76010    2.49270    -999.25    -999.25    3.82630  -45.80920  -12.27700    3.82630
 5200.00000    9.04590    9.04590   20.77840   18.10430   55.23540    -999.25  106.41630  106.41630    -999.25    -999.25  139.83450  139.83450   55.23540    -999.25    -999.25   50.19170  -47.90340  -14.88810   50.19170
 5250.00000    8.45500    8.45500   17.91710   12.05490   86.56070    -999.25   80.75650   80.75650    -999.25    -999.25  201.57020  201.57020   86.56070    -999.25    -999.25  108.41350  -55.32040  -22.81860  108.41350
 5300.00000    8.31870    8.31870    5.98000    2.83020  354.65940    -999.25   73.55840   73.55840    -999.25    -999.25  149.67040  149.67040  354.65940    -999.25    -999.25  236.48530  -90.46090  -58.47260  236.48530
 5350.00000    8.48140    8.48140  133.76500  140.07170    7.13920    -999.25   74.52760   74.52760    -999.25    -999.25   57.31840   57.31840    7.13920    -999.25    -999.25   24.41330 -132.14190 -100.67040   24.41330
 5400.00000   10.76070   10.76070  175.40360  190.65430    5.24510    -999.25   69.91940   69.91940    -999.25    -999.25   77.23140   77.23140    5.24510    -999.25    -999.25    9.88230  -72.92010  -41.96210    9.88230
 5450.00000    8.57550    8.57550   66.38600   69.20560   14.44970    -999.25   48.93070   48.93070    -999.25    -999.25   27.38090   27.38090   14.44970    -999.25    -999.25   48.06560 -131.32730 -100.88620   48.06560
 5500.00000    8.89230    8.89230   44.44360   43.28420   23.10790    -999.25   50.29640   50.29640    -999.25    -999.25   22.73080   22.73080   23.10790    -999.25    -999.25   93.30650 -135.01390 -105.08630   93.30650
 5550.00000    8.52840    8.52840   56.66280   53.61420   18.68570    -999.25   54.48960   54.48960    -999.25    -999.25   44.10110   44.10110   18.68570    -999.25    -999.25   34.09970  -88.80870  -59.39460   34.09970
 5600.00000    8.71230    8.71230   31.20620   29.76800   33.59310    -999.25   50.76070   50.76070    -999.25    -999.25   19.32140   19.32140   33.59310    -999.25    -999.25   98.50210 -137.19290 -108.29560   98.50210
 5650.00000    8.83440    8.83440   88.96240   94.43290   10.59550    -999.25   62.51230   62.51230    -999.25    -999.25   80.03650   80.03650   10.59550    -999.25    -999.25   17.64380  -79.41170  -51.02790   17.64380
 5700.00000    9.47180    9.47180   24.84770   23.58360   42.40240    -999.25   57.62170   57.62170    -999.25    -999.25   57.78770   57.78770   42.40240    -999.25    -999.25   47.20750  -41.77860  -13.91170   47.20750
 5750.00000    8.23010    8.23010    3.83910    2.11960  473.30880    -999.25   51.21690   51.21690    -999.25    -999.25   23.71980   23.71980  473.30880    -999.25    -999.25  132.02760  -61.64330  -34.28990  132.02760
 5800.00000    8.97060    8.97060  435.19340  531.41440    1.89010    -999.25   66.16880   66.16880    -999.25    -999.25   41.09220   41.09220    1.89010    -999.25    -999.25   10.22770 -130.28390 -103.44400   10.22770
 5850.00000    9.16440    9.16440   61.37090   63.32400   15.79180    -999.25   56.39530   56.39530    -999.25    -999.25   29.22430   29.22430   15.79180    -999.25    -999.25   43.24010  -78.91550  -52.59240   43.24010
