~Version ---------------------------------------------------
VERS.      2.0 : CWLS log ASCII Standard -VERSION 2.0
WRAP.       NO : One line per depth step
CREA. 08/31/17 : LAS Creation Date
~Well ------------------------------------------------------
STRT.FT                            1150.0 : START DEPTH
STOP.FT                           11550.0 : STOP DEPTH
STEP.FT                          50.00000 : STEP LENGTH
NULL.                             -999.25 : NULL VALUE
COMP.    AMOCO CANADA PETROLEUM CO., LTD. : COMPANY
WELL. AMOCO HB FINA SOUTH FORK 10-8-59-19 : WELL
FLD .                                     : FIELD
LOC .                                     : LOCATION
CTRY.                              CANADA : COUNTRY
SRVC.                        Schlumberger : SERVICE COMPANY
DATE.                         10-Oct-1977 : LOGDATE
PROV.                             Alberta : PROVINCE
UWI .                    100100805919W500 : UNIQUE WELL ID
SLAT.WGS84                       54.08913 : SURFACE LATITUDE
SLON.WGS84                      -116.8085 : SURFACE LONGITUDE
~Curve Information -----------------------------------------
DEPT    .FT    : Depth Curve
CALDED  .IN    : CALIPER FROM CNT-CFD LOG [ADJ. TO ILDED]
CALSED  .IN    : CALIPER FROM BCS LOG [ADJ. TO ILDED]
CALWS   .IN    : CALIPER [CALDED]
CONDWS  .MMHO  : CONDUCTIVITY [1000/DRESWS]
DCORED  .G/C3  : DENSITY CORRECTION FROM CNT-CFD LOG [ADJ. TO ILDED]
DCORWS  .G/C3  : DENSITY CORRECTION [DCORED]
DENWS   .G/C3  : FORMATION BULK DENSITY [RHOBED]
DPHILSED.V/V   : DENSITY POROSITY LIMESTONE [M=2.71,F=1.0] FROM CNT-CFD LOG [ADJ. TO ILDED]
DPHISSED.V/V   : DENSITY POROSITY SANDSTONE [M=2.65,F=1.0] FROM CNT-CFD LOG [ADJ. TO ILDED]
DPOLSWS .V/V   : DENSITY POROSITY LIMESTONE [CALCULATED FROM DENWS, M=2.71, F=1.0]
DRESWS  .OHMM  : DEEP RESISTIVITY [ILDED]
DTED    .US/F  : DELTA-T (INTERVAL TRANSIT TIME) FROM BCS LOG [ADJ. TO ILDED]
DTWS    .US/F  : COMPRESSIONAL  SONIC [DTED]
GRDED   .GAPI  : GAMMA RAY FROM CNT-CFD LOG [ADJ. TO ILDED]
GRSED   .GAPI  : GAMMA RAY FROM BCS LOG [ADJ. TO ILDED]
GRWS    .GAPI  : GAMMA RAY [GRSED]
ILDED   .OHMM  : DEEP INDUCTION FROM DILL LOG
ILMED   .OHMM  : MEDIUM INDUCTION FROM DILL LOG
LL8ED   .OHMM  : LATEROLOG 8 FROM DILL LOG
MRESWS  .OHMM  : MEDIUM RESISTIVITY [ILMED]
NPHILSED.V/V   : NEUTRON POROSITY LIMESTONE FROM CNT-CFD LOG [ADJ. TO ILDED]
NPHISSED.V/V   : NEUTRON POROSITY SANDSTONE FROM CNT-CFD LOG [ADJ. TO ILDED]
NPOLSWS .V/V   : NEUTRON POROSITY LIMESTONE [NPHISSED CONVERTED TO LIMESTONE MATRIX, SPL. TO NPHILSED @7662.5']
RHOBED  .G/C3  : BULK DENSITY FROM CNT-CFD LOG [ADJ. TO ILDED]
SPRED   .MV    : SPONTANEOUS POTENTIAL FROM DILL LOG
SPWS    .MV    : SPONTANEOUS POTENTIAL [BASELINE 0 MV, SPRED]
SRESWS  .OHMM  : SHALLOW RESISTIVITY [LL8ED]
~Params ----------------------------------------------------
PD  .                     GL : PERMANENT DATUM
EPD .FT                 2976 : ELEVATION PERMANENT DATUM
LMF .                     KB : LOG MEASURED FROM
DAPD.FT                 20.7 : FEET ABOVE PERMANENT DATUM
EKB .FT               2996.7 : KELLY BUSHING
EGL .FT                 2976 : GROUND LEVEL
DATE.               10/10/77 : RUN DATE
RUN .                      1 : RUN NUMBER
DD  .FT                11577 : DEPTH DRILLER
DL  .FT                11569 : DEPTH LOGGER
BLI .FT                11563 : BOTTOM LOG INTERVAL
TLI .FT                 1534 : TOP LOG INTERVAL
CBD .FT                 1535 : CASING BOTTOM DRILLER
CBL .FT                 1534 : CASING BOTTOM LOGGER
BS  .IN                 8.75 : BIT SIZE
BSD .FT                11577 : BIT SIZE AT DEPTH
DFT .                    GEL : DRILLING FLUID TYPE
DFD .                      9 : DRILLING FLUID DENSITY
DFV .                     80 : DRILLING FLUID VISCOSITY
DFPH.                    8.5 : DRILLING FLUID PH
DFL .                    8.8 : DRILLING FLUID LOSS
MSS .               FLOWLINE : MUD SAMPLE SOURCE
RMS .OHMM               2.24 : RESISTIVITY MUD SAMPLE
MST .DEGF                 54 : MUD SAMPLE TEMPERATURE
RMF .OHMM               1.98 : RESISTIVITY MUD FILTRATE SAMPLE
MFST.DEGF                 64 : MUD FILTRATE SAMPLE TEMPERATURE
TCS .HRS                   3 : TIME CIRCULATED STOPPED
LUN .                   7772 : LOGGING UNIT NUMBER
LUL .                    EDM : LOGGING UNIT LOCATION
ENGI.         BERNISKY TRACY : RECORDING ENGINEER
WITN.                 NEWELL : WITNESSED BY
CLNT.                A2DTECH : CLIENT CODE
ORIG.            2" 5" PRINT : ORIGIN OF DATA
UWI .       100100805919W500 : UNIQUE WELL ID
DICO. A2D Technologies, Inc. : DIGITIZING COMPANY
~Other -----------------------------------------------------
~ASCII -----------------------------------------------------
# ...
 10250.00000    9.03380    8.90270    9.03380   39.99870    0.00590    0.00590    2.73660   -0.01550    -999.25   -0.01560   25.00080   58.02660   58.02660   47.18270   46.98390   46.98390   25.00080   23.13370   35.13150   23.13370    0.09410    -999.25    0.09410    2.73660 -372.14590 -180.12150   35.13150
 10300.00000    9.66760    9.27050    9.66760   73.00120   -0.00350   -0.00350    2.65320    0.03500    -999.25    0.03320   13.69840   63.67300   63.67300   69.03300   64.24060   64.24060   13.69840   12.72690   18.18120   12.72690    0.13030    -999.25    0.13030    2.65320 -359.18190 -172.67590   18.18120
 10350.00000    9.30910    9.17500    9.30910   46.85400    0.06150    0.06150    2.67870    0.01870    -999.25    0.01830   21.36010   67.39990   67.39990   84.35640   76.27950   76.27950   21.36010   18.30210   29.28300   18.30210    0.13160    -999.25    0.13160    2.67870 -300.42570 -119.47430   29.28300
 10400.00000    9.92540    9.41570    9.92540   24.79800    0.19060    0.19060    2.67710    0.02080    -999.25    0.01920   40.32580   58.55030   58.55030   58.28560   55.63750   55.63750   40.32580   32.63860   56.11970   32.63860    0.08170    -999.25    0.08170    2.67710 -231.84100  -56.40800   56.11970
 10450.00000   11.96220   10.01480   11.96220   99.24490    0.24640    0.24640    2.40120    0.18380    -999.25    0.18060   10.07640   67.29860   67.29860   88.51710   83.22400   83.22400   10.07640    9.04020   13.91870    9.04020    0.18480    -999.25    0.18480    2.40120 -248.82790  -77.57060   13.91870
 10500.00000   12.08780    9.88060   12.08780  101.95130    0.17540    0.17540    2.51990    0.10930    -999.25    0.11120    9.80860   74.06610   74.06610  106.67990   93.69300   93.69300    9.80860    8.95450   12.29780    8.95450    0.21250    -999.25    0.21250    2.51990 -284.48040 -115.36100   12.29780
 10550.00000    9.24030    9.03520    9.24030   30.53640    0.05960    0.05960    2.76530   -0.03550    -999.25   -0.03230   32.74780   57.70390   57.70390   66.69520   59.79370   59.79370   32.74780   27.04660   46.73490   27.04660    0.08550    -999.25    0.08550    2.76530 -323.23760 -156.25600   46.73490
 10600.00000    9.24180    9.07660    9.24180   32.78940   -0.00470   -0.00470    2.71380   -0.00310    -999.25   -0.00220   30.61310   57.86130   57.86130   63.37450   57.24340   57.24340   30.61310   25.26380   41.30070   25.26380    0.08500    -999.25    0.08500    2.71380 -278.44870 -113.61900   41.30070
 10650.00000    9.42300    9.17160    9.42300   48.97260    0.18140    0.18140    2.72460   -0.01070    -999.25   -0.00850   20.41960   60.35890   60.35890   74.89090   65.36620   65.36620   20.41960   18.50920   24.95670   18.50920    0.12280    -999.25    0.12280    2.72460 -272.35800 -109.66620   24.95670
 10700.00000    9.38560    9.14360    9.38560   70.91770    0.10580    0.10580    2.69640    0.00670    -999.25    0.00800   14.10140   67.93020   67.93020  116.86880  108.75180  108.75180   14.10140   12.93790   19.85770   12.93790    0.19110    -999.25    0.19110    2.69640 -433.01560 -272.47570   19.85770
 10750.00000    9.17880    9.44090    9.17880   58.51720    0.04980    0.04980    2.71570   -0.00390    -999.25   -0.00330   17.08900   72.36300   72.36300  117.19030  109.56510  109.56510   17.08900   15.11730   26.51780   15.11730    0.21490    -999.25    0.21490    2.71570 -467.52370 -309.12170   26.51780
 10800.00000    8.91460    8.98520    8.91460   13.52350   -0.00250   -0.00250    2.61870    0.05650    -999.25    0.05340   73.94530   65.10090   65.10090  116.18830  110.10060  110.10060   73.94530   59.07140  103.19090   59.07140    0.14010    -999.25    0.14010    2.61870 -384.90600 -228.64180  103.19090
 10850.00000    8.98040    8.94290    8.98040    4.25340    0.01070    0.01070    2.63680    0.04190    -999.25    0.04280  235.52690   68.98040   68.98040  137.22220  134.36920  134.36920  235.52690  166.53150  371.12000  166.53150    0.16330    -999.25    0.16330    2.63680 -432.00000 -277.88770  371.12000
 10900.00000    8.93180    8.76820    8.93180    0.63230    0.00440    0.00440    2.51230    0.11900    -999.25    0.11560 1581.64950   68.50310   68.50310  173.78480  162.90680  162.90680 1581.64950 1387.38010 1469.90910 1387.38010    0.13780    -999.25    0.13780    2.51230 -432.00000 -280.02560 1469.90910
 10950.00000    8.89890    8.71410    8.89890    0.62880    0.01850    0.01850    2.54030    0.10320    -999.25    0.09920 1590.33290   63.38150   63.38150  172.48500  176.38230  176.38230 1590.33290 1399.88630 1487.35060 1399.88630    0.14090    -999.25    0.14090    2.54030 -399.94110 -250.11860 1487.35060
 11000.00000    8.93200    8.75120    8.93200    4.83980    0.01630    0.01630    2.74630   -0.02100    -999.25   -0.02120  206.62040   58.15950   58.15950   65.36450   64.10720   64.10720  206.62040  164.93550  292.49910  164.93550    0.06480    -999.25    0.06480    2.74630 -309.35690 -161.67230  292.49910
 11050.00000    8.97390    8.95990    8.97390    0.67460    0.02480    0.02480    2.66510    0.02570    -999.25    0.02630 1482.32850   51.85450   51.85450   40.81940   36.72300   36.72300 1482.32850  907.87320 1107.57230  907.87320    0.02700    -999.25    0.02700    2.66510 -361.47250 -215.92570 1107.57230
 11100.00000   10.23500    9.19250   10.23500    0.64870    0.16690    0.16690    2.66230    0.03020    -999.25    0.02790 1541.49500   47.88100   47.88100    9.85790    7.10930    7.10930 1541.49500 1171.10590 1444.96890 1171.10590    0.00730    -999.25    0.00730    2.66230 -432.00000 -288.60510 1444.96890
 11150.00000    8.86450    8.54590    8.86450   26.81740    0.12760    0.12760    2.62790    0.05280    -999.25    0.04800   37.28920   50.61320   50.61320    9.78310    9.69590    9.69590   37.28920   33.22250  123.50390   33.22250    0.12460    -999.25    0.12460    2.62790 -284.84480 -143.58780  123.50390
 11200.00000    8.77480    8.49880    8.77480   37.37930    0.11900    0.11900    2.69810    0.00860    -999.25    0.00700   26.85140   50.99330   50.99330   11.18080    9.31310    9.31310   26.85140   21.46170  135.48930   21.46170    0.10910    -999.25    0.10910    2.69810 -296.24500 -157.13990  135.48930
 11250.00000    9.22490    8.70530    9.22490   11.59860    0.24950    0.24950    2.57830    0.07310    -999.25    0.07700   86.21730   49.68890   49.68890   10.17940    7.56750    7.56750   86.21730  129.10800  271.39800  129.10800    0.14650    -999.25    0.14650    2.57830 -260.36880 -123.40160  271.39800
 11300.00000    8.91360    8.73530    8.91360    6.58740    0.13900    0.13900    2.67760    0.02510    -999.25    0.01890  151.80480   47.66720   47.66720   16.07010   13.74910   13.74910  151.80480  255.68520  434.90920  255.68520    0.04290    -999.25    0.04290    2.67760 -249.51520 -114.68580  434.90920
 11350.00000   11.85420    9.24460   11.85420    0.89650    0.24470    0.24470    2.43500    0.16680    -999.25    0.16080 1146.40770   48.32240   48.32240   20.97550   19.40090   19.40090 1146.40770 1426.77860 1448.23860 1426.77860    0.02520    -999.25    0.02520    2.43500 -286.00000 -153.32250 1448.23860
 11400.00000   11.01010    9.34140   11.01010    0.74750    0.23820    0.23820    2.49120    0.13400    -999.25    0.12800 1337.79850   48.69950   48.69950   11.41600   11.06620   11.06620 1337.79850 1539.67130 1354.87610 1539.67130    0.00550    -999.25    0.00550    2.49120 -240.14480 -109.60520 1354.87610
 11450.00000    9.79290    9.22770    9.79290    1.52930    0.25020    0.25020    2.48840    0.13460    -999.25    0.12960  672.08130   49.07890   49.07890   18.64700   19.11220   19.11220  672.08130 1123.28960  764.22530 1123.28960    0.05770    -999.25    0.05770    2.48840 -200.00000  -71.61230  764.22530
 11500.00000    9.01020    8.79950    9.01020    5.41450    0.19100    0.19100    2.39930    0.17360    -999.25    0.18170  184.69070   66.55150   66.55150  173.89530  179.46380  179.46380  184.69070  100.52730  178.28430  100.52730    0.19520    -999.25    0.19520    2.39930 -130.30490   -4.05510  178.28430
