~Version ---------------------------------------------------
VERS.      2.0 : CWLS log ASCII Standard -VERSION 2.0
WRAP.       NO : One line per depth step
CREA. 12/29/17 : LAS Creation Date
~Well ------------------------------------------------------
STRT.FT                     1350.0 : START DEPTH
STOP.FT                    12700.0 : STOP DEPTH
STEP.FT                   50.00000 : STEP LENGTH
NULL.                      -999.25 : NULL VALUE
COMP. TRANS-PRAIRIES PIPELINES LTD : COMPANY
WELL. TPPL DEEP VALLEY 11-21-64-25 : WELL
FLD .                              : FIELD
LOC .                              : LOCATION
CTRY.                       CANADA : COUNTRY
SRVC.                 Schlumberger : SERVICE COMPANY
DATE.                  04-Jan-1974 : LOGDATE
PROV.                      Alberta : PROVINCE
UWI .             100112106425W500 : UNIQUE WELL ID
SLAT.WGS84                54.55513 : SURFACE LATITUDE
SLON.WGS84               -117.7228 : SURFACE LONGITUDE
~Curve Information -----------------------------------------
DEPT    .FT    : Depth Curve
CALDED  .IN    : CALIPER FROM DENSITY LOG [ADJ. TO RESISTIVITY LOG]
CALSED  .IN    : CALIPER FROM SONIC LOG [ADJ. TO RESISTIVITY LOG]
CALWS   .IN    : CALIPER [CALSED]
CILDED  .MMHO  : CONDUCTIVITY FROM RESISTIVITY LOG
CONDWS  .MMHO  : CONDUCTIVITY [1000/DRESWS]
DCORWS  .G/C3  : DENSITY CORRECTION [DRHOED]
DENWS   .G/C3  : FORMATION BULK DENSITY [RHOBED]
DPHILSED.V/V   : DENSITY POROSITY LIMESTONE [M=2.71 F=1.00] FROM DENSITY LOG [ADJ. TO RHOBED/RESISTIVITY LOG]
DPHISSED.V/V   : DENSITY POROSITY SANDSTONE [M=2.65 F=1.00] FROM DENSITY LOG [ADJ. TO RHOBED/RESISTIVITY LOG]
DPOLSWS .V/V   : DENSITY POROSITY LIMESTONE [CALC FROM DENWS,M=2.71 F=1.00]
DRESWS  .OHMM  : DEEP RESISTIVITY [1000/CILDED IF ILDED<=5, ILDED]
DRHOED  .G/C3  : DENSITY CORRECTION FROM DENSITY LOG [ADJ. TO RESISTIVITY LOG]
DTED    .US/F  : DELTA T FROM SONIC LOG [ADJ. TO RESISTIVITY LOG]
DTWS    .US/F  : COMPRESSIONAL SONIC [DTED]
GRDED   .GAPI  : GAMMA RAY FROM DENSITY LOG [ADJ. TO RESISTIVITY LOG]
GRSED   .GAPI  : GAMMA RAY FROM SONIC LOG [ADJ. TO RESISTIVITY LOG]
GRWS    .GAPI  : GAMMA RAY [GRSED SPL. TO GRDED @ 7211']
ILDED   .OHMM  : DEEP INDUCTION FROM RESISTIVITY LOG
NPHILSED.V/V   : NEUTRON POROSITY LIMESTONE FROM DENSITY LOG [ADJ. TO RHOBED/RESISTIVITY LOG]
NPHISSED.V/V   : NEUTRON POROSITY SANDSTONE FROM DENSITY LOG [ADJ. TO RHOBED/RESISTIVITY LOG]
NPOLSWS .V/V   : NEUTRON POROSITY LIMESTONE [NPHISSED CONVERTED TO LIMESTONE MATRIX, SPL. TO NPHILSED @ 7065']
RHOBED  .G/C3  : BULK DENSITY FROM DENSITY LOG [ADJ. TO RESISTIVITY LOG]
SNED    .OHMM  : SHORT NORMAL FROM RESISTIVITY LOG
SPRED   .MV    : SPONTANEOUS POTENTIAL FROM RESISTIVITY LOG
SPWS    .MV    : SPONATENOUS POTENTIAL [BASELINE 0 MV, SPRED]
SRESWS  .OHMM  : SHALLOW RESISTIVITY [SNED]
~Params ----------------------------------------------------
PD  .                     GL : PERMANENT DATUM
EPD .FT                 2726 : ELEVATION PERMANENT DATUM
LMF .                     KB : LOG MEASURED FROM
DAPD.FT                   22 : FEET ABOVE PERMANENT DATUM
EKB .FT                 2748 : KELLY BUSHING
EDF .FT                 2726 : DRILLING FLOOR
DATE.               01/04/74 : RUN DATE
RUN .                      3 : RUN NUMBER
DD  .FT                12720 : DEPTH DRILLER
DL  .FT                12719 : DEPTH LOGGER
BLI .FT                12713 : BOTTOM LOG INTERVAL
TLI .FT                11088 : TOP LOG INTERVAL
CBD .FT                 1313 : CASING BOTTOM DRILLER
CBL .FT                 1314 : CASING BOTTOM LOGGER
BS  .IN                 8.75 : BIT SIZE
BSD .FT                12720 : BIT SIZE AT DEPTH
DFT .               GEL CHEM : DRILLING FLUID TYPE
DFD .                    9.6 : DRILLING FLUID DENSITY
DFV .                     97 : DRILLING FLUID VISCOSITY
DFL .                   10.9 : DRILLING FLUID LOSS
RMS .OHMM               2.08 : RESISTIVITY MUD SAMPLE
MST .DEGF                 50 : MUD SAMPLE TEMPERATURE
RMF .OHMM               1.51 : RESISTIVITY MUD FILTRATE SAMPLE
MFST.DEGF                 58 : MUD FILTRATE SAMPLE TEMPERATURE
RMC .OHMM               2.27 : RESISTIVITY MUD CAKE
MCST.DEGF                 52 : MUD CAKE SAMPLE TEMPERATURE
TCS .HRS                 2.5 : TIME CIRCULATED STOPPED
LUN .                   7691 : LOGGING UNIT NUMBER
LUL .                    EDM : LOGGING UNIT LOCATION
ENGI.                  LEITH : RECORDING ENGINEER
WITN.        SLOAN MCDONNELL : WITNESSED BY
CLNT.                A2DTECH : CLIENT CODE
ORIG.            2" 5" PRINT : ORIGIN OF DATA
UWI .       100112106425W500 : UNIQUE WELL ID
DICO. A2D Technologies, Inc. : DIGITIZING COMPANY
~Other -----------------------------------------------------
CNFD-IEL-BCS LOG RAN.
RUN#2: FDC ONLY TO 11088' & CNL ONLY TO 11650'
~ASCII -----------------------------------------------------
# ...
 4050.00000    -999.25   10.22870   10.22870  104.16280  107.61020    -999.25    -999.25    -999.25    -999.25    -999.25    9.29280    -999.25   91.63570   91.63570    -999.25  115.90520  115.90520    9.29280    -999.25    -999.25    -999.25    -999.25   11.78720  -30.03960   -5.39750   11.78720
 4100.00000    -999.25   12.23180   12.23180  102.90680  105.59100    -999.25    -999.25    -999.25    -999.25    -999.25    9.47050    -999.25   89.32260   89.32260    -999.25  101.18790  101.18790    9.47050    -999.25    -999.25    -999.25    -999.25   10.70490  -29.86520   -5.32310   10.70490
 4150.00000    -999.25   10.41770   10.41770   86.27450   88.53710    -999.25    -999.25    -999.25    -999.25    -999.25   11.29470    -999.25   87.15290   87.15290    -999.25   98.96140   98.96140   11.29470    -999.25    -999.25    -999.25    -999.25   12.78500  -28.94300   -4.50020   12.78500
 4200.00000    -999.25    9.58060    9.58060   71.19470   73.40370    -999.25    -999.25    -999.25    -999.25    -999.25   13.62330    -999.25   81.03580   81.03580    -999.25   96.45480   96.45480   13.62330    -999.25    -999.25    -999.25    -999.25   16.56770  -25.70980   -1.36700   16.56770
 4250.00000    -999.25    9.05130    9.05130   46.64990   48.29520    -999.25    -999.25    -999.25    -999.25    -999.25   20.70600    -999.25   77.75410   77.75410    -999.25   78.76950   78.76950   20.70600    -999.25    -999.25    -999.25    -999.25   24.54680  -31.83430   -7.59080   24.54680
 4300.00000    -999.25    9.57690    9.57690   73.39580   75.55150    -999.25    -999.25    -999.25    -999.25    -999.25   13.23600    -999.25   84.46650   84.46650    -999.25  108.59610  108.59610   13.23600    -999.25    -999.25    -999.25    -999.25   16.25300  -28.75130   -4.60720   16.25300
 4350.00000    -999.25   10.00710   10.00710   75.98100   78.86750    -999.25    -999.25    -999.25    -999.25    -999.25   12.67950    -999.25   82.53140   82.53140    -999.25  108.20150  108.20150   12.67950    -999.25    -999.25    -999.25    -999.25   14.68520  -28.99850   -4.95440   14.68520
 4400.00000    -999.25   10.13670   10.13670   88.14980   91.36590    -999.25    -999.25    -999.25    -999.25    -999.25   10.94500    -999.25   86.18850   86.18850    -999.25  117.10790  117.10790   10.94500    -999.25    -999.25    -999.25    -999.25   13.06530  -29.47910   -5.53430   13.06530
 4450.00000    -999.25   10.16960   10.16960   89.80940   94.18590    -999.25    -999.25    -999.25    -999.25    -999.25   10.61730    -999.25   86.47250   86.47250    -999.25  119.12310  119.12310   10.61730    -999.25    -999.25    -999.25    -999.25   13.29250  -28.37290   -4.52810   13.29250
 4500.00000    -999.25    9.91870    9.91870   90.83010   95.12210    -999.25    -999.25    -999.25    -999.25    -999.25   10.51280    -999.25   89.53680   89.53680    -999.25  116.87350  116.87350   10.51280    -999.25    -999.25    -999.25    -999.25   14.39210  -26.92980   -3.18430   14.39210
 4550.00000    -999.25    9.61310    9.61310   88.41660   92.05730    -999.25    -999.25    -999.25    -999.25    -999.25   10.86280    -999.25   92.34020   92.34020    -999.25  125.99400  125.99400   10.86280    -999.25    -999.25    -999.25    -999.25   14.96360  -26.57860   -2.93250   14.96360
 4600.00000    -999.25    9.66770    9.66770   85.78150   89.15760    -999.25    -999.25    -999.25    -999.25    -999.25   11.21610    -999.25   92.37070   92.37070    -999.25  126.72990  126.72990   11.21610    -999.25    -999.25    -999.25    -999.25   15.42140  -26.44200   -2.89590   15.42140
 4650.00000    -999.25    9.80340    9.80340   85.09790   87.11790    -999.25    -999.25    -999.25    -999.25    -999.25   11.47870    -999.25   90.67040   90.67040    -999.25  117.69820  117.69820   11.47870    -999.25    -999.25    -999.25    -999.25   15.71350  -26.69680   -3.25000   15.71350
 4700.00000    -999.25    9.51060    9.51060   57.84540   59.73640    -999.25    -999.25    -999.25    -999.25    -999.25   16.74020    -999.25   84.16680   84.16680    -999.25  119.30220  119.30220   16.74020    -999.25    -999.25    -999.25    -999.25   23.39720  -26.21660   -2.86980   23.39720
 4750.00000    -999.25   10.13990   10.13990   79.78550   82.83840    -999.25    -999.25    -999.25    -999.25    -999.25   12.07170    -999.25   85.71090   85.71090    -999.25  103.76550  103.76550   12.07170    -999.25    -999.25    -999.25    -999.25   16.48300  -26.60260   -3.35510   16.48300
 4800.00000    -999.25    9.85410    9.85410   78.52450   82.14230    -999.25    -999.25    -999.25    -999.25    -999.25   12.17400    -999.25   89.87220   89.87220    -999.25  122.65950  122.65950   12.17400    -999.25    -999.25    -999.25    -999.25   16.87480  -26.05070   -2.90260   16.87480
 4850.00000    -999.25    9.44480    9.44480   61.09340   60.58920    -999.25    -999.25    -999.25    -999.25    -999.25   16.50460    -999.25   95.15510   95.15510    -999.25  133.78690  133.78690   16.50460    -999.25    -999.25    -999.25    -999.25   24.84440  -24.60250   -1.55440   24.84440
 4900.00000    -999.25    9.79330    9.79330   88.72580   92.68180    -999.25    -999.25    -999.25    -999.25    -999.25   10.78960    -999.25   90.91000   90.91000    -999.25  122.44040  122.44040   10.78960    -999.25    -999.25    -999.25    -999.25   15.59590  -25.27010   -2.32130   15.59590
 4950.00000    -999.25    9.42820    9.42820   64.77930   68.18860    -999.25    -999.25    -999.25    -999.25    -999.25   14.66520    -999.25  105.60400  105.60400    -999.25  156.93490  156.93490   14.66520    -999.25    -999.25    -999.25    -999.25   23.52750  -24.15830   -1.30950   23.52750
 5000.00000    -999.25    9.53110    9.53110   73.43440   78.31470    -999.25    -999.25    -999.25    -999.25    -999.25   12.76900    -999.25   83.47200   83.47200    -999.25  115.18330  115.18330   12.76900    -999.25    -999.25    -999.25    -999.25   16.23220  -25.10270   -2.35320   16.23220
 5050.00000    -999.25    9.63130    9.63130   87.34870   90.26740    -999.25    -999.25    -999.25    -999.25    -999.25   11.07820    -999.25   80.08390   80.08390    -999.25   95.06760   95.06760   11.07820    -999.25    -999.25    -999.25    -999.25   13.54950  -24.90500   -2.25490   13.54950
 5100.00000    -999.25    9.10640    9.10640   69.93530   74.93440    -999.25    -999.25    -999.25    -999.25    -999.25   13.34500    -999.25   72.58490   72.58490    -999.25  104.03990  104.03990   13.34500    -999.25    -999.25    -999.25    -999.25   18.18090  -25.51260   -2.96240   18.18090
 5150.00000    -999.25    9.09670    9.09670   95.01430  101.05710    -999.25    -999.25    -999.25    -999.25    -999.25    9.89540    -999.25   79.63420   79.63420    -999.25  113.77900  113.77900    9.89540    -999.25    -999.25    -999.25    -999.25   13.23530  -26.36550   -3.91470   13.23530
 5200.00000    -999.25    9.46570    9.46570  113.93810  116.63300    -999.25    -999.25    -999.25    -999.25    -999.25    8.57390    -999.25   84.47500   84.47500    -999.25  113.80920  113.80920    8.57390    -999.25    -999.25    -999.25    -999.25   11.25390  -24.92720   -2.57640   11.25390
 5250.00000    -999.25    9.96120    9.96120  120.45930  125.74030    -999.25    -999.25    -999.25    -999.25    -999.25    7.95290    -999.25   84.35000   84.35000    -999.25  112.32670  112.32670    7.95290    -999.25    -999.25    -999.25    -999.25   10.67290  -24.37590   -2.51610   10.67290
 5300.00000    -999.25    9.56690    9.56690  123.07560  127.85430    -999.25    -999.25    -999.25    -999.25    -999.25    7.82140    -999.25   84.34620   84.34620    -999.25  117.23950  117.23950    7.82140    -999.25    -999.25    -999.25    -999.25   10.06990  -25.56290   -4.38050   10.06990
 5350.00000    -999.25    9.98360    9.98360   98.83000  102.99620    -999.25    -999.25    -999.25    -999.25    -999.25    9.70910    -999.25   78.39760   78.39760    -999.25  109.65780  109.65780    9.70910    -999.25    -999.25    -999.25    -999.25   12.33690  -25.32870   -4.82820   12.33690
