~Version ---------------------------------------------------
VERS.      2.0 : CWLS log ASCII Standard -VERSION 2.0
WRAP.       NO : One line per depth step
CREA. 12/01/17 : LAS Creation Date
~Well ------------------------------------------------------
STRT.FT                       650.0 : START DEPTH
STOP.FT                      6550.0 : STOP DEPTH
STEP.FT                    50.00000 : STEP LENGTH
NULL.                       -999.25 : NULL VALUE
COMP.    CANADIAN SUPERIOR OIL LTD. : COMPANY
WELL. CDN-SUP ET AL NIPISI 7-5-77-8 : WELL
FLD .                               : FIELD
LOC .                               : LOCATION
CTRY.                        CANADA : COUNTRY
SRVC.        Schlumberger of Canada : SERVICE COMPANY
DATE.                   23-Mar-1976 : LOGDATE
PROV.                       Alberta : PROVINCE
UWI .              100070507708W500 : UNIQUE WELL ID
SLAT.WGS84                 55.64085 : SURFACE LATITUDE
SLON.WGS84                -115.1982 : SURFACE LONGITUDE
~Curve Information -----------------------------------------
DEPT    .FT    : Depth Curve
CALDED  .IN    : CALIPER FROM DENSITY LOG
CALWS   .IN    : CALIPER [CALDED]
CONDWS  .MMHO  : CONDUCTIVITY [1000/DRESWS]
DCORWS  .G/C3  : DENSITY CORRECTION [DRHOED]
DENWS   .G/C3  : FROMATION BULK DENSITY [CALC. FROM DPOLSWS, M=2.71, F=1.00]
DPHILSED.V/V   : DENSITY POROSITY LIMESTONE [DPOLSWS, M=2.71, F=1.00] FROM DENSITY LOG
DPOLSWS .V/V   : DENSITY POROSITY LIMESTONE [DPHILSED SPL. TO CALC. FROM RHOBED M=2.71, F=1.00 AT SEVERAL INTERVAL]
DRESWS  .OHMM  : DEEP RESISTIVITY [ILDED]
DRHOED  .G/C3  : BULK DENSITY CORRECTION FROM DENSITY LOG
GRDED   .GAPI  : GAMMA RAY FROM DENSITY LOG
GRWS    .GAPI  : GAMMA RAY [GRDED]
ILDED   .OHMM  : DEEP INDUCTION RESISTIVITY FROM RESISTIVITY LOG
ILMED   .OHMM  : MEDIUM INDUCTION RESISTIVITY FROM RESISTIVITY LOG
LL8ED   .OHMM  : LATEROLOG 8 RESISTIVITY  FROM RESISTIVITY LOG
MRESWS  .OHMM  : MEDIUM RESISTIVITY [ILMED]
NPHILSED.V/V   : NEUTRON POROSITY LIMESTONE FROM DENSITY LOG
NPOLSWS .V/V   : NEUTRON POROSITY LIMESTONE [NPHILSED]
RHOBED  .G/C3  : BULK DENSITY FROM DENSITY LOG
SPRED   .MV    : SPONTANEOUS POTENTIAL FROM RESISTIVITY LOG
SPWS    .MV    : SPONTANEOUS POTENTIAL [BASELINE 0 MV,SPRED]
SRESWS  .OHMM  : SHALLOW RESISTIVITY [LL8ED]
~Params ----------------------------------------------------
PD  .                     GL : PERMANENT DATUM
EPD .FT                 2344 : ELEVATION PERMANENT DATUM
LMF .                     KB : LOG MEASURED FROM
DAPD.FT                   14 : FEET ABOVE PERMANENT DATUM
EKB .FT                 2358 : KELLY BUSHING
EGL .FT                 2344 : GROUND LEVEL
DATE.               03/23/76 : RUN DATE
RUN .                      1 : RUN NUMBER
DD  .FT                 6590 : DEPTH DRILLER
DL  .FT                 6592 : DEPTH LOGGER
BLI .FT                 6586 : BOTTOM LOG INTERVAL
TLI .FT                  646 : TOP LOG INTERVAL
CBD .FT                  646 : CASING BOTTOM DRILLER
CBL .FT                  646 : CASING BOTTOM LOGGER
BS  .IN                7.875 : BIT SIZE
BSD .FT                 6590 : BIT SIZE AT DEPTH
DFT .               GEL CHEM : DRILLING FLUID TYPE
DFD .                    9.9 : DRILLING FLUID DENSITY
DFV .                    120 : DRILLING FLUID VISCOSITY
DFPH.                     11 : DRILLING FLUID PH
DFL .                    9.6 : DRILLING FLUID LOSS
MSS .             CIRCULATED : MUD SAMPLE SOURCE
RMS .OHMM               0.76 : RESISTIVITY MUD SAMPLE
MST .DEGF                 42 : MUD SAMPLE TEMPERATURE
RMF .OHMM               0.46 : RESISTIVITY MUD FILTRATE SAMPLE
MFST.DEGF                 65 : MUD FILTRATE SAMPLE TEMPERATURE
TCS .HRS                   3 : TIME CIRCULATED STOPPED
LUN .                   7691 : LOGGING UNIT NUMBER
LUL .                    EDM : LOGGING UNIT LOCATION
ENGI.   CROCKFORD KREZANOSKI : RECORDING ENGINEER
WITN.            KELLY GLEEN : WITNESSED BY
CLNT.                A2DTECH : CLIENT CODE
ORIG.            2" 5" PRINT : ORIGIN OF DATA
UWI .       100070507708W500 : UNIQUE WELL ID
DICO. A2D Technologies, Inc. : DIGITIZING COMPANY
~Other -----------------------------------------------------
~ASCII -----------------------------------------------------
# ...
 3950.00000    7.63140    7.63140  418.95350    0.05950    2.38580    0.18960    0.18960    2.38690    0.05950   19.48770   19.48770    2.38690    4.12080   11.31680    4.12080    0.42630    0.42630    2.39430 -128.04980  -78.37510   11.31680
 4000.00000    7.93480    7.93480  237.14670    0.09450    2.60890    0.05910    0.05910    4.21680    0.09450   48.39200   48.39200    4.21680    5.49590    6.56470    5.49590    0.22310    0.22310    2.61150  -94.22360  -44.59440    6.56470
 4050.00000    7.87620    7.87620   21.51750    0.08560    2.75170   -0.02440   -0.02440   46.47380    0.08560   18.97070   18.97070   46.47380   63.27290  103.12490   63.27290    0.09620    0.09620    2.72840 -107.24390  -57.66010  103.12490
 4100.00000    7.92270    7.92270   80.33160    0.08780    2.72320   -0.00770   -0.00770   12.44840    0.08780   26.45340   26.45340   12.44840   16.47210   25.69710   16.47210    0.15010    0.15010    2.70910 -110.34570  -60.80770   25.69710
 4150.00000    8.02930    8.02930  116.74880    0.03090    2.65780    0.03050    0.03050    8.56540    0.03090   46.44030   46.44030    8.56540    9.35600   17.80230    9.35600    0.12740    0.12740    2.65380  -89.36550  -39.87290   17.80230
 4200.00000    7.92820    7.92820   64.35340    0.01500    2.72520   -0.00890   -0.00890   15.53920    0.01500   33.55080   33.55080   15.53920   18.11000   27.10280   18.11000    0.14570    0.14570    2.73690  -99.64420  -50.19740   27.10280
 4250.00000    8.02870    8.02870   51.41860    0.05800    2.78880   -0.04610   -0.04610   19.44820    0.05800   26.98220   26.98220   19.44820   21.44920   37.11860   21.44920    0.11350    0.11350    2.78670  -83.25670  -33.85530   37.11860
 4300.00000    8.16650    8.16650  109.77550   -0.00220    2.65650    0.03130    0.03130    9.10950   -0.00220   32.61160   32.61160    9.10950   10.68860   13.64740   10.68860    0.04840    0.04840    2.65510  -74.42540  -25.06940   13.64740
 4350.00000   11.56080   11.56080  229.75300    0.22690    2.29700    0.24150    0.24150    4.35250    0.22690   64.95380   64.95380    4.35250    4.57010    4.78200    4.57010    0.27240    0.27240    2.30360  -68.24530  -18.93510    4.78200
 4400.00000   11.33300   11.33300  422.29730    0.08600    2.29410    0.24320    0.24320    2.36800    0.08600   85.73390   85.73390    2.36800    2.49570    2.74220    2.49570    0.37960    0.37960    2.30740  -71.64700  -22.38220    2.74220
 4450.00000   14.69240   14.69240  412.93310    0.10730    2.34730    0.21210    0.21210    2.42170    0.10730   89.53420   89.53420    2.42170    2.61640    2.78300    2.61640    0.29250    0.29250    2.35260  -71.35510  -22.13610    2.78300
 4500.00000   14.67960   14.67960  418.34000    0.09320    2.46580    0.14280    0.14280    2.39040    0.09320   86.83990   86.83990    2.39040    2.51120    2.78290    2.51120    0.30630    0.30630    2.46840  -68.45330  -19.27970    2.78290
 4550.00000   13.57840   13.57840  465.18120    0.08880    2.48450    0.13190    0.13190    2.14970    0.08880   96.42360   96.42360    2.14970    2.27480    2.68440    2.27480    0.33840    0.33840    2.48210  -63.49430  -14.36620    2.68440
 4600.00000   13.42250   13.42250  430.60760    0.12430    2.47780    0.13580    0.13580    2.32230    0.12430   83.03250   83.03250    2.32230    2.54810    2.83360    2.54810    0.30730    0.30730    2.47380  -64.76230  -15.67990    2.83360
 4650.00000   15.00000   15.00000  491.98070    0.10320    2.37810    0.19410    0.19410    2.03260    0.10320   97.86760   97.86760    2.03260    2.15780    2.52220    2.15780    0.31740    0.31740    2.37560  -68.45130  -19.41440    2.52220
 4700.00000   15.00000   15.00000  406.07490    0.10120    2.35430    0.20800    0.20800    2.46260    0.10120   77.95210   77.95210    2.46260    2.67630    2.95340    2.67630    0.31210    0.31210    2.37410  -71.92380  -22.93260    2.95340
 4750.00000   15.00000   15.00000  471.00940    0.16740    2.48390    0.13220    0.13220    2.12310    0.16740   92.29380   92.29380    2.12310    2.39430    2.62320    2.39430    0.26050    0.26050    2.50210  -72.32110  -23.37530    2.62320
 4800.00000   15.00000   15.00000  478.19430    0.12550    2.37360    0.19670    0.19670    2.09120    0.12550   81.21410   81.21410    2.09120    2.30370    2.77790    2.30370    0.32280    0.32280    2.37230  -67.69970  -18.79940    2.77790
 4850.00000   11.15180   11.15180  484.87200    0.06540    2.41710    0.17130    0.17130    2.06240    0.06540   89.69100   89.69100    2.06240    2.20870    2.69590    2.20870    0.35190    0.35190    2.42620  -70.12030  -21.26570    2.69590
 4900.00000    8.68470    8.68470  148.31510    0.01580    2.64710    0.03680    0.03680    6.74240    0.01580   70.04590   70.04590    6.74240    7.03970    8.47520    7.03970    0.15750    0.15750    2.65230  -50.91240   -2.10330    8.47520
 4950.00000    8.71520    8.71520  138.27430    0.02540    2.68140    0.01670    0.01670    7.23200    0.02540   61.85730   61.85730    7.23200    7.57710    9.11040    7.57710    0.14100    0.14100    2.68160  -50.93310   -2.16970    9.11040
 5000.00000    8.48890    8.48890  143.99470    0.04830    2.60740    0.06000    0.06000    6.94470    0.04830   38.61510   38.61510    6.94470    7.45710    7.72310    7.45710    0.13610    0.13610    2.61860  -51.51430   -3.92560    7.72310
 5050.00000    8.14300    8.14300   70.08990    0.02180    2.65440    0.03250    0.03250   14.26740    0.02180   22.44230   22.44230   14.26740   15.28350   21.46160   15.28350    0.07110    0.07110    2.65910  -74.53130  -28.31860   21.46160
 5100.00000    8.43960    8.43960   98.06610    0.04900    2.67800    0.01870    0.01870   10.19720    0.04900   38.72010   38.72010   10.19720   10.69980   12.02500   10.69980    0.08590    0.08590    2.66230  -47.65180   -2.82420   12.02500
 5150.00000    8.73720    8.73720  153.11590    0.03600    2.66250    0.02780    0.02780    6.53100    0.03600   57.89300   57.89300    6.53100    6.74740    8.05340    6.74740    0.14050    0.14050    2.66240  -47.37960   -3.92800    8.05340
 5200.00000    8.29180    8.29180  110.68310    0.04640    2.72400   -0.00820   -0.00820    9.03480    0.04640   50.44430   50.44430    9.03480    9.56430   11.33240    9.56430    0.12680    0.12680    2.70420  -45.66860   -3.60210   11.33240
 5250.00000    8.57870    8.57870  162.73660    0.11410    2.62480    0.04980    0.04980    6.14490    0.11410   61.11670   61.11670    6.14490    6.40340    7.32340    6.40340    0.17290    0.17290    2.65020  -48.64730   -7.95680    7.32340
 5300.00000   15.30280   15.30280  282.31040    0.13040    2.47370    0.13820    0.13820    3.54220    0.13040   70.84640   70.84640    3.54220    3.67180    3.97470    3.67180    0.27700    0.27700    2.45180  -54.11020  -14.79570    3.97470
 5350.00000   15.00000   15.00000  427.73430    0.14580    2.28180    0.25040    0.25040    2.33790    0.14580   98.69140   98.69140    2.33790    2.55930    2.94840    2.55930    0.28880    0.28880    2.28690  -57.51580  -19.58640    2.94840
 5400.00000   15.00000   15.00000  354.34610    0.09110    2.40820    0.17650    0.17650    2.82210    0.09110   86.17130   86.17130    2.82210    3.00540    3.28520    3.00540    0.29140    0.29140    2.42150  -60.18340  -23.63000    3.28520
 5450.00000   13.27290   13.27290  281.87280    0.20470    2.36010    0.20460    0.20460    3.54770    0.20470   77.31710   77.31710    3.54770    4.03980    3.93740    4.03980    0.28990    0.28990    2.32110  -57.77540  -22.60700    3.93740
 5500.00000   12.90530   12.90530  197.75740    0.18650    2.32640    0.22430    0.22430    5.05670    0.18650   54.24580   54.24580    5.05670    5.75410    5.52340    5.75410    0.25160    0.25160    2.35380  -52.78840  -18.99610    5.52340
 5550.00000   11.68830   11.68830  149.43440    0.21100    2.37950    0.19330    0.19330    6.69190    0.21100   45.60180   45.60180    6.69190    7.41750    6.96100    7.41750    0.21350    0.21350    2.38550  -43.80230  -11.38600    6.96100
