~Version ---------------------------------------------------
VERS.      2.0 : CWLS log ASCII Standard -VERSION 2.0
WRAP.       NO : One line per depth step
CREA. 12/01/17 : LAS Creation Date
~Well ------------------------------------------------------
STRT.FT                        1050.0 : START DEPTH
STOP.FT                        9950.0 : STOP DEPTH
STEP.FT                      50.00000 : STEP LENGTH
NULL.                         -999.25 : NULL VALUE
COMP.          PACIFIC PETROLEUMS LTD : COMPANY
WELL. PACIFIC ET AL KAYBOB 6-23-63-18 : WELL
FLD .                                 : FIELD
LOC .                                 : LOCATION
CTRY.                          CANADA : COUNTRY
SRVC.          Schlumberger of Canada : SERVICE COMPANY
DATE.                     28-Feb-1971 : LOGDATE
PROV.                         Alberta : PROVINCE
UWI .                100062306318W500 : UNIQUE WELL ID
SLAT.WGS84                   54.46224 : SURFACE LATITUDE
SLON.WGS84                  -116.6138 : SURFACE LONGITUDE
~Curve Information -----------------------------------------
DEPT  .FT    : Depth Curve
CALSED.IN    : CALIPER FROM SONIC LOG [ADJ. TO RESISTIVITY LOG]
CALWS .IN    : CALIPER [CALSED]
CILDED.MMHO  : DEEP INDUCTION CONDUCTIVITY FROM RESISTIVITY LOG
CONDWS.MMHO  : CONDUCTIVITY [1000/DRESWS]
DRESWS.OHMM  : DEEP RESISTIVITY [1000/CILDED IF ILDED<1,ILDED & SPL. TO ILDED @ 4488'
DTED  .US/F  : DELTA-T FROM SONIC LOG [ADJ. TO RESISTIVITY LOG]
DTWS  .US/F  : COMPRESSIONAL SONIC [DTED]
GRSED .GAPI  : GAMMA RAY FROM SONIC LOG [ADJ. TO RESISTIVITY LOG]
GRWS  .GAPI  : AMMA RAY [GRSED]
ILDED .OHMM  : DEEP INDUCTION FROM RESISTIVITY LOG
ILMED .OHMM  : MEDIUM INDUCTION FROM RESISTIVITY LOG
LL8ED .OHMM  : LATEROLOG 8 RESISTIVITY FROM RESISTIVITY LOG
MRESWS.OHMM  : MEDIUM RESISTIVITY [ILMED]
SPRED .MV    : SPONTANEOUS POTENTIAL FROM RESISTIVITY LOG
SPWS  .MV    : SPONTANEOUS POTENTIAL [BASELINE 0 MV,SPRED]
SRESWS.OHMM  : SHALLOW RESISTIVITY [LL8ED]
~Params ----------------------------------------------------
PD  .                     GL : PERMANENT DATUM
EPD .FT               2627.5 : ELEVATION PERMANENT DATUM
LMF .                     KB : LOG MEASURED FROM
DAPD.FT                 17.5 : FEET ABOVE PERMANENT DATUM
EKB .FT                 2645 : KELLY BUSHING
EGL .FT               2627.5 : GROUND LEVEL
DATE.               02/28/71 : RUN DATE
RUN .                      1 : RUN NUMBER
DD  .FT                 9960 : DEPTH DRILLER
DL  .FT                 9964 : DEPTH LOGGER
BLI .FT                 9958 : BOTTOM LOG INTERVAL
TLI .FT                 1035 : TOP LOG INTERVAL
CBD .FT                 1035 : CASING BOTTOM DRILLER
CBL .FT                 1035 : CASING BOTTOM LOGGER
BS  .IN                 8.75 : BIT SIZE
BSD .FT                 9960 : BIT SIZE AT DEPTH
DFT .              FRESH GEL : DRILLING FLUID TYPE
DFD .                    9.5 : DRILLING FLUID DENSITY
DFV .                     90 : DRILLING FLUID VISCOSITY
DFPH.                    9.5 : DRILLING FLUID PH
DFL .                    9.2 : DRILLING FLUID LOSS
MSS .               FLOWLINE : MUD SAMPLE SOURCE
RMS .OHMM               2.04 : RESISTIVITY MUD SAMPLE
MST .DEGF                 60 : MUD SAMPLE TEMPERATURE
RMF .OHMM               1.79 : RESISTIVITY MUD FILTRATE SAMPLE
MFST.DEGF                 60 : MUD FILTRATE SAMPLE TEMPERATURE
RMC .OHMM                1.7 : RESISTIVITY MUD CAKE
MCST.DEGF                 64 : MUD CAKE SAMPLE TEMPERATURE
RMB .OHMM               0.55 : RESISTIVITY MUD AT BHT
TCS .HRS                   5 : TIME CIRCULATED STOPPED
LUN .                   7501 : LOGGING UNIT NUMBER
LUL .                    EDM : LOGGING UNIT LOCATION
ENGI.                 BUFTON : RECORDING ENGINEER
WITN.                SHEDDEN : WITNESSED BY
CLNT.                A2DTECH : CLIENT CODE
ORIG.            2" 5" PRINT : ORIGIN OF DATA
UWI .       100062306318W500 : UNIQUE WELL ID
DICO. A2D Technologies, Inc. : DIGITIZING COMPANY
~Other -----------------------------------------------------
DIL-BHC LOG RUN
ALL DATA FROM TOP TO 4488' FROM 2" SCALE SECTION
~ASCII -----------------------------------------------------
# ...
 3200.00000    9.76000    9.76000  112.37090  106.13010    9.42240   85.70820   85.70820   86.47720   86.47720    9.42240    -999.25   11.89890    -999.25  -78.72560   -3.27260   11.89890
 3250.00000   10.70830   10.70830  150.47520  144.88130    6.90220   91.13000   91.13000   81.75030   81.75030    6.90220    -999.25    8.29750    -999.25  -79.65610   -3.20420    8.29750
 3300.00000   10.47730   10.47730  162.86900  160.14610    6.24430   93.52210   93.52210   84.89830   84.89830    6.24430    -999.25    7.18680    -999.25  -81.42880   -5.28100    7.18680
 3350.00000   13.92350   13.92350  140.42720  135.40960    7.38500   94.01220   94.01220   63.99490   63.99490    7.38500    -999.25    7.99380    -999.25  -79.98720   -4.14540    7.99380
 3400.00000   11.33510   11.33510  149.36710  144.36060    6.92710   96.04880   96.04880   73.54050   73.54050    6.92710    -999.25    7.97330    -999.25  -80.25710   -4.71940    7.97330
 3450.00000   10.91020   10.91020  146.26230  138.43320    7.22370   95.82460   95.82460   83.19540   83.19540    7.22370    -999.25    8.13030    -999.25  -78.59600   -3.36440    8.13030
 3500.00000   11.13890   11.13890  149.03130  144.20650    6.93450   92.14160   92.14160   85.62830   85.62830    6.93450    -999.25    7.94200    -999.25  -77.13850   -2.21680    7.94200
 3550.00000   11.52540   11.52540  140.42700  136.25460    7.33920   86.72210   86.72210   79.25510   79.25510    7.33920    -999.25    7.97540    -999.25  -78.38630   -3.84830    7.97540
 3600.00000   12.11580   12.11580  138.14020  135.53990    7.37790   89.04530   89.04530   86.26710   86.26710    7.37790    -999.25    7.95420    -999.25  -77.61900   -3.46730    7.95420
 3650.00000   11.87470   11.87470  144.36820  138.96030    7.19630   88.46900   88.46900   82.03910   82.03910    7.19630    -999.25    7.88260    -999.25  -77.29800   -3.53010    7.88260
 3700.00000   11.11130   11.11130  122.09470  119.00090    8.40330   87.39370   87.39370   89.20510   89.20510    8.40330    -999.25    9.18160    -999.25  -76.90290   -3.52120    9.18160
 3750.00000   11.52820   11.52820  129.53150  124.89850    8.00650   87.07080   87.07080   85.97260   85.97260    8.00650    -999.25    9.11970    -999.25  -76.52250   -3.52460    9.11970
 3800.00000   11.81970   11.81970  129.86990  128.52810    7.78040   92.40590   92.40590  100.16570  100.16570    7.78040    -999.25    8.69050    -999.25  -75.64080   -3.02660    8.69050
 3850.00000   11.97570   11.97570  151.78940  150.64550    6.63810   91.80950   91.80950   95.11320   95.11320    6.63810    -999.25    8.03980    -999.25  -74.66470   -2.43680    8.03980
 3900.00000   11.80610   11.80610  159.67310  158.55150    6.30710   90.99310   90.99310   93.49030   93.49030    6.30710    -999.25    7.78020    -999.25  -74.44300   -2.59890    7.78020
 3950.00000   12.31980   12.31980  155.63550  152.01500    6.57830   93.95950   93.95950  102.19240  102.19240    6.57830    -999.25    8.59110    -999.25  -73.74270   -2.28490    8.59110
 4000.00000   12.63300   12.63300  141.70820  139.41950    7.17260   96.01570   96.01570  102.64320  102.64320    7.17260    -999.25    9.41770    -999.25  -72.68530   -1.61120    9.41770
 4050.00000   12.36850   12.36850  140.48890  138.95640    7.19650   96.99410   96.99410  100.90200  100.90200    7.19650    -999.25    9.76610    -999.25  -71.75180   -1.06150    9.76610
 4100.00000   10.29410   10.29410  120.37240  117.84120    8.48600   97.45710   97.45710  102.87470  102.87470    8.48600    -999.25   12.52550    -999.25  -72.17410   -1.87000   12.52550
 4150.00000   10.43910   10.43910  124.15440  120.09990    8.32640   97.33680   97.33680  114.17090  114.17090    8.32640    -999.25   11.85330    -999.25  -71.17370   -1.25340   11.85330
 4200.00000   10.04960   10.04960  103.57390   99.22310   10.07830   90.81020   90.81020  101.01320  101.01320   10.07830    -999.25   14.19180    -999.25  -71.55650   -2.02250   14.19180
 4250.00000   10.12900   10.12900  106.27020  103.31750    9.67890  102.83720  102.83720  105.53260  105.53260    9.67890    -999.25   14.69070    -999.25  -70.89990   -1.31200   14.69070
 4300.00000   11.77390   11.77390  159.62160  160.03840    6.24850   88.13430   88.13430   77.97190   77.97190    6.24850    -999.25    7.96110    -999.25  -75.69530   -5.81250    7.96110
 4350.00000   11.17180   11.17180  120.76370  121.55390    8.22680   83.09620   83.09620   81.19080   81.19080    8.22680    -999.25   11.10720    -999.25  -77.42770   -7.24800   11.10720
 4400.00000   11.24360   11.24360  154.82860  151.22420    6.61270   82.84440   82.84440   90.07980   90.07980    6.61270    -999.25    8.50610    -999.25  -73.80850   -3.33390    8.50610
 4450.00000   11.70630   11.70630  177.64670  175.45710    5.69940   85.95850   85.95850   92.57660   92.57660    5.69940    -999.25    7.65610    -999.25  -72.72530   -2.78780    7.65610
 4500.00000   11.27530   11.27530    -999.25  167.02580    5.98710   82.09300   82.09300   85.72130   85.72130    5.98710    6.52130    7.50970    6.52130  -72.09120   -3.13930    7.50970
 4550.00000   12.91790   12.91790    -999.25  216.42680    4.62050   92.94340   92.94340   83.79490   83.79490    4.62050    4.91920    5.59990    4.91920  -70.42690   -2.46060    5.59990
 4600.00000   11.60500   11.60500    -999.25  189.41190    5.27950   85.46700   85.46700   94.55220   94.55220    5.27950    5.58800    5.79770    5.58800  -70.49400   -3.51970    5.79770
 4650.00000   13.11420   13.11420    -999.25  392.55710    2.54740  104.83280  104.83280  114.63090  114.63090    2.54740    2.70010    3.61130    2.70010  -68.20120   -2.21250    3.61130
 4700.00000   14.22460   14.22460    -999.25  419.95630    2.38120   94.37400   94.37400   81.06350   81.06350    2.38120    2.54030    3.25570    2.54030  -67.70570   -2.32980    3.25570
 4750.00000   12.99470   12.99470    -999.25  308.99480    3.23630  100.88460  100.88460   86.62150   86.62150    3.23630    3.45230    4.29470    3.45230  -68.38900   -3.56180    4.29470
 4800.00000   12.41820   12.41820    -999.25  278.34220    3.59270   93.19970   93.19970   78.47770   78.47770    3.59270    3.84460    4.25320    3.84460  -67.47840   -3.20000    4.25320
 4850.00000   12.46950   12.46950    -999.25  212.44050    4.70720   93.25630   93.25630   74.77500   74.77500    4.70720    5.03590    5.94130    5.03590  -66.60120   -2.87520    5.94130
 4900.00000    9.03960    9.03960    -999.25   35.54840   28.13070   62.70660   62.70660   23.71700   23.71700   28.13070   31.55010   32.87090   31.55010  -90.26330  -27.08610   32.87090
 4950.00000   11.78310   11.78310    -999.25  125.71660    7.95440   80.71220   80.71220   63.28360   63.28360    7.95440    9.12090    8.77110    9.12090  -70.89780   -8.27300    8.77110
 5000.00000   14.76880   14.76880    -999.25  156.44800    6.39190  143.65060  143.65060   37.21720   37.21720    6.39190   12.98190   23.12170   12.98190  -68.78770   -6.71160   23.12170
 5050.00000   12.27080   12.27080    -999.25  182.99600    5.46460   76.30730   76.30730   68.81610   68.81610    5.46460    7.73320   11.35260    7.73320  -69.11940   -7.59210   11.35260
 5100.00000   11.48560   11.48560    -999.25  137.00880    7.29880   76.26000   76.26000   70.49400   70.49400    7.29880    7.84340    8.68850    7.84340  -64.05870   -3.08380    8.68850
 5150.00000   11.24490   11.24490    -999.25  108.92060    9.18100   76.51900   76.51900   77.91090   77.91090    9.18100   10.45610    9.96900   10.45610  -63.02120   -2.70320    9.96900
 5200.00000   10.59320   10.59320    -999.25   85.76770   11.65940   69.61530   69.61530   47.22850   47.22850   11.65940   12.56720   15.76280   12.56720  -85.99960  -26.35940   15.76280
 5250.00000   10.65700   10.65700    -999.25   87.54500   11.42270   73.42110   73.42110   67.39910   67.39910   11.42270   12.36810   15.18290   12.36810  -65.79900   -6.83200   15.18290
 5300.00000   12.29590   12.29590    -999.25   68.78290   14.53850  124.30500  124.30500   44.60500   44.60500   14.53850   19.60010   17.71440   19.60010  -62.78630   -4.49260   17.71440
