~Version ---------------------------------------------------
VERS. 2.0 : CWLS log ASCII Standard -VERSION 2.0
WRAP.  NO : ONE LINE PER DEPTH STEP
~Well ------------------------------------------------------
STRT.F                    300.0 : START DEPTH
STOP.F                  11600.0 : STOP DEPTH
STEP.F                 50.00000 : STEP LENGTH
NULL.                   -999.25 : NULL VALUE
COMP.      MOBIL OIL CANADA LTD : COMPANY
WELL. MOBIL PINEDALE 6-29-54-16 : WELL
FLD .                           : FIELD
LOC .                           : LOCATION
CTRY.                    CANADA : COUNTRY
SRVC.    Schlumberger of Canada : SERVICE COMPANY
DATE.               02-Oct-1968 : LOGDATE
PROV.                   Alberta : PROVINCE
UWI .          100062905416W500 : UNIQUE WELL ID
SLAT.WGS84             53.69074 : SURFACE LATITUDE
SLON.WGS84            -116.3264 : SURFACE LONGITUDE
~Curve Information -----------------------------------------
DEPT   .F    0   1   0  0 : 1 MEASURED DEPTH
CILD   .MMHO 05 110 46 00 : INDUCTION DEEP CONDUCTIVITY
ILD    .OHMM 05 120 46 00 : INDUCTION DEEP RESISTIVITY
SN     .OHMM 05 040 16 00 : SHORT NORMAL RESISTIVITY
SPR    .MV   05 010 01 00 : SPONTANEOUS POTENTIAL FROM RESISTIVITY LOG
GRN    .GAPI 41 310 01 00 : GAMMA RAY FROM GRN LOG
SNP_LS .DEC  41 890 01 00 : SIDEWALL NEUTRON POROSITY [LIMESTONE]
CALN   .IN   41 280 60 00 : CALIPER FROM NEUTRON LOG
GRD    .GAPI 45 310 01 00 : GAMMA RAY FROM DENSITY LOG
CALS   .IN   60 280 50 00 : CALIPER FROM SONIC LOG
GRS    .GAPI 60 310 01 00 : GAMMA RAY FROM SONIC LOG
DT     .US/F 60 500 00 00 : DELTA-T (INTERVAL TRANSIT TIME)
RHOB   .G/C3 45 350 01 00 : BULK DENSITY
CALD   .IN   45 280 60 00 : CALIPER FROM DENSITY LOG
DCOR   .G/C3 45 356 01 00 : DENSITY CORRECTION
DPHI_LS.DEC  45 890 10 00 : DENSITY POROSITY LIMESTONE
~Params ----------------------------------------------------
DATE.               10/02/68 : RUN DATE
RUN .                      1 : RUN NUMBER
CLNT.                A2DTECH : CLIENT CODE
ORIG.               5" PRINT : ORIGIN OF DATA
UWI .       100062905416W500 : UNIQUE WELL ID
DICO. A2D Technologies, Inc. : DIGITIZING COMPANY
~Other -----------------------------------------------------
~ASCII -----------------------------------------------------
# ...
 7200.00000   47.95300   23.09230   21.15020  -59.48750    -999.25    -999.25    -999.25    -999.25   10.57310   85.24070   99.03680    -999.25    -999.25    -999.25    -999.25
 7250.00000   63.47910   17.94570   18.83640  -61.14670    -999.25    -999.25    -999.25    -999.25   11.04900   73.92590   94.63700    -999.25    -999.25    -999.25    -999.25
 7300.00000   75.89400   14.89820   15.23790  -64.07070    -999.25    -999.25    -999.25    -999.25   10.47050   66.31230   71.23310    -999.25    -999.25    -999.25    -999.25
 7350.00000   49.02080   22.92880   42.95270  -58.26290    -999.25    -999.25    -999.25    -999.25   10.96710   53.52850   98.30620    -999.25    -999.25    -999.25    -999.25
 7400.00000   45.45020   24.33710   26.29200  -65.65800    -999.25    -999.25    -999.25    -999.25    9.77680   46.61710   67.91530    -999.25    -999.25    -999.25    -999.25
 7450.00000   36.38270   32.78360   27.98880  -52.79320    -999.25    -999.25    -999.25    -999.25    9.60040   51.34000   60.01050    -999.25    -999.25    -999.25    -999.25
 7500.00000   46.65440   23.90560   21.95170  -56.32080    -999.25    -999.25    -999.25    -999.25    9.65610   70.07670   65.73280    -999.25    -999.25    -999.25    -999.25
 7550.00000   25.08330   45.89650   28.70530  -59.07030    -999.25    -999.25    -999.25    -999.25    9.97440   53.44260   68.54800    -999.25    -999.25    -999.25    -999.25
 7600.00000   18.20950   67.77730   58.63280  -55.42090    -999.25    -999.25    -999.25    -999.25    9.54120   75.19890   61.96550    -999.25    -999.25    -999.25    -999.25
 7650.00000   23.86150   47.11460   39.11920  -53.97850    -999.25    -999.25    -999.25    -999.25   10.29740   57.19120   71.21450    -999.25    -999.25    -999.25    -999.25
 7700.00000   23.22960   48.38960   30.30010  -52.65160    -999.25    -999.25    -999.25    -999.25   10.43760   68.24730   68.90200    -999.25    -999.25    -999.25    -999.25
 7750.00000   70.75570   15.74390   17.38030  -49.23980    -999.25    -999.25    -999.25    -999.25   10.25790   95.12200   74.64330    -999.25    -999.25    -999.25    -999.25
 7800.00000   30.30150   36.88580   35.01490  -57.33770    -999.25    -999.25    -999.25    -999.25    9.89270   36.45920   57.95850    -999.25    -999.25    -999.25    -999.25
 7850.00000   32.92150   39.48800   39.08270  -61.07510    -999.25    -999.25    -999.25    -999.25    9.22990   13.55310   53.94400    -999.25    -999.25    -999.25    -999.25
 7900.00000    5.20830  430.65410  197.20560 -106.30780    -999.25    -999.25    -999.25    -999.25    8.88520   16.60430   48.80360    -999.25    -999.25    -999.25    -999.25
 7950.00000    4.36820  557.91820  303.04590  -87.19890    -999.25    -999.25    -999.25    -999.25    8.84350   18.64770   49.56770    -999.25    -999.25    -999.25    -999.25
 8000.00000    6.36120  268.15950  164.39790  -52.01020    -999.25    -999.25    -999.25    -999.25    9.08520   62.94420   57.66880    -999.25    -999.25    -999.25    -999.25
 8050.00000   85.87090   13.03320   41.76150 -124.80490    -999.25    -999.25    -999.25    -999.25    8.70530   25.73230   59.77810    -999.25    -999.25    -999.25    -999.25
 8100.00000   47.91150   23.13090   32.50140 -109.04280    -999.25    -999.25    -999.25    -999.25    9.13320   51.73630   54.73940    -999.25    -999.25    -999.25    -999.25
 8150.00000   16.49850   74.44240   74.98140  -55.20790    -999.25    -999.25    -999.25    -999.25    9.47900   56.56000   54.19400    -999.25    -999.25    -999.25    -999.25
 8200.00000    6.33750  290.42090  182.54130  -65.35320    -999.25    -999.25    -999.25    -999.25    9.99080   12.66940   47.18700    -999.25    -999.25    -999.25    -999.25
 8250.00000    4.64240  549.32510  170.24900 -101.13470    -999.25    -999.25    -999.25    -999.25    9.17370   20.21240   46.72930    -999.25    -999.25    -999.25    -999.25
 8300.00000   14.37830   88.20890   98.60320 -115.84140    -999.25    -999.25    -999.25    -999.25    9.70910   27.59100   50.06540    -999.25    -999.25    -999.25    -999.25
 8350.00000   58.54490   19.13660   20.96570  -38.51670    -999.25    -999.25    -999.25    -999.25    9.29720   73.26550   63.41730    -999.25    -999.25    -999.25    -999.25
 8400.00000   51.76520   21.31510   25.43740  -78.72870    -999.25    -999.25    -999.25    -999.25    9.16220   52.59930   54.35500    -999.25    -999.25    -999.25    -999.25
 8450.00000   37.28250   28.76840   31.03830  -70.30690    -999.25    -999.25    -999.25    -999.25    9.42170   60.83100   56.02470    -999.25    -999.25    -999.25    -999.25
 8500.00000   22.34870   49.26620   40.19420  -51.45840    -999.25    -999.25    -999.25    -999.25    9.72310   49.20870   57.94370    -999.25    -999.25    -999.25    -999.25
 8550.00000   21.36580   55.73230   54.66580  -53.00280    -999.25    -999.25    -999.25    -999.25   10.18420   17.68020   51.44360    -999.25    -999.25    -999.25    -999.25
 8600.00000   30.91780   35.95230   34.88200  -29.07050    -999.25    -999.25    -999.25    -999.25    9.32290   31.16140   56.15670    2.68970    9.30880    0.00450    -999.25
 8650.00000   35.33350   31.10240   32.36150  -17.36010   41.43560    0.03800    9.24460   37.98890    9.42870   35.53800   56.38120    2.70200    9.25040    0.00590   -0.02600
 8700.00000   34.26540   31.90370   31.47830  -12.52270   38.36710    0.03430    9.30060   39.48400    9.47670   37.14690   57.08850    2.70820    9.00230    0.01520   -0.01480
 8750.00000   29.95750   36.73800   34.39440  -10.38040   44.63110    0.03570    9.27110   43.71710    9.31510   42.53660   57.36600    2.73430    9.13470    0.00590   -0.00470
 8800.00000   14.15520   90.94550   68.56620   -5.38430   53.10710    0.03830    9.04350   52.49810    9.11890   64.62710   60.99970    2.69100    8.99890    0.01680    0.01290
 8850.00000   13.21650   97.26340   71.75130  -37.40340   42.50710    0.03040    8.90010   44.79860    9.02960   49.22010   56.42820    2.75250    9.00860    0.00320   -0.03840
 8900.00000    6.33400  281.91300  164.92780  -44.34320   28.09370    0.02630    9.67960   24.24070    9.57020   13.64250   48.81910    2.78180    9.61210    0.24930   -0.01220
 8950.00000    4.72930  455.01350  176.18540  -85.77000   16.90340    0.06810   10.17110   15.30600    9.86270   13.67360   50.81090    2.65070   10.86730    0.25000    0.07740
 9000.00000    5.14650  350.66330  143.77280 -114.13960   15.21620    0.04020   11.39750   15.32560    9.93930   13.03730   51.36120    2.56130   11.97060    0.21050    0.09160
 9050.00000    4.51290  485.82560  127.71760 -154.82690   14.24230    0.11280   13.00030   13.78330   10.30270   11.88950   50.63780    2.64760   14.09140    0.19310    0.05280
 9100.00000    5.39780  472.43390  108.28370 -175.22860   13.87150    0.28370    -999.25   14.03010   10.01120   11.35600   52.58710    2.52320   15.01430    0.24700    0.13990
 9150.00000    4.11180  554.15910  106.90550 -167.39410   20.53630    0.29740    -999.25   17.47280   13.61970   12.42780   56.91320    2.61610    -999.25    0.13670    0.08700
 9200.00000    4.43710  447.78580   75.47810 -165.77240   13.30120    0.24750   14.63410   13.01920   10.90180   10.33430   51.61650    2.62600   10.74610    0.13530    0.04150
 9250.00000    9.52100  153.60960   87.97340 -166.86680   12.31960    0.09940   11.34940   11.73110    9.95710   10.71260   50.32800    2.70770   12.42630    0.22340    0.02140
 9300.00000    4.46220  536.66270  155.60200 -173.95890   14.87520    0.11860   13.30190   17.70490    9.95630   16.38490   50.11910    2.36040   15.06800    0.18760    0.23160
 9350.00000    7.17420  251.40670  133.01200 -164.29270   12.77320    0.13970   11.95320   13.57620    9.20890   11.59970   49.68520    2.40670   12.29380    0.24990    0.19740
 9400.00000    7.89690  203.01100  116.07560 -192.68370   13.18560    0.06550   12.20950   14.27790   10.02650   11.39680   51.31690    2.48550   12.11880    0.15440    0.15360
 9450.00000    7.97570  185.23290  120.04780 -189.72800   16.68840    0.30490   13.36320   17.82710   10.05000   14.78880   74.32600    2.18510   15.03150    0.18950    0.32040
