~Version ---------------------------------------------------
VERS.      2.0 : CWLS log ASCII Standard -VERSION 2.0
WRAP.       NO : One line per depth step
CREA. 08/21/13 : LAS Creation Date
~Well ------------------------------------------------------
STRT.m                      450.0 : START DEPTH
STOP.m                     3300.0 : STOP DEPTH
STEP.m                   50.00000 : STEP LENGTH
NULL.                     -999.25 : NULL VALUE
COMP.   GULF CANADA RESOURCES INC : COMPANY
WELL. GULF AEC STURLS 14-20-68-25 : WELL
FLD .                             : FIELD
LOC .                             : LOCATION
CTRY.                      CANADA : COUNTRY
SRVC.                     Unknown : SERVICE COMPANY
DATE.                 26-Sep-1985 : LOGDATE
PROV.                     Alberta : PROVINCE
UWI .            100142006825W500 : UNIQUE WELL ID
SLAT.WGS84               54.90528 : SURFACE LATITUDE
SLON.WGS84              -117.7801 : SURFACE LONGITUDE
~Curve Information -----------------------------------------
DEPT     .m      : Depth Curve
C2ED     .MM     : CALIPER 2 CNLD (ADJ TO RES.)
CALDED   .MM     : CALIPER  CNLD (ADJ TO RES.)
CALSED   .MM     : CALIPER  SONIC (ADJ TO RES.)
CALWS    .MM     : CALIPER (CALDED)
CONDWS   .MMHO   : CONDUCTIVITY (1000/DRESWS)
DCORWS   .KG/M3  : DENSITY CORRECTION (DRHOED)
DENWS    .KG/M3  : BULK DENSITY  (RHOBED)
DPHI_LSED.V/V    : DENSITY POROSITY LIMESTONE  (ADJ TO RES.)
DPHI_SSED.V/V    : DENSITY POROSITY SANDSTONE  (ADJ TO RES.)
DPOLSWS  .V/V    : DENSITY POROSITY (M=2710 F=1000 FROM DENWS)
DRESWS   .OHMM   : DEEP RESISTIVITY (ILDED)
DRHOED   .KG/M3  : DENSITY CORRECTION (ADJ TO RES.)
DTED     .US/M   : DELTA TIME  (ADJ TO RES.)
DTWS     .US/M   : DELTA TIME  (DTED)
GRDED    .GAPI   : GAMMA RAY  CNLD (ADJ TO RES.)
GRRED    .GAPI   : GAMMA RAY  DIL
GRSED    .GAPI   : GAMMA RAY  SONIC (ADJ TO RES.)
GRWS     .GAPI   : GAMMA RAY (GRRED/GRDED @ 451.5) ADJUSTED IN CASING
ILDED    .OHMM   : INDUCTION DEEP RESISTIVITY
ILMED    .OHMM   : INDUCTION MEDIUM RESISTIVITY
MRESWS   .OHMM   : MEDIUM RESISTIVITY (ILMED)
NPHI_LSED.V/V    : NEUTRON POROSITY LIMESTONE (ADJ TO RES.)
NPHI_SSED.V/V    : NEUTRON POROSITY SANDSTONE (ADJ TO RES.)
NPOLSWS  .V/V    : NEUTRON POROSITY LIMESTONE (NPHI_SSED CONVERTED TO LS/NPHI_LSED)
RHOBED   .KG/M3  : BULK DENSITY (ADJ TO RES.)
SFLUED   .OHMM   : SHALLOW FOCUSED RESISTIVITY (UNAVERAGED)
SPRED    .MV     : SPONTANEOUS POTENTIAL DIL
SPWS     .MV     : SPONTANEOUS POTENTIAL (SPRED) BASELINE 0 MV (PARTIALLY REVERSED)
SRESWS   .OHMM   : SHALLOW RESISTIVITY (SFLUED)
TENDED   .N      : TENSION  CNLD (ADJ TO RES.)
TENRED   .N      : TENSION  DIL
TENSED   .N      : TENSION  SONIC (ADJ TO RES.)
~Params ----------------------------------------------------
PD  .                         GL : PERMANENT DATUM
EPD .M                     681.5 : ELEVATION PERMANENT DATUM
LMF .                         KB : LOG MEASURED FROM
DAPD.M                       6.8 : FEET ABOVE PERMANENT DATUM
DMF .                         KB : DRILLING MEASURED FROM
EKB .M                     688.3 : KELLY BUSHING
EDF .M                     687.9 : DRILLING FLOOR
EGL .M                     681.5 : GROUND LEVEL
DATE.                   09/26/85 : RUN DATE
RUN .                          1 : RUN NUMBER
DD  .M                      3321 : DEPTH DRILLER
DL  .M                      3322 : DEPTH LOGGER
BLI .M                      3320 : BOTTOM LOG INTERVAL
TLI .M                       454 : TOP LOG INTERVAL
CS  .MM                    244.5 : CASING SIZE
CBD .M                       455 : CASING BOTTOM DRILLER
CBL .M                       454 : CASING BOTTOM LOGGER
BS  .MM                      222 : BIT SIZE
BSD .M                      3321 : BIT SIZE AT DEPTH
DFT .                   GEL CHEM : DRILLING FLUID TYPE
DFV .                         66 : DRILLING FLUID VISCOSITY
DFPH.                       10.5 : DRILLING FLUID PH
DFL .                         10 : DRILLING FLUID LOSS
MSS .                   FLOWLINE : MUD SAMPLE SOURCE
RMS .OHMM                   1.35 : RESISTIVITY MUD SAMPLE
MST .DEGC                     21 : MUD SAMPLE TEMPERATURE
RMF .OHMM                   1.01 : RESISTIVITY MUD FILTRATE SAMPLE
MFST.DEGC                     23 : MUD FILTRATE SAMPLE TEMPERATURE
RMC .OHMM                  0.376 : RESISTIVITY MUD CAKE
MCST.DEGC                     98 : MUD CAKE SAMPLE TEMPERATURE
MFSS.                       MEAS : MUD FILTRATE SAMPLE SOURCE
RMB .OHMM                  0.481 : RESISTIVITY MUD AT BHT
TCS .HRS                     100 : TIME CIRCULATED STOPPED
TLAB.HRS                     730 : TIME LOGGER AT BOTTOM
LUN .                       8204 : LOGGING UNIT NUMBER
LUL .                         GP : LOGGING UNIT LOCATION
ENGI.                       BELL : RECORDING ENGINEER
WITN.                     WAGNER : WITNESSED BY
CLNT.                    A2DTECH : CLIENT CODE
ORIG. 6.5"/100M 16.5"/100M PRINT : ORIGIN OF DATA
UWI .           100142006825W500 : UNIQUE WELL ID
DICO.     A2D Technologies, Inc. : DIGITIZING COMPANY
~Other -----------------------------------------------------
~ASCII -----------------------------------------------------
# ...
 1550.00000  253.42730  232.41020  237.88670  232.41020   90.72110    5.43020 2479.33230    -999.25    0.09780    0.13490   11.02280    5.43020  242.94000  242.94000   58.02260   57.49310   57.09520   58.02260   11.02280   12.10420   12.10420    -999.25    0.25690    0.32000 2479.33230   16.19390 -106.76560  -11.18440   16.19390 13408.04020 11352.98120 11366.41140
 1600.00000  239.93960  222.57720  228.46550  222.57720  102.55460   11.04570 2549.54860    -999.25    0.06110    0.09380    9.75090   11.04570  239.21480  239.21480   64.35970   67.41200   66.68920   64.35970    9.75090   11.35510   11.35510    -999.25    0.25790    0.32080 2549.54860   14.45640 -120.80920  -17.63000   14.45640 13467.57150 11845.40250 11814.63120
 1650.00000  283.51020  238.94490  248.75140  238.94490   61.24900   64.62250 2169.97610    -999.25    0.28160    0.31580   16.32680   64.62250  308.16140  308.16140  102.46030   83.84810   83.34810  102.46030   16.32680   17.81530   17.81530    -999.25    0.28180    0.34040 2169.97610   18.70300  -93.30880   -6.27100   18.70300 13853.92800 11906.80390 11921.57570
 1700.00000  250.32470  229.47230  232.35630  229.47230   65.86570   -5.14190 2620.69900    0.05190    0.01750    0.05220   15.18240   -5.14190  241.75860  241.75860   89.45200   95.91930   94.71010   89.45200   15.18240   15.40810   15.40810    0.19430    0.23660    0.19430 2620.69900   18.56860  -73.61210    1.74350   18.56860 14387.99520 12083.51090 12435.16170
 1750.00000  246.32040  291.46630  229.05550  291.46630  198.47570   51.86040 2283.24020    0.24400    -999.25    0.24960    5.03840   51.86040  366.91400  366.91400   97.28650   86.67680   86.41740   97.28650    5.03840    4.33250    4.33250    0.39680    -999.25    0.39680 2283.24020    3.77020  -88.81130   -5.19740    3.77020 14303.42370 12789.62310 12633.10300
 1800.00000  239.38570  262.49440  263.67520  262.49440  217.15060    2.90120 2465.92850    0.13920    -999.25    0.14270    4.60510    2.90120  241.08840  241.08840   79.00530   76.95420   77.62960   79.00530    4.60510    5.86710    5.86710    0.16860    -999.25    0.16860 2465.92850   12.10090 -110.85250  -15.55420   12.10090 14723.10120 13035.43560 12948.29170
 1850.00000  246.57230  249.41940  253.35950  249.41940   79.23930    6.03410 2557.03520    0.08740    -999.25    0.08950   12.62000    6.03410  216.49400  216.49400   62.77320   74.29220   73.54880   62.77320   12.62000   13.12420   13.12420    0.12580    -999.25    0.12580 2557.03520   16.64000 -105.80320  -14.67170   16.64000 15229.67160 13223.29080 13246.80420
 1900.00000  262.09300  239.00980  244.67720  239.00980   38.13300   -3.14440 2713.52930   -0.00400    -999.25   -0.00210   26.22400   -3.14440  187.47400  187.47400   61.77410   63.37680   63.69020   61.77410   26.22400   28.79910   28.79910    0.07840    -999.25    0.07840 2713.52930   43.60820 -103.12640  -14.80600   43.60820 15742.88100 13535.80710 13583.75970
 1950.00000  264.93090  247.02030  246.47380  247.02030   45.51560   -0.95040 2667.27050    0.02460    -999.25    0.02500   21.97050   -0.95040  215.16870  215.16870   98.31660   97.62880   99.32750   98.31660   21.97050   22.67540   22.67540    0.11860    -999.25    0.11860 2667.27050   32.27510  -75.67820   -3.95250   32.27510 15811.26380 14010.97860 14048.17710
 2000.00000  247.99290  238.62320  246.91200  238.62320   36.65700   11.78440 2810.56400   -0.06240    -999.25   -0.05880   27.27990   11.78440  176.36160  176.36160   43.12220   41.97400   41.79350   43.12220   27.27990   29.38380   29.38380    0.09390    -999.25    0.09390 2810.56400   28.39690  -86.99600   -8.33230   28.39690 15932.90250 14309.04580 14269.60930
 2050.00000  234.78990  227.51660  233.35380  227.51660    4.41310   -3.16160 2794.59160   -0.05650    -999.25   -0.04950  226.59970   -3.16160  159.63710  159.63710   29.09870   29.29810   30.09500   29.09870  226.59970  269.11940  269.11940    0.03290    -999.25    0.03290 2794.59160  713.39000 -134.04020  -30.23810  713.39000 16310.32910 14364.57200 14378.85250
 2100.00000  229.41530  232.27360  228.76860  232.27360   93.53140   50.79530 2621.53490    0.04620    -999.25    0.05170   10.69160   50.79530  180.28690  180.28690   21.67770   21.59780   21.82220   21.67770   10.69160   12.62290   12.62290    0.12910    -999.25    0.12910 2621.53490   24.39300 -147.57440  -38.77750   24.39300 16639.57560 14812.81640 14804.07470
 2150.00000  258.03330  234.53030  243.53580  234.53030  156.87500    4.31870 2637.96610    0.03940    -999.25    0.04210    6.37450    4.31870  190.21260  190.21260   32.52150   27.36470   27.46550   32.52150    6.37450    7.86060    7.86060    0.14790    -999.25    0.14790 2637.96610   10.68510 -117.11260  -28.46140   10.68510 16574.16230 15042.89020 15281.93710
 2200.00000  273.07770  246.56210  247.73940  246.56210   88.99090  -15.54410 2665.28030    0.02440    -999.25    0.02620   11.23710  -15.54410  200.17770  200.17770   51.94670   50.36830   51.04820   51.94670   11.23710   10.76080   10.76080    0.10220    -999.25    0.10220 2665.28030   13.45680  -38.90210   -2.26930   13.45680 17151.78970 15251.69140 15374.97860
 2250.00000  253.33040  226.96470  241.95880  226.96470  134.46640   -5.28580 2657.71780    0.02920    -999.25    0.03060    7.43680   -5.28580  170.93130  170.93130   22.49020   25.16450   24.88340   22.49020    7.43680   13.17850   13.17850    0.03960    -999.25    0.03960 2657.71780   59.29440   44.43240   13.39510   59.29440 17514.63570 15829.69630 15761.20670
 2300.00000  252.01910  253.10490  244.56080  253.10490    4.29110   34.64650 2681.81960    0.01620    -999.25    0.01650  233.04100   34.64650  168.12400  168.12400   12.36660   12.20270   11.74690   12.36660  233.04100  185.25950  185.25950    0.00240    -999.25    0.00240 2681.81960  189.50270  -21.75660  -35.18060  189.50270 17969.81730 16092.40960 16046.65280
 2350.00000  261.18940  246.98050  247.21220  246.98050  228.42000   -9.05320 2679.20140    0.00080    -999.25    0.01800    4.37790   -9.05320  204.20360  204.20360   52.75380   47.51850   47.99390   52.75380    4.37790    4.81510    4.81510    0.12880    -999.25    0.12880 2679.20140    6.38420   45.44740  -23.71810    6.38420 18090.50970 16201.15360 16196.10910
 2400.00000  250.80810  249.06200  239.58540  249.06200   37.33980   85.86520 2638.30250    0.04490    -999.25    0.04190   26.78110   85.86520  190.15320  190.15320   30.74280   28.81480   30.20100   30.74280   26.78110   27.68370   27.68370    0.03910    -999.25    0.03910 2638.30250   44.37190   83.02360  -14.15760   44.37190 18458.10210 16459.14400 16507.92230
 2450.00000  239.52910  242.28240  245.34160  242.28240   44.51610  -12.15330 2669.05760    0.01910    -999.25    0.02390   22.46380  -12.15330  199.52350  199.52350   59.08270   56.51980   56.87820   59.08270   22.46380   23.29830   23.29830    0.07700    -999.25    0.07700 2669.05760   27.44470  115.31820   -5.44530   27.44470 18860.63270 17027.42070 17136.87870
 2500.00000  239.05490  227.19200  230.41180  227.19200   13.04910   -6.19990 2697.51930    0.00570    -999.25    0.00730   76.63380   -6.19990  184.88610  184.88610   38.93710   35.57870   34.79220   38.93710   76.63380   79.19070   79.19070    0.03610    -999.25    0.03610 2697.51930   98.10810   73.18310  -19.15970   98.10810 18911.91660 17197.82990 17075.70480
 2550.00000  253.28950  222.44200  238.05440  222.44200    2.81190   -1.59010 2692.26610    0.00420    -999.25    0.01040  355.62550   -1.59010  165.63800  165.63800   27.75740   20.49180   19.18280   27.75740  355.62550  305.47340  305.47340    0.00960    -999.25    0.00960 2692.26610 1284.72790   41.20270  -28.52200 1284.72790 19505.81320 17532.69170 17563.94350
 2600.00000  293.39490  218.01100  237.01520  218.01100    0.50000   -7.16040 2678.11280    0.01880    -999.25    0.01860 2000.00000   -7.16040  164.61910  164.61910   10.09210   10.35940   10.50420   10.09210 2000.00000 1762.37870 1762.37870    0.00290    -999.25    0.00290 2678.11280 1397.41430 -101.55540  -89.88250 1397.41430 19344.65960 17735.52560 17846.36720
