~Version ---------------------------------------------------
VERS.      2.0 : CWLS log ASCII Standard -VERSION 2.0
WRAP.       NO : One line per depth step
CREA. 09/27/17 : LAS Creation Date
~Well ------------------------------------------------------
STRT.FT                        300.0 : START DEPTH
STOP.FT                      12850.0 : STOP DEPTH
STEP.FT                     50.00000 : STEP LENGTH
NULL.                        -999.25 : NULL VALUE
COMP.  WESTERN DECALTA PETROLEUM LTD : COMPANY
WELL. DECALTA ET AL BRAZR 6-31-47-13 : WELL
FLD .                  BRAZEAU RIVER : FIELD
LOC .                                : LOCATION
CTRY.                         CANADA : COUNTRY
SRVC.                   Schlumberger : SERVICE COMPANY
DATE.                    15-Mar-1978 : LOGDATE
PROV.                        Alberta : PROVINCE
UWI .               100063104713W500 : UNIQUE WELL ID
SLAT.WGS84                  53.09535 : SURFACE LATITUDE
SLON.WGS84                 -115.8946 : SURFACE LONGITUDE
~Curve Information -----------------------------------------
DEPT    .FT    : Depth Curve
CALDED  .IN    : CALIPER FROM DENSITY LOG [ADJ. TO RESISTIVITY LOG]
CALSED  .IN    : CALIPER FROM SONIC LOG [ADJ. TO RESISTIVITY LOG]
CALWS   .IN    : CALIPER [CALSED]
CONDWS  .MMHO  : CONDUCTIVITY [1000/DRESWS]
DCORWS  .G/C3  : DENSITY CORRECTION [DRHOED]
DENWS   .G/C3  : FORAMTION BULK DENSITY [CALC FROM DPOLSWS,M=2.71, F=1.00]
DPHILSED.V/V   : DENSITY POROSITY LIMESTONE [M=2.71, F=1.00] FROM DENSITY LOG [ADJ. TO RESISTIVITY LOG]
DPHISSED.V/V   : DENSITY POROSITY SANDSTONE [M=2.65, F=1.00] FROM DENSITY LOG [ADJ. TO RESISTIVITY LOG]
DPOLSWS .V/V   : DENSITY POROSITY LIMESTONE [DPHISSED MATRIX CONVERTED TO LS & SPL. TO DPHILSED @ 9450']
DRESWS  .OHMM  : DEEP RESISTIVITY [ILDED]
DRHOED  .G/C3  : DENSITY CORRECTION FROM DENSITY LOG [ADJ. TO RESISTIVITY LOG]
DTED    .US/F  : DELTA TIME FROM SONIC LOG [ADJ. TO RESISTIVITY LOG]
DTWS    .US/F  : COMPRESSIONAL SONIC [DTED]
GRDED   .GAPI  : GAMMA RAY FROM DENSITY LOG [ADJ. TO RESISTIVITY LOG]
GRSED   .GAPI  : GAMMA RAY FROM SONIC LOG [ADJ. TO RESISTIVITY LOG]
GRWS    .GAPI  : GAMMA RAY [GRSED SPL. TO GRDED @ 12818']
ILDED   .OHMM  : DEEP INDUCTION RESISTIVITY FROM RESISTIVITY LOG
ILMED   .OHMM  : MEDIUM INDUCTION RESISTIVITY FROM RESISTIVITY LOG
LL8ED   .OHMM  : 8 INCH LATEROLOG RESISTIVITY FROM RESISTIVITY LOG
MRESWS  .OHMM  : MEDIUM RESISTIVITY [ILMED]
NPHILSED.V/V   : NEUTRON POROSITY LIMESTONE FROM DENSITY LOG [ADJ. TO RESISTIVITY LOG]
NPHISSED.V/V   : NEUTRON POROSITY SANDSTONE FROM DENSITY LOG [ADJ. TO RESISTIVITY LOG]
NPOLSWS .V/V   : NEUTRON POROSITY LIMESTONE [NPHISSED MATRIX CONVERTED TO LS & SPL. TO NPHILSED @ 9350']
RHOBED  .G/C3  : BULK DENSITY FROM DENSITY LOG [ADJ. TO RESISTIVITY LOG]
SPRED   .MV    : SPONTANEOUS POTENTIAL FROM RESISTIVITY LOG
SPWS    .MV    : SPONTANEOUS POTENTIAL [BASELINE 0 MV, SPRED]
SRESWS  .OHMM  : SHALLOW RESISTIVITY [LL8ED]
~Params ----------------------------------------------------
PD  .                     GL : PERMANENT DATUM
EPD .FT                 3420 : ELEVATION PERMANENT DATUM
LMF .                     KB : LOG MEASURED FROM
DAPD.FT                   27 : FEET ABOVE PERMANENT DATUM
DMF .                     KB : DRILLING MEASURED FROM
EGL .FT                 3420 : GROUND LEVEL
DATE.               03/15/78 : RUN DATE
RUN .                      2 : RUN NUMBER
DD  .FT                12857 : DEPTH DRILLER
DL  .FT                12856 : DEPTH LOGGER
BLI .FT                12850 : BOTTOM LOG INTERVAL
TLI .FT                10390 : TOP LOG INTERVAL
CS  .IN                9.625 : CASING SIZE
CBD .FT                10395 : CASING BOTTOM DRILLER
CBL .FT                10390 : CASING BOTTOM LOGGER
BS  .IN                6.125 : BIT SIZE
BSD .FT                12857 : BIT SIZE AT DEPTH
DFT .                    GEL : DRILLING FLUID TYPE
DFD .                   10.3 : DRILLING FLUID DENSITY
DFV .                     44 : DRILLING FLUID VISCOSITY
DFPH.                   11.5 : DRILLING FLUID PH
DFL .                    8.8 : DRILLING FLUID LOSS
MSS .               FLOWLINE : MUD SAMPLE SOURCE
RMS .OHMM               0.89 : RESISTIVITY MUD SAMPLE
MST .DEGF                 62 : MUD SAMPLE TEMPERATURE
TCS .HRS                 2.5 : TIME CIRCULATED STOPPED
LUN .                   7687 : LOGGING UNIT NUMBER
LUL .                    EDA : LOGGING UNIT LOCATION
ENGI.               BERNISKY : RECORDING ENGINEER
WITN.                  COWAN : WITNESSED BY
CLNT.                A2DTECH : CLIENT CODE
ORIG.            2" 5" PRINT : ORIGIN OF DATA
UWI .       100063104713W500 : UNIQUE WELL ID
DICO. A2D Technologies, Inc. : DIGITIZING COMPANY
~Other -----------------------------------------------------
DIL-LL-CNL-FDC-BHC LOG RUN
NEUTRON CONVERSION: SCHLUMBERGER, DESCRIPTION: CNL(NPHI)
~ASCII -----------------------------------------------------
# ...
 5500.00000    9.64370    9.06150    9.06150  106.78510    0.14380    2.43930    -999.25    0.13560    0.16590    9.36460    0.14380   80.25360   80.25360   82.33420   72.30650   72.30650    9.36460   10.49230    8.91920   10.49230    -999.25    0.39240    0.34940    2.43880 -136.12350   -6.79750    8.91920
 5550.00000   10.68450    9.24360    9.24360  133.86160    0.16360    2.28040    -999.25    0.22460    0.25180    7.47040    0.16360  103.28340  103.28340   80.02140   78.10850   78.10850    7.47040    8.67870    9.01200    8.67870    -999.25    0.45640    0.41470    2.28330 -135.88820   -7.14070    9.01200
 5600.00000    9.61910    8.70390    8.70390   95.55110    0.06490    2.42960    -999.25    0.13360    0.16400   10.46560    0.06490   81.72610   81.72610   79.11690   71.24990   71.24990   10.46560   10.94680   11.03590   10.94680    -999.25    0.34560    0.30190    2.44000 -136.12050   -6.75430   11.03590
 5650.00000    8.69580    9.25720    9.25720   86.14820    0.00670    2.59160    -999.25    0.03570    0.06950   11.60790    0.00670   77.01400   77.01400   73.74220   74.25640   74.25640   11.60790   12.88280   12.84500   12.88280    -999.25    0.37670    0.33340    2.59380 -135.35710   -5.37220   12.84500
 5700.00000    7.79330    8.53330    8.53330   19.55810    0.11510    2.55320    -999.25    0.05870    0.09170   51.12960    0.11510   69.37040   69.37040   30.16610   25.73300   25.73300   51.12960   48.72140   58.62740   48.72140    -999.25    0.19730    0.15390    2.54110 -150.41160  -19.80800   58.62740
 5750.00000    8.70630    8.98060    8.98060   27.69390   -0.00100    2.60680    -999.25    0.03300    0.06690   36.10900   -0.00100   64.50260   64.50260   52.24830   48.34100   48.34100   36.10900   32.88560   34.47590   32.88560    -999.25    0.18670    0.14350    2.59970 -134.77750   -4.15310   34.47590
 5800.00000    9.21010    8.91490    8.91490   58.56480    0.26130    2.58050    -999.25    0.05560    0.08870   17.07510    0.26130   73.02700   73.02700   62.37330   60.56610   60.56610   17.07510   23.49220   18.31800   23.49220    -999.25    0.25570    0.21180    2.58340 -134.04430   -4.04680   18.31800
 5850.00000   10.00500    8.89410    8.89410  103.27060    0.22390    2.38510    -999.25    0.16050    0.19000    9.68330    0.22390   79.20840   79.20840   78.65870   77.76190   77.76190    9.68330   10.26800   11.18160   10.26800    -999.25    0.36040    0.31690    2.37990 -134.15760   -4.78700   11.18160
 5900.00000   10.87960    9.29580    9.29580  100.60260    0.25040    2.39190    -999.25    0.13350    0.16390    9.94010    0.25040   79.67830   79.67830    -999.25   84.60210   84.60210    9.94010   10.37100   12.11820   10.37100    -999.25    0.33520    0.29140    2.41770 -132.97690   -4.23320   12.11820
 5950.00000    -999.25    9.67690    9.67690   87.32630    -999.25    -999.25    -999.25    -999.25    -999.25   11.45130    -999.25   77.22430   77.22430    -999.25   99.87830   99.87830   11.45130   11.90450   12.45790   11.90450    -999.25    -999.25    -999.25    -999.25 -132.21260   -4.09580   12.45790
 6000.00000    -999.25    9.49520    9.49520   79.33990    -999.25    -999.25    -999.25    -999.25    -999.25   12.60400    -999.25   75.41830   75.41830    -999.25  103.99440  103.99440   12.60400   13.37310   13.74420   13.37310    -999.25    -999.25    -999.25    -999.25 -130.44510   -2.95520   13.74420
 6050.00000    -999.25    9.66380    9.66380   68.50910    -999.25    -999.25    -999.25    -999.25    -999.25   14.59660    -999.25   73.55090   73.55090    -999.25   92.82040   92.82040   14.59660   14.97220   16.26090   14.97220    -999.25    -999.25    -999.25    -999.25 -130.99970   -4.13670   16.26090
 6100.00000    -999.25    9.71350    9.71350   90.79600    -999.25    -999.25    -999.25    -999.25    -999.25   11.01370    -999.25   76.38350   76.38350    -999.25  108.62590  108.62590   11.01370   11.84460   12.67310   11.84460    -999.25    -999.25    -999.25    -999.25 -130.57410   -4.33800   12.67310
 6150.00000    -999.25    9.48000    9.48000   77.45990    -999.25    -999.25    -999.25    -999.25    -999.25   12.90990    -999.25   73.90320   73.90320    -999.25  102.60760  102.60760   12.90990   13.66540   14.89230   13.66540    -999.25    -999.25    -999.25    -999.25 -130.53940   -4.93020   14.89230
 6200.00000    -999.25    9.27550    9.27550  103.59370    -999.25    -999.25    -999.25    -999.25    -999.25    9.65310    -999.25   80.56750   80.56750    -999.25  114.06070  114.06070    9.65310   10.29450   11.03400   10.29450    -999.25    -999.25    -999.25    -999.25 -129.03910   -4.05680   11.03400
 6250.00000    -999.25    9.31010    9.31010   81.92960    -999.25    -999.25    -999.25    -999.25    -999.25   12.20560    -999.25   80.49180   80.49180    -999.25  119.64720  119.64720   12.20560   12.79500   15.08030   12.79500    -999.25    -999.25    -999.25    -999.25 -130.02370   -5.66830   15.08030
 6300.00000    -999.25    9.33230    9.33230   79.79700    -999.25    -999.25    -999.25    -999.25    -999.25   12.53180    -999.25   79.09490   79.09490    -999.25  109.74210  109.74210   12.53180   13.21700   15.59490   13.21700    -999.25    -999.25    -999.25    -999.25 -131.90210   -8.17370   15.59490
 6350.00000    -999.25    9.28350    9.28350   90.04870    -999.25    -999.25    -999.25    -999.25    -999.25   11.10510    -999.25   84.76640   84.76640    -999.25  138.00620  138.00620   11.10510   11.37530   14.45760   11.37530    -999.25    -999.25    -999.25    -999.25 -128.46800   -5.36650   14.45760
 6400.00000    -999.25    9.44760    9.44760   98.40680    -999.25    -999.25    -999.25    -999.25    -999.25   10.16190    -999.25   81.17800   81.17800    -999.25  104.46550  104.46550   10.16190   10.40990   12.19880   10.40990    -999.25    -999.25    -999.25    -999.25 -127.47070   -4.99610   12.19880
 6450.00000    -999.25    9.95240    9.95240  131.07190    -999.25    -999.25    -999.25    -999.25    -999.25    7.62940    -999.25   85.27300   85.27300    -999.25  114.75170  114.75170    7.62940    8.49650    9.36380    8.49650    -999.25    -999.25    -999.25    -999.25 -126.57730   -4.72960    9.36380
 6500.00000    -999.25    9.47960    9.47960  162.66250    -999.25    -999.25    -999.25    -999.25    -999.25    6.14770    -999.25   84.15050   84.15050    -999.25  116.23140  116.23140    6.14770    6.44240    7.19520    6.44240    -999.25    -999.25    -999.25    -999.25 -128.75610   -7.36320    7.19520
 6550.00000    -999.25    9.29910    9.29910  136.00820    -999.25    -999.25    -999.25    -999.25    -999.25    7.35250    -999.25   75.94370   75.94370    -999.25   92.24260   92.24260    7.35250    7.53070    8.26040    7.53070    -999.25    -999.25    -999.25    -999.25 -126.52130   -5.32520    8.26040
 6600.00000    -999.25    9.54710    9.54710  144.81420    -999.25    -999.25    -999.25    -999.25    -999.25    6.90540    -999.25   79.04540   79.04540    -999.25  110.21890  110.21890    6.90540    7.07260    7.51460    7.07260    -999.25    -999.25    -999.25    -999.25 -126.12690   -5.12760    7.51460
 6650.00000    -999.25    9.67830    9.67830  149.34290    -999.25    -999.25    -999.25    -999.25    -999.25    6.69600    -999.25   81.04450   81.04450    -999.25  102.82660  102.82660    6.69600    6.85650    7.47050    6.85650    -999.25    -999.25    -999.25    -999.25 -125.95970   -5.15720    7.47050
 6700.00000    -999.25    9.42570    9.42570  111.10620    -999.25    -999.25    -999.25    -999.25    -999.25    9.00040    -999.25   76.37790   76.37790    -999.25   94.32980   94.32980    9.00040    9.21720    9.82290    9.21720    -999.25    -999.25    -999.25    -999.25 -124.95390   -4.34820    9.82290
 6750.00000    -999.25    8.90560    8.90560  127.97220    -999.25    -999.25    -999.25    -999.25    -999.25    7.81420    -999.25   77.55080   77.55080    -999.25   94.40020   94.40020    7.81420    8.32650    8.65960    8.32650    -999.25    -999.25    -999.25    -999.25 -125.64560   -5.23670    8.65960
