~Version ---------------------------------------------------
VERS.      2.0 : CWLS log ASCII Standard -VERSION 2.0
WRAP.       NO : One line per depth step
CREA. 07/25/13 : LAS Creation Date
~Well ------------------------------------------------------
STRT.M                      450.0 : START DEPTH
STOP.M                     3050.0 : STOP DEPTH
STEP.M                   50.00000 : STEP LENGTH
NULL.                     -999.25 : NULL VALUE
COMP.      DOME PETROLEUM LIMITED : COMPANY
WELL. DOME ET AL NITON 9-33-55-12 : WELL
FLD .                       NITON : FIELD
LOC .                             : LOCATION
CTRY.                      CANADA : COUNTRY
SRVC.                Schlumberger : SERVICE COMPANY
DATE.                 16-Apr-1985 : LOGDATE
PROV.                     Alberta : PROVINCE
UWI .            100093305512W500 : UNIQUE WELL ID
SLAT.WGS84               53.79778 : SURFACE LATITUDE
SLON.WGS84              -115.7155 : SURFACE LONGITUDE
~Curve Information -----------------------------------------
DEPT    .M      : DEPTH METER
CALDED  .MM     : CALIPER FROM DENSITY LOG [ADJ TO RESISTIVITY LOG]
CALSED  .MM     : CALIPER FROM SONIC LOG [ADJ TO RESISTIVITY LOG]
CALWS   .MM     : CALIPER [CALDED]
CONDWS  .MMHO   : CONDUCTIVITY [1000/DRESWS]
DCORWS  .KG/M3  : DENSITY CORRECTION [DRHOED]
DENWS   .KG/M3  : FORMATION BULK DENSITY [CALC FROM DPOLSWS, M=2710,F=1000]
DPHILSED.V/V    : DENSITY POROSITY LIMESTONE  [M=2710,F=1000] FROM DENSITY LOG [ADJ TO RESISTIVITY LOG]
DPHISSED.V/V    : DENSITY POROSITY SANDSTONE  [M=2650,F=1000] FROM DENSITY LOG [ADJ TO RESISTIVITY LOG]
DPOLSWS .V/V    : DENSITY POROSITY LIMESTONE [DPHISSED CONVERTED TO LIMESTONE (M=2710, F=1000) SPL. TO DPHILSED @ 1962.1M]
DRESWS  .OHMM   : DEEP RESISTIVITY [ILDED]
DRHOED  .KG/M3  : DENSITY CORRECTION FROM DENSITY LOG [ADJ TO RESISTIVITY LOG]
DTED    .US/M   : DELTA - T FROM SONIC LOG [ADJ TO RESISTIVITY LOG]
DTWS    .US/M   : COMPRESSIONAL SONIC [DTED]
GRDED   .GAPI   : GAMMA RAY FROM DENSITY LOG [ADJ TO RESISTIVITY LOG]
GRSED   .GAPI   : GAMMA RAY FROM SONIC LOG [ADJ TO RESISTIVITY LOG]
GRWS    .GAPI   : GAMMA RAY [GRDED]
ILDED   .OHMM   : DEEP INDUCTION FROM RESISTIVITY LOG
ILMED   .OHMM   : MEDIUM INDUCTION FROM RESISTIVITY LOG
LAED    .MM     : CALIPER FROM DENSITY LOG [ADJ TO RESISTIVITY LOG]
MRESWS  .OHMM   : MEDIUM RESISTIVITY [ILMED]
NPHILSED.V/V    : NEUTRON POROSITY LIMESTONE FROM DENSITY LOG [ADJ TO RESISTIVITY LOG]
NPHISSED.V/V    : NEUTRON POROSITY SANDSTONE FROM DENSITY LOG [ADJ TO RESISTIVITY LOG]
NPOLSWS .V/V    : NEUTRON POROSITY LIMESTONE [NPHISSED MATRIX CONVERSION FOR LIMESTONE, SPL. NPHILSED @1957.1M]
PEFED   .B/E    : PHOTO ELECTRIC FACTOR FROM DENSITY LOG [ADJ TO RESISTIVITY LOG]
PEFWS   .B/E    : PHOTO ELECTRIC FACTOR [PEFED]
RHOBED  .KG/M3  : BULK DENSITY FROM DENSITY LOG [ADJ TO RESISTIVITY LOG]
SFLUED  .OHMM   : SPHERICALLY FOCUSED UNAVERAGED FROM RESISTIVITY LOG
SPRED   .MV     : SPONTANEOUS POTENTIAL FROM RESISTIVITY LOG
SPWS    .MV     : SPONTANEOUS POTENTIAL [BASELINE 0 MV, SPRED]
SRESWS  .OHMM   : SHALLOW RESISTIVITY [SFLUED]
TENDED  .N      : TENSION FROM DENSITY LOG [ADJ TO RESISTIVITY LOG]
TENSED  .N      : TENSION FROM SONIC LOG [ADJ TO RESISTIVITY LOG]
~Params ----------------------------------------------------
PD  .                         GL : PERMANENT DATUM
EPD .M                     872.2 : ELEVATION PERMANENT DATUM
LMF .                         KB : LOG MEASURED FROM
DAPD.M                       3.8 : FEET ABOVE PERMANENT DATUM
DMF .                         KB : DRILLING MEASURED FROM
EKB .M                       876 : KELLY BUSHING
EDF .M                     875.7 : DRILLING FLOOR
EGL .M                     872.2 : GROUND LEVEL
DATE.                   04/16/85 : RUN DATE
RUN .                          1 : RUN NUMBER
DD  .M                      3060 : DEPTH DRILLER
DL  .M                    3061.7 : DEPTH LOGGER
BLI .M                      3061 : BOTTOM LOG INTERVAL
TLI .M                       420 : TOP LOG INTERVAL
CS  .MM                    244.5 : CASING SIZE
CBD .M                       420 : CASING BOTTOM DRILLER
CBL .M                       420 : CASING BOTTOM LOGGER
BS  .MM                      222 : BIT SIZE
BSD .M                      3060 : BIT SIZE AT DEPTH
DFT .                   GEL CHEM : DRILLING FLUID TYPE
DFD .                       1125 : DRILLING FLUID DENSITY
DFV .                         88 : DRILLING FLUID VISCOSITY
DFPH.                         10 : DRILLING FLUID PH
DFL .                         10 : DRILLING FLUID LOSS
MSS .                    FLOWLNE : MUD SAMPLE SOURCE
RMS .OHMM                   3.21 : RESISTIVITY MUD SAMPLE
MST .DEGC                    9.4 : MUD SAMPLE TEMPERATURE
RMF .OHMM                   2.24 : RESISTIVITY MUD FILTRATE SAMPLE
MFST.DEGC                   14.4 : MUD FILTRATE SAMPLE TEMPERATURE
MFSS.                       MEAS : MUD FILTRATE SAMPLE SOURCE
MCSS.                       MEAS : MUD CAKE SAMPLE SOURCE
RMB .OHMM                  0.969 : RESISTIVITY MUD AT BHT
TCS .HRS                    1830 : TIME CIRCULATED STOPPED
TLAB.HRS                     214 : TIME LOGGER AT BOTTOM
LUN .                       8037 : LOGGING UNIT NUMBER
LUL .                        EDM : LOGGING UNIT LOCATION
ENGI.                  CROCKFORD : RECORDING ENGINEER
WITN.                      BRYCE : WITNESSED BY
CLNT.                    A2DTECH : CLIENT CODE
ORIG. 6.5"/100M 16.5"/100M PRINT : ORIGIN OF DATA
UWI .           100093305512W500 : UNIQUE WELL ID
DICO.     A2D Technologies, Inc. : DIGITIZING COMPANY
~Other -----------------------------------------------------
DIL-SFL-CN-LDT-BCS TOOL RUN
RHOB & CORR FROM SMALL SCALE LOG
~ASCII -----------------------------------------------------
  450.00000  242.01960  264.32010  242.01960   93.26010   20.43830 2301.48100    -999.25    0.21120    0.23890   10.72270   20.43830  273.89390  273.89390   66.33670   66.86260   66.33670   10.72270   10.18440  287.97490   10.18440    -999.25    0.31360    0.26280    2.46760    2.46760 2296.53030    8.49820  -56.06910   -7.14320    8.49820 9917.74900 8105.05710
  500.00000  223.99330  234.34730  223.99330   66.97560   22.12630 2386.46800    -999.25    0.15970    0.18920   14.93080   22.12630  268.24420  268.24420   66.53790   66.75550   66.53790   14.93080   14.37660  248.20900   14.37660    -999.25    0.25090    0.19830    2.87200    2.87200 2407.69700   15.64190  -68.28420  -19.22460   15.64190 9859.76860 7947.18070
  550.00000  277.24680  279.51370  277.24680  193.65580   -4.11780 2332.60300    -999.25    0.19240    0.22070    5.16380   -4.11780  321.76250  321.76250   66.68260   66.00930   66.68260    5.16380    4.64480  268.87730    4.64480    -999.25    0.38670    0.34050    2.24460    2.24460 2338.58060    4.60500  -54.48880   -2.61680    4.60500 10443.34770 8516.19430
  600.00000  260.05160  263.86300  260.05160  127.63730   -0.79610 2324.22400    -999.25    0.19740    0.22560    7.83470   -0.79610  318.60300  318.60300   57.16420   64.92780   57.16420    7.83470    6.85530  273.96450    6.85530    -999.25    0.31650    0.26580    2.37440    2.37440 2325.72460    7.48930  -59.15160   -6.63270    7.48930 10834.55660 8750.47070
  650.00000  230.67150  248.92790  230.67150  310.56870   48.09890 2192.04100    -999.25    0.27760    0.30290    3.21990   48.09890  391.54860  391.54860   91.82810   93.30040   92.64610    3.21990    2.42680  295.28330    2.42680    -999.25    0.55220    0.52370    2.42480    2.42480 2214.56980    2.30260  -56.40310   -3.95280    2.30260 10983.97660 8981.68070
  700.00000  265.57390  275.20870  265.57390  145.57310   -9.89890 2416.22200    -999.25    0.14170    0.17180    6.86940   -9.89890  288.05220  288.05220   67.15150   65.05650   66.67340    6.86940    6.63940  296.29610    6.63940    -999.25    0.26500    0.21240    2.32730    2.32730 2407.82010    8.59030  -56.03690   -3.78740    8.59030 11106.40530 9138.39940
  750.00000  240.48800  233.20250  240.48800   77.83190  190.40630 2277.88300    -999.25    0.22550    0.25270   12.84820  190.40630  296.61330  296.61330   62.44250   69.21600   62.44250   12.84820   12.13050  244.75370   12.13050    -999.25    0.34990    0.30100    2.46480    2.46480 2271.18240   11.87480  -67.10890  -15.06020   11.87480 11296.61230 9135.46680
  800.00000  222.29660  252.87780  222.29660  243.19070   69.30030 2050.28200    -999.25    0.36350    0.38580    4.11200   69.30030  343.67670  343.67670   76.83630   74.68610   77.46140    4.11200    3.43450  391.63590    3.43450    -999.25    0.50040    0.46630    1.98680    1.98680 2072.20610    3.26670  -55.88010   -4.03230    3.26670 11689.31640 9843.35940
  850.00000  284.37780  276.85240  284.37780  178.27850  144.42920 2288.31400    -999.25    0.21920    0.24660    5.60920  144.42920  285.21240  285.21240   77.37420   74.84070   74.16130    5.60920    4.78030  307.73240    4.78030    -999.25    0.36060    0.31250    2.28950    2.28950 2267.85550    5.26930  -54.69210   -3.04510    5.26930 11907.60640 9845.85060
  900.00000  260.99230  279.96430  260.99230  108.55640   58.06020 1923.05800    -999.25    0.44060    0.46020    9.21180   58.06020  293.98940  293.98940   62.55350   55.71310   58.32200    9.21180    6.46350  317.14220    6.46350    -999.25    0.30630    0.25510    2.12670    2.12670 2009.58260   10.94010  -56.14280   -4.69660   10.94010 12138.78520 10182.23540
  950.00000  264.94520  252.54480  264.94520  182.76190  101.50910 1913.31100    -999.25    0.44650    0.46590    5.47160  101.50910  345.62340  345.62340   69.93200   62.14590   69.54890    5.47160    4.98250  273.59230    4.98250    -999.25    0.39440    0.34890    2.02880    2.02880 1891.48390    4.63880  -54.47050   -3.22510    4.63880 12455.76370 10189.96390
 1000.00000  215.25900  222.53730  215.25900   53.82800   77.69730 2323.88200    -999.25    0.19760    0.22580   18.57770   77.69730  277.42280  277.42280   40.24740   40.81710   42.45070   18.57770   21.52680  241.96910   21.52680    -999.25    0.29260    0.24100    2.03480    2.03480 2320.61210   22.99240  -89.28730  -38.24280   22.99240 12371.50490 10317.02730
 1050.00000  244.16580  238.26150  244.16580   88.36500  -13.40860 2467.00900    -999.25    0.11090    0.14210   11.31670  -13.40860  261.85130  261.85130   59.02150   55.37340   59.97290   11.31670   10.54790  242.10260   10.54790    -999.25    0.28430    0.23230    2.66880    2.66880 2466.71070   11.62550  -56.47410   -5.63040   11.62550 12479.91110 10481.43160
 1100.00000  234.72150  256.32240  234.72150  230.13900  162.87410 2223.67600    -999.25    0.25840    0.28440    4.34520  162.87410  324.88240  324.88240   67.01430   72.55380   70.84620    4.34520    4.05420  322.72370    4.05420    -999.25    0.45850    0.41960    2.30370    2.30370 2219.76510    4.69690  -53.01730   -2.43300    4.69690 13271.79390 10968.12600
 1150.00000  253.56640  243.19650  253.56640  129.39290   25.29510 2234.62000    -999.25    0.25170    0.27800    7.72840   25.29510  288.41610  288.41610   95.73310   99.52490   96.62300    7.72840    7.41860  249.84920    7.41860    -999.25    0.32800    0.27790    2.43260    2.43260 2222.39430    8.07350  -58.01350   -7.82800    8.07350 13086.73440 10931.72850
 1200.00000  252.27850  230.89090  252.27850  128.01470  220.69390 2355.68800    -999.25    0.17840    0.20720    7.81160  220.69390  303.39150  303.39150  118.38780  106.70310  118.78380    7.81160    7.39360  253.39930    7.39360    -999.25    0.33810    0.28850    2.59680    2.59680 2380.78050    9.26670  -54.52400   -4.73730    9.26670 13234.47660 11224.97850
 1250.00000  253.65170  240.35130  253.65170  162.91420   17.48050 2347.30900    -999.25    0.18340    0.21210    6.13820   17.48050  284.87430  284.87430  105.43030   99.58970  105.43030    6.13820    5.88820  256.30260    5.88820    -999.25    0.35750    0.30910    2.58800    2.58800 2348.46440    6.77830  -54.96980   -6.18020    6.77830 13534.06150 11451.00590
 1300.00000  243.39610  240.41930  243.39610  130.07620  242.07300 2354.32000    -999.25    0.17920    0.20800    7.68780  242.07300  306.45640  306.45640  101.83500   97.69050  101.58170    7.68780    7.32180  259.72170    7.32180    -999.25    0.30150    0.25010    2.23270    2.23270 2324.24490    8.09850  -55.14140   -7.42140    8.09850 13726.13870 11721.81450
 1350.00000  260.80310  243.32670  260.80310  143.08400   80.46410 2368.17100    -999.25    0.17080    0.19990    6.98890   80.46410  291.65180  291.65180  108.18040  105.22130  105.63460    6.98890    6.57000  245.94490    6.57000    -999.25    0.32990    0.27990    2.37670    2.37670 2368.47780    7.41130  -53.31220   -6.66170    7.41130 14102.65140 12008.03030
 1400.00000  262.48030  249.05940  262.48030  118.39220   26.57950 2500.86700    -999.25    0.09040    0.12230    8.44650   26.57950  280.92270  280.92270  109.25650  116.54780  108.49570    8.44650    7.86820  244.37340    7.86820    -999.25    0.31800    0.26740    2.54760    2.54760 2497.01270    8.81650  -51.92460   -6.34370    8.81650 14487.40430 12201.53420
 1450.00000  255.41550  252.88600  255.41550  161.55350   29.65880 2461.53700    -999.25    0.11420    0.14530    6.18990   29.65880  310.52300  310.52300  115.66710  120.56440  114.65890    6.18990    5.90050  264.53740    5.90050    -999.25    0.37190    0.32460    2.37590    2.37590 2459.32030    6.76460  -48.26080   -3.74950    6.76460 14704.29390 12326.22850
 1500.00000  219.17310  243.92680  219.17310  111.81050   39.60800 2466.49600    -999.25    0.11120    0.14240    8.94370   39.60800  300.80710  300.80710  117.81360  124.20120  120.49890    8.94370    8.58950  282.63020    8.58950    -999.25    0.38090    0.33430    2.84520    2.84520 2465.07960   11.92150  -47.72950   -4.28770   11.92150 14551.77640 12557.71290
