~Version ---------------------------------------------------
VERS.      2.0 : CWLS log ASCII Standard -VERSION 2.0
WRAP.       NO : One line per depth step
CREA. 09/25/17 : LAS Creation Date
~Well ------------------------------------------------------
STRT.FT                          1050.0 : START DEPTH
STOP.FT                         10150.0 : STOP DEPTH
STEP.FT                        50.00000 : STEP LENGTH
NULL.                           -999.25 : NULL VALUE
COMP.           CANADA FINA OIL LIMITED : COMPANY
WELL. FINA ET AL HEAVYSOUND 10-26-62-17 : WELL
FLD .                                   : FIELD
LOC .                                   : LOCATION
CTRY.                            CANADA : COUNTRY
SRVC.                      Schlumberger : SERVICE COMPANY
DATE.                       01-Mar-1964 : LOGDATE
PROV.                           Alberta : PROVINCE
UWI .                  100102606217W500 : UNIQUE WELL ID
SLAT.WGS84                     54.39382 : SURFACE LATITUDE
SLON.WGS84                    -116.4347 : SURFACE LONGITUDE
~Curve Information -----------------------------------------
DEPT  .FT    : Depth Curve
CALWS .IN    : CALIPER [MCALED]
CILDED.MMHO  : CONDUCTIVITY FROM RESISTIVITY LOG
CONDWS.MMHO  : CONDUCTIVITY [1000/DRESWS]
DRESWS.OHMM  : DEEP RESISTIVITY [1000/CILDED IF ILDED<5, ILDED]
DTED  .US/F  : DELTA TIME FROM SONIC LOG
DTWS  .US/F  : COMPRESSIONAL  SONIC [DTED]
GRSED .GAPI  : GAMMA RAY FROM SONIC LOG
GRWS  .GAPI  : GAMMA RAY [GRSED]
ILDED .OHMM  : DEEP INDUCTION RESISTIVITY FROM RESISTIVITY LOG
MCALED.IN    : CALIPER FROM MICROLOG
SNED  .OHMM  : 16 INCH SHORT NORMAL RESISTIVITY FROM RESISTIVITY LOG
SPRED .MV    : SPONTANEOUS POTENTIAL FROM RESISTIVITY LOG
SPWS  .MV    : SPONTANEOUS POTENTIAL [BASELINE 0 MV, SPRED]
SRESWS.OHMM  : SHALLOW RESISTIVITY [SNED]
~Params ----------------------------------------------------
PD  .                     GL : PERMANENT DATUM
EPD .FT                 3042 : ELEVATION PERMANENT DATUM
LMF .                     KB : LOG MEASURED FROM
DAPD.FT                16.75 : FEET ABOVE PERMANENT DATUM
DMF .                     KB : DRILLING MEASURED FROM
EKB .FT              3058.75 : KELLY BUSHING
EGL .FT                 3042 : GROUND LEVEL
DATE.               03/01/64 : RUN DATE
RUN .                      1 : RUN NUMBER
DD  .FT                10173 : DEPTH DRILLER
DL  .FT                10174 : DEPTH LOGGER
BLI .FT                10173 : BOTTOM LOG INTERVAL
TLI .FT                 1030 : TOP LOG INTERVAL
CBD .FT                 1030 : CASING BOTTOM DRILLER
CBL .FT                 1030 : CASING BOTTOM LOGGER
BS  .IN                    9 : BIT SIZE
BSD .FT                10173 : BIT SIZE AT DEPTH
DFT .               CHEMICAL : DRILLING FLUID TYPE
DFD .                    9.8 : DRILLING FLUID DENSITY
DFV .                     84 : DRILLING FLUID VISCOSITY
DFPH.                     10 : DRILLING FLUID PH
DFL .                    8.6 : DRILLING FLUID LOSS
MSS .             CIRCULATED : MUD SAMPLE SOURCE
RMS .OHMM               1.69 : RESISTIVITY MUD SAMPLE
MST .DEGF                 64 : MUD SAMPLE TEMPERATURE
RMF .OHMM               1.11 : RESISTIVITY MUD FILTRATE SAMPLE
MFST.DEGF                 74 : MUD FILTRATE SAMPLE TEMPERATURE
RMC .OHMM               2.58 : RESISTIVITY MUD CAKE
MCST.DEGF                 72 : MUD CAKE SAMPLE TEMPERATURE
RMB .OHMM               0.67 : RESISTIVITY MUD AT BHT
TCS .HRS                 300 : TIME CIRCULATED STOPPED
LUN .                   2597 : LOGGING UNIT NUMBER
LUL .                    WCT : LOGGING UNIT LOCATION
ENGI.                  MOORE : RECORDING ENGINEER
WITN.        WENDEBORN ANKLE : WITNESSED BY
CLNT.                A2DTECH : CLIENT CODE
ORIG.            2" 5" PRINT : ORIGIN OF DATA
UWI .       100102606217W500 : UNIQUE WELL ID
DICO. A2D Technologies, Inc. : DIGITIZING COMPANY
~Other -----------------------------------------------------
~ASCII -----------------------------------------------------
# ...
 5950.00000   11.53100  106.22010  107.76910    9.27910   76.90350   76.90350   74.54450   74.54450    9.27910   11.53100   10.58400  -67.64580   -1.54410   10.58400
 6000.00000   10.73910   72.58810   74.37050   13.44620   68.65650   68.65650   41.90840   41.90840   13.44620   10.73910   15.34420  -87.79650  -21.03980   15.34420
 6050.00000   10.41560   66.81920   69.49780   14.39040   72.19010   72.19010   62.17480   62.17480   14.39040   10.41560   24.98190  -78.86220  -11.45060   24.98190
 6100.00000   10.30120   95.81550   96.25470   10.38910   74.67730   74.67730   80.33250   80.33250   10.38910   10.30120   12.57700  -77.41260   -9.34170   12.57700
 6150.00000   14.39840  215.93920  215.93920    4.63090   94.28190   94.28190   89.11720   89.11720    4.56960   14.39840    5.60260  -71.65070   -2.91870    5.60260
 6200.00000   14.22250  272.01190  272.01190    3.67630  108.59120  108.59120   78.67680   78.67680    3.67830   14.22250    3.99100  -74.46650   -4.93840    3.99100
 6250.00000   14.26320  186.10730  189.10030    5.28820   95.67840   95.67840   85.49870   85.49870    5.28820   14.26320    7.10610  -71.74730   -1.05100    7.10610
 6300.00000   14.29100  163.86080  163.87580    6.12760  101.05740  101.05740   80.71670   80.71670    6.12760   14.29100    9.06500  -75.39830   -2.54530    9.06500
 6350.00000    9.34750   24.67180   23.65970   42.26590   64.40890   64.40890   54.59580   54.59580   42.26590    9.34750   64.19240  -79.55650   -5.93950   64.19240
 6400.00000    9.45320    6.45520    4.58270  218.21300   70.96910   70.96910  128.56120  128.56120  218.21300    9.45320  146.91110 -105.37760  -33.88060  146.91110
 6450.00000    9.25230  106.91210  105.25980    9.50030   52.37920   52.37920   20.61240   20.61240    9.50030    9.25230   40.84700 -183.54980 -114.18670   40.84700
 6500.00000   10.00290  159.55070  165.55200    6.04040   63.24540   63.24540   43.12610   43.12610    6.04040   10.00290   13.18340 -143.81030  -76.56720   13.18340
 6550.00000   10.27330  299.24040  299.24040    3.34510   65.96100   65.96100   36.62080   36.62080    3.27550   10.27330    9.09230 -118.84290  -53.71970    9.09230
 6600.00000    8.82050   96.46440   93.52700   10.69210   63.02770   63.02770   25.96980   25.96980   10.69210    8.82050   29.20110 -131.31670  -65.96460   29.20110
 6650.00000    9.57830   96.75670   93.93550   10.64560   59.97750   59.97750   55.68110   55.68110   10.64560    9.57830   22.56990 -102.23470  -35.64610   22.56990
 6700.00000   10.03280   52.30960   50.28180   19.88790   53.02730   53.02730   15.66010   15.66010   19.88790   10.03280   37.20590 -115.38830  -47.55500   37.20590
 6750.00000    9.41870   30.28850   31.04770   32.20850   60.06920   60.06920   56.61600   56.61600   32.20850    9.41870   68.43190  -82.57760  -16.19560   68.43190
 6800.00000    8.99910   53.45340   55.04930   18.16790   55.15140   55.15140   18.21660   18.21660   18.16790    8.99910   60.62500 -151.58280  -92.84570   60.62500
 6850.00000    9.63410   37.92390   39.66320   25.21230   54.48410   54.48410   15.72050   15.72050   25.21230    9.63410   81.35730 -169.40030 -118.35840   81.35730
 6900.00000    9.66030   18.96690   20.12400   49.69180   54.92340   54.92340   22.05270   22.05270   49.69180    9.66030   63.17120 -102.70630  -59.30930   63.17120
 6950.00000    9.94100  261.97930  261.97930    3.81710   65.59320   65.59320   59.51100   59.51100    3.73650    9.94100    5.98930  -65.20100  -29.49920    5.98930
 7000.00000    9.46800  105.02370  109.88530    9.10040   66.37840   66.37840   90.94980   90.94980    9.10040    9.46800   14.43990  -35.67200   -6.00210   14.43990
 7050.00000    9.52430  328.58210  328.58210    3.04390   67.60190   67.60190   38.14020   38.14020    2.89370    9.52430   10.96410  -91.84160  -60.38670   10.96410
 7100.00000    9.41920   10.87170    9.50670  105.18920   53.73820   53.73820   22.06090   22.06090  105.18920    9.41920   88.43070  -67.30750  -34.05590   88.43070
 7150.00000    9.51070    9.26730    7.60350  131.51780   55.13060   55.13060   30.26130   30.26130  131.51780    9.51070   89.87480  -50.51440  -15.47780   89.87480
 7200.00000    9.25180   20.95690   20.47240   48.84620   58.17790   58.17790   39.52490   39.52490   48.84620    9.25180   52.77160  -62.09550  -25.26220   52.77160
 7250.00000    9.34220   23.60440   23.36190   42.80480   59.08920   59.08920   44.32400   44.32400   42.80480    9.34220   48.45600  -48.51420   -9.89590   48.45600
 7300.00000    9.14800   17.10250   15.85610   63.06730   56.49300   56.49300   34.79900   34.79900   63.06730    9.14800   59.78340  -57.33750  -16.93420   59.78340
 7350.00000    9.16540    5.73830    3.85980  259.08220   54.02790   54.02790   31.16370   31.16370  259.08220    9.16540  145.86590  -79.13710  -36.93710  145.86590
 7400.00000    9.23830    5.87660    3.70840  269.65800   54.22030   54.22030   23.00870   23.00870  269.65800    9.23830  138.09810  -85.06260  -41.07760  138.09810
 7450.00000    9.57090   14.87950   13.10470   76.30860   58.76860   58.76860   52.25350   52.25350   76.30860    9.57090   74.07380  -59.59050  -13.80880   74.07380
 7500.00000   10.85410   51.47290   54.77920   18.25510   84.70370   84.70370  210.81760  210.81760   18.25510   10.85410   28.75980  -50.59020   -3.02350   28.75980
 7550.00000    9.68500    1.65630    2.56610  389.69990   51.64260   51.64260   15.09360   15.09360  389.69990    9.68500  131.62730 -100.63430  -55.06960  131.62730
 7600.00000    9.61940    5.03820    4.19490  238.38560   50.98400   50.98400   20.42610   20.42610  238.38560    9.61940  123.39960 -122.13910  -78.71930  123.39960
 7650.00000    9.83690    5.94430    4.15020  240.95420   51.06800   51.06800   18.88440   18.88440  240.95420    9.83690  122.50700 -125.85990  -84.57100  122.50700
 7700.00000   10.47760   19.44050   18.04500   55.41690   52.53600   52.53600   17.72940   17.72940   55.41690   10.47760   86.01530 -158.01480 -118.87070   86.01530
 7750.00000   11.87230   12.72320   10.39650   96.18610   52.01170   52.01170   16.25260   16.25260   96.18610   11.87230   68.17130 -137.49330 -100.48010   68.17130
 7800.00000    8.89030   46.60450   48.64110   20.56670   54.52840   54.52840   13.75270   13.75270   20.56670    8.89030   64.72450 -180.69470 -145.81240   64.72450
 7850.00000    8.31220   76.86380   79.74290   12.54030   55.28240   55.28240   12.80150   12.80150   12.54030    8.31220   66.54760 -188.38930 -155.65180   66.54760
 7900.00000   10.33410   19.36870   17.38390   57.52440   53.45570   53.45570   14.83010   14.83010   57.52440   10.33410   84.50790 -151.85220 -121.24560   84.50790
 7950.00000   12.23240    7.66480    5.83680  171.32600   52.90790   52.90790   19.19480   19.19480  171.32600   12.23240   83.20070 -120.05470  -91.59300   83.20070
 8000.00000   11.47290    6.49700    5.12710  195.04170   54.33990   54.33990   17.48880   17.48880  195.04170   11.47290   83.56100 -111.36060  -85.02970   83.56100
 8050.00000   11.07170    7.33100    5.43610  184.42810   52.49120   52.49120   13.33100   13.33100  184.42810   11.07170   98.12630 -108.00070  -83.80070   98.12630
 8100.00000    9.43380   27.62720   28.69400   34.85050   53.58940   53.58940   13.21680   13.21680   34.85050    9.43380   75.51270 -145.53590 -123.48080   75.51270
 8150.00000   10.92490   16.56510   14.46490   69.13290   52.49230   52.49230   14.66390   14.66390   69.13290   10.92490   71.40270 -135.95830 -116.03400   71.40270
 8200.00000    9.40370   37.55210   38.66410   25.86380   53.83490   53.83490   16.49580   16.49580   25.86380    9.40370   80.11060 -158.23000 -140.45060   80.11060
 8250.00000    9.17010    9.49330    6.70040  149.24440   52.50280   52.50280   15.63840   15.63840  149.24440    9.17010   86.90150  -71.95850  -56.31000   86.90150
 8300.00000    9.19640    1.79070    3.03500  329.53030   50.43420   50.43420   36.82070   36.82070  329.53030    9.19640  154.16320  -63.25780  -49.74010  154.16320
 8350.00000   10.57980   13.00600   10.85340   92.13710   51.34290   51.34290   13.22040   13.22040   92.13710   10.57980   78.82000  -91.78410  -80.41130   78.82000
