~Version ---------------------------------------------------
VERS.      2.0 : CWLS log ASCII Standard -VERSION 2.0
WRAP.       NO : One line per depth step
CREA. 11/13/17 : LAS Creation Date
~Well ------------------------------------------------------
STRT.FT                                  800.0 : START DEPTH
STOP.FT                                11750.0 : STOP DEPTH
STEP.FT                               50.00000 : STEP LENGTH
NULL.                                  -999.25 : NULL VALUE
COMP.               THE CALIFORNIA STANDARD CO : COMPANY
WELL. CALSTAN PAN AM WASKAHIGAN 12-1-64-24 #12 : WELL
FLD .                                          : FIELD
LOC .                                          : LOCATION
CTRY.                                   CANADA : COUNTRY
SRVC.                             Schlumberger : SERVICE COMPANY
DATE.                              23-Oct-1961 : LOGDATE
PROV.                                  Alberta : PROVINCE
UWI .                         100120106424W500 : UNIQUE WELL ID
SLAT.WGS84                            54.51049 : SURFACE LATITUDE
SLON.WGS84                            -117.501 : SURFACE LONGITUDE
~Curve Information -----------------------------------------
DEPT  .FT         : Depth Curve
CALWS .IN         : CALIPER [MCALED]
CILDED.MMHO       : CONDUCTIVITY FROM RESISTIVITY LOG
CONDWS.MMHO       : CONDUCTIVITY [1000/DRESWS]
DRESWS.OHMM       : DEEP RESISTIVITY [1000/CONDWS, IF ILDED<1, ILDED]
DT1ED .US/F       : DELTA TIME (1' SPACING) FROM SONIC LOG [ADJ. TO GRSED]
DTED  .US/F       : COMPRESSIONAL SONIC (3' SPACING) FROM SONIC LOG
DTWS  .US/F       : COMPRESSIONAL SONIC [DTED]
GRS1ED.UgRa-Eq/T  : GAMMA RAY FROM SONIC LOG [ADJ. TO GRSED]
GRSED .UgRa-Eq/T  : GAMMA RAY FROM SONIC LOG
GRWS  .GAPI       : GAMMA RAY [GRSED] [GRWS*16.50]
ILDED .OHMM       : DEEP INDUCTION RESISTIVITY FROM RESISTIVITY LOG
MCALED.IN         : CALIPER FROM RESISTIVITYLOG
SNED  .OHMM       : SHORT NORMAL RESISTIVITY FROMRESISTIVITY LOG
SPRED .MV         : SPONTANEOUS POTENTIAL FROM RESISTIVITY LOG
SPWS  .MV         : SPONTANEOUS POTENTIAL [BASE LINE 0 MV, SPRED]
SRESWS.OHMM       : SHALLOW RESISTIVITY [SNED]
~Params ----------------------------------------------------
PD  .                     GL : PERMANENT DATUM
EPD .FT                 2810 : ELEVATION PERMANENT DATUM
LMF .                     KB : LOG MEASURED FROM
DAPD.FT                   14 : FEET ABOVE PERMANENT DATUM
EKB .FT                 2824 : KELLY BUSHING
EGL .FT                 2810 : GROUND LEVEL
DATE.               10/23/61 : RUN DATE
RUN .                      2 : RUN NUMBER
DD  .FT                11793 : DEPTH DRILLER
DL  .FT                11795 : DEPTH LOGGER
BLI .FT                11794 : BOTTOM LOG INTERVAL
TLI .FT                 7600 : TOP LOG INTERVAL
BS  .IN                    9 : BIT SIZE
BSD .FT                11793 : BIT SIZE AT DEPTH
DFT .                    GEL : DRILLING FLUID TYPE
DFD .                   10.3 : DRILLING FLUID DENSITY
DFV .                    250 : DRILLING FLUID VISCOSITY
DFPH.                     10 : DRILLING FLUID PH
DFL .                    8.1 : DRILLING FLUID LOSS
RMS .OHMM               2.66 : RESISTIVITY MUD SAMPLE
MST .DEGF                 64 : MUD SAMPLE TEMPERATURE
RMF .OHMM               1.59 : RESISTIVITY MUD FILTRATE SAMPLE
MFST.DEGF                 80 : MUD FILTRATE SAMPLE TEMPERATURE
RMC .OHMM               1.89 : RESISTIVITY MUD CAKE
MCST.DEGF                 78 : MUD CAKE SAMPLE TEMPERATURE
TCS .HRS                   3 : TIME CIRCULATED STOPPED
LUN .                   1534 : LOGGING UNIT NUMBER
LUL .                     WC : LOGGING UNIT LOCATION
ENGI.                   GRAY : RECORDING ENGINEER
WITN.                BORWICK : WITNESSED BY
CLNT.                A2DTECH : CLIENT CODE
ORIG.            2" 5" PRINT : ORIGIN OF DATA
UWI .       100120106424W500 : UNIQUE WELL ID
DICO. A2D Technologies, Inc. : DIGITIZING COMPANY
~Other -----------------------------------------------------
~ASCII -----------------------------------------------------
# ...
 9400.00000   10.94200    5.21850    4.44460  224.98980    -999.25   49.15570   49.15570    -999.25    1.59770   26.36210  224.98980   10.94200  176.13470  -82.96080  -47.18720  176.13470
 9450.00000   12.11370    6.83600    4.32280  231.33090    -999.25   49.99910   49.99910    -999.25    1.22270   20.17460  231.33090   12.11370  140.73980 -100.77290  -58.36700  140.73980
 9500.00000   11.18640    8.62080    4.64790  215.15050    -999.25   50.20300   50.20300    -999.25    1.38980   22.93170  215.15050   11.18640  180.63710 -105.85190  -56.87990  180.63710
 9550.00000   12.04530    6.95070    3.29560  303.43210    -999.25   49.73400   49.73400    -999.25    0.99600   16.43400  303.43210   12.04530  168.51310 -126.69820  -71.12700  168.51310
 9600.00000    9.27630   13.38500   11.17390   89.49400    -999.25   51.01750   51.01750    -999.25    1.14400   18.87600   89.49400    9.27630  110.55790 -120.99230  -58.82190  110.55790
 9650.00000    9.82090   11.90420   11.17620   89.47620    -999.25   52.14180   52.14180    -999.25    1.15150   18.99970   89.47620    9.82090  104.82000 -121.95290  -53.18330  104.82000
 9700.00000   10.72740    6.72810    4.87010  205.37040    -999.25   50.91850   50.91850    -999.25    1.17910   19.45600  205.37040   10.72740  144.54380 -118.17490  -42.77320  144.54380
 9750.00000   10.79110    7.20960    4.88080  204.88350    -999.25   51.10230   51.10230    -999.25    1.34520   22.19580  204.88350   10.79110  175.17020 -115.15950  -33.19150  175.17020
 9800.00000   10.71810    5.35740    4.31830  231.57300    -999.25   50.91750   50.91750    -999.25    1.49230   24.62290  231.57300   10.71810  145.73330 -114.60660  -26.03950  145.73330
 9850.00000   10.70660    5.93270    5.08810  196.53570    -999.25   52.03230   52.03230    -999.25    1.24810   20.59370  196.53570   10.70660  145.85390 -130.21060  -35.04430  145.85390
 9900.00000   10.70170    5.94200    4.14120  241.47740   50.26440   51.28580   51.28580    1.03040    1.15720   19.09380  241.47740   10.70170  158.34900 -129.19010  -27.42460  158.34900
 9950.00000   12.25650    5.24600    3.88280  257.55390   50.26850   50.04940   50.04940    1.34790    1.20260   19.84210  257.55390   12.25650  165.43500 -143.25490  -34.85720  165.43500
 10000.00000    8.41300   47.52390   43.22740   23.13350   51.97060   54.40600   54.40600    1.03600    1.26690   20.90380   23.13350    8.41300   99.97600 -200.97660  -86.01270   99.97600
 10050.00000    9.24950   22.52060   20.39980   49.02000   49.41340   50.50480   50.50480    1.65350    1.80070   29.71150   49.02000    9.24950   72.92990 -126.41440  -14.78870   72.92990
 10100.00000    9.41180   15.80540   14.72810   67.89720   50.20880   52.92050   52.92050    2.55280    2.03710   33.61220   67.89720    9.41180   87.27130 -185.24900  -88.16750   87.27130
 10150.00000    8.53240   47.43510   42.34400   23.61610   53.68080   53.92430   53.92430    1.55420    1.74640   28.81560   23.61610    8.53240   59.73180 -180.54740  -98.01010   59.73180
 10200.00000   11.67500    7.99080    7.66180  131.09760   53.81400   54.52850   54.52850    1.42680    1.49300   24.63370  131.09760   11.67500   63.40620 -121.45710  -53.53670   63.40620
 10250.00000    9.13620    9.89690    8.32400  120.13470   50.83880   52.48070   52.48070    1.95710    2.24100   36.97650  120.13470    9.13620  117.18310  -66.13060  -12.68160  117.18310
 10300.00000    9.09310    7.08500    7.22280  138.45010    -999.25   53.17220   53.17220    2.26050    2.53090   41.75990  138.45010    9.09310  105.09410  -49.07330   -6.36150  105.09410
 10350.00000   10.07660    5.84830    5.09290  196.35170    -999.25   52.52250   52.52250    -999.25    1.91850   31.65530  196.35170   10.07660  132.76360  -60.02990  -17.76240  132.76360
 10400.00000    9.26680    6.77420    6.91060  144.70530    -999.25   52.83730   52.83730    -999.25    2.00090   33.01490  144.70530    9.26680  123.61970  -69.20530  -27.38210  123.61970
 10450.00000    9.28130    7.08880    6.46200  154.83630    -999.25   52.84720   52.84720    -999.25    1.88100   31.03650  154.83630    9.28130  133.65830  -71.98170  -30.60490  133.65830
 10500.00000    9.78450    9.22340    8.45770  118.23600    -999.25   52.10650   52.10650    -999.25    2.30830   38.08700  118.23600    9.78450  105.86990  -71.16850  -30.23380  105.86990
 10550.00000    9.27470    8.42330    6.82250  146.57410    -999.25   53.50070   53.50070    -999.25    2.10620   34.75230  146.57410    9.27470  116.56630  -64.48960  -23.99910  116.56630
 10600.00000    9.20350    7.97930    7.46220  134.00840    -999.25   53.83150   53.83150    -999.25    2.11870   34.95860  134.00840    9.20350  121.13640  -61.88550  -21.83930  121.13640
 10650.00000    9.27330   14.02060   13.85320   72.18550    -999.25   53.28800   53.28800    -999.25    2.09860   34.62690   72.18550    9.27330   92.96060  -54.25250  -14.65050   92.96060
 10700.00000    9.03360   24.05270   23.60990   42.41020    -999.25   57.89800   57.89800    -999.25    2.47640   40.86140   42.41020    9.03360   59.03410  -53.29380  -14.13820   59.03410
 10750.00000   12.59540  208.10530  205.20820    4.87310    -999.25   82.77470   82.77470    -999.25    5.11360   84.37440    4.87310   12.59540    7.33760  -62.45810  -23.74460    7.33760
 10800.00000    9.51370  133.99340  134.59490    7.42970    -999.25   66.78980   66.78980    -999.25    3.57650   59.01220    7.42970    9.51370   12.65420  -59.86150  -21.59230   12.65420
 10850.00000   13.99170  245.74840  232.06700    4.30910    -999.25   81.09430   81.09430    -999.25    4.01560   66.25740    4.30910   13.99170    5.29340  -81.28540  -43.46050    5.29340
 10900.00000   14.02750  258.41890  237.86300    4.20410    -999.25   80.41820   80.41820    -999.25    4.93940   81.50010    4.20410   14.02750    4.98760  -56.60880  -19.22810    4.98760
 10950.00000   10.60670   79.98220   71.58790   13.99130    -999.25   69.62190   69.62190    -999.25    4.87930   80.50840   13.99130   10.60670   13.93300  -45.67780   -8.74360   13.93300
 11000.00000    9.78480  114.26350  110.20380    9.07410    -999.25   67.52780   67.52780    -999.25    4.76830   78.67700    9.07410    9.78480   12.28160  -41.91630   -6.48020   12.28160
 11050.00000    9.85880  145.87650  146.88390    6.80810    -999.25   70.40720   70.40720    -999.25    4.86490   80.27080    6.80810    9.85880   10.67930  -38.69260   -4.78960   10.67930
 11100.00000    9.57330  137.53810  134.87810    7.41410    -999.25   66.56870   66.56870    -999.25    5.40320   89.15280    7.41410    9.57330   10.67610  -41.42970   -9.05970   10.67610
 11150.00000   10.37440  193.34920  190.73410    5.24290    -999.25   74.97820   74.97820    -999.25    5.26290   86.83790    5.24290   10.37440    7.86680  -44.77700  -13.94010    7.86680
 11200.00000   11.11500  176.83030  172.77740    5.78860    -999.25   77.01460   77.01460    -999.25    5.91840   97.65280    5.78860   11.11500    9.03310  -54.35040  -25.05420    9.03310
 11250.00000   11.62420  192.36890  190.84330    5.23990    -999.25   78.49350   78.49350    -999.25    5.58190   92.10130    5.23990   11.62420    8.80550  -52.84530  -25.07440    8.80550
 11300.00000    8.80190    7.76680    5.42280  184.40670    -999.25   69.85970   69.85970    -999.25    8.22630  135.73390  184.40670    8.80190  152.67540  -39.33680  -13.09900  152.67540
 11350.00000    9.07550    9.67620    6.38250  156.67730    -999.25   77.46430   77.46430    -999.25   12.03210  198.52970  156.67730    9.07550  142.62800  -29.92410   -5.21930  142.62800
 11400.00000    8.80930   19.11280   17.50980   57.11100   65.76340   64.22000   64.22000    4.09950    4.10540   67.73910   57.11100    8.80930   77.19910  -29.01630   -5.84450   77.19910
 11450.00000   10.16510    6.15710    3.80350  262.99940   48.04180   50.70080   50.70080    1.39800    1.39030   22.94000  262.99940   10.16510  268.72400  -62.08820  -39.34570  268.72400
 11500.00000    8.94790    6.65060    3.63720  274.93520   49.05990   47.68800   47.68800    1.18910    1.29000   21.28500  274.93520    8.94790  241.92610  -67.54890  -44.80640  241.92610
