~Version ---------------------------------------------------
VERS. 2.0 : CWLS log ASCII Standard -VERSION 2.0
WRAP.  NO : ONE LINE PER DEPTH STEP
~Well ------------------------------------------------------
STRT.F                         700.0 : START DEPTH
STOP.F                        7050.0 : STOP DEPTH
STEP.F                      50.00000 : STEP LENGTH
NULL.                        -999.25 : NULL VALUE
COMP.                SUN OIL COMPANY : COMPANY
WELL. SUN CDR GOPHER HEAD 6-23-36-19 : WELL
FLD .                                : FIELD
LOC .                                : LOCATION
CTRY.                         CANADA : COUNTRY
SRVC.                        Unknown : SERVICE COMPANY
DATE.                    09-Sep-1971 : LOGDATE
PROV.                        Alberta : PROVINCE
UWI .               100062303619W400 : UNIQUE WELL ID
SLAT.WGS84                  52.10319 : SURFACE LATITUDE
SLON.WGS84                 -112.6149 : SURFACE LONGITUDE
~Curve Information -----------------------------------------
DEPT  .F    0   1   0  0 : 1 MEASURED DEPTH
SPR   .MV   10 010 01 00 : SPONTANEOUS POTENTIAL FROM RESISTIVITY LOG
LL    .OHMM 10 220 04 00 : FOCUSED LATEROLOG RESISTIVITY
NEUT  .NAPI 40 330 01 00 : NEUTRON
GRN   .GAPI 41 310 01 00 : GAMMA RAY FROM GRN LOG
SNP_LS.DEC  41 890 01 00 : SIDEWALL NEUTRON POROSITY [LIMESTONE]
CALN  .IN   41 280 60 00 : CALIPER FROM NEUTRON LOG
DT    .US/F 60 500 41 00 : DELTA-T (INTERVAL TRANSIT TIME)
GRS   .GAPI 60 310 01 00 : GAMMA RAY FROM SONIC LOG
CALS  .IN   60 280 50 00 : CALIPER FROM SONIC LOG
~Params ----------------------------------------------------
PD  .                     GL : PERMANENT DATUM
EPD .FT                 2870 : ELEVATION PERMANENT DATUM
LMF .                     KB : LOG MEASURED FROM
DAPD.FT                   14 : FEET ABOVE PERMANENT DATUM
DMF .                     KB : DRILLING MEASURED FROM
EKB .FT                 2884 : KELLY BUSHING
EGL .FT                 2870 : GROUND LEVEL
DATE.               09/11/71 : RUN DATE
RUN .                      2 : RUN NUMBER
DD  .FT                 7095 : DEPTH DRILLER
DL  .FT                 7092 : DEPTH LOGGER
BLI .FT                 7085 : BOTTOM LOG INTERVAL
TLI .FT                 6500 : TOP LOG INTERVAL
CS  .IN                8.625 : CASING SIZE
CBD .FT                  752 : CASING BOTTOM DRILLER
CBL .FT                  750 : CASING BOTTOM LOGGER
BS  .IN                7.875 : BIT SIZE
BSD .FT                 7095 : BIT SIZE AT DEPTH
DFT .           SALT MUD GEL : DRILLING FLUID TYPE
DFD .                   10.4 : DRILLING FLUID DENSITY
DFV .                     42 : DRILLING FLUID VISCOSITY
DFPH.                    8.5 : DRILLING FLUID PH
DFL .                      8 : DRILLING FLUID LOSS
MSS .                   CIRC : MUD SAMPLE SOURCE
RMS .OHMM               0.06 : RESISTIVITY MUD SAMPLE
MST .DEGF                 75 : MUD SAMPLE TEMPERATURE
RMF .OHMM               0.04 : RESISTIVITY MUD FILTRATE SAMPLE
MFST.DEGF                 74 : MUD FILTRATE SAMPLE TEMPERATURE
RMC .OHMM                0.1 : RESISTIVITY MUD CAKE
MCST.DEGF                 70 : MUD CAKE SAMPLE TEMPERATURE
MFSS.                   MEAS : MUD FILTRATE SAMPLE SOURCE
MCSS.                   MEAS : MUD CAKE SAMPLE SOURCE
RMB .OHMM               0.03 : RESISTIVITY MUD AT BHT
TCS .HRS                   3 : TIME CIRCULATED STOPPED
LUN .                   6077 : LOGGING UNIT NUMBER
LUL .                    R D : LOGGING UNIT LOCATION
ENGI.                MACLEAN : RECORDING ENGINEER
WITN.         STEBNE PATMORE : WITNESSED BY
CLNT.                A2DTECH : CLIENT CODE
ORIG.            2" 5" PRINT : ORIGIN OF DATA
UWI .       100062303619W400 : UNIQUE WELL ID
DICO. A2D Technologies, Inc. : DIGITIZING COMPANY
~Other -----------------------------------------------------
~ASCII -----------------------------------------------------
  700.00000    -999.25    -999.25    -999.25    -999.25    -999.25    -999.25    -999.25   47.95020    -999.25
  750.00000    0.64980   11.15470    -999.25    -999.25    -999.25    -999.25  118.89070   52.68490    8.92270
  800.00000   -4.93270    7.00030    -999.25    -999.25    -999.25    -999.25   92.19680   72.34670    8.16060
  850.00000   -6.15340    2.76620    -999.25    -999.25    -999.25    -999.25  131.56090   35.48640    9.34020
  900.00000   -3.78690   18.50290    -999.25    -999.25    -999.25    -999.25  111.45350   78.78530    8.11480
  950.00000   -8.52890    3.00090    -999.25    -999.25    -999.25    -999.25  117.37300   69.46220    8.68020
 1000.00000   -8.79440    3.52090    -999.25    -999.25    -999.25    -999.25  106.34680   66.52240    8.32310
 1050.00000   -8.79580    3.08100    -999.25    -999.25    -999.25    -999.25  108.92130   71.52780    8.64430
 1100.00000   -9.52950    2.73430    -999.25    -999.25    -999.25    -999.25  113.80190   74.47420    9.18900
 1150.00000   -9.73190    3.02060    -999.25    -999.25    -999.25    -999.25  111.84470   76.97470    8.49550
 1200.00000  -11.14750    1.98250    -999.25    -999.25    -999.25    -999.25  121.46910   94.83100    9.39670
 1250.00000  -10.80770    2.13190    -999.25    -999.25    -999.25    -999.25  117.03230   72.28050    8.71770
 1300.00000  -11.25440    2.41530    -999.25    -999.25    -999.25    -999.25  118.73420   65.42220    9.97730
 1350.00000  -11.61190    2.03200    -999.25    -999.25    -999.25    -999.25  118.02690   71.37210    9.39940
 1400.00000  -11.39750    2.45610    -999.25    -999.25    -999.25    -999.25  118.76180   70.11920    8.78880
 1450.00000  -10.93690    2.41110    -999.25    -999.25    -999.25    -999.25  115.59250   65.52480    9.91410
 1500.00000   -4.73570    5.67350    -999.25    -999.25    -999.25    -999.25   90.04870   62.81340    9.18240
 1550.00000   -3.89850    4.90290    -999.25    -999.25    -999.25    -999.25   99.54290   66.03500    9.18840
 1600.00000  -10.41320    4.48680    -999.25    -999.25    -999.25    -999.25   98.24290   66.10470    9.06100
 1650.00000  -10.85590    2.28820    -999.25    -999.25    -999.25    -999.25  106.80100   55.41620    9.00570
 1700.00000  -11.18750    5.06420    -999.25    -999.25    -999.25    -999.25   96.59530   53.41310    8.44050
 1750.00000   -7.77250    3.51120    -999.25    -999.25    -999.25    -999.25   99.53650   52.90020    7.92430
 1800.00000   -9.75040    3.76230    -999.25    -999.25    -999.25    -999.25  101.77100   50.53720    7.96810
 1850.00000  -10.69450    3.09210    -999.25    -999.25    -999.25    -999.25  108.32840   56.49970    9.03640
 1900.00000  -11.45910    2.86790    -999.25    -999.25    -999.25    -999.25  104.08810   53.22180    9.54720
 1950.00000  -10.11310    3.47470    -999.25    -999.25    -999.25    -999.25  101.88720   51.42020    8.31180
 2000.00000  -12.22100    7.62670    -999.25    -999.25    -999.25    -999.25   78.17990   51.43510    8.65720
 2050.00000  -11.90380    3.95480    -999.25    -999.25    -999.25    -999.25   97.20390   55.01820    9.10710
 2100.00000  -13.85770    4.75320    -999.25    -999.25    -999.25    -999.25  105.05790   67.49100    9.07980
 2150.00000  -10.32840    4.17500    -999.25    -999.25    -999.25    -999.25  100.79370   46.06810    8.51200
 2200.00000  -12.37380    2.32990    -999.25    -999.25    -999.25    -999.25  105.99480   55.66510    9.42750
 2250.00000  -12.12980    2.74340    -999.25    -999.25    -999.25    -999.25  109.61380   60.46210    8.60850
 2300.00000  -12.90280    2.86900    -999.25    -999.25    -999.25    -999.25  104.62610   62.38800    8.90210
 2350.00000  -11.54080    5.46080    -999.25    -999.25    -999.25    -999.25   95.60790   70.74020    8.39310
 2400.00000  -10.65450    4.60250    -999.25    -999.25    -999.25    -999.25   95.87000   65.47110   10.94700
 2450.00000   -9.18510    4.62620    -999.25    -999.25    -999.25    -999.25   96.80590   62.95160   13.15850
 2500.00000   -9.14500    4.15280    -999.25    -999.25    -999.25    -999.25  105.30050   61.89920   12.29480
 2550.00000   -9.41860    4.81650    -999.25    -999.25    -999.25    -999.25  104.87940   57.60140   13.82280
 2600.00000   -7.86090    6.27030    -999.25    -999.25    -999.25    -999.25   96.60400   61.24560   13.38810
 2650.00000   -7.94030    5.09510    -999.25    -999.25    -999.25    -999.25   99.95260   87.62770   11.27080
 2700.00000  -10.16230    5.71720    -999.25    -999.25    -999.25    -999.25   98.82050  137.36830    8.98390
 2750.00000   -9.79330    5.34360    -999.25    -999.25    -999.25    -999.25   96.64410   91.21260    9.08420
 2800.00000  -10.22980    5.23640    -999.25    -999.25    -999.25    -999.25   98.32580  102.12530    8.54460
 2850.00000  -11.02510    5.37370    -999.25    -999.25    -999.25    -999.25   88.11710   82.26320    9.43440
 2900.00000  -10.57210    4.84940    -999.25    -999.25    -999.25    -999.25  100.05690   77.80560    9.98840
 2950.00000  -10.89720    4.57610    -999.25    -999.25    -999.25    -999.25   98.59640   76.96280    9.20040
 3000.00000  -10.86820    4.70500    -999.25    -999.25    -999.25    -999.25   93.35370   74.21690    9.87360
 3050.00000  -12.27850    5.15740    -999.25    -999.25    -999.25    -999.25   96.32370   93.96810    9.67260
 3100.00000  -10.88560    5.52900    -999.25    -999.25    -999.25    -999.25   97.03730   85.47730   10.43970
 3150.00000  -12.39870    5.93940    -999.25    -999.25    -999.25    -999.25   94.96660   88.80560    9.38120
 3200.00000  -10.45440    6.30570    -999.25    -999.25    -999.25    -999.25   91.07560   66.76000   11.37950
 3250.00000  -10.39700    7.09720    -999.25    -999.25    -999.25    -999.25   81.62160   68.64140   10.67630
 3300.00000  -11.15470    5.50500    -999.25    -999.25    -999.25    -999.25   93.66990   89.97430   10.30810
 3350.00000  -12.35210    4.30500    -999.25    -999.25    -999.25    -999.25  101.55540   94.91640    9.76760
 3400.00000  -13.75480    4.11060    -999.25    -999.25    -999.25    -999.25   98.18000   92.61920    9.38170
 3450.00000  -15.11100    5.99420    -999.25    -999.25    -999.25    -999.25   90.18300  110.65270    8.52290
 3500.00000  -13.36140    6.89230    -999.25    -999.25    -999.25    -999.25   93.70920   99.06920    8.91920
 3550.00000  -14.21870    5.86520    -999.25    -999.25    -999.25    -999.25   98.22810  139.90530    9.43160
 3600.00000  -15.85730    5.07860    -999.25    -999.25    -999.25    -999.25  108.73560  194.54710    8.93140
 3650.00000  -17.98910    2.31170    -999.25    -999.25    -999.25    -999.25  111.82170  135.94890   10.31390
 3700.00000  -17.68090    2.12320    -999.25    -999.25    -999.25    -999.25  103.87920   88.04730   11.02120
 3750.00000  -18.03930    2.20380    -999.25    -999.25    -999.25    -999.25  101.78140   88.62590   11.31060
 3800.00000  -18.87700    2.01420    -999.25    -999.25    -999.25    -999.25  107.04960   84.53400   10.22370
 3850.00000  -17.83900    3.61970    -999.25    -999.25    -999.25    -999.25   92.36270   86.55940    9.37690
 3900.00000  -19.62570    4.82500    -999.25    -999.25    -999.25    -999.25   86.58000   80.03950    8.89080
 3950.00000  -21.10430    1.32990    -999.25    -999.25    -999.25    -999.25  109.69010   54.29800   13.40640
 4000.00000  -21.21510    1.96060    -999.25    -999.25    -999.25    -999.25  109.84250   70.47540   12.29830
 4050.00000  -18.51430   55.75780    -999.25    -999.25    -999.25    -999.25   58.22430   53.08710    8.61280
 4100.00000  -19.64680    8.64370    -999.25    -999.25    -999.25    -999.25   76.02800   76.43630    9.38290
 4150.00000  -17.16450   17.95870    -999.25    -999.25    -999.25    -999.25  123.00910   34.76320   11.72390
 4200.00000  -17.90230    6.73790    -999.25    -999.25    -999.25    -999.25  100.80900   56.16200   14.77920
 4250.00000  -18.29910   24.01050 1925.28910   98.28300    0.04280    8.91930   62.11040   57.85540    8.94300
 4300.00000  -18.13310   21.09930 1924.38930   72.23780    0.03960    9.10390   62.71970   51.67810    9.73170
