~Version ---------------------------------------------------
VERS.      2.0 : CWLS log ASCII Standard -VERSION 2.0
WRAP.       NO : One line per depth step
CREA. 09/12/13 : LAS Creation Date
~Well ------------------------------------------------------
STRT.M                            400.0 : START DEPTH
STOP.M                           3300.0 : STOP DEPTH
STEP.M                         50.00000 : STEP LENGTH
NULL.                           -999.25 : NULL VALUE
COMP.             BONANZA OIL & GAS LTD : COMPANY
WELL. BONANZA ET AL ROSEVEAR 6-18-54-14 : WELL
FLD .                                WC : FIELD
LOC .                                   : LOCATION
CTRY.                            CANADA : COUNTRY
SRVC.                      Schlumberger : SERVICE COMPANY
DATE.                       05-Jan-1981 : LOGDATE
PROV.                           Alberta : PROVINCE
UWI .                  100061805414W500 : UNIQUE WELL ID
SLAT.WGS84                      53.6619 : SURFACE LATITUDE
SLON.WGS84                    -116.0574 : SURFACE LONGITUDE
~Curve Information -----------------------------------------
DEPT    .M      : DEPTH METER
CALDED  .MM     : CALIPER FROM DENSITY [ADJ.TO RESISTIVITY LOG]
CALSED  .MM     : CALIPER FROM SONIC LOG [ADJ. TO RESISTIVITY LOG]
CALWS   .MM     : CALIPER [CALDED]
CONDWS  .MMHO   : CONDUCTIVITY [1000/DRESWS]
DCORWS  .KG/M3  : DENSITY CORRECTION [DRHOED]
DENWS   .KG/M3  : FORMATION BULK DENSITY [CALC.FROM DPOLSWS ,M=2710,F=1000]
DPHILSED.V/V    : DENSITY POROSITY LIMESTONE [M=2710,F=1000]FROM DENSITY LOG [ADJ.TO RESISTIVITY LOG]
DPHISSED.V/V    : DENSITY POROSITY SANDSTONE [M=2650,F=1000] FROM DENSITY LOG [ADJ.TO RESISTIVITY LOG]
DPOLSWS .V/V    : DENSITY POROSITY LIMESTONE [DPHISSED CONVERTED TO LIMESTONE(M=2710,F=1000) & SPL.TO DPHILSED@2314M]
DRESWS  .OHMM   : DEEP RESISTIVITY [ILDED]
DRHOED  .KG/M3  : DENSITY CORRECTION FROM DENSITY LOG [ADJ.TO RESISTIVITY LOG]
DTED    .US/M   : DELTA TIME FROM SONIC LOG [ADJ. TO RESISTIVITY LOG]
DTWS    .US/M   : COMPRESSIONAL SONIC [DTED]
GRDED   .GAPI   : GAMMA RAY FROM DENSITY LOG [ADJ.TO RESISTIVITY LOG]
GRSED   .GAPI   : GAMMA RAY FROM SONIC LOG [ADJ. TO RESISTIVITY LOG]
GRWS    .GAPI   : GAMMA RAY [GRDED]
ILDED   .OHMM   : DEEP INDUCTION RESISTIVITY FROM RESISTIVITY LOG
ILMED   .OHMM   : MEDIUM INDUCTION RESISTIVITY FROM RESISTIVITY LOG
MCALED  .MM     : MICRO CALIPER FROM MICROLOG [ADJ.TO RESISTIVITY LOG]
MRESWS  .OHMM   : MEDIUM RESISTIVITY [MRESWS]
NPHILSED.V/V    : NEUTRON POROSITY LIMESTONE FROM DENSITY LOG [ADJ.TO RESISTIVITY LOG]
NPHISSED.V/V    : NEUTRON POROSITY SANDSTONE FROM DENSITY LOG [ADJ.TO RESISTIVITY LOG]
NPOLSWS .V/V    : NEUTRON POROSITY LIMESTONE [NPHISSED CONVERTED TO LIMESTONE MATRIX,SPL. TO NPHILSED @2309.6M ]
RHOBED  .KG/M3  : BULK DENSITY FROM DENSITY LOG [ADJ.TO RESISTIVITY LOG]
SFLED   .OHMM   : SPHERICALLY FOCUSED LOG FROM RESISTIVITY LOG
SPRED   .MV     : SPONTANEOUS POTENTIAL FROM RESISTIVITY LOG
SPWS    .MV     : SPONTANEOUS POTENTIAL [BASELINE 0 MV, SPRED]
SRESWS  .OHMM   : SHALLOW RESISTIVITY [SFLED]
~Params ----------------------------------------------------
EPD .M                    853.72 : ELEVATION PERMANENT DATUM
DAPD.M                       4.9 : FEET ABOVE PERMANENT DATUM
EKB .M                    858.62 : KELLY BUSHING
EGL .M                    853.72 : GROUND LEVEL
DATE.                   01/05/81 : RUN DATE
RUN .                          1 : RUN NUMBER
DD  .M                      3346 : DEPTH DRILLER
DL  .M                    3345.4 : DEPTH LOGGER
BLI .M                    3344.6 : BOTTOM LOG INTERVAL
TLI .M                     355.2 : TOP LOG INTERVAL
CS  .MM                      244 : CASING SIZE
CBD .M                       355 : CASING BOTTOM DRILLER
CBL .M                     355.2 : CASING BOTTOM LOGGER
BS  .MM                      222 : BIT SIZE
BSD .M                      3346 : BIT SIZE AT DEPTH
DFT .                   GEL CHEM : DRILLING FLUID TYPE
DFD .                       1090 : DRILLING FLUID DENSITY
DFV .                        140 : DRILLING FLUID VISCOSITY
DFPH.                       10.5 : DRILLING FLUID PH
DFL .                       10.8 : DRILLING FLUID LOSS
MSS .                CIRCULATION : MUD SAMPLE SOURCE
RMS .OHMM                   1.41 : RESISTIVITY MUD SAMPLE
MST .DEGC                   32.2 : MUD SAMPLE TEMPERATURE
RMF .OHMM                   1.21 : RESISTIVITY MUD FILTRATE SAMPLE
MFST.DEGC                   17.8 : MUD FILTRATE SAMPLE TEMPERATURE
MFSS.                      PRESS : MUD FILTRATE SAMPLE SOURCE
MCSS.                       MEAS : MUD CAKE SAMPLE SOURCE
RMB .OHMM                  0.665 : RESISTIVITY MUD AT BHT
TCS .HRS                    1900 : TIME CIRCULATED STOPPED
TLAB.HRS                     730 : TIME LOGGER AT BOTTOM
LUN .                       8112 : LOGGING UNIT NUMBER
LUL .                      EDSON : LOGGING UNIT LOCATION
ENGI.                    LIBLANC : RECORDING ENGINEER
WITN.                KIRKPATRICK : WITNESSED BY
CLNT.                    A2DTECH : CLIENT CODE
ORIG. 6.5"/100M 16.5"/100M PRINT : ORIGIN OF DATA
UWI .           100061805414W500 : UNIQUE WELL ID
DICO.     A2D Technologies, Inc. : DIGITIZING COMPANY
~Other -----------------------------------------------------
DILSFL-CND-BHC- ML LOG RUN
DISFL RUN IN COMBO WITH BHC-GR
SP JUMPS DUE TO RIG NOISE
NPHISSED CONVERTED TO LIMESTONE MATRIX USING SCHLUMBERGER CHART
~ASCII -----------------------------------------------------
# ...
 1650.00000  323.46720    -999.25  323.46720  105.56880  234.70580 2314.06000    -999.25    0.20360    0.23150    9.47250  234.70580    -999.25    -999.25  108.15630    -999.25  108.15630    9.47250    8.88710    -999.25    8.88710    -999.25    0.30230    0.25830 2316.70730   10.10530  -80.71230   -3.71320   10.10530
 1700.00000  256.77140    -999.25  256.77140   77.66030   25.37860 2581.36000    -999.25    0.04160    0.07520   12.87660   25.37860    -999.25    -999.25  127.40630    -999.25  127.40630   12.87660   12.44760    -999.25   12.44760    -999.25    0.32550    0.28160 2571.27150   15.03860  -80.73820   -4.56470   15.03860
 1750.00000  377.34480    -999.25  377.34480   90.80920   30.98600 1665.77500    -999.25    0.59650    0.61070   11.01210   30.98600    -999.25    -999.25   82.14240    -999.25   82.14240   11.01210    9.53470    -999.25    9.53470    -999.25    0.50800    0.46860 1716.59790   11.21440  -79.11290   -3.76510   11.21440
 1800.00000  409.16180    -999.25  409.16180  130.54150   46.44880 1629.31000    -999.25    0.61860    0.63200    7.66040   46.44880    -999.25    -999.25   82.64980    -999.25   82.64980    7.66040    6.28450    -999.25    6.28450    -999.25    0.52460    0.48600 1592.45390    6.61200  -78.65990   -4.13770    6.61200
 1850.00000  390.81180    -999.25  390.81180  132.35040   18.95550 1523.54500    -999.25    0.68270    0.69380    7.55570   18.95550    -999.25    -999.25   81.00110    -999.25   81.00110    7.55570    6.53870    -999.25    6.53870    -999.25    0.48230    0.44170 1494.72020    7.60730  -76.84170   -3.14520    7.60730
 1900.00000  438.69200    -999.25  438.69200  181.12990   -1.76250 1515.79000    -999.25    0.68740    0.69840    5.52090   -1.76250    -999.25    -999.25   86.65200    -999.25   86.65200    5.52090    4.96800    -999.25    4.96800    -999.25    0.51580    0.47680 1521.48580    5.31920  -75.29410   -2.42330    5.31920
 1950.00000  265.32790    -999.25  265.32790   66.10870   23.50470 2565.19000    -999.25    0.05140    0.08470   15.12660   23.50470    -999.25    -999.25   58.19470    -999.25   58.19470   15.12660   12.92290    -999.25   12.92290    -999.25    0.23660    0.19280 2573.03000   10.63220  -77.53400   -6.33200   10.63220
 2000.00000  379.30860    -999.25  379.30860   94.09200   57.39510 1861.63000    -999.25    0.47780    0.49610   10.62790   57.39510    -999.25    -999.25   88.85720    -999.25   88.85720   10.62790    8.03010    -999.25    8.03010    -999.25    0.48250    0.44190 1999.23050    8.15780  -73.10530   -3.71170    8.15780
 2050.00000  320.95070    -999.25  320.95070   59.42020  241.16250 2327.26000    -999.25    0.19560    0.22380   16.82930  241.16250    -999.25    -999.25   85.44930    -999.25   85.44930   16.82930   14.67230    -999.25   14.67230    -999.25    0.30340    0.25940 2241.19560   18.30560  -80.75150  -13.16630   18.30560
 2100.00000  273.56750    -999.25  273.56750   64.78870   36.16880 2579.54500    -999.25    0.04270    0.07630   15.43480   36.16880    -999.25    -999.25   80.97970    -999.25   80.97970   15.43480   14.72210    -999.25   14.72210    -999.25    0.26210    0.21810 2576.95310   15.89080  -70.07520   -4.29840   15.89080
 2150.00000  266.36040    -999.25  266.36040   16.54440  174.41380 2649.67000    -999.25    0.00020    0.03530   60.44340  174.41380    -999.25    -999.25   60.11360    -999.25   60.11360   60.44340   55.22440    -999.25   55.22440    -999.25    0.11490    0.07280 2633.72830   77.38830  -74.60570  -10.63730   77.38830
 2200.00000  249.11910  211.04440  249.11910   17.64970   -1.05520 2637.46000    -999.25    0.00760    0.04240   56.65830   -1.05520  185.24510  185.24510   23.01720   23.23620   23.01720   56.65830   42.68180  230.56260   42.68180    -999.25    0.09880    0.05760 2644.86110   74.72150  -86.81140  -24.65140   74.72150
 2250.00000  226.07560  195.07790  226.07560   16.77120   82.81080 2451.50500    -999.25    0.12030    0.15120   59.62610   82.81080  201.02310  197.28310   13.96150   12.22790   13.96150   59.62610   56.26200  195.04070   56.26200    -999.25    0.13960    0.09720 2452.87990   79.96570 -112.14560  -53.49690   79.96570
 2300.00000  275.53020  222.94400  275.53020    0.54090   47.16780 2623.76500    -999.25    0.01590    0.05040 1848.70810   47.16780  164.72360  163.78390   25.90780   25.25940   25.90780 1848.70810  321.80690  255.35740  321.80690    -999.25    0.08260    0.04290 2614.97140  757.85470 -105.65160  -52.24460  757.85470
 2350.00000  236.06220  205.31080  236.06220   33.98420   13.86110 2711.71000   -0.00100    -999.25   -0.00100   29.42540   13.86110  178.00460  179.27840   54.75650   53.46240   54.75650   29.42540   31.27690  225.13370   31.27690    0.04360    -999.25    0.04360 2707.82590   57.48600  -68.70960  -20.54430   57.48600
 2400.00000  235.39430  199.87300  235.39430    6.34630   12.58980 2730.52000   -0.01200    -999.25   -0.01200  157.57170   12.58980  172.65030  173.16080   32.72040   33.85440   32.72040  157.57170  107.59170  222.27160  107.59170    0.01910    -999.25    0.01910 2725.64700  145.26140  -57.81610  -14.89240  145.26140
 2450.00000  237.72010  200.11370  237.72010   38.72280    9.73270 2686.40200    0.01380    -999.25    0.01380   25.82460    9.73270  192.12050  192.12050   49.34590   48.12230   49.34590   25.82460   25.86800  224.65270   25.86800    0.06360    -999.25    0.06360 2695.20310   31.74390  -43.52090   -4.07370   31.74390
 2500.00000  258.30100  207.97500  258.30100    0.51460  242.51280 2689.82200    0.01180    -999.25    0.01180 1943.22340  242.51280  165.05220  165.05220   21.46960   22.89840   21.46960 1943.22340  168.73510  220.10850  168.73510    0.00860    -999.25    0.00860 2706.24190  282.27850  -93.80800  -55.86260  282.27850
 2550.00000  310.83740  210.73650  310.83740    -999.25  148.87560 2178.36100    0.31090    -999.25    0.31090    -999.25  148.87560  165.92140  165.92140   11.31940    8.68590   11.31940    -999.25  243.02800  276.12220  243.02800    0.03470    -999.25    0.03470 2174.88280  309.78220 -122.64590  -86.20230  309.78220
 2600.00000  291.40180  215.71050  291.40180    0.55300   87.15170 2249.32600    0.26940    -999.25    0.26940 1808.44240   87.15170  179.05890  179.05890   12.39630   10.97930   12.39630 1808.44240  177.34060  240.45900  177.34060    0.07650    -999.25    0.07650 2247.00300  200.83110 -122.66720  -87.72540  200.83110
 2650.00000  254.61470  209.57980  254.61470    0.50150  140.75090 2581.92100    0.07490    -999.25    0.07490 1993.97990  140.75090  162.56950  162.56950    7.05120    7.53380    7.05120 1993.97990  321.12850  241.23320  321.12850    0.00490    -999.25    0.00490 2588.71610  271.80640 -125.16400  -91.72400  271.80640
 2700.00000  236.73760  204.76280  236.73760    4.41120    9.56360 2916.56800   -0.12080    -999.25   -0.12080  226.69520    9.56360  161.26910  161.26910   10.51940   10.50910   10.51940  226.69520  143.27290  227.43550  143.27290    0.00650    -999.25    0.00650 2916.04930  338.84510 -109.98970  -78.05150  338.84510
 2750.00000  341.26050  217.11960  341.26050    2.33160   90.99480 1853.29000    0.50100    -999.25    0.50100  428.89900   90.99480  173.49520  173.49520   20.35730   18.97860   20.35730  428.89900  178.44370  267.29640  178.44370    0.12380    -999.25    0.12380 1909.50950   79.34880 -114.74840  -84.31200   79.34880
 2800.00000  245.28900  203.40530  245.28900   35.05270    5.70930 2697.34600    0.00740    -999.25    0.00740   28.52850    5.70930  189.02770  189.02770   58.33400   58.10430   58.33400   28.52850   27.73710  227.33330   27.73710    0.09340    -999.25    0.09340 2689.57740   34.89550  -41.51400  -12.57940   34.89550
 2850.00000  362.86330  300.37420  362.86330  133.57020  113.89090 1909.03600    0.46840    -999.25    0.46840    7.48670  113.89090  243.51330  243.51330   68.70040   81.68590   68.70040    7.48670    6.77010  275.21080    6.77010    0.38360    -999.25    0.38360 1899.58350    7.92680  -32.56910   -5.13630    7.92680
