~Version ---------------------------------------------------
VERS.      2.0 : CWLS log ASCII Standard -VERSION 2.0
WRAP.       NO : One line per depth step
CREA. 12/18/17 : LAS Creation Date
~Well ------------------------------------------------------
STRT.FT                        1150.0 : START DEPTH
STOP.FT                       11350.0 : STOP DEPTH
STEP.FT                      50.00000 : STEP LENGTH
NULL.                         -999.25 : NULL VALUE
COMP.   THE ATLANTIC REFINING COMPANY : COMPANY
WELL. ATLANTIC ANTE CREEK 10-18-65-23 : WELL
FLD .                                 : FIELD
LOC .                                 : LOCATION
CTRY.                          CANADA : COUNTRY
SRVC.                    Schlumberger : SERVICE COMPANY
DATE.                     05-Jan-1963 : LOGDATE
PROV.                         Alberta : PROVINCE
UWI .                100101806523W500 : UNIQUE WELL ID
SLAT.WGS84                     54.627 : SURFACE LATITUDE
SLON.WGS84                  -117.4631 : SURFACE LONGITUDE
~Curve Information -----------------------------------------
DEPT  .FT    : Depth Curve
CALWS .IN    : CALIPER [MCALED]
CILDED.MMHO  : CONDUCTIVITY FROM RESISTIVITY LOG
CONDWS.MMHO  : CONDUCTIVITY [1000/DRESWS]
DRESWS.OHMM  : DEEP RESISTIVITY [1000/CILDED IF ILDED <=5, ILDED]
DT1ED .US/F  : DELTA-T 1' SPAN FROM SONIC LOG [ADJ.TO DTED]
DTED  .US/F  : DELTA-T 3' SPAN FROM SONIC LOG
DTWS  .US/F  : COMPRESSIONAL SONIC [DTED]
GRNED .GAPI  : GAMMA RAY FROM GRN LOG [ADJ.TO RESISTIVITY LOG]
GRSED .GAPI  : GAMMA RAY FROM SONIC LOG
GRWS  .GAPI  : GAMMA RAY [GRSED]
ILDED .OHMM  : DEEP INDUCTION FROM RESISTIVITY LOG
MCALED.IN    : MICRO CALIPER FROM MICRO LOG
NEUTED.NAPI  : NEUTRON FROM GRN LOG [ADJ.TO RESISTIVITY LOG]
NEUTWS.NAPI  : NEUTRON [NEUTED]
SNED  .OHMM  : SHORT NORMAL 16" FROM RESISTIVITY LOG
SPRED .MV    : SPONTANEOUS POTENTIAL FROM RESISTIVITY LOG
SPWS  .MV    : SPONTANEOUS POTENTIAL [BASELINE 0 MV, SPRED]
SRESWS.OHMM  : SHALLOW RESISTIVITY [SNED]
~Params ----------------------------------------------------
PD  .                     GL : PERMANENT DATUM
EPD .FT                 2763 : ELEVATION PERMANENT DATUM
LMF .                     KB : LOG MEASURED FROM
DAPD.FT                 14.5 : FEET ABOVE PERMANENT DATUM
EKB .FT               2777.5 : KELLY BUSHING
EGL .FT                 2763 : GROUND LEVEL
DATE.               01/05/63 : RUN DATE
RUN .                      1 : RUN NUMBER
DD  .FT                11380 : DEPTH DRILLER
DL  .FT                11362 : DEPTH LOGGER
BLI .FT                11361 : BOTTOM LOG INTERVAL
TLI .FT                 1166 : TOP LOG INTERVAL
CBD .FT                 1175 : CASING BOTTOM DRILLER
CBL .FT                 1166 : CASING BOTTOM LOGGER
BS  .IN                8.625 : BIT SIZE
BSD .FT                11380 : BIT SIZE AT DEPTH
DFT .               GEL CHEM : DRILLING FLUID TYPE
DFD .                    9.8 : DRILLING FLUID DENSITY
DFV .                     80 : DRILLING FLUID VISCOSITY
DFPH.                    9.5 : DRILLING FLUID PH
DFL .                      7 : DRILLING FLUID LOSS
RMS .OHMM                2.7 : RESISTIVITY MUD SAMPLE
MST .DEGF                 67 : MUD SAMPLE TEMPERATURE
RMF .OHMM                1.9 : RESISTIVITY MUD FILTRATE SAMPLE
MFST.DEGF                 82 : MUD FILTRATE SAMPLE TEMPERATURE
RMC .OHMM               2.41 : RESISTIVITY MUD CAKE
MCST.DEGF                 82 : MUD CAKE SAMPLE TEMPERATURE
RMB .OHMM               0.95 : RESISTIVITY MUD AT BHT
TCS .HRS                   3 : TIME CIRCULATED STOPPED
LUN .                   3534 : LOGGING UNIT NUMBER
LUL .                    WCT : LOGGING UNIT LOCATION
ENGI.                  MILLS : RECORDING ENGINEER
WITN.        HARTWELL RAMSEY : WITNESSED BY
CLNT.                A2DTECH : CLIENT CODE
ORIG.            2" 5" PRINT : ORIGIN OF DATA
UWI .       100101806523W500 : UNIQUE WELL ID
DICO. A2D Technologies, Inc. : DIGITIZING COMPANY
~Other -----------------------------------------------------
IEL-ML-SONIC-GRN LOG RUN.
ALL CURVE FROM IEL LOG DIG IN 2" SCALE @ TOP TO 3438'
ALL CURVE FROM SONIC LOG DIG IN 2" SCALE @ TOP TO 3438'
MCALED DIG IN 2" SCALE @ TOP TO 3488'
~ASCII -----------------------------------------------------
 1150.00000    -999.25    -999.25    -999.25    -999.25    -999.25    -999.25    -999.25    -999.25   71.97750   71.97750    -999.25    -999.25    -999.25    -999.25    -999.25    -999.25    -999.25    -999.25
 1200.00000   17.76950  237.83960  237.83960    4.20450    -999.25  121.61550  121.61550    -999.25   67.64380   67.64380    4.24370   17.76950    -999.25    -999.25    6.67030  -62.83740   -3.97450    6.67030
 1250.00000   18.75370  237.41060  237.41060    4.21210    -999.25  111.68090  111.68090    -999.25   79.87750   79.87750    4.01240   18.75370    -999.25    -999.25    5.97440  -62.90080   -4.03790    5.97440
 1300.00000   16.74520  280.31870  280.31870    3.56740    -999.25  115.04390  115.04390    -999.25   71.26000   71.26000    3.41140   16.74520    -999.25    -999.25    4.85550  -62.08990   -3.22700    4.85550
 1350.00000   21.46310  397.26710  397.26710    2.51720    -999.25  138.42800  138.42800    -999.25   52.12930   52.12930    2.50560   21.46310    -999.25    -999.25    4.23710  -62.40980   -3.54690    4.23710
 1400.00000   17.74060  295.00680  295.00680    3.38980    -999.25  108.54190  108.54190    -999.25   70.56380   70.56380    3.41600   17.74060    -999.25    -999.25    4.90200  -61.30600   -2.44310    4.90200
 1450.00000   14.81720  238.73260  238.73260    4.18880    -999.25  114.90650  114.90650    -999.25   70.29490   70.29490    4.08650   14.81720    -999.25    -999.25    5.17530  -60.30310   -1.44020    5.17530
 1500.00000   12.72850  129.26620  123.93720    8.06860    -999.25   97.64660   97.64660    -999.25   82.19080   82.19080    8.06860   12.72850    -999.25    -999.25    9.11660  -60.91050   -2.04760    9.11660
 1550.00000   14.84370  238.91070  238.91070    4.18570    -999.25  104.56140  104.56140    -999.25   62.41470   62.41470    4.44660   14.84370    -999.25    -999.25    5.93550  -61.06780   -2.20490    5.93550
 1600.00000   16.30320  283.69620  283.69620    3.52490    -999.25  122.45840  122.45840    -999.25   60.94790   60.94790    3.48710   16.30320    -999.25    -999.25    5.16370  -60.67830   -1.81540    5.16370
 1650.00000   16.04370  266.34470  266.34470    3.75450    -999.25  122.78840  122.78840    -999.25   70.35680   70.35680    3.52660   16.04370    -999.25    -999.25    5.32270  -60.51180   -1.64890    5.32270
 1700.00000   14.15380  237.88310  237.88310    4.20370    -999.25   96.91880   96.91880    -999.25   69.12720   69.12720    3.81970   14.15380    -999.25    -999.25    5.55590  -61.62180   -2.75890    5.55590
 1750.00000   14.39560  243.59250  243.59250    4.10520    -999.25  110.01180  110.01180    -999.25   72.67360   72.67360    4.10790   14.39560    -999.25    -999.25    5.77260  -60.95870   -2.09580    5.77260
 1800.00000   15.00000  545.28190  545.28190    1.83390    -999.25  120.47230  120.47230    -999.25   84.33240   84.33240    1.94370   15.00000    -999.25    -999.25    4.44240  -60.72180   -1.85890    4.44240
 1850.00000   10.93500   96.71560   91.34510   10.94750    -999.25   84.17140   84.17140    -999.25   93.30940   93.30940   10.94750   10.93500    -999.25    -999.25   11.87640  -60.66290   -1.80000   11.87640
 1900.00000   17.81290  251.05500  251.05500    3.98320    -999.25  140.05140  140.05140    -999.25   65.29040   65.29040    3.64050   17.81290    -999.25    -999.25    7.37690  -67.55620   -8.69330    7.37690
 1950.00000   15.00540  276.55140  276.55140    3.61600    -999.25  110.64900  110.64900    -999.25   64.31680   64.31680    3.42920   15.00540    -999.25    -999.25    4.98510  -61.10780   -2.24490    4.98510
 2000.00000    8.13760  241.05530  165.64240    6.03710    -999.25  119.08520  119.08520    -999.25   74.13240   74.13240    6.03710    8.13760    -999.25    -999.25    8.95400  -62.55160   -3.68870    8.95400
 2050.00000   16.81820  229.29080  229.29080    4.36130    -999.25  130.58840  130.58840    -999.25   67.91120   67.91120    4.14320   16.81820    -999.25    -999.25    5.96540  -61.22280   -2.35990    5.96540
 2100.00000   15.26250  365.33620  365.33620    2.73720    -999.25  124.51500  124.51500    -999.25   73.95920   73.95920    2.80880   15.26250    -999.25    -999.25    4.25040  -60.82820   -1.96530    4.25040
 2150.00000   11.44650  170.27120  184.66200    5.41530    -999.25  101.29910  101.29910    -999.25   65.80980   65.80980    5.41530   11.44650    -999.25    -999.25    6.66130  -61.39480   -2.53190    6.66130
 2200.00000   16.03310  262.15490  262.15490    3.81450    -999.25  117.37720  117.37720    -999.25   59.65560   59.65560    3.71210   16.03310    -999.25    -999.25    5.23840  -61.11800   -2.25510    5.23840
 2250.00000   14.61770  197.43250  197.43250    5.06500    -999.25  105.69270  105.69270    -999.25   72.67550   72.67550    4.99250   14.61770    -999.25    -999.25    6.03390  -60.92030   -2.05740    6.03390
 2300.00000   15.66130  182.00310  182.00310    5.49440    -999.25  106.15930  106.15930    -999.25   52.50410   52.50410    4.99150   15.66130    -999.25    -999.25    7.26290  -62.18710   -3.32420    7.26290
 2350.00000   13.35310  155.34170  153.56500    6.51190    -999.25   98.20860   98.20860    -999.25   62.26250   62.26250    6.51190   13.35310    -999.25    -999.25    8.50060  -61.82640   -2.96350    8.50060
 2400.00000   14.05080  147.34030  148.81840    6.71960    -999.25   97.45810   97.45810    -999.25   51.19530   51.19530    6.71960   14.05080    -999.25    -999.25    7.98400  -64.55070   -5.68780    7.98400
 2450.00000   14.05960  217.68800  217.68800    4.59370    -999.25  102.42360  102.42360    -999.25   64.66810   64.66810    4.42670   14.05960    -999.25    -999.25    6.00880  -59.79020   -0.92730    6.00880
 2500.00000   14.83960  209.15370  209.15370    4.78120    -999.25  131.45560  131.45560    -999.25   51.69640   51.69640    4.63190   14.83960    -999.25    -999.25    5.91040  -59.68070   -0.81780    5.91040
 2550.00000    9.73940  108.60970   96.50930   10.36170    -999.25   99.71400   99.71400    -999.25   42.53330   42.53330   10.36170    9.73940    -999.25    -999.25   13.39730  -61.85250   -2.98960   13.39730
 2600.00000   12.51770  245.24980  245.24980    4.07750    -999.25   76.87410   76.87410    -999.25   45.46440   45.46440    3.87850   12.51770    -999.25    -999.25    6.11010  -59.92930   -1.06640    6.11010
 2650.00000   11.77010  272.51030  272.51030    3.66960    -999.25  116.87480  116.87480    -999.25   62.30330   62.30330    3.66000   11.77010    -999.25    -999.25    5.29780  -59.98120   -1.11830    5.29780
 2700.00000   12.74040  237.30760  237.30760    4.21390    -999.25  107.82840  107.82840    -999.25   60.66210   60.66210    4.07730   12.74040    -999.25    -999.25    5.84850  -60.05040   -1.18750    5.84850
 2750.00000   11.24650  178.20990  177.26410    5.64130    -999.25   91.13390   91.13390    -999.25   60.40160   60.40160    5.64130   11.24650    -999.25    -999.25    8.51940  -60.81830   -1.95540    8.51940
 2800.00000   10.88760  154.88110  143.84970    6.95170    -999.25  116.29310  116.29310    -999.25   48.63760   48.63760    6.95170   10.88760    -999.25    -999.25    9.83710  -71.37710  -12.51420    9.83710
 2850.00000   11.20660  109.67940  110.08370    9.08400    -999.25   96.68800   96.68800    -999.25   53.86560   53.86560    9.08400   11.20660    -999.25    -999.25   12.65620  -66.17600   -7.31310   12.65620
 2900.00000   14.46120  246.62000  246.62000    4.05480    -999.25  127.17090  127.17090    -999.25   52.87490   52.87490    3.86730   14.46120    -999.25    -999.25    5.77380  -60.20140   -1.33850    5.77380
 2950.00000    9.64960   88.36460   95.43440   10.47840    -999.25   89.92900   89.92900    -999.25   55.70530   55.70530   10.47840    9.64960    -999.25    -999.25   11.39600  -61.99710   -3.13420   11.39600
 3000.00000    9.37180  172.38800  173.52680    5.76280    -999.25   82.36430   82.36430    -999.25   53.97850   53.97850    5.76280    9.37180    -999.25    -999.25    8.90450  -61.63910   -2.77620    8.90450
 3050.00000   11.57030  219.52550  219.52550    4.55530    -999.25   98.77280   98.77280    -999.25   56.80030   56.80030    4.41050   11.57030    -999.25    -999.25    6.55560  -60.21370   -1.35080    6.55560
