~Version ---------------------------------------------------
VERS. 2.0 : CWLS log ASCII Standard -VERSION 2.0
WRAP.  NO : ONE LINE PER DEPTH STEP
~Well ------------------------------------------------------
STRT.F                        1400.0 : START DEPTH
STOP.F                        9900.0 : STOP DEPTH
STEP.F                      50.00000 : STEP LENGTH
NULL.                        -999.25 : NULL VALUE
COMP.         PHILLIPS PETROLEUM CO. : COMPANY
WELL.            PHILLIPS KAYBOB B-1 : WELL
FLD .                                : FIELD
LOC .                                : LOCATION
CTRY.                         CANADA : COUNTRY
SRVC. HALLIBURTON OIL WELL CEMENT CO : SERVICE COMPANY
DATE.                    14-Sep-1957 : LOGDATE
PROV.                        Alberta : PROVINCE
UWI .               100050506418W500 : UNIQUE WELL ID
SLAT.WGS84                  54.50709 : SURFACE LATITUDE
SLON.WGS84                 -116.6935 : SURFACE LONGITUDE
~Curve Information -----------------------------------------
DEPT.F                 : 
LAT9.OHMM 01 070 09 00 : LATERAL 9'
LT16.OHMM 01 070 16 00 : LATERAL 16'
SN  .OHMM 01 040 18 00 : SHORT NORMAL RESISTIVITY
SPR .MV   01 010 01 00 : SPONTANEOUS POTENTIAL FROM RESISTIVITY LOG
NEUT.CPS  35 330 30 00 : NEUTRON
GRN .CPS  35 310 30 00 : GAMMA RAY FROM GRN LOG
MCAL.IN   15 280 01 00 : MLT (MICROLOG) CALIPER
GR  .GAPI 81 310 01 00 : GAMMA RAY
~Params ----------------------------------------------------
PD  .                              GL : PERMANENT DATUM
EPD .FT                          2600 : ELEVATION PERMANENT DATUM
LMF .                              KB : LOG MEASURED FROM
DMF .                              KB : DRILLING MEASURED FROM
EKB .FT                          2600 : KELLY BUSHING
DATE.                        09/14/57 : RUN DATE
RUN .                               1 : RUN NUMBER
DD  .FT                          9955 : DEPTH DRILLER
DL  .FT                          9949 : DEPTH LOGGER
CS  .IN                        13.375 : CASING SIZE
CBD .FT                          1512 : CASING BOTTOM DRILLER
CBL .FT                          1510 : CASING BOTTOM LOGGER
BS  .IN                             9 : BIT SIZE
BSD .FT                          9955 : BIT SIZE AT DEPTH
DFT . OIL EMULSION GEL CAUSTIC MILBAR : DRILLING FLUID TYPE
DFD .                            11.2 : DRILLING FLUID DENSITY
DFV .                              64 : DRILLING FLUID VISCOSITY
DFPH.                               9 : DRILLING FLUID PH
DFL .                             4.8 : DRILLING FLUID LOSS
RMS .OHMM                         1.7 : RESISTIVITY MUD SAMPLE
MST .DEGF                          70 : MUD SAMPLE TEMPERATURE
RMB .OHMM                        0.64 : RESISTIVITY MUD AT BHT
MRT .DEGF                         192 : MAXIMUM RECORDED TEMPERATURE
LUN .                             447 : LOGGING UNIT NUMBER
ENGI.                         EDWARDS : RECORDING ENGINEER
WITN.                    MOTE HANKINS : WITNESSED BY
CLNT.                         A2DTECH : CLIENT CODE
ORIG.                     2" 5" PRINT : ORIGIN OF DATA
UWI .                100050506418W500 : UNIQUE WELL ID
DICO.          A2D Technologies, Inc. : DIGITIZING COMPANY
~Other -----------------------------------------------------
~ASCII -----------------------------------------------------
 1400.00000    -999.25    -999.25    -999.25    -999.25    -999.25    -999.25    -999.25   25.89240
 1450.00000    -999.25    -999.25    -999.25    -999.25    -999.25    -999.25    -999.25   25.48100
 1500.00000    -999.25    -999.25    -999.25    -999.25  233.98100   58.81240    -999.25   34.54930
 1550.00000    7.70500    4.97310   14.26780  -51.64980  285.51850   79.52900    -999.25   45.37620
 1600.00000    3.80230    3.71880    3.34620  -46.60630  268.28120   92.03470    -999.25   42.96300
 1650.00000    7.66930    4.87350    8.36610  -54.08240  344.16640   79.46580    -999.25   40.87700
 1700.00000    5.52690    3.85680    3.60730  -44.62180  277.71930   67.18640    -999.25   46.01460
 1750.00000    4.24150    2.81780    3.24240  -45.76120  280.44340   71.58810    -999.25    -999.25
 1800.00000    5.61030    4.12350    7.29130  -51.71280  317.68830   90.10080    -999.25    -999.25
 1850.00000    6.71290    6.39330    5.73180  -44.99380  299.98380   87.79850    -999.25    -999.25
 1900.00000    3.61730    3.19410    4.23340  -43.89920  255.41070  103.92760    -999.25    -999.25
 1950.00000    7.80120    6.68550    4.19440  -44.61730  270.82470   59.65700    -999.25    -999.25
 2000.00000   11.79750    5.98170    5.25510  -47.15130  291.39130   53.17490    -999.25    -999.25
 2050.00000   15.47170   12.65270   10.02910  -47.52820  328.00680   57.31110    -999.25    -999.25
 2100.00000    6.95590    6.85620    5.83690  -46.13440  285.18120   68.46200    -999.25    -999.25
 2150.00000    5.03290    4.48090    7.42760  -48.96340  307.36200   68.30200    -999.25    -999.25
 2200.00000   10.52180    6.80070    7.25270  -48.64580  274.11590   62.77550    -999.25    -999.25
 2250.00000    5.36240    4.58490    7.02240  -49.65210  266.19840   61.69510    -999.25    -999.25
 2300.00000    4.22750    5.29200    6.12080  -49.00000  292.21220   63.89080    -999.25    -999.25
 2350.00000    5.62670    7.08850    4.23340  -44.56710  265.56090   65.93970    -999.25    -999.25
 2400.00000    7.05000    7.42660    5.40790  -48.72660  297.91840   61.64850    -999.25    -999.25
 2450.00000   16.07080   12.82730   14.64100  -58.75770  335.94100   46.74310    -999.25    -999.25
 2500.00000    7.38210    6.12070    5.39100  -50.09020  323.59990   64.13920    -999.25    -999.25
 2550.00000    5.85000    3.71950    4.80870  -53.39930  285.96730   76.02220    -999.25    -999.25
 2600.00000    3.47350    3.20800    3.93960  -55.85390  259.07780   70.10990    -999.25    -999.25
 2650.00000   11.27370    7.68430   12.47040  -72.30050  304.38650   60.04180    -999.25    -999.25
 2700.00000    7.71580    4.73850    6.99790  -62.04540  277.25990   60.02480    -999.25    -999.25
 2750.00000    7.18620    7.21100    6.17020  -61.55590  275.65080   66.16130    -999.25    -999.25
 2800.00000    5.88860    4.93410    4.69540  -59.30810  265.37030   78.45620    -999.25    -999.25
 2850.00000    6.69450    6.11820    5.89480  -62.79580  274.83640   86.78360    -999.25    -999.25
 2900.00000    9.73320    7.14660    6.78870  -62.55210  261.55720   95.71510    -999.25    -999.25
 2950.00000    9.16160    7.51140    6.82890  -62.98400  261.83830   96.88990    -999.25    -999.25
 3000.00000    8.82140    6.64790    6.50050  -61.76400  242.73370  103.55230   11.95960    -999.25
 3050.00000   14.28040    9.46200   11.80870  -62.85580  288.00640  117.98640   11.72050    -999.25
 3100.00000   12.88620   10.99920    8.30500  -59.79310  252.48520  111.89370   11.79420    -999.25
 3150.00000   11.17870    8.11620    8.39890  -61.88670  275.49930  102.31460   12.06600    -999.25
 3200.00000    8.74670    7.03750    6.33850  -61.99580  252.19590  117.51250   11.35300    -999.25
 3250.00000    9.86790    7.18030    7.49280  -60.71140  273.73760  106.96540   12.08310    -999.25
 3300.00000   11.36900    8.17560   10.67610  -65.04700  309.94480  110.46720   12.54410    -999.25
 3350.00000   10.36580    7.85720    7.22070  -57.82110  265.53080  106.68730   12.16340    -999.25
 3400.00000    9.55600    7.46880    6.99070  -55.20450  262.83210  102.49250   12.15030    -999.25
 3450.00000    8.40580    6.47030    6.07700  -52.82730  244.80020  102.96630   11.84980    -999.25
 3500.00000   11.38910    8.24570    7.63510  -48.60560  254.56960  103.25670   11.34450    -999.25
 3550.00000    8.93740    6.32680    6.50580  -12.04290  254.27770  111.18120   11.06360    -999.25
 3600.00000   12.70840    9.37140    8.98810   -9.85450  260.14410  101.70710   11.15320    -999.25
 3650.00000   10.11330    7.54980    8.70140   -7.51710  234.05210   92.95270   10.46380    -999.25
 3700.00000   10.33060    7.80550    9.01740   -8.64130  234.41610   99.78670   10.47280    -999.25
 3750.00000   11.44940    7.72740    8.72180  -53.60690  235.30730   86.74760   10.50010    -999.25
 3800.00000    9.29240    6.83000    7.33580  -55.77780  234.44150   97.91990   10.79030    -999.25
 3850.00000    9.03750    6.39250    7.12530  -56.31040  219.88480  101.40550   11.36920    -999.25
 3900.00000   11.70260    8.00160    9.43800  -60.38180  225.80300  101.22160   11.38230    -999.25
 3950.00000   10.99300    7.69270    9.11550  -59.65240  232.69820  104.81350   11.29070    -999.25
 4000.00000   14.96480    8.42690   12.22960  -58.58560  239.54660  118.71520   10.16490    -999.25
 4050.00000   13.05390   10.53150   11.71730  -57.19420  244.05310  115.24990    9.82320    -999.25
 4100.00000   13.25000    9.43320    9.32250  -53.82290  230.82440  110.83310   10.90150    -999.25
 4150.00000   11.12230    5.58550    9.05720  -52.39690  247.61440  102.89430   10.86630    -999.25
 4200.00000    7.86940    4.94110    9.14370  -52.94150  286.89440   97.24710   10.99720    -999.25
 4250.00000   12.63630    6.70390    8.05970  -49.89190  289.26070   97.93250   11.21690    -999.25
 4300.00000    9.78220    6.14600    8.28320  -54.15460  285.95060  104.85950   11.83520    -999.25
 4350.00000   10.61060    7.09240   10.83070  -61.95390  314.77880  100.43070   11.70290    -999.25
 4400.00000    9.21290    6.93230    7.40180  -53.90510  265.96590  106.28950   11.93990    -999.25
 4450.00000    6.70910    4.31130    5.08850  -54.91250  242.81960  101.31960   12.13780    -999.25
 4500.00000    7.48180    5.48520    6.56700  -59.84220  256.31310  103.34790   13.11190    -999.25
 4550.00000    4.74100    3.57700    4.38090  -55.43350  246.13620  145.84940   11.68200    -999.25
 4600.00000    3.79210    3.11080    3.49640 -177.77880  238.40640  101.33730   10.73460   73.23360
 4650.00000    4.48030    2.84500    5.40260 -177.60530  259.28730   90.04620   10.82760   68.31860
 4700.00000    5.78830    4.15040    4.83970 -176.31570  248.46130   91.98300   10.76070   80.50830
 4750.00000    6.12060    5.16110    5.71090 -177.33780  235.85020  103.79000   10.91290   70.53960
 4800.00000   16.21750   19.00480   12.97500 -180.86320  279.59650   73.85180   10.09410   55.54430
 4850.00000   16.30930    8.38330   15.11160 -186.31720  301.82680   59.62770   10.18960   29.47640
 4900.00000   33.26270   32.14250   11.93520 -169.55450  267.75920   78.85940   10.69930   40.66370
 4950.00000   12.66220    6.97900   12.41730 -159.64910  309.98680   81.05580   10.48080   63.69420
 5000.00000   14.39550   10.78590   19.43070 -147.48920  343.04780   61.91550   10.64070   37.65500
 5050.00000   13.04180    2.84300   17.83700 -142.33270  322.93120   68.40850    9.25680   38.12220
 5100.00000   19.38190    5.66700   18.56770 -115.32810  301.99480   71.15600    9.94060   50.87320
 5150.00000   19.53350   10.64750   18.29210 -122.58590  306.63710   58.73690   10.05630   25.95150
 5200.00000   29.21080    9.41840   14.98250  -76.76200  248.98360   75.26670   12.83110   53.88850
 5250.00000   24.68750    6.33530   14.84970  -62.18510  279.33110   86.58490    9.71280   54.13510
 5300.00000   13.52710    2.52840   16.71000 -135.97610  324.66870   58.57680    9.23550   38.07000
 5350.00000   12.72360    8.91350   14.76260 -116.15620  339.21340   64.97650    9.76480   48.51530
