~Version ---------------------------------------------------
VERS.      2.0 : CWLS log ASCII Standard -VERSION 2.0
WRAP.       NO : One line per depth step
CREA. 11/20/17 : LAS Creation Date
~Well ------------------------------------------------------
STRT.FT                         1000.0 : START DEPTH
STOP.FT                         9950.0 : STOP DEPTH
STEP.FT                       50.00000 : STEP LENGTH
NULL.                          -999.25 : NULL VALUE
COMP. SOCONY MOBIL OIL OF CANADA, LTD. : COMPANY
WELL.      MOBIL CS MCLEOD 12-29-55-13 : WELL
FLD .                                  : FIELD
LOC .                                  : LOCATION
CTRY.                           CANADA : COUNTRY
SRVC.                     Schlumberger : SERVICE COMPANY
DATE.                      23-Jan-1964 : LOGDATE
PROV.                          Alberta : PROVINCE
UWI .                 100122905513W500 : UNIQUE WELL ID
SLAT.WGS84                    53.78322 : SURFACE LATITUDE
SLON.WGS84                   -115.9046 : SURFACE LONGITUDE
~Curve Information -----------------------------------------
DEPT    .FT    : Depth Curve
CALWS   .IN    : CALIPER [MCALED]
CILDED  .MMHO  : DEEP INDUCTION CONDUCTIVITY FROM RESISTIVITY LOG
CONDWS  .MMHO  : CONDUCTIVITY [1000/DRESWS]
DRESWS  .OHMM  : DEEP RESISTIVITY [1000/CILDED, IF ILDED < 2, ILDED]
DTED    .US/F  : DELTA-TIME (SPAN 3'-1') FROM SONIC LOG
DTWS    .US/F  : COMPRESSIONAL SONIC [DTED]
GRSED   .GAPI  : GAMMA RAY FROM SONIC LOG
GRWS    .GAPI  : GAMMA RAY [GRSED]
ILDED   .OHMM  : DEEP INDUCTION LOG RESISTIVITY FROM RESISTIVITY LOG
MCALED  .IN    : MLT (MICROLOG) CALIPER FROM MICROLOG
SNED    .OHMM  : 16 INCH SHORT NORMAL RESISTIVITY FROM RESISTIVITY LOG
SPHILSED.V/V   : SONIC POROSITY LIMESTONE [DTM=47.6, DTF= 189] FROM SONIC LOG
SPOLSWS .V/V   : SONIC POROSITY LIMESTONE [SPHILSED]
SPRED   .MV    : SPONTANEOUS POTENTIAL FROM RESISTIVITY LOG
SPWS    .MV    : SPONTANEOUS POTENTIAL [BASELINE 0 MV] [SPRED]
SRESWS  .OHMM  : SHALLOW RESISTIVITY [SNED]
~Params ----------------------------------------------------
PD  .                     GL : PERMANENT DATUM
EPD .FT                 2602 : ELEVATION PERMANENT DATUM
LMF .                     KB : LOG MEASURED FROM
DAPD.FT                   13 : FEET ABOVE PERMANENT DATUM
EKB .FT                 2615 : KELLY BUSHING
EGL .FT                 2602 : GROUND LEVEL
DATE.               01/23/64 : RUN DATE
RUN .                      2 : RUN NUMBER
DD  .FT                 9957 : DEPTH DRILLER
DL  .FT                 9957 : DEPTH LOGGER
BLI .FT                 9956 : BOTTOM LOG INTERVAL
TLI .FT                 4000 : TOP LOG INTERVAL
CBD .FT                 1006 : CASING BOTTOM DRILLER
CBL .FT                 1004 : CASING BOTTOM LOGGER
BS  .IN                    9 : BIT SIZE
BSD .FT                 9957 : BIT SIZE AT DEPTH
DFT .              LIME BASE : DRILLING FLUID TYPE
DFD .                   10.3 : DRILLING FLUID DENSITY
DFV .                    189 : DRILLING FLUID VISCOSITY
DFPH.                   13.5 : DRILLING FLUID PH
DFL .                    4.4 : DRILLING FLUID LOSS
RMS .OHMM               0.59 : RESISTIVITY MUD SAMPLE
MST .DEGF                 62 : MUD SAMPLE TEMPERATURE
RMF .OHMM               0.32 : RESISTIVITY MUD FILTRATE SAMPLE
MFST.DEGF                 61 : MUD FILTRATE SAMPLE TEMPERATURE
RMC .OHMM               0.87 : RESISTIVITY MUD CAKE
MCST.DEGF                 66 : MUD CAKE SAMPLE TEMPERATURE
RMB .OHMM               0.24 : RESISTIVITY MUD AT BHT
TCS .HRS                   2 : TIME CIRCULATED STOPPED
LUN .                   1576 : LOGGING UNIT NUMBER
LUL .                     DV : LOGGING UNIT LOCATION
ENGI.          WILLIAMS HALE : RECORDING ENGINEER
WITN.          WHEELER CLARK : WITNESSED BY
CLNT.                A2DTECH : CLIENT CODE
ORIG.            2" 5" PRINT : ORIGIN OF DATA
UWI .       100122905513W500 : UNIQUE WELL ID
DICO. A2D Technologies, Inc. : DIGITIZING COMPANY
~Other -----------------------------------------------------
~ASCII -----------------------------------------------------
# ...
 5300.00000   11.84270  169.93380  167.14520    5.98290   85.88060   85.88060   87.83500   87.83500    5.98290   11.84270    7.79880    -999.25    -999.25  -54.35310   -9.25810    7.79880
 5350.00000   10.98250  144.74080  140.66280    7.10920   81.96100   81.96100   81.81810   81.81810    7.10920   10.98250    9.33050    -999.25    -999.25  -55.54650  -10.77480    9.33050
 5400.00000   11.21460  172.47410  164.88320    6.06490   84.95780   84.95780   88.79860   88.79860    6.06490   11.21460    7.93540    -999.25    -999.25  -52.11150   -7.66100    7.93540
 5450.00000   11.50520  213.46480  210.57060    4.74900   92.50170   92.50170  112.88300  112.88300    4.74900   11.50520    6.80840    -999.25    -999.25  -54.61660  -10.48940    6.80840
 5500.00000   15.03080  336.10870  396.21220    2.52390   96.39000   96.39000   93.52170   93.52170    2.52390   15.03080    3.97420    -999.25    -999.25  -51.02820   -7.22210    3.97420
 5550.00000   14.01180  213.35010  222.88850    4.48660   85.06800   85.06800   98.39030   98.39030    4.48660   14.01180    6.01290    -999.25    -999.25  -51.59160   -8.10670    6.01290
 5600.00000    9.04370  187.11020  198.37730    5.04090   72.24930   72.24930   52.64300   52.64300    5.04090    9.04370    9.95060    0.21660    0.21660  -71.64780  -28.48620    9.95060
 5650.00000    9.41640   51.29490   55.06910   18.15900   68.11450   68.11450   55.74850   55.74850   18.15900    9.41640   21.24310    0.18110    0.18110  -59.61480  -16.77430   21.24310
 5700.00000   12.11060  575.05370  575.05370    1.73900  103.07200  103.07200   79.57330   79.57330    1.38300   12.11060    2.84390    0.30000    0.30000  -47.54380   -5.02660    2.84390
 5750.00000    9.77700   92.31010   91.84000   10.88850   73.35820   73.35820   51.38720   51.38720   10.88850    9.77700   15.17800    0.24220    0.24220  -59.44480  -17.24880   15.17800
 5800.00000   10.49870   59.51080   58.39220   17.17780   90.91190   90.91190   81.76190   81.76190   17.17780   10.49870   16.50650    0.30000    0.30000  -47.96690   -6.09200   16.50650
 5850.00000    9.81080   99.15720   99.99000   10.00100   74.18170   74.18170   84.65240   84.65240   10.00100    9.81080   13.56140    0.23530    0.23530  -51.76860  -10.21700   13.56140
 5900.00000   14.98350   20.65660   21.51130   46.48730  130.95130  130.95130   14.50010   14.50010   46.48730   14.98350   32.85810    0.30000    0.30000  -49.49990   -8.26950   32.85810
 5950.00000   11.21090   33.26630   34.81650   28.72200   96.38820   96.38820   82.86090   82.86090   28.72200   11.21090   25.73270    0.30000    0.30000  -41.60520   -0.74070   25.73270
 6000.00000    9.39690   88.68880   91.71540   10.90330   68.80050   68.80050   69.54840   69.54840   10.90330    9.39690   14.86290    0.18830    0.18830  -51.01120  -10.64810   14.86290
 6050.00000    9.45760   88.34440   89.20640   11.21020   68.07980   68.07980   62.52580   62.52580   11.21020    9.45760   14.50070    0.18420    0.18420  -47.52180   -7.66010   14.50070
 6100.00000   10.24840  164.97170  159.44890    6.27160   72.92980   72.92980   64.59080   64.59080    6.27160   10.24840   12.50640    0.22580    0.22580  -61.30770  -21.95060   12.50640
 6150.00000    9.67940  158.18960  155.08200    6.44820   75.91600   75.91600   74.47000   74.47000    6.44820    9.67940    9.97750    0.25770    0.25770  -53.96390  -15.10820    9.97750
 6200.00000    9.52080  118.75120  115.21800    8.67920   77.18400   77.18400   73.66270   73.66270    8.67920    9.52080   10.82500    0.26610    0.26610  -40.97670   -2.62560   10.82500
 6250.00000    9.99030   93.90580   94.38330   10.59510   73.02550   73.02550   75.75610   75.75610   10.59510    9.99030   12.84850    0.24680    0.24680  -34.69280    3.15690   12.84850
 6300.00000    9.40350  139.35000  142.64180    7.03860   86.61310   86.61310   66.54000   66.54000    7.03860    9.40350   11.10620    0.30000    0.30000  -32.71090    4.63740   11.10620
 6350.00000    9.13930   29.59370   31.89580   31.35210   64.20970   64.20970   48.91390   48.91390   31.35210    9.13930   35.35620    0.14530    0.14530  -32.10830    4.73540   35.35620
 6400.00000    9.33100   88.55920   92.00060   10.86950   76.00120   76.00120  104.69020  104.69020   10.86950    9.33100   15.46160    0.26690    0.26690  -31.88430    4.45800   15.46160
 6450.00000    9.19080  244.09940  248.06510    4.03120   84.18350   84.18350   49.95320   49.95320    4.03120    9.19080    8.54040    0.30000    0.30000  -54.51920  -18.68150    8.54040
 6500.00000    9.09780  165.27850  195.70970    5.10960   86.10920   86.10920   94.62990   94.62990    6.44400    9.09780   10.21680    0.30000    0.30000  -28.01070    7.32560   10.21680
 6550.00000    8.72900  474.55850  474.55850    2.10830   71.95330   71.95330   23.69030   23.69030    1.63180    8.72900    7.88790    0.20160    0.20160  -76.12570  -41.29080    7.88790
 6600.00000    9.05160    3.82630    3.93540  254.10410   53.97070   53.97070   14.50980   14.50980  254.10410    9.05160  118.81440    0.03150    0.03150  -46.33790  -12.00760  118.81440
 6650.00000    9.08290    4.77940    4.71930  211.89790   57.18450   57.18450   29.32290   29.32290  211.89790    9.08290  100.00000    0.07000    0.07000  -35.61010   -1.78120  100.00000
 6700.00000    8.98570    5.61360    5.67790  176.12090   69.38620   69.38620  197.86490  197.86490  176.12090    8.98570   88.22380    0.19560    0.19560  -37.29770   -3.84060   88.22380
 6750.00000    8.74830   93.29710   94.20720   10.61490   48.15600   48.15600   25.28720   25.28720   10.61490    8.74830   32.46580   -0.01500   -0.01500  -94.77330  -61.37860   32.46580
 6800.00000    8.56450  541.66720  541.66720    1.84690   61.82350   61.82350   11.20160   11.20160    1.29340    8.56450    6.03880    0.11680    0.11680  -92.26520  -58.93300    6.03880
 6850.00000    9.00110  186.83590  197.30090    5.06840   65.23520   65.23520   63.14960   63.14960    5.06840    9.00110    8.41170    0.15080    0.15080  -48.59720  -15.32780    8.41170
 6900.00000    8.96350   95.64220   95.71760   10.44740   56.66480   56.66480   33.81790   33.81790   10.44740    8.96350   13.67970    0.06350    0.06350  -43.28050  -10.07350   13.67970
 6950.00000    9.02470   94.66890   95.07690   10.51780   54.35270   54.35270   53.90920   53.90920   10.51780    9.02470   14.41150    0.04740    0.04740  -42.10220   -8.95810   14.41150
 7000.00000   11.67050   12.62780   12.62830   79.18730   50.40820   50.40820   28.03690   28.03690   79.18730   11.67050   33.61990    0.00460    0.00460  -42.48910   -9.40740   33.61990
 7050.00000    8.99990    7.20340   11.25160   89.74230   52.87350   52.87350   24.08120   24.08120   89.74230    8.99990   43.33680    0.03250    0.03250  -53.21970  -20.20040   43.33680
 7100.00000    9.06120   20.12920   21.35810   46.82060   56.26100   56.26100   40.48140   40.48140   46.82060    9.06120   31.90580    0.06640    0.06640  -47.31760  -14.36120   31.90580
 7150.00000    9.19440   13.49580   14.88620   67.17630   53.91820   53.91820   34.38120   34.38120   67.17630    9.19440   39.10840    0.04060    0.04060  -55.37910  -22.48510   39.10840
 7200.00000    9.08060   12.55520   13.45280   74.33400   53.65780   53.65780   29.72550   29.72550   74.33400    9.08060   40.81130    0.03850    0.03850  -55.30420  -22.47300   40.81130
 7250.00000    9.20760    4.85980    6.22620  160.61070   53.45970   53.45970   35.64660   35.64660  160.61070    9.20760   61.12880    0.03770    0.03770  -49.13030  -16.36160   61.12880
 7300.00000    9.01770    6.47150    7.09360  140.97280   54.37160   54.37160   42.26390   42.26390  140.97280    9.01770   60.78310    0.04530    0.04530  -41.58480   -8.87850   60.78310
 7350.00000    9.03720    7.04170    8.93750  111.88750   72.00000   72.00000  145.96650  145.96650  111.88750    9.03720   51.54440    0.21690    0.21690  -37.74050   -5.09700   51.54440
 7400.00000    8.98780    0.45130    1.58850  629.53450   52.92800   52.92800   31.45250   31.45250  629.53450    8.98780   74.13080    0.02920    0.02920  -44.47520  -11.89420   74.13080
