~Version ---------------------------------------------------
VERS.      2.0 : CWLS log ASCII Standard -VERSION 2.0
WRAP.       NO : One line per depth step
CREA. 04/12/13 : LAS Creation Date
~Well ------------------------------------------------------
STRT.M                       450.0 : START DEPTH
STOP.M                      3150.0 : STOP DEPTH
STEP.M                    50.00000 : STEP LENGTH
NULL.                      -999.25 : NULL VALUE
COMP.       CHEVRON CANADA LIMITED : COMPANY
WELL. CHEVRON ET AL GILBY 7-1-41-3 : WELL
FLD .                              : FIELD
LOC .                              : LOCATION
CTRY.                       CANADA : COUNTRY
SRVC.                      Unknown : SERVICE COMPANY
DATE.                  29-Dec-1986 : LOGDATE
PROV.                      Alberta : PROVINCE
UWI .             100070104103W500 : UNIQUE WELL ID
SLAT.WGS84                52.50131 : SURFACE LATITUDE
SLON.WGS84               -114.2957 : SURFACE LONGITUDE
~Curve Information -----------------------------------------
DEPT   .M      : DEPTH METER
C1     .MM     : CALIPER1 FROM DENSITY LOG
C2     .MM     : CALIPER2 FROM DENSITY LOG
CALS   .MM     : CALIPER FROM SONIC LOG
DPHI_LS.DEC    : DENSITY POROSITY LIMESTONE [M=2710,F=1000] FROM DENSITY LOG
DPHI_SS.DEC    : DENSITY POROSITY SANDSTONE [M=2650,F=1000] FROM DENSITY LOG
DRHO   .KG/M3  : DENSITY CORRECTION FROM DENSITY LOG
DT     .US/M   : DELTA TIME FROM SONIC LOG
GRD    .GAPI   : GAMMA RAY FROM DENSITY LOG
GRS    .GAPI   : GAMMA RAY FROM SONIC LOG
ILD    .OHMM   : DEEP INDUCTION FROM RESISTIVITY LOG
ILM    .OHMM   : MEDIUM INDUCTION FROM RESISTIVITY LOG
NPHI_LS.DEC    : NEUTRON POROSITY LIMESTONE FROM DENSITY LOG
NPHI_SS.DEC    : NEUTRON POROSITY SANDSTONE FROM DENSITY LOG
PEF    .B/E    : PHOTOELECTRIC FACTOR FROM DENSITY LOG
RHOB   .KG/M3  : BULK DENSITY FROM DENSITY LOG
SFLU   .OHMM   : SPHERICALLY FOCUSED RESISTIVITY FROM RESISTIVITY LOG
SPR    .MV     : SPONTANEOUS POTENTIAL FROM RESISTIVITY LOG
TEND   .N      : TENSION FROM DENSITY LOG
TENR   .N      : TENSION FROM RESISTIVITY LOG
~Params ----------------------------------------------------
PD  .                         GL : PERMANENT DATUM
EPD .M                     978.7 : ELEVATION PERMANENT DATUM
LMF .                         KB : LOG MEASURED FROM
DAPD.M                       3.5 : FEET ABOVE PERMANENT DATUM
DMF .                         KB : DRILLING MEASURED FROM
EKB .M                     982.2 : KELLY BUSHING
EGL .M                     978.7 : GROUND LEVEL
DATE.                   12/29/86 : RUN DATE
RUN .                          1 : RUN NUMBER
DD  .M                      3170 : DEPTH DRILLER
DL  .M                    3165.4 : DEPTH LOGGER
BLI .M                    3164.7 : BOTTOM LOG INTERVAL
TLI .M                     451.5 : TOP LOG INTERVAL
CS  .MM                    244.5 : CASING SIZE
CBD .M                     451.7 : CASING BOTTOM DRILLER
CBL .M                     451.5 : CASING BOTTOM LOGGER
BS  .MM                    215.9 : BIT SIZE
BSD .M                      3170 : BIT SIZE AT DEPTH
DFT .                   GEL CHEM : DRILLING FLUID TYPE
DFD .                       1080 : DRILLING FLUID DENSITY
DFV .                         82 : DRILLING FLUID VISCOSITY
DFPH.                       10.5 : DRILLING FLUID PH
DFL .                          7 : DRILLING FLUID LOSS
MSS .                   FLOWLINE : MUD SAMPLE SOURCE
RMS .OHMM                   1.18 : RESISTIVITY MUD SAMPLE
MST .DEGC                   26.7 : MUD SAMPLE TEMPERATURE
RMF .OHMM                   1.28 : RESISTIVITY MUD FILTRATE SAMPLE
MFST.DEGC                     20 : MUD FILTRATE SAMPLE TEMPERATURE
RMC .OHMM                  0.535 : RESISTIVITY MUD CAKE
MCST.DEGC                     78 : MUD CAKE SAMPLE TEMPERATURE
MFSS.                      PRESS : MUD FILTRATE SAMPLE SOURCE
MCSS.                    FILT CK : MUD CAKE SAMPLE SOURCE
RMB .OHMM                  0.573 : RESISTIVITY MUD AT BHT
TCS .HRS                    1800 : TIME CIRCULATED STOPPED
TLAB.HRS                    2332 : TIME LOGGER AT BOTTOM
LUN .                       8123 : LOGGING UNIT NUMBER
LUL .                         RD : LOGGING UNIT LOCATION
ENGI.                      POWER : RECORDING ENGINEER
WITN.                     SANDHU : WITNESSED BY
CLNT.                    A2DTECH : CLIENT CODE
ORIG. 6.5"/100" 16.5"/100M PRINT : ORIGIN OF DATA
UWI .           100070104103W500 : UNIQUE WELL ID
DICO.     A2D Technologies, Inc. : DIGITIZING COMPANY
~Other -----------------------------------------------------
~ASCII -----------------------------------------------------
# ...
 2300.00000  217.35710  271.16480  235.15450    0.00670    -999.25    0.00350  163.04940    9.18050   11.37540  212.16140  613.17580    0.01270    -999.25    4.59830 2697.30620  961.64780  -87.92230 15387.98930 14123.27830
 2350.00000  256.00780  250.42150  245.07790   -0.10170    -999.25   -3.47910  181.91960   23.47730   21.87220   38.72400   42.50690    0.04760    -999.25    4.47920 2885.80860  144.83200  -47.05010 15370.13570 14286.71680
 2400.00000  250.70060  233.95000  230.85640   -0.09250    -999.25   54.28730  158.23270   16.78450   18.03760  316.78220  396.24390    0.05810    -999.25    3.65380 2864.95850  296.29590  -86.83100 15820.95020 14613.24220
 2450.00000  245.45600  230.17350  232.03870   -0.10910    -999.25    5.29620  169.62990   21.56500   19.57290  187.61790  129.22580    0.04490    -999.25    4.13230 2895.43260  321.01370 -124.27430 15893.65720 14766.08790
 2500.00000  249.74640  256.80050  246.39600   -0.11210    -999.25   -8.64720  163.47250   13.97920   13.89370 1073.82350  573.80210    0.01330    -999.25    4.90950 2898.84230 1399.19450 -126.93280 16083.91890 15040.77730
 2550.00000  213.37280  234.08130  220.52240   -0.05050    -999.25    6.89420  159.86870   25.54370   25.12080  102.19970  113.12200    0.05490    -999.25    3.17680 2786.83670  124.00670 -123.17220 16754.08790 15315.80470
 2600.00000  215.71190  236.30580  223.76140   -0.05160    -999.25   -1.30130  181.12190   69.27000   71.34300   62.99690   64.92510    0.12250    -999.25    3.49550 2794.52000   75.32670  -14.94330 16715.65630 15461.25100
 2650.00000  231.82000  252.65490  241.60010   -0.00200    -999.25   -2.60830  219.63050   90.99110   97.85870   19.14230   19.79690    0.18650    -999.25    4.07200 2711.58890   24.87550   -2.73450 17405.54300 15703.06540
 2700.00000  225.16690  234.00750  221.33440   -0.00980    -999.25    0.71170  202.20580  106.13770  106.55550   51.02140   53.98530    0.14940    -999.25    3.97680 2726.63430   69.76690   -3.99740 17954.67190 15904.57230
 2750.00000  212.83000  228.00310  214.35350    0.03380    -999.25   27.91210  170.20050   49.22540   51.57540 2007.90630    -999.25    0.04030    -999.25    4.50720 2648.95950 1757.84200 -335.58170 17694.08590 16240.43550
 2800.00000  221.69370  225.80360  218.58380   -0.02980    -999.25  218.35500  166.96630   34.36960   39.34130    -999.25  365.25750    0.07520    -999.25    3.37990 2754.79370 1844.89810 -271.12420 18001.48830 16346.66990
 2850.00000  242.46210  227.39360  213.61990   -0.06020    -999.25  249.72550  151.74980   16.94600   17.27770  124.58730   50.38080    0.06340    -999.25    3.26460 2823.40110   95.88480 -138.20460 18000.62110 16750.86910
 2900.00000  217.95050  234.54310  219.97900   -0.01600    -999.25  242.08990  175.27390   54.61240   51.09290  561.98550  143.79580    0.11450    -999.25    4.08020 2739.11060  747.78080  -64.15880 18534.90430 16945.32810
 2950.00000  210.07510  228.53510  216.28710   -0.02710    -999.25   -1.42800  183.27720   61.94540   60.30260   87.48780   74.22980    0.11460    -999.25    4.25110 2756.34590   97.39070  -19.67350 18793.02340 17325.83790
 3000.00000  217.06320  268.58360  224.87410    0.00220    -999.25    8.71120  172.92570   50.20690   41.69900   83.36200   69.27080    0.06570    -999.25    4.56310 2706.12130   88.28700  -68.77970 19155.11520 17614.68160
 3050.00000  210.18430  236.82870  210.91430   -0.00090    -999.25    8.87310  167.27330   25.14270   31.62550  359.44990  438.73170    0.03330    -999.25    4.60630 2711.50680  504.44120  -64.29550 19466.48240 17714.78130
 3100.00000  207.02000  294.14100  220.71390   -0.00270    -999.25    0.34820  172.44710   22.85590   26.66050  128.75560  494.44860    0.10710    -999.25    3.88320 2714.89770  220.65830  -55.66160 19562.57620 17953.77340
 3150.00000  209.90710  237.06140  209.31710   -0.02960    -999.25   -0.93620  187.08900    -999.25    -999.25   13.15390   14.00080    0.14520    -999.25    3.42290 2759.26930   15.26490  -18.94940 20015.41410 17895.07230
