~Version ---------------------------------------------------
VERS.      2.0 : CWLS log ASCII Standard -VERSION 2.0
WRAP.       NO : One line per depth step
CREA. 08/04/17 : LAS Creation Date
~Well ------------------------------------------------------
STRT.FT                           300.0 : START DEPTH
STOP.FT                         10100.0 : STOP DEPTH
STEP.FT                        50.00000 : STEP LENGTH
NULL.                           -999.25 : NULL VALUE
COMP.             CANADIAN FINA OIL LTD : COMPANY
WELL. FINA ET AL HEAVYSOUND 10-14-62-16 : WELL
FLD .                                WC : FIELD
LOC .                                   : LOCATION
CTRY.                            CANADA : COUNTRY
SRVC.            Schlumberger of Canada : SERVICE COMPANY
DATE.                       08-Apr-1960 : LOGDATE
PROV.                           Alberta : PROVINCE
UWI .                  100101406216W500 : UNIQUE WELL ID
SLAT.WGS84                     54.36487 : SURFACE LATITUDE
SLON.WGS84                    -116.2841 : SURFACE LONGITUDE
~Curve Information -----------------------------------------
DEPT  .FT         : Depth Curve
CALWS .IN         : CALIPER [MCALED]
CILDED.MMHO       : DEEP INDUCTION CONDUCTIVITY FROM IEL LOG
CONDWS.MMHO       : CONDUCTIVITY [1000/DRESWS]
DRESWS.OHMM       : DEEP RESISTIVITY [ILDED]
GRNED .UgRa-Eq/T  : GAMMA RAY FROM GRN LOG
GRWS  .GAPI       : GAMMA RAY [GRNED*16.5 TO CONVERT MG/TON TO GAPI]
ILDED .OHMM       : DEEP INDUCTION  FROM IEL LOG
LLED  .OHMM       : LATEROLOG FROM LL LOG
MCALED.IN         : MLT (MICROLOG) CALIPER FROM MICRO LOG
NEUTED.CPS        : NEUTRON FROM GRN LOG
NEUTWS.CPS        : NEUTRON [NEUTED]
SNED  .OHMM       : SHORT NORMAL RESISTIVITY FROM IEL LOG
SPR1ED.MV         : SPONTANEOUS POTENTIAL FROM LL LOG
SPRED .MV         : SPONTANEOUS POTENTIAL FROM IEL LOG
SPWS  .MV         : SPONTANEOUS POTENTIAL [BASELINE 0 MV, SPRED]
SRESWS.OHMM       : SHALLOW RESISTIVITY [SNED]
~Params ----------------------------------------------------
LMF .                     KB : LOG MEASURED FROM
DMF .                     KB : DRILLING MEASURED FROM
EKB .FT              3183.62 : KELLY BUSHING
EGL .FT               3169.7 : GROUND LEVEL
DATE.               04/08/60 : RUN DATE
RUN .                      1 : RUN NUMBER
DD  .FT                10100 : DEPTH DRILLER
DL  .FT                10110 : DEPTH LOGGER
BLI .FT                10103 : BOTTOM LOG INTERVAL
TLI .FT                 1180 : TOP LOG INTERVAL
CBD .FT                 1172 : CASING BOTTOM DRILLER
CBL .FT                 1180 : CASING BOTTOM LOGGER
BS  .IN                    9 : BIT SIZE
BSD .FT                10100 : BIT SIZE AT DEPTH
DFT .                    GEL : DRILLING FLUID TYPE
DFD .                    9.9 : DRILLING FLUID DENSITY
DFV .                    146 : DRILLING FLUID VISCOSITY
DFPH.                   10.5 : DRILLING FLUID PH
DFL .                   10.5 : DRILLING FLUID LOSS
MSS .             CIRCULATED : MUD SAMPLE SOURCE
RMS .OHMM                3.5 : RESISTIVITY MUD SAMPLE
MST .DEGF                 67 : MUD SAMPLE TEMPERATURE
RMF .OHMM               2.36 : RESISTIVITY MUD FILTRATE SAMPLE
MFST.DEGF                 63 : MUD FILTRATE SAMPLE TEMPERATURE
RMC .OHMM                4.7 : RESISTIVITY MUD CAKE
MCST.DEGF                 62 : MUD CAKE SAMPLE TEMPERATURE
MFSS.                   MEAS : MUD FILTRATE SAMPLE SOURCE
MCSS.                   MEAS : MUD CAKE SAMPLE SOURCE
RMB .OHMM               1.14 : RESISTIVITY MUD AT BHT
TCS .HRS                 700 : TIME CIRCULATED STOPPED
LUN .                   1573 : LOGGING UNIT NUMBER
LUL .                   C WC : LOGGING UNIT LOCATION
ENGI.              HAUSEGGER : RECORDING ENGINEER
WITN.        WENDEBORN ANKLE : WITNESSED BY
CLNT.                A2DTECH : CLIENT CODE
ORIG.            2" 5" PRINT : ORIGIN OF DATA
UWI .       100101406216W500 : UNIQUE WELL ID
DICO. A2D Technologies, Inc. : DIGITIZING COMPANY
~Other -----------------------------------------------------
~ASCII -----------------------------------------------------
# ...
 4600.00000   13.53830  151.03980  156.84310    6.37580    6.94470  114.58760    6.37580   11.41050   13.53830  170.11880  170.11880    9.94810  -60.70320  -64.33050   -0.65370    9.94810
 4650.00000   12.33440  101.62390  103.60820    9.65330    6.79950  112.19170    9.65330   15.13140   12.33440  171.69030  171.69030   14.56100  -60.61880  -63.34830   -0.34540   14.56100
 4700.00000   13.96840  179.07990  189.21120    5.28510    5.94080   98.02320    5.28510    9.62900   13.96840  167.28450  167.28450    8.49410  -60.18410  -63.73300   -1.40850    8.49410
 4750.00000   13.08870  195.46880  207.23240    4.82550    5.80640   95.80560    4.82550    8.36020   13.08870  170.42330  170.42330    7.21780  -60.76430  -64.47970   -2.82910    7.21780
 4800.00000   12.60570  192.95270  202.33780    4.94230    5.26820   86.92530    4.94230    8.41050   12.60570  182.64600  182.64600    6.81310  -61.02800  -63.65530   -2.67870    6.81310
 4850.00000   12.42270  208.17960  222.34570    4.49750    5.77480   95.28420    4.49750    7.48760   12.42270  172.54560  172.54560    6.72210  -59.42040  -62.25820   -1.95990    6.72210
 4900.00000   10.94470  162.61280  167.86810    5.95710    5.07610   83.75650    5.95710    9.36530   10.94470  185.59060  185.59060    8.32960  -59.18030  -61.00430   -1.37990    8.32960
 4950.00000   12.83180  214.24010  231.64770    4.31690    5.63590   92.99240    4.31690    6.89290   12.83180  182.97320  182.97320    6.39610  -59.57990  -60.88000   -1.93400    6.39610
 5000.00000   12.09850  163.10060  167.41160    5.97330    5.54680   91.52220    5.97330    9.42120   12.09850  182.72470  182.72470    8.66420  -59.03080  -60.97330   -2.70120    8.66420
 5050.00000   15.77180  306.15390  344.27030    2.90470    5.19510   85.71830    2.90470    5.51170   15.77180  171.21300  171.21300    4.87210  -59.04550  -60.77150   -3.17340    4.87210
 5100.00000   14.90900  282.07640  305.67020    3.27150    5.70400   94.11600    3.27150    4.93750   14.90900  167.49660  167.49660    4.86870  -56.86720  -58.35420   -1.43440    4.86870
 5150.00000   15.21090  476.85170  487.69960    2.05040    5.24900   86.60770    2.05040    3.57470   15.21090  179.99110  179.99110    3.19130  -56.00060  -57.84630   -1.60040    3.19130
 5200.00000   12.93770  379.71100  408.46340    2.44820    5.66540   93.47910    2.44820    3.99360   12.93770  176.50760  176.50760    3.76190  -54.80150  -56.89620   -1.32870    3.76190
 5250.00000   12.50090  234.15670  248.97300    4.01650    5.45620   90.02730    4.01650    6.54820   12.50090  172.73530  172.73530    5.55280  -54.52230  -56.75080   -1.85720    5.55280
 5300.00000   10.29770   96.14470   97.42240   10.26620    4.67330   77.10950   10.26620   14.16230   10.29770  202.51250  202.51250   14.17730  -56.89150  -57.91180   -3.69210   14.17730
 5350.00000    8.79940   69.91160   66.56020   15.02400    2.34240   38.64960   15.02400   22.17970    8.79940  244.30610  244.30610   19.82880  -79.58620  -76.49390  -22.97210   19.82880
 5400.00000   12.31880  337.50040  349.70520    2.86310    4.72480   77.95840    2.86310    7.31740   12.31880  179.64710  179.64710    5.18780  -54.66480  -54.68780   -1.98130    5.18780
 5450.00000   12.30410  122.80260  124.14960    8.05480    4.49180   74.11470    8.05480    9.83070   12.30410  162.64540  162.64540   10.82930  -54.12750  -55.58190   -3.69600   10.82930
 5500.00000   13.38730  212.84660  223.13460    4.48160    4.48470   73.99760    4.48160   10.91930   13.38730  170.19830  170.19830    8.04740  -60.24060  -56.86920   -5.79850    8.04740
 5550.00000   10.77250   91.89640   92.03690   10.86600    4.42360   72.98860   10.86600   19.42080   10.77250  193.14670  193.14670   15.22260  -58.32590  -60.00260   -9.74720   15.22260
 5600.00000   11.87910  122.37590  124.61680    8.02460    4.50350   74.30770    8.02460   21.99270   11.87910  216.26440  216.26440   14.90120  -56.37960  -56.02040   -6.58560   14.90120
 5650.00000   11.70900   81.99470   81.29160   12.30140    4.72580   77.97570   12.30140   21.20470   11.70900  210.16670  210.16670   15.76070  -54.18740  -54.45510   -5.83550   15.76070
 5700.00000   12.04180  106.49000  103.59800    9.65270    4.83810   79.82860    9.65270   26.03880   12.04180  180.90670  180.90670   18.13110  -53.28630  -46.45550   -4.44150   18.13110
 5750.00000   11.82810   80.33620   79.75560   12.53830    4.16440   68.71260   12.53830   14.08170   11.82810  158.24840  158.24840   15.64620  -60.65060  -73.60420  -33.26040   15.64620
 5800.00000   12.44760  115.95920  116.38400    8.59230    3.80430   62.77180    8.59230   13.14900   12.44760  203.35100  203.35100   11.00310  -64.72660  -45.21050   -6.53700   11.00310
 5850.00000   11.10540  144.02780  146.14540    6.84250    3.90280   64.39620    6.84250   12.55320   11.10540  202.04690  202.04690   12.68480  -74.30990  -61.88710  -24.89490   12.68480
 5900.00000   11.11860  155.32060  158.55130    6.30720    4.08440   67.39340    6.30720    8.95310   11.11860  193.65620  193.65620    8.68860  -66.87850  -48.11530  -12.79340    8.68860
 5950.00000   10.61530  130.56820  130.53300    7.66090    4.90750   80.97370    7.66090   10.10560   10.61530  188.23560  188.23560   10.87640  -61.42590  -40.94220   -6.28080   10.87640
 6000.00000   11.99040  102.99430  104.19050    9.59780    4.39430   72.50590    9.59780   12.08030   11.99040  192.24220  192.24220   12.57760  -57.21290  -38.03790   -3.03190   12.57760
 6050.00000   15.88560  180.37870  186.49580    5.36210    4.21040   69.47160    5.36210    7.41290   15.88560  167.13510  167.13510    7.45320  -50.34740  -36.47410   -1.12340    7.45320
 6100.00000   10.86740   35.32780   35.67730   28.02900    4.26520   70.37580   28.02900   27.20330   10.86740  212.60820  212.60820   32.10390  -33.99700  -43.66510   -7.96750   32.10390
 6150.00000   11.19280   83.50710   82.40950   12.13460    5.89290   97.23280   12.13460   18.77640   11.19280  192.69190  192.69190   17.13320  -14.34350  -43.58340   -7.54120   17.13320
 6200.00000   15.92920  206.67930  213.14690    4.69160    5.20330   85.85450    4.69160    6.73350   15.92920  160.86230  160.86230    6.91690  -10.06880  -45.99490   -9.60570    6.91690
 6250.00000   13.52440  210.11710  221.52810    4.51410    3.70210   61.08470    4.51410    7.46430   13.52440  152.75240  152.75240    7.28590  -25.77220  -45.07030   -8.33650    7.28590
 6300.00000   13.12800  161.98370  159.95940    6.25220    4.23920   69.94600    6.25220   10.11320   13.12800  177.62480  177.62480   10.05800  -34.48940  -39.68450   -3.03920   10.05800
 6350.00000   13.12120   76.25510   75.02940   13.32810    4.97160   82.03140   13.32810   18.66250   13.12120  181.37420  181.37420   16.43250  -38.38080  -35.56180   -2.46750   16.43250
 6400.00000   14.87480  274.66880  270.41770    3.69970    4.37700   72.22130    3.69970    6.08470   14.87480  158.90970  158.90970    6.68690  -50.18920  -33.47300   -3.38410    6.68690
 6450.00000    9.67230    1.01660    2.31510  431.95560    2.93140   48.36810  431.95560  524.08530    9.67230  232.80970  232.80970  156.86480  -75.57360  -46.78150  -18.54280  156.86480
 6500.00000    8.72450  108.19260  108.20750    9.24150    1.96640   32.44560    9.24150   27.74940    8.72450  206.67900  206.67900   28.05720 -147.92880 -104.41510  -78.01460   28.05720
 6550.00000    9.86550   53.15320   51.59220   19.39780    2.51500   41.49750   19.39780   34.58440    9.86550  204.80500  204.80500   28.79650  -72.45670  -65.98250  -41.42020   28.79650
 6600.00000   11.08620  211.52160  212.63480    4.70290    2.68610   44.32070    4.70290    8.94650   11.08620  194.21510  194.21510   10.36280 -110.09240  -77.79320  -55.08110   10.36280
 6650.00000   11.06680   69.89710   58.57590   17.28490    2.07010   34.15580   17.28490   75.49940   11.06680  271.63530  271.63530   40.71010  -96.81970  -91.14090  -70.26700   40.71010
 6700.00000   12.94970    5.38990    5.62920  177.64520    1.29150   21.30980  177.64520  313.90750   12.94970  255.33320  255.33320  143.08970 -101.01620  -73.50180  -54.47820  143.08970
