~Version ---------------------------------------------------
VERS.      2.0 : CWLS log ASCII Standard -VERSION 2.0
WRAP.       NO : One line per depth step
CREA. 09/09/14 : LAS Creation Date
~Well ------------------------------------------------------
STRT.FT                          1100.0 : START DEPTH
STOP.FT                         10200.0 : STOP DEPTH
STEP.FT                        50.00000 : STEP LENGTH
NULL.                           -999.25 : NULL VALUE
COMP.          CHEVRON STANDARD LIMITED : COMPANY
WELL. CHEVRON GULF E KAYBOB 12-25-62-18 : WELL
FLD .                                   : FIELD
LOC .                                   : LOCATION
CTRY.                            CANADA : COUNTRY
SRVC.                      Schlumberger : SERVICE COMPANY
DATE.                       18-Aug-1973 : LOGDATE
PROV.                           Alberta : PROVINCE
UWI .                  100122506218W500 : UNIQUE WELL ID
SLAT.WGS84                     54.39495 : SURFACE LATITUDE
SLON.WGS84                    -116.5696 : SURFACE LONGITUDE
~Curve Information -----------------------------------------
DEPT.FT    : DEPTH FEET
CALS.IN    : CALIPER FROM SONIC LOG
DT  .US/F  : DELTA TIME FROM SONIC LOG
GRS .GAPI  : GAMMA RAY FROM SONIC LOG
ILD .OHMM  : INDUCTION LOG DEEP RESISTIVITY
ILM .OHMM  : INDUCTION LOG MEDIUM RESISTIVITY
LL8 .OHMM  : 8 INCH LATEROLOG RESISTIVITY
SPR .MV    : SPONTANEOUS POTENTIAL FROM RESISTIVITY LOG
~Params ----------------------------------------------------
PD  .                     GL : PERMANENT DATUM
EPD .FT               2847.5 : ELEVATION PERMANENT DATUM
LMF .                     KB : LOG MEASURED FROM
DAPD.FT                   14 : FEET ABOVE PERMANENT DATUM
EKB .FT               2861.5 : KELLY BUSHING
EGL .FT               2847.5 : GROUND LEVEL
DATE.               08/18/73 : RUN DATE
RUN .                      1 : RUN NUMBER
DD  .FT                10235 : DEPTH DRILLER
DL  .FT                10238 : DEPTH LOGGER
BLI .FT                10232 : BOTTOM LOG INTERVAL
TLI .FT                 1119 : TOP LOG INTERVAL
CBD .FT                 1119 : CASING BOTTOM DRILLER
CBL .FT                 1119 : CASING BOTTOM LOGGER
BS  .IN                 8.75 : BIT SIZE
BSD .FT                10235 : BIT SIZE AT DEPTH
DFT .              BENEX GEL : DRILLING FLUID TYPE
DFD .                    9.3 : DRILLING FLUID DENSITY
DFV .                    100 : DRILLING FLUID VISCOSITY
DFPH.                      9 : DRILLING FLUID PH
DFL .                    8.4 : DRILLING FLUID LOSS
MSS .                   CIRC : MUD SAMPLE SOURCE
RMS .OHMM               2.62 : RESISTIVITY MUD SAMPLE
MST .DEGF                 46 : MUD SAMPLE TEMPERATURE
RMF .OHMM                2.1 : RESISTIVITY MUD FILTRATE SAMPLE
MFST.DEGF                 56 : MUD FILTRATE SAMPLE TEMPERATURE
RMC .OHMM               1.99 : RESISTIVITY MUD CAKE
MCST.DEGF                 64 : MUD CAKE SAMPLE TEMPERATURE
RMB .OHMM               0.65 : RESISTIVITY MUD AT BHT
TCS .HRS                   3 : TIME CIRCULATED STOPPED
LUN .                   7636 : LOGGING UNIT NUMBER
LUL .                    EDM : LOGGING UNIT LOCATION
ENGI.                  IBSEN : RECORDING ENGINEER
WITN.                   GOLL : WITNESSED BY
CLNT.                A2DTECH : CLIENT CODE
ORIG.            2" 5" PRINT : ORIGIN OF DATA
UWI .       100122506218W500 : UNIQUE WELL ID
DICO. A2D Technologies, Inc. : DIGITIZING COMPANY
~Other -----------------------------------------------------
~ASCII -----------------------------------------------------
# ...
 5600.00000   12.47800   95.72260   49.36110  854.57290   40.96180  124.12420  -98.09950
 5650.00000   11.76620   74.47420   78.67770   11.24710   12.87330   16.13180  -98.69450
 5700.00000   11.65190   76.56010   65.04440   11.51620   11.92210   16.49490 -107.38470
 5750.00000   14.31580  152.36800   24.87400   13.58540   11.04730   94.54240 -114.77040
 5800.00000   11.79640   70.29340   56.72620    6.37390    7.66860    8.43130 -102.29100
 5850.00000   10.58030   74.41700   86.56380    8.27510    9.99080   12.21730  -93.88380
 5900.00000   10.85670   76.13380   69.03820    8.66460    9.07280   11.07730  -96.24980
 5950.00000   11.21340   75.05840   87.34610    7.62140    8.72090   10.83220  -95.70900
 6000.00000   11.12620   72.97240   73.89650   11.06540   13.04160   14.85880 -105.04230
 6050.00000   10.45230   73.61340   40.33950    7.79660   10.21280   16.23430 -140.75920
 6100.00000   10.64760   70.50540   76.42060   10.74000   12.66790   14.81800  -95.56180
 6150.00000   14.65470   96.53980   91.88330    2.91310    3.29060    4.14640  -93.25320
 6200.00000   13.41670   84.85780   83.40920    2.87720    3.14610    3.97650  -91.02790
 6250.00000   10.72610   80.75680   72.47300   50.41200   48.76570   72.36770  -82.36030
 6300.00000   12.92340   99.43020   83.48990    5.91780    6.61820    9.86230  -88.41690
 6350.00000    9.28910   59.91820   37.08850  209.96280  291.36490  325.78180  -57.26020
 6400.00000   10.38190   65.57700   65.30140   12.83600   15.13310   18.17130 -112.57620
 6450.00000    8.85070   69.66220   63.55900    7.95270   15.22650   33.25900 -144.74180
 6500.00000    9.19040   49.67620   31.13410   12.96260   19.79850   90.93480 -189.05670
 6550.00000    9.96170   61.99500   76.32430    8.88940   10.44910   14.61800 -109.62930
 6600.00000    9.94810   59.47910   76.39890   18.70810   23.11780   33.72470  -89.24650
 6650.00000    9.87490   48.04980   26.43830   54.87320  169.22070  357.65840  -96.21130
 6700.00000   10.50250   47.24020   22.53450   57.18150   78.47910  404.41920  -96.25650
 6750.00000   10.00940   53.05100   30.94550   16.24040   20.56690   50.23040 -120.73360
 6800.00000   10.23510   48.93420   18.84530   81.54800   72.18870  102.12460 -104.61760
 6850.00000    9.73900   52.09430   10.69670   27.96510   40.84090  180.64290 -168.83830
 6900.00000    9.38830   55.73840   13.25400   20.07430   39.18980  168.82790 -201.26420
 6950.00000   10.03610   68.24550   72.71340    1.88020    2.33750    4.43470 -149.85730
 7000.00000   10.40720   70.36440   77.02410    1.90680    2.05850    3.09720 -157.90460
 7050.00000    9.62090   59.94040   48.61630    3.97690    6.01790   12.73410 -163.07750
 7100.00000    9.80030   61.88400   78.17560   12.55030   17.08040   29.62090 -109.58840
 7150.00000   10.44070   51.43450   24.24540  118.33050  142.46190  192.59050 -104.16840
 7200.00000    9.51280   54.82560   33.57210   48.98500   64.55590   70.49600  -98.55450
 7250.00000    9.60230   55.73690   44.92330   38.33680   51.78470   61.86650  -95.68290
 7300.00000    8.97900   52.10560   35.09750  235.21240  393.39110  414.37610  -99.80410
 7350.00000    9.26040   53.29030   25.82190  155.19000  213.43020  289.28740  -90.71390
 7400.00000    9.01790   54.60030   42.68170   87.74190  123.81120  181.99930  -88.53180
 7450.00000    8.93710   51.78920   40.69850  348.87400  730.91850  810.65370  -53.51580
 7500.00000    9.45960   62.05900   72.81780  119.19370  154.13680  181.37290  -69.15110
 7550.00000   10.02640   58.99390   86.60470   13.50820   16.39350   18.23820 -107.19340
 7600.00000    9.79150   49.58160   21.90270  307.72740  256.33930  498.95290  -98.73380
 7650.00000    9.77260   49.59300   26.19040  756.43320  737.31430  956.39450 -122.45820
 7700.00000    9.72910   49.79890   23.81400 1212.51820 1244.00170 1519.66930 -132.24480
 7750.00000    9.59860   50.28850    8.20250  114.62680  153.11990  162.62760 -171.92670
 7800.00000    9.56820   49.76840   24.33830  372.34890  343.37810  375.21150 -154.49660
 7850.00000    9.38840   47.81440   20.17820  891.86820 1221.07650  924.82170 -161.82590
 7900.00000    9.21730   50.71550   19.77570   55.35640   75.05290   98.03110 -196.65820
 7950.00000    9.60000   50.06510   26.53170  381.98270  367.32410  703.48520 -171.07430
 8000.00000    9.65160   49.68200   12.45570  523.75350  384.51260  720.00710 -161.51160
 8050.00000    9.61700   49.67810   22.70310  296.59740  273.69480  251.61810 -162.01030
 8100.00000    9.72240   49.84120   13.33330  543.96310  316.47980  531.66890 -151.78910
 8150.00000    9.66540   49.19880   11.93810  519.47310  538.72020 1066.97600 -172.94700
 8200.00000    9.88410   48.78220   23.71170  408.44770  333.71800  651.30280 -165.24930
 8250.00000    9.24360   49.13450   13.13710  106.23400  215.35420  268.13330 -188.97830
 8300.00000    9.13410   51.06720   28.30910   14.38140   15.99120   38.56680 -152.22060
 8350.00000    9.07750   53.51190   30.65440   20.11640   23.15510   70.90130 -176.01470
 8400.00000    9.06840   50.31410   25.91640  101.88440  149.07360  265.19840 -173.60780
 8450.00000    9.62570   49.92160   28.22070  111.52710  104.29720   87.09310 -182.93220
 8500.00000    9.07930   50.62080   27.08130   89.06240  124.39070  246.73120  -99.59570
 8550.00000    9.26130   50.76250   26.43000  224.00020  273.51200  384.79860  -71.91400
 8600.00000    9.32130   51.65760   28.40060  209.60680  304.51280  349.87480  -64.84690
 8650.00000    9.28760   51.35420   30.07290  189.97470  301.91530  310.56050  -71.73900
 8700.00000    9.82610   56.51960   47.31350   31.14850   39.74150   42.73670  -92.15790
 8750.00000   10.54280   60.79130   55.79040   15.70550   19.60000   23.15680 -102.21110
 8800.00000    9.72810   57.56560   48.65940   18.15360   22.57820   28.43720 -111.20210
 8850.00000    9.48380   61.05710   51.15480   13.05430   16.05550   21.44530 -112.43790
 8900.00000    9.17440   58.16340   43.35690   18.94700   23.74200   35.23070 -114.33430
 8950.00000    9.88400   66.68420   68.88200    9.64050   10.97110   13.57340 -121.29380
 9000.00000    9.31020   67.38130   79.23440    9.59050   12.67490   16.63680 -111.69290
 9050.00000    9.73560   67.32410   67.58300    8.03090    9.52350   13.69800 -110.54010
 9100.00000   13.86440   79.19000   87.22610    4.24340    4.96640    6.71300 -121.52430
 9150.00000   13.36080   76.84550   74.68940    5.19060    6.03770    7.56180 -115.09310
 9200.00000    9.59480   61.90140   62.62790   14.99750   19.29270   27.74970  -94.32150
 9250.00000   10.01980   65.81250   79.44770   11.13710   13.67870   17.72040 -100.19210
 9300.00000    9.62760   66.57670   83.79240    9.66650   12.02110   16.21610 -103.73990
 9350.00000   11.24120   72.74120   90.84090    6.82710    8.02610   10.34150 -114.31260
 9400.00000    9.64520   70.79050  103.64840    8.47440    9.91660   13.08840  -99.49660
 9450.00000    9.33040   65.47890   71.67930    8.84540   11.03060   14.84600  -91.13560
 9500.00000    9.55420   72.59870   92.05840    6.71680    8.23480   11.20800  -90.52000
 9550.00000    8.81760   64.53240   84.17150  209.45800  326.28120  386.74890  -46.51830
 9600.00000    8.91780   73.72810  148.65410 1338.64330 1446.90410 1516.44080  -31.05060
 9650.00000    8.84800   72.37710  119.08930  563.27070 1338.96590  699.57240  -33.18930
 9700.00000    9.03250   65.77650   75.03050   31.29000   41.16190   66.60040  -64.48520
 9750.00000    8.92140   54.54510   40.63320  341.61670 1335.50830 1501.68880  -30.18490
 9800.00000    8.92870   58.78200   60.10980   30.93180   50.53580   64.28640   -5.26590
 9850.00000    8.62560   48.37640   18.01330  659.29440 1491.42080 1373.71240  -72.55160
 9900.00000    8.61560   49.80610   11.90360  111.63350  132.16480  222.03250 -129.04470
 9950.00000    8.55180   50.48680   10.51250   56.59070   77.84470  365.30250 -123.44590
 10000.00000    8.67050   51.39080   16.89630   26.47880   34.15380  177.22870 -135.11510
 10050.00000    8.63910   48.22360   20.15640  751.29480  944.05710 1158.05330  -93.42250
