~Version ---------------------------------------------------
VERS.      2.0 : CWLS log ASCII Standard -VERSION 2.0
WRAP.       NO : One line per depth step
CREA. 09/29/14 : LAS Creation Date
~Well ------------------------------------------------------
STRT.M                        450.0 : START DEPTH
STOP.M                       3300.0 : STOP DEPTH
STEP.M                     50.00000 : STEP LENGTH
NULL.                       -999.25 : NULL VALUE
COMP.    MURPHY OIL COMPANY LIMITED : COMPANY
WELL. MURPHY ET AL ANTE 14-23-67-24 : WELL
FLD .                               : FIELD
LOC .                               : LOCATION
CTRY.                        CANADA : COUNTRY
SRVC.                       Unknown : SERVICE COMPANY
DATE.                   27-Apr-1984 : LOGDATE
PROV.                       Alberta : PROVINCE
UWI .              100142306724W500 : UNIQUE WELL ID
SLAT.WGS84                 54.81812 : SURFACE LATITUDE
SLON.WGS84                -117.5484 : SURFACE LONGITUDE
~Curve Information -----------------------------------------
DEPT    .M      : Depth Curve
C2DED   .MM     : CALIPER FROM DENSITY LOG
CALDED  .MM     : CALIPER FROM DENSITY LOG
CALSED  .MM     : CALIPER FROM SONIC LOG
CALWS   .MM     : CALIPER [CALDED]
CONDWS  .MMHO   : CONDUCTIVITY [1000/DRESWS]
DCORWS  .KG/M3  : DENSITY CORRECTION [DRHOED SPL. TO DRHORED FROM 1027-1075M & 1340-1406M]
DENWS   .KG/M3  : FORMATION BULK DENSITY [CALC. FROM DPOLSWS,M=2710,F=1000]
DPHILSED.V/V    : DENSITY POROSITY LIMESTONE [M=2710,F=1000] FROM DENSITY LOG
DPHISSED.V/V    : DENSITY POROSITY SANDSTONE [M=2650,F=1000] FROM DENSITY LOG
DPOLSWS .V/V    : DENSITY POROSITY LIMESTONE [DPHISSED CONVERTED TO LIMESTONE MATRIX, M=2710 F=1000 SPL.TO DPHILSED @ 1975M]
DRESWS  .OHMM   : DEEP RESISTIVITY [ILDED]
DRHOED  .KG/M3  : DENSITY CORRECTION FROM DENSITY LOG [ADJ. TO DPHISSED/DPHILSED]
DRHORED .KG/M3  : DENSITY CORRECTION (OVERLAP SECTION) FROM DENSITY LOG [ADJ. TO RESISTIVITY LOG]
DTED    .US/M   : 3-4 FT COMPENSATED SONIC FROM SONIC LOG
DTWS    .US/M   : COMPRESSIONAL SONIC [DTED]
GRDED   .GAPI   : GAMMA RAY FROM DENSITY LOG
GRRED   .GAPI   : GAMMA RAY FROM RESISTIVITY LOG
GRSED   .GAPI   : GAMMA RAY FROM SONIC LOG
GRWS    .GAPI   : GAMMA RAY [GRRED SPL. TO GRDED @ 3315M]
ILDED   .OHMM   : DEEP INDUCTION LOG RESISTIVITY FROM RESISTIVITY LOG
ILMED   .OHMM   : MEDIUM INDUCTION LOG RESISTIVITY FROM RESISTIVITY LOG
MRESWS  .OHMM   : MEDIUM RESISTIVITY [ILMED]
NPHILSED.V/V    : NEUTRON POROSITY LIMESTONE FROM DENSITY LOG
NPHISSED.V/V    : NEUTRON POROSITY SANDSTONE FROM DENSITY LOG
NPOLSWS .V/V    : NEUTRON POROSITY LIMESTONE [NPHISSED MATRIX (SLB) CONVERSION FOR LIMESTONE, SPL.TO NPHILSED @ 2104M]
PEFED   .V/V    : PHOTOELECTRIC FACTOR FROM DENSITY LOG
PEFWS   .B/E    : PHOTOELECTRIC FACTOR [PEFED]
RHOBED  .KG/M3  : BULK DENSITY FROM DENSITY LOG [ADJ. TO DPHISSED/DPHILSED]
RHOBRED .KG/M3  : BULK DENSITY (OVERLAP SECTION) FROM DENSITY LOG [ADJ. TO RESISTIVITY LOG]
SFLUED  .OHMM   : SHALLOW FOCUSSED LOG RESISTIVITY FROM RESISTIVITY LOG
SPRED   .MV     : SPONTANEOUS POTENTIAL FROM RESISTIVITY
SPWS    .MV     : SPONTANEOUS POTENTIAL [BASELINE 0 MV, SPRED]
SRESWS  .OHMM   : SHALLOW RESISTIVITY [SFLUED]
TENDED  .N      : TENSION FROM DENSITY LOG
TENRED  .N      : TENSION FROM RESISTIVITY LOG
~Params ----------------------------------------------------
PD  .                          GL : PERMANENT DATUM
EPD .M                      778.7 : ELEVATION PERMANENT DATUM
LMF .                          KB : LOG MEASURED FROM
DAPD.M                          7 : FEET ABOVE PERMANENT DATUM
DMF .                          KB : DRILLING MEASURED FROM
EKB .M                      785.7 : KELLY BUSHING
EDF .M                      785.7 : DRILLING FLOOR
EGL .M                      778.7 : GROUND LEVEL
DATE.                    04/27/84 : RUN DATE
RUN .                           1 : RUN NUMBER
DD  .M                       3337 : DEPTH DRILLER
DL  .M                       3336 : DEPTH LOGGER
BLI .M                       3335 : BOTTOM LOG INTERVAL
TLI .M                        448 : TOP LOG INTERVAL
CS  .MM                     339.7 : CASING SIZE
CBD .M                        448 : CASING BOTTOM DRILLER
CBL .M                        448 : CASING BOTTOM LOGGER
BSD .M                       3337 : BIT SIZE AT DEPTH
DFT .                    GEL CHEM : DRILLING FLUID TYPE
DFD .                        1320 : DRILLING FLUID DENSITY
DFV .                          80 : DRILLING FLUID VISCOSITY
DFPH.                        10.5 : DRILLING FLUID PH
DFL .                         7.8 : DRILLING FLUID LOSS
MSS .                    FLOWLINE : MUD SAMPLE SOURCE
RMS .OHMM                   1.365 : RESISTIVITY MUD SAMPLE
MST .DEGC                      19 : MUD SAMPLE TEMPERATURE
RMF .OHMM                   0.727 : RESISTIVITY MUD FILTRATE SAMPLE
MFST.DEGC                    17.5 : MUD FILTRATE SAMPLE TEMPERATURE
RMC .OHMM                   0.297 : RESISTIVITY MUD CAKE
MCST.DEGC                      74 : MUD CAKE SAMPLE TEMPERATURE
MFSS.                   WATERLOSS : MUD FILTRATE SAMPLE SOURCE
RMB .OHMM                    0.58 : RESISTIVITY MUD AT BHT
TCS .HRS                     2130 : TIME CIRCULATED STOPPED
TLAB.HRS                      330 : TIME LOGGER AT BOTTOM
LUN .                        8204 : LOGGING UNIT NUMBER
LUL .                          GP : LOGGING UNIT LOCATION
ENGI.                     KRIBERG : RECORDING ENGINEER
WITN.                        HECK : WITNESSED BY
CLNT.                     A2DTECH : CLIENT CODE
ORIG. 6.5"/100M  16.5"/100M PRINT : ORIGIN OF DATA
UWI .            100142306724W500 : UNIQUE WELL ID
DICO.      A2D Technologies, Inc. : DIGITIZING COMPANY
~Other -----------------------------------------------------
DIL-BHC TOOLS RUN IN COMBO. & CNLD TOOL RUN
RHOBED,DRHOED,RHOBRED, & DRHORED FROM TOP TO BOTTOM FROM 2" SCALE SECTION.
RHOBRED, DRHORED FROM OVERLAP SECTION
GRSED DUPLICATE WITH GRRED
~ASCII -----------------------------------------------------
# ...
 2550.00000  244.81760  236.10980  230.72500  236.10980   23.38540   11.59690 2759.93200   -0.02920    -999.25   -0.02920   42.76170   11.59690    -999.25  184.76770  184.76770   48.37660   60.19620   60.33000   60.19620   42.76170   44.51540   44.51540    0.07200    -999.25    0.07200    4.25310    4.25310 2759.98410    -999.25   55.83480 -166.14030  -56.06990   55.83480 19416.95900 10717.03320
 2600.00000  246.91850  229.29000  225.65000  229.29000    1.03810   33.69080 2838.93400   -0.07540    -999.25   -0.07540  963.34170   33.69080    -999.25  154.28450  154.28450   15.97100   15.27450   16.99500   15.27450  963.34170  479.32940  479.32940    0.02280    -999.25    0.02280    4.47040    4.47040 2833.66990    -999.25 1678.01040 -236.66980 -127.59950 1678.01040 19533.26760 10939.67580
 2650.00000  219.95490  222.85260  219.40000  222.85260   13.76360   39.64440 2728.98100   -0.01110    -999.25   -0.01110   72.65540   39.64440    -999.25  168.69490  168.69490   13.04590   17.83930   18.27000   17.83930   72.65540  102.78570  102.78570    0.10940    -999.25    0.10940    5.63720    5.63720 2732.79350    -999.25  136.14040 -319.00510 -210.93500  136.14040 20083.50980 11321.72270
 2700.00000  219.15450  240.81790  240.32500  240.81790    1.18430   21.65650 2857.06000   -0.08600    -999.25   -0.08600  844.36110   21.65650    -999.25  150.68600  150.68600   12.90070   17.57670   16.38000   17.57670  844.36110  183.47730  183.47730    0.01440    -999.25    0.01440    4.59700    4.59700 2851.77510    -999.25 1927.51370 -293.51900 -186.44900 1927.51370 20117.27930 11592.00590
 2750.00000  217.46780  245.20930  242.55000  245.20930    2.08130   32.69900 2836.19800   -0.07380    -999.25   -0.07380  480.46510   32.69900    -999.25  153.36190  153.36190   17.63810   16.39530   16.87500   16.39530  480.46510  433.20910  433.20910    0.02260    -999.25    0.02260    4.45930    4.45930 2834.35840    -999.25 1012.50090 -231.11200 -125.04220 1012.50090 20522.31050 11685.39840
 2800.00000  235.82600  237.07660  236.20000  237.07660    1.04640   35.90120 2806.10200   -0.05620    -999.25   -0.05620  955.65710   35.90120    -999.25  152.73840  152.73840   16.88840   19.17140   18.96000   19.17140  955.65710  550.87380  550.87380    0.02740    -999.25    0.02740    4.52740    4.52740 2808.94630    -999.25 1988.93550 -238.99760 -133.92800 1988.93550 20762.35350 11809.52540
 2850.00000  240.78550  239.53740  225.75000  239.53740    4.46700  155.89180 2805.93100   -0.05610    -999.25   -0.05610  223.86570  155.89180    -999.25  154.10170  154.10170   13.91950   11.54660   12.33000   11.54660  223.86570  965.70400  965.70400    0.05570    -999.25    0.05570    7.62980    7.62980 2810.91500    -999.25 2004.85740 -306.23960 -202.17010 2004.85740 21131.36330 11927.04490
 2900.00000  241.47970  288.15850  240.60000  288.15850    0.59780  249.11190 2752.40800   -0.02480    -999.25   -0.02480 1672.81270  249.11190    -999.25  161.98420  161.98420   23.42120   27.56040   28.14000   27.56040 1672.81270  226.88870  226.88870    0.00730    -999.25    0.00730   11.78280   11.78280 2751.00270    -999.25 2006.70070 -301.00720 -197.93790 2006.70070 21639.22660 12077.88090
 2950.00000  252.48090  302.36580  251.12500  302.36580   31.52730  248.34890 2711.36800   -0.00080    -999.25   -0.00080   31.71850  248.34890    -999.25  203.78060  203.78060   51.45650   55.94840   55.63500   55.94840   31.71850   32.77940   32.77940    0.13480    -999.25    0.13480    9.08600    9.08600 2708.71220    -999.25   41.64590 -179.44230  -77.37310   41.64590 21700.20510 12302.71390
 3000.00000  245.78870  278.97890  245.50000  278.97890   20.28430  173.80450 2776.86100   -0.03910    -999.25   -0.03910   49.29920  173.80450    -999.25  184.19190  184.19190   22.83280   30.45510   31.92000   30.45510   49.29920   86.89930   86.89930    0.04140    -999.25    0.04140    6.77010    6.77010 2777.50240    -999.25  258.70050 -230.81340 -129.74440  258.70050 21873.79100 12703.49410
 3050.00000  253.63930  300.83160  264.72500  300.83160   60.67920  133.43040 2683.49500    0.01550    -999.25    0.01550   16.48010  133.43040    -999.25  207.16670  207.16670   58.01990   68.94750   68.58000   68.94750   16.48010   17.47710   17.47710    0.15720    -999.25    0.15720    8.72600    8.72600 2695.62790    -999.25   21.50530 -254.69340 -154.62450   21.50530 22258.80270 12857.41020
 3100.00000  305.15100  256.48330  263.90000  256.48330   78.43260   46.71990 2746.08100   -0.02110    -999.25   -0.02110   12.74980   46.71990    -999.25  221.33300  221.33300   71.41950   81.56910   81.31500   81.56910   12.74980   13.48050   13.48050    0.17560    -999.25    0.17560    5.83400    5.83400 2749.57180    -999.25   16.62720 -204.50250 -105.43380   16.62720 23858.79490 12871.95410
 3150.00000  239.10510  235.56980  225.75000  235.56980    0.90860   59.93040 2711.20120   -0.00070    -999.25   -0.00070 1100.59950   59.93040    -999.25  177.39400  177.39400   38.11420   50.29950   51.16500   50.29950 1100.59950 1761.21440 1761.21440    0.01380    -999.25    0.01380    6.03460    6.03460 2723.02080    -999.25 1963.77200 -220.38160 -122.31300 1963.77200 22359.25390 13161.75290
 3200.00000  253.78530  249.66810  233.35000  249.66810   29.57980  107.16860 2782.84600   -0.04260    -999.25   -0.04260   33.80690  107.16860    -999.25  201.40230  201.40230   60.38120   68.59660   65.95500   68.59660   33.80690   36.76280   36.76280    0.08280    -999.25    0.08280    7.86750    7.86750 2704.56710    -999.25   67.17610 -248.44030 -233.07860   67.17610 23189.25000 13335.14450
 3250.00000  242.55600  241.48390  232.70000  241.48390    6.07770  132.40750 2812.08700   -0.05970    -999.25   -0.05970  164.53650  132.40750    -999.25  168.86540  168.86540   31.22100   34.96470   34.11000   34.96470  164.53650  263.76020  263.76020    0.01680    -999.25    0.01680    5.94690    5.94690 2777.24950    -999.25  372.19170 -148.51420 -196.19220  372.19170 23256.79690 13620.72660
 3300.00000  252.28440  222.64840  228.47500  222.64840    0.88180   14.79440 2722.99600   -0.00760    -999.25   -0.00760 1134.09230   14.79440    -999.25  161.05620  161.05620   24.78280   26.25050   27.15000   26.25050 1134.09230  322.14810  322.14810    0.00490    -999.25    0.00490    6.53510    6.53510 2722.29200    -999.25 1996.89710 -153.90370 -201.58170 1996.89710 23293.52930 14033.50490
