~Version ---------------------------------------------------
VERS.      2.0 : CWLS log ASCII Standard -VERSION 2.0
WRAP.       NO : One line per depth step
CREA. 10/26/17 : LAS Creation Date
~Well ------------------------------------------------------
STRT.FT                          1100.0 : START DEPTH
STOP.FT                         10150.0 : STOP DEPTH
STEP.FT                        50.00000 : STEP LENGTH
NULL.                           -999.25 : NULL VALUE
COMP.              CHEVRON STANDARD LTD : COMPANY
WELL. CHEVRON GULF FOX CREEK 7-14-62-18 : WELL
FLD .                         FOX CREEK : FIELD
LOC .                                   : LOCATION
CTRY.                            CANADA : COUNTRY
SRVC.                      Schlumberger : SERVICE COMPANY
DATE.                       09-Dec-1976 : LOGDATE
PROV.                           Alberta : PROVINCE
UWI .                  100071406218W500 : UNIQUE WELL ID
SLAT.WGS84                     54.36034 : SURFACE LATITUDE
SLON.WGS84                    -116.5836 : SURFACE LONGITUDE
~Curve Information -----------------------------------------
DEPT    .FT    : Depth Curve
CALDED  .IN    : CALIPER FROM DENSITY LOG [ADJ. TO RESISTIVITY LOG]
CALSED  .IN    : CALIPER FROM SONIC LOG [ADJ. TO RESISTIVITY LOG]
CALWS   .IN    : CALIPER [CALSED]
CONDWS  .MMHO  : CONDUCTIVITY [1000/DRESWS]
DCORWS  .G/C3  : DENSITY CORRECTION [DRHOED]
DENWS   .G/C3  : FORMATION BULK DENSITY [CALC. FROM DPOLSWS M=2.71, F=1.00]
DPHILSED.V/V   : DENSITY POROSITY LIMESTONE [M=2.71, F=1.00] FROM DENSITY LOG [ADJ. TO RESISTIVITY LOG]
DPHISSED.V/V   : DENSITY POROSITY SANDSTONE [M=2.65, F=1.00] FROM DENSITY LOG [ADJ. TO RESISTIVITY LOG]
DPOLSWS .V/V   : DENSITY POROSITY LIMESTONE [DPHISSED CONVERTED TO LIMESTONE MATRIX, M=2.71, F=1.00, SPL. TO DPHILSED @ 9636']
DRESWS  .OHMM  : DEEP RESISTIVITY [ILDED]
DRHOED  .G/C3  : DENSITY CORRECTION FROM DENSITY LOG [ADJ. TO RESISTIVITY LOG/DPHISSED/DPHILSED]
DTED    .US/F  : DELTA TIME FROM SONIC LOG [ADJ. TO RESISTIVITY LOG]
DTWS    .US/F  : COMPRESSIONAL SONIC [DTED]
GRDED   .GAPI  : GAMMA RAY FROM DENSITY LOG [ADJ. TO RESISTIVITY LOG]
GRSED   .GAPI  : GAMMA RAY FROM SONIC LOG [ADJ. TO RESISTIVITY LOG]
GRWS    .GAPI  : GAMMA RAY [GRSED]
ILDED   .OHMM  : DEEP INDUCTION FROM RESISTIVITY LOG
ILMED   .OHMM  : MEDIUM INDUCTION FROM RESISTIVITY LOG
LL8ED   .OHMM  : 8 INCH LATEROLOG FROM RESISTIVITY LOG
MRESWS  .OHMM  : MEDIUM RESISTIVITY [ILMED]
NPHILSED.V/V   : NEUTRON POROSITY LIMESTONE FROM DENSITY LOG [ADJ. TO RESISTIVITY LOG]
NPHISSED.V/V   : NEUTRON POROSITY SANDSTONE FROM DENSITY LOG [ADJ. TO RESISTIVITY LOG]
NPOLSWS .V/V   : NEUTRON POROSITY LIMESTONE [NPHISSED MATRIX CONVERSION FOR LIMESTONE FROM SCHLUMBERGER (CNL), SPL. TO NPHILSED @ 9636']
RHOBED  .G/C3  : BULK DENSITY FROM DENSITY LOG [ADJ. TO RESISTIVITY LOG/DPHISSED/DPHILSED]
SPRED   .MV    : SPONTANEOUS POTENTIAL FROM RESISTIVITY LOG
SPWS    .MV    : SPONTANEOUS POTENTIAL [BASELINE 0 MV, SPRED]
SRESWS  .OHMM  : SHALLOW RESISTIVITY [LL8ED]
TENDED  .LBF   : TENSION FROM DENSITY LOG [ADJ. TO RESISTIVITY LOG]
TENSED  .LBF   : TENSION FROM SONIC LOG [ADJ. TO RESISTIVITY LOG]
~Params ----------------------------------------------------
PD  .                     GL : PERMANENT DATUM
EPD .FT               2939.3 : ELEVATION PERMANENT DATUM
LMF .                     KB : LOG MEASURED FROM
DAPD.FT                 14.7 : FEET ABOVE PERMANENT DATUM
EKB .FT                 2954 : KELLY BUSHING
EDF .FT                 2939 : DRILLING FLOOR
DATE.               12/09/76 : RUN DATE
RUN .                      1 : RUN NUMBER
DD  .FT                10196 : DEPTH DRILLER
DL  .FT                10201 : DEPTH LOGGER
BLI .FT                10195 : BOTTOM LOG INTERVAL
TLI .FT                 1133 : TOP LOG INTERVAL
CBD .FT                 1131 : CASING BOTTOM DRILLER
CBL .FT                 1133 : CASING BOTTOM LOGGER
BS  .IN                 8.75 : BIT SIZE
BSD .FT                10196 : BIT SIZE AT DEPTH
DFT .               GEL CHEM : DRILLING FLUID TYPE
DFD .                    8.9 : DRILLING FLUID DENSITY
DFV .                     84 : DRILLING FLUID VISCOSITY
DFPH.                   10.5 : DRILLING FLUID PH
DFL .                      9 : DRILLING FLUID LOSS
MSS .               FLOWLINE : MUD SAMPLE SOURCE
RMS .OHMM               2.18 : RESISTIVITY MUD SAMPLE
MST .DEGF                 95 : MUD SAMPLE TEMPERATURE
RMF .OHMM               2.63 : RESISTIVITY MUD FILTRATE SAMPLE
MFST.DEGF                 66 : MUD FILTRATE SAMPLE TEMPERATURE
RMC .OHMM               2.34 : RESISTIVITY MUD CAKE
MCST.DEGF                 56 : MUD CAKE SAMPLE TEMPERATURE
TCS .HRS                 6.5 : TIME CIRCULATED STOPPED
LUN .                   7691 : LOGGING UNIT NUMBER
LUL .                    WCT : LOGGING UNIT LOCATION
ENGI.                  LEGEE : RECORDING ENGINEER
WITN.             RICHARDSON : WITNESSED BY
CLNT.                A2DTECH : CLIENT CODE
ORIG.            2" 5" PRINT : ORIGIN OF DATA
UWI .       100071406218W500 : UNIQUE WELL ID
DICO. A2D Technologies, Inc. : DIGITIZING COMPANY
~Other -----------------------------------------------------
~ASCII -----------------------------------------------------
# ...
 2350.00000    -999.25    9.58040    9.58040  146.47720    -999.25    -999.25    -999.25    -999.25    -999.25    6.82700    -999.25   91.61350   91.61350    -999.25   86.19470   86.19470    6.82700    6.58370    7.18310    6.58370    -999.25    -999.25    -999.25    -999.25    7.88810   -3.89520    7.18310    -999.25 1544.30720
 2400.00000    -999.25    8.75400    8.75400   85.28220    -999.25    -999.25    -999.25    -999.25    -999.25   11.72660    -999.25   92.77980   92.77980    -999.25   96.24420   96.24420   11.72660   11.19230   12.34540   11.19230    -999.25    -999.25    -999.25    -999.25   -5.62580  -17.50540   12.34540    -999.25 1644.70310
 2450.00000    -999.25    8.99760    8.99760   85.02750    -999.25    -999.25    -999.25    -999.25    -999.25   11.76090    -999.25   93.99070   93.99070    -999.25   67.83360   67.83360   11.76090   11.34950   13.11530   11.34950    -999.25    -999.25    -999.25    -999.25   -4.87690  -16.85340   13.11530    -999.25 1619.80610
 2500.00000    -999.25    9.38770    9.38770  520.23720    -999.25    -999.25    -999.25    -999.25    -999.25    1.92220    -999.25  100.03670  100.03670    -999.25   90.06730   90.06730    1.92220    1.80290    4.36590    1.80290    -999.25    -999.25    -999.25    -999.25    9.45800   -2.61480    4.36590    -999.25 3301.62600
 2550.00000    -999.25    9.40640    9.40640  191.89090    -999.25    -999.25    -999.25    -999.25    -999.25    5.21310    -999.25   98.12000   98.12000    -999.25   91.83360   91.83360    5.21310    4.90790    5.95570    4.90790    -999.25    -999.25    -999.25    -999.25    8.62820   -3.54090    5.95570    -999.25 3237.70890
 2600.00000    -999.25    8.76680    8.76680   84.26520    -999.25    -999.25    -999.25    -999.25    -999.25   11.86730    -999.25   96.25610   96.25610    -999.25   67.32960   67.32960   11.86730   13.05600   14.35390   13.05600    -999.25    -999.25    -999.25    -999.25   -4.06890  -16.33490   14.35390    -999.25 3437.53830
 2650.00000    -999.25    8.85530    8.85530  103.51410    -999.25    -999.25    -999.25    -999.25    -999.25    9.71270    -999.25   89.65260   89.65260    -999.25   76.41720   76.41720    9.71270   10.81350   12.92300   10.81350    -999.25    -999.25    -999.25    -999.25    2.14540  -10.21680   12.92300    -999.25 3291.18230
 2700.00000    -999.25    9.24040    9.24040  215.46150    -999.25    -999.25    -999.25    -999.25    -999.25    4.64120    -999.25  133.35860  133.35860    -999.25   87.22920   87.22920    4.64120    4.50500    4.76430    4.50500    -999.25    -999.25    -999.25    -999.25   11.03050   -1.42870    4.76430    -999.25 3238.97570
 2750.00000    -999.25    9.24750    9.24750  171.92470    -999.25    -999.25    -999.25    -999.25    -999.25    5.81650    -999.25   88.27370   88.27370    -999.25   74.19560   74.19560    5.81650    5.33740    6.39860    5.33740    -999.25    -999.25    -999.25    -999.25    9.99710   -2.52180    6.39860    -999.25 3184.51810
 2800.00000    -999.25    9.10410    9.10410   84.00710    -999.25    -999.25    -999.25    -999.25    -999.25   11.99290    -999.25   83.37630   83.37630    -999.25   65.57310   65.57310   11.99290   13.73390   20.18320   13.73390    -999.25    -999.25    -999.25    -999.25    9.00530   -3.53270   20.18320    -999.25 3029.18080
 2850.00000    -999.25    9.12470    9.12470  255.45390    -999.25    -999.25    -999.25    -999.25    -999.25    3.91460    -999.25  110.77870  110.77870    -999.25  108.86360  108.86360    3.91460    3.62020    4.04380    3.62020    -999.25    -999.25    -999.25    -999.25   10.19700   -2.36030    4.04380    -999.25 2978.90260
 2900.00000    -999.25   10.69020   10.69020  256.67830    -999.25    -999.25    -999.25    -999.25    -999.25    3.89600    -999.25  130.40150  130.40150    -999.25   73.84390   73.84390    3.89600    3.50690    4.52080    3.50690    -999.25    -999.25    -999.25    -999.25    9.73360   -2.84280    4.52080    -999.25 2718.69500
 2950.00000    -999.25    8.86850    8.86850  176.18350    -999.25    -999.25    -999.25    -999.25    -999.25    5.67590    -999.25   92.25340   92.25340    -999.25   89.44610   89.44610    5.67590    5.88090    6.65650    5.88090    -999.25    -999.25    -999.25    -999.25   10.99760   -1.59800    6.65650    -999.25 2906.61470
 3000.00000    -999.25    8.79120    8.79120  131.49760    -999.25    -999.25    -999.25    -999.25    -999.25    7.60470    -999.25   90.81120   90.81120    -999.25   77.37420   77.37420    7.60470    7.17330   10.91570    7.17330    -999.25    -999.25    -999.25    -999.25    9.50800   -3.10670   10.91570    -999.25 2815.12110
 3050.00000    -999.25    8.75560    8.75560  146.29250    -999.25    -999.25    -999.25    -999.25    -999.25    6.90150    -999.25  102.40090  102.40090    -999.25   63.61480   63.61480    6.90150    7.47170   10.58060    7.47170    -999.25    -999.25    -999.25    -999.25    6.74260   -5.89120   10.58060    -999.25 2984.60340
 3100.00000   10.36880    9.03050    9.03050  148.50680    0.16890    2.20430    -999.25    0.27010    0.29570    6.73370    0.16890   85.88310   85.88310   63.42350   82.20620   82.20620    6.73370    6.50560    8.45090    6.50560    -999.25    0.33840    0.29470    2.22370   10.17290   -2.48020    8.45090 2246.64730 2737.56690
 3150.00000   12.25440    9.82210    9.82210  176.03340    0.15610    2.32450    -999.25    0.19730    0.22550    5.68960    0.15610   83.89220   83.89220   64.29370   85.70620   85.70620    5.68960    5.59870    5.93740    5.59870    -999.25    0.31260    0.26870    2.31830   10.93120   -1.74100    5.93740 2407.55730 2649.89090
 3200.00000    8.82680    8.78070    8.78070   79.54120    0.04840    2.40220    -999.25    0.15020    0.18000   12.57210    0.04840   88.78070   88.78070   47.51530   68.19470   68.19470   12.57210   13.62510   14.31840   13.62510    -999.25    0.32920    0.28540    2.40970    0.29620  -12.39520   14.31840 2263.36140 2532.25740
 3250.00000   11.84970    9.52290    9.52290  264.96380    0.18440    2.10060    -999.25    0.33300    0.35640    3.77410    0.18440  112.18670  112.18670   66.31050   82.78540   82.78540    3.77410    4.07050    7.59320    4.07050    -999.25    0.40380    0.36100    2.07550   10.20340   -2.30880    7.59320 2310.55920 2534.93130
 3300.00000    9.95330    9.19370    9.19370  144.28360    0.00840    2.41210    -999.25    0.14420    0.17420    6.93920    0.00840   85.71840   85.71840   59.98020   77.66010   77.66010    6.93920    7.50580    8.58870    7.50580    -999.25    0.27180    0.22780    2.42270    9.72260   -2.30650    8.58870 2163.55480 2425.46610
 3350.00000   10.94450    9.47550    9.47550  128.02950    -999.25    2.41710    -999.25    0.14120    0.17130    7.81070    -999.25   86.61890   86.61890   64.22840   79.60450   79.60450    7.81070    7.46990    9.15800    7.46990    -999.25    0.28490    0.24090    -999.25    6.05350   -5.48920    9.15800 2208.12360 2335.83310
 3400.00000   11.01510    9.48510    9.48510   93.57740    -999.25    2.55950    -999.25    0.05490    0.08800   10.68830    -999.25   77.83190   77.83190   69.57340   90.88210   90.88210   10.68830    9.64540   12.47920    9.64540    -999.25    0.23240    0.18870    -999.25    7.86500   -3.19450   12.47920    -999.25 2200.46170
 3450.00000    -999.25   10.24770   10.24770  191.07310    -999.25    -999.25    -999.25    -999.25    -999.25    5.23360    -999.25   95.68220   95.68220    -999.25   98.63540   98.63540    5.23360    4.92650    6.17220    4.92650    -999.25    -999.25    -999.25    -999.25    9.54710   -1.39470    6.17220    -999.25 2266.26790
 3500.00000    -999.25   11.87970   11.87970  147.60370    -999.25    -999.25    -999.25    -999.25    -999.25    6.77490    -999.25   95.45660   95.45660    -999.25  121.74860  121.74860    6.77490    6.40330    7.56630    6.40330    -999.25    -999.25    -999.25    -999.25    4.97960   -6.02830    7.56630    -999.25 2132.33080
 3550.00000    -999.25   12.49080   12.49080  150.40820    -999.25    -999.25    -999.25    -999.25    -999.25    6.64880    -999.25   97.27450   97.27450    -999.25  117.44480  117.44480    6.64880    6.34400    7.49540    6.34400    -999.25    -999.25    -999.25    -999.25    6.00690   -5.06710    7.49540    -999.25 2288.29770
