~Version ---------------------------------------------------
VERS. 2.0 : CWLS log ASCII Standard -VERSION 2.0
WRAP.  NO : ONE LINE PER DEPTH STEP
~Well ------------------------------------------------------
STRT.F                                        1500.0 : START DEPTH
STOP.F                                       11100.0 : STOP DEPTH
STEP.F                                      50.00000 : STEP LENGTH
NULL.                                        -999.25 : NULL VALUE
COMP. GREAT PLAINS DEVELOPMENT COMPANY OF CANADA LTD : COMPANY
WELL.                 GPD ET AL ROSEVEAR 10-14-54-16 : WELL
FLD .                                                : FIELD
LOC .                                                : LOCATION
CTRY.                                         CANADA : COUNTRY
SRVC.                                   Schlumberger : SERVICE COMPANY
DATE.                                    01-Feb-1978 : LOGDATE
PROV.                                        Alberta : PROVINCE
UWI .                               100101405416W500 : UNIQUE WELL ID
SLAT.WGS84                                  53.66484 : SURFACE LATITUDE
SLON.WGS84                                 -116.2439 : SURFACE LONGITUDE
~Curve Information -----------------------------------------
DEPT   .F     : 
GRS    .GAPI  : GAMMA RAY FROM SONIC LOG
DT     .US/F  : DELTA TIME
CALS   .IN    : CALIPER FROM SONIC LOG
LLD    .OHMM  : LATEROLOG DEEP RESISTIVITY
LLS    .OHMM  : LATEROLOG SHALLOW
SPR    .MV    : SPONTANEOUS POTENTIAL FROM RESISTIVITY LOG
GRD    .GAPI  : GAMMA RAY FROM DENSITY LOG
DRHO   .G/C3  : DENSITY CORRECTION
RHOB   .G/C3  : BULK DENSITY
CALD   .IN    : CALIPER FROM DENSITY LOG
NPOR_SS.DEC   : NEUTRON POROSITY  SANDSTONE
DPHI_SS.DEC   : DENSITY POROSITY SANDSTONE
NPHI_LS.DEC   : NEUTRON POROSITY LIMESTONE
DPHI_LS.DEC   : DENSITY POROSITY LIMESTONE
~Params ----------------------------------------------------
PD  .                     GL : PERMANENT DATUM
EPD .FT                 2743 : ELEVATION PERMANENT DATUM
LMF .                     KB : LOG MEASURED FROM
DAPD.FT                 21.4 : FEET ABOVE PERMANENT DATUM
EKB .FT               2764.4 : KELLY BUSHING
EGL .FT                 2743 : GROUND LEVEL
DATE.               02/01/78 : RUN DATE
RUN .                      1 : RUN NUMBER
DD  .FT                11140 : DEPTH DRILLER
DL  .FT                11134 : DEPTH LOGGER
BLI .FT                11133 : BOTTOM LOG INTERVAL
TLI .FT                 1512 : TOP LOG INTERVAL
CBD .FT                 1512 : CASING BOTTOM DRILLER
CBL .FT                 1512 : CASING BOTTOM LOGGER
BS  .IN                 8.75 : BIT SIZE
BSD .FT                11140 : BIT SIZE AT DEPTH
DFT .            KCL POLYMER : DRILLING FLUID TYPE
DFD .                    9.4 : DRILLING FLUID DENSITY
DFV .                     45 : DRILLING FLUID VISCOSITY
DFPH.                    9.5 : DRILLING FLUID PH
DFL .                     16 : DRILLING FLUID LOSS
RMS .OHMM              0.205 : RESISTIVITY MUD SAMPLE
MST .DEGF                 39 : MUD SAMPLE TEMPERATURE
RMF .OHMM              0.163 : RESISTIVITY MUD FILTRATE SAMPLE
MFST.DEGF                 38 : MUD FILTRATE SAMPLE TEMPERATURE
RMC .OHMM              0.032 : RESISTIVITY MUD CAKE
MCST.DEGF                118 : MUD CAKE SAMPLE TEMPERATURE
RMB .OHMM              0.032 : RESISTIVITY MUD AT BHT
TCS .HRS                   7 : TIME CIRCULATED STOPPED
LUN .                   7772 : LOGGING UNIT NUMBER
LUL .                    EDM : LOGGING UNIT LOCATION
ENGI.                BODYMAN : RECORDING ENGINEER
WITN.                  BATES : WITNESSED BY
CLNT.                A2DTECH : CLIENT CODE
ORIG.               5" PRINT : ORIGIN OF DATA
UWI .       100101405416W500 : UNIQUE WELL ID
DICO. A2D Technologies, Inc. : DIGITIZING COMPANY
~Other -----------------------------------------------------
~ASCII -----------------------------------------------------
# ...
 3950.00000   61.49090   76.81890   10.52730   10.71330    9.28790  -41.56890   57.97810    0.05460    2.44290   10.87840    0.28700    0.09180    -999.25    -999.25
 4000.00000   50.65130   75.29820   10.47610   16.53050   14.33730  -48.20270   59.14470    0.09730    2.52160   10.42880    0.25110    0.08220    -999.25    -999.25
 4050.00000   81.45640   81.13150   11.24050   10.05280    9.24660  -35.12020   76.75940    -999.25    2.37060   13.29460    0.33810    0.20730    -999.25    -999.25
 4100.00000   72.73700   83.41210   10.69860    6.13550    6.95960  -30.61790   71.28530    0.24980    2.38000   13.81890    0.31440    0.18750    -999.25    -999.25
 4150.00000   77.35680   86.04450   11.28450    8.03820    7.23410  -40.35520   69.40390    0.22030    2.35280   13.48960    0.34960    0.22080    -999.25    -999.25
 4200.00000   83.35910   89.70020   11.16570    9.73530    7.71430  -40.41020   62.80580    0.24080    2.36220   15.00330    0.39920    0.16110    -999.25    -999.25
 4250.00000   49.68400   73.66110   11.13450   20.68720   13.73250  -34.06560   48.95800    0.07950    2.51940   13.53270    0.35130    0.07970    -999.25    -999.25
 4300.00000   72.67390   80.55590   11.10290    9.88910    8.45450  -38.01450   73.04320    0.18040    2.43410   14.39210    0.35310    0.15320    -999.25    -999.25
 4350.00000   78.63800   85.11880   11.20270    8.27350    7.80450  -38.93720   80.76460    0.24910    2.47640   13.59380    0.38440    0.13070    -999.25    -999.25
 4400.00000   94.21760   81.70760   10.09800   10.87240   11.85870  -39.81830   97.04690    0.22780    2.46760   11.83410    0.34830    0.11210    -999.25    -999.25
 4450.00000  103.83160   80.78450   11.16280   10.29120   10.92680  -39.44960  106.86050    0.25080    2.35320   12.25280    0.32760    0.21410    -999.25    -999.25
 4500.00000   92.21310   77.96950   11.03480   10.16280   11.40000  -39.60310  104.12510    0.02400    2.59990   10.79820    0.28290    0.03490    -999.25    -999.25
 4550.00000   99.20860   78.20580   11.25720   15.43540   14.32080  -39.66180  106.00130    0.03050    2.61330   11.19940    0.29180    0.02900    -999.25    -999.25
 4600.00000  110.13180   81.91130   11.46570   13.11130   12.26130  -39.49300  117.42690    0.05050    2.62870   11.25030    0.30720    0.01750    -999.25    -999.25
 4650.00000  117.82600   84.90480   10.77800   12.39230   11.56120  -38.90410  119.93580    0.04180    2.62100   11.57010    0.33620    0.01470    -999.25    -999.25
 4700.00000  122.07680   85.84660   10.80600   10.97870   12.13800  -38.74030  134.00230    0.02970    2.53270   11.31690    0.35140    0.05260    -999.25    -999.25
 4750.00000  112.19200   81.40710   10.93780   14.15380   14.98930  -39.48430  110.25860    0.22400    2.40810   11.78220    0.32350    0.14400    -999.25    -999.25
 4800.00000  116.64490   84.28730   11.02450   12.26060   12.67310  -39.10540  119.12770    0.17770    2.51810   11.49760    0.30810    0.09130    -999.25    -999.25
 4850.00000  110.11100   83.01470   10.89010    7.76280    8.67310  -38.49540  120.61800    0.24420    2.31240   12.22790    0.32340    0.19420    -999.25    -999.25
 4900.00000   97.85260   78.85040   11.32590    9.19310    9.74890  -38.26120  109.31150    0.24930    2.48070   12.77910    0.31290    0.18830    -999.25    -999.25
 4950.00000  104.58260   77.01340   11.75740   10.97510   11.81460  -38.43650   98.04110    -999.25    2.39360   12.46470    0.28560    0.15030    -999.25    -999.25
 5000.00000  110.51610   77.72390   11.90440    9.50160   10.02120  -38.39590  103.49020    -999.25    2.41910   12.73750    0.30740    0.20890    -999.25    -999.25
 5050.00000  109.53720   77.60810   11.82240    9.04980    9.93240  -38.41180   99.90750    0.25120    2.40840   12.79030    0.30300    0.14870    -999.25    -999.25
 5100.00000  110.23900   78.42160   11.08540    9.48340   10.19120  -38.20180  106.19930    0.23440    2.34450   12.42230    0.31510    0.18580    -999.25    -999.25
 5150.00000  117.94810   81.93770   11.79120    9.08080    9.50830  -38.02960  122.82850    0.24850    2.30810   13.73550    0.32550    0.22360    -999.25    -999.25
 5200.00000  114.51060   79.53850   11.37440    8.71140    9.16690  -37.34430  114.41280    0.22970    2.10710   13.29820    0.32670    0.34150    -999.25    -999.25
 5250.00000  110.38710   82.02960   11.16420    9.43190    9.81240  -37.60440  117.19890    0.20700    2.37550   12.88950    0.33630    0.20340    -999.25    -999.25
 5300.00000  101.75740   78.81950   10.66190   10.63010   11.19980  -37.91170  111.89680    -999.25    2.38730   11.55140    0.27050    0.20970    -999.25    -999.25
 5350.00000   97.08270   72.39290   10.17470   15.08660   16.15770  -37.40190  104.18980    0.19900    2.61870   10.61090    0.21530    0.00770    -999.25    -999.25
 5400.00000  113.99250   76.58120   11.08480   11.16690   10.14830  -37.26850  117.10800    -999.25    2.46730   12.91240    0.26410    0.07370    -999.25    -999.25
 5450.00000  104.93990   74.19350   10.73440   13.13820   13.90380  -36.51630  108.30770    0.21530    2.52900   12.13320    0.24440    0.06430    -999.25    -999.25
 5500.00000  113.56170   79.43920   10.95600    9.76670   10.33060  -36.18980  118.97090    -999.25    2.38950   12.52700    0.29570    0.16050    -999.25    -999.25
 5550.00000  101.15440   74.61280   10.54600   14.34480   14.84650  -35.61850  108.25900    -999.25    2.45750   12.03390    0.24610    0.10050    -999.25    -999.25
 5600.00000  118.74980   80.68350   10.71290   10.04310   12.10960  -34.81770  120.36660    -999.25    2.44850   12.55660    0.28860    0.12110    -999.25    -999.25
 5650.00000  123.14100   89.20360   10.37920   10.48050   12.62100  -33.78090  123.76130    0.24300    2.37740   11.11630    0.36250    0.16620    -999.25    -999.25
 5700.00000  122.04160   84.37860    9.59150   13.35770   15.39430  -34.90180  130.44580    0.04520    2.63290    9.69990    0.35380    0.02410    -999.25    -999.25
 5750.00000  122.98300   84.45030    9.56060   12.39650   14.74700  -34.49030  123.76860    0.02690    2.61260   10.73510    0.30160    0.00670    -999.25    -999.25
 5800.00000  119.00220   85.80840    9.67270   14.48330   16.51380  -35.35660  124.64790    0.01770    2.62490   10.15290    0.33880    0.02450    -999.25    -999.25
 5850.00000  125.51200   85.99970    9.64300   14.12590   18.82650  -37.19630  124.35090    0.07340    2.61540    9.92240    0.35180    0.00550    -999.25    -999.25
 5900.00000  147.31550   89.13470    9.57080   25.03870   31.48830  -37.28100  131.36050    0.02700    2.58490    9.91980    0.38250    0.06820    -999.25    -999.25
 5950.00000  122.08550   87.40240   10.51680   11.64240   13.41150  -34.73860  122.86360   -0.00030    2.60330   10.25610    0.37930    0.02600    -999.25    -999.25
 6000.00000  119.37570   96.24320    9.74350   21.20290   25.13020  -36.63080  124.45360    0.02770    2.54600   10.40350    0.41470    0.05850    -999.25    -999.25
 6050.00000  104.51040   80.94490   10.69400    7.92960    8.46190  -32.86360  106.43420    0.06300    2.59300   11.47960    0.33970    0.02070    -999.25    -999.25
 6100.00000  111.83450   85.95120   10.66860    7.78930    9.46630  -32.74020  110.75540    0.07310    2.57810   11.84440    0.35980    0.04100    -999.25    -999.25
 6150.00000  121.15740   82.28970   10.53050    5.85310    6.37290  -32.22700  112.91990    0.20090    2.35330   12.07760    0.38560    0.20320    -999.25    -999.25
 6200.00000  108.09280   78.04930   10.57320   10.32160   11.35450  -33.51990  105.50360    0.07590    2.63580   11.84900    0.35520   -0.00400    -999.25    -999.25
 6250.00000  118.37280   77.43260   10.93430    9.44730   10.18460  -33.17520  114.12140    0.21570    2.50750   12.99470    0.32980    0.05580    -999.25    -999.25
 6300.00000  121.85980   78.87820   10.22600    9.59170   10.85630  -30.78910  109.30640    0.24920    2.41010   11.81950    0.32460    0.09440    -999.25    -999.25
 6350.00000  138.66850   88.60110   10.27140    7.68400    9.69310  -35.30620  140.81160    0.24360    2.46990   11.19930    0.33980    0.13800    -999.25    -999.25
