~Version ---------------------------------------------------
VERS.      2.0 : CWLS log ASCII Standard -VERSION 2.0
WRAP.       NO : One line per depth step
CREA. 08/31/13 : LAS Creation Date
~Well ------------------------------------------------------
STRT.M                    500.0 : START DEPTH
STOP.M                   3850.0 : STOP DEPTH
STEP.M                 50.00000 : STEP LENGTH
NULL.                   -999.25 : NULL VALUE
COMP. BP EXPLORATION CANADA LLC : COMPANY
WELL.   BP BASELINE 10-25-65-27 : WELL
FLD .                           : FIELD
LOC .                           : LOCATION
CTRY.                    CANADA : COUNTRY
SRVC.             Dresser Atlas : SERVICE COMPANY
DATE.               16-Apr-1981 : LOGDATE
PROV.                   Alberta : PROVINCE
UWI .          100102506527W500 : UNIQUE WELL ID
SLAT.WGS84             54.65773 : SURFACE LATITUDE
SLON.WGS84            -117.9393 : SURFACE LONGITUDE
~Curve Information -----------------------------------------
DEPT    .M      : DEPTH METER
ACED    .US/M   : ACOUSTIC FROM SONIC LOG [ADJ. TO RESISTIVITY LOG]
CALDED  .MM     : CALIPER FROM DENSITY LOG [ADJ. TO RESISTIVITY LOG]
CALSED  .MM     : CALIPER FROM SONIC LOG [ADJ. TO RESISTIVITY LOG]
CALWS   .MM     : CALIPER [CALSED SPL. TO CALDED @ 1876.5M]
CONDWS  .MMHO   : CONDUCTIVITY [1000/DRESWS]
CORRED  .KG/M3  : DENSITY CORRECTION FROM DENSITY LOG [ADJ. TO RESISTIVITY LOG]
DCORWS  .KG/M3  : DENSITY CORRECTION [DRHOED]
DENWS   .KG/M3  : FORMATION BULK DENSITY [RHOBED]
DPHILSED.V/V    : DENSITY POROSITY LIMESTONE [M=2710,F=1000] FROM DENSITY LOG [ADJ. TO RESISTIVITY LOG]
DPHISSED.V/V    : DENSITY POROSITY SANDSTONE [M=2650,F=1000] FROM DENSITY LOG [ADJ. TO RESISTIVITY LOG]
DPOLSWS .V/V    : DENSITY POROSITY LIMESTONE [CALC FROM DENWS,M=2710,F=1000]
DRESWS  .OHMM   : DEEP RESISTIVITY [ILDED]
DTWS    .US/M   : COMPRESSIONAL SONIC [ACED]
GRDED   .GAPI   : GAMMA RAY FROM DENSITY LOG [ADJ. TO RESISTIVITY LOG]
GRSED   .GAPI   : GAMMA RAY FROM SONIC LOG [ADJ. TO RESISTIVITY LOG]
GRWS    .GAPI   : GAMMA RAY [GRSED]
ILDED   .OHMM   : DEEP INDUCTION FROM RESISTIVITY LOG
ILMED   .OHMM   : MEDIUM INDUCTIONFROM RESISTIVITY LOG
MRESWS  .OHMM   : MEDIUM RESISTIVITY [ILMED]
NPHILSED.V/V    : NEUTRON POROSITY SANDSTONE FROM DENSITY LOG [ADJ. TO RESISTIVITY LOG]
NPHISSED.V/V    : NEUTRON POROSITY LIMESTONE FROM DENSITY LOG [ADJ. TO RESISTIVITY LOG]
NPOLSWS .V/V    : NEUTRON POROSITY LIMESTONE [NPHISSED MATRIX (BAKER) CONVERSION FOR LIMESTONE, SPL. TO NPHILSED @ 2592.89M]
RHOBED  .KG/M3  : BULK DENSITY FROM DENSITY LOG [ADJ. TO RESISTIVITY LOG]
SFLED   .OHMM   : SPHERICALLY FOCUSED LOG FROM RESISTIVITY LOG
SPRED   .MV     : SPONTANEOUS POTENTIAL FROM RESISTIVITY LOG
SPWS    .MV     : SPONTANEOUS POTENTIAL [BASELINE 0 MV, SPRED]
SRESWS  .OHMM   : SHALLOW RESISTIVITY [SFLED]
~Params ----------------------------------------------------
PD  .                     GL : PERMANENT DATUM
EPD .M                 924.3 : ELEVATION PERMANENT DATUM
LMF .                     KB : LOG MEASURED FROM
DAPD.M                  8.98 : FEET ABOVE PERMANENT DATUM
DMF .                     KB : DRILLING MEASURED FROM
EKB .M                933.28 : KELLY BUSHING
EGL .M                 924.3 : GROUND LEVEL
DATE.               04/16/81 : RUN DATE
RUN .                      1 : RUN NUMBER
DD  .M                  3875 : DEPTH DRILLER
DL  .M                3871.9 : DEPTH LOGGER
BLI .M                3871.1 : BOTTOM LOG INTERVAL
TLI .M                  1800 : TOP LOG INTERVAL
CS  .MM                244.5 : CASING SIZE
CBD .M                 477.5 : CASING BOTTOM DRILLER
BS  .MM                  222 : BIT SIZE
BSD .M                  3875 : BIT SIZE AT DEPTH
DFT .               GEL CHEM : DRILLING FLUID TYPE
DFD .                   1100 : DRILLING FLUID DENSITY
DFV .                     89 : DRILLING FLUID VISCOSITY
DFPH.                    9.5 : DRILLING FLUID PH
DFL .                      9 : DRILLING FLUID LOSS
MSS .               FLOWLINE : MUD SAMPLE SOURCE
RMS .OHMM                1.5 : RESISTIVITY MUD SAMPLE
MST .DEGC                 18 : MUD SAMPLE TEMPERATURE
RMF .OHMM                1.2 : RESISTIVITY MUD FILTRATE SAMPLE
MFST.DEGC                 18 : MUD FILTRATE SAMPLE TEMPERATURE
RMC .OHMM                2.1 : RESISTIVITY MUD CAKE
MCST.DEGC                 18 : MUD CAKE SAMPLE TEMPERATURE
MFSS.                   MEAS : MUD FILTRATE SAMPLE SOURCE
MCSS.                   MEAS : MUD CAKE SAMPLE SOURCE
RMB .OHMM               0.49 : RESISTIVITY MUD AT BHT
TCS .HRS                  45 : TIME CIRCULATED STOPPED
LUN .                HL 6091 : LOGGING UNIT NUMBER
LUL .                  GR PR : LOGGING UNIT LOCATION
ENGI.         HOWARD LAMBORN : RECORDING ENGINEER
WITN.                  LEWIS : WITNESSED BY
CLNT.                A2DTECH : CLIENT CODE
ORIG.        6.5"/100M PRINT : ORIGIN OF DATA
UWI .       100102506527W500 : UNIQUE WELL ID
DICO. A2D Technologies, Inc. : DIGITIZING COMPANY
~Other -----------------------------------------------------
DIFL-CNT-FDT-BHC LOG RAN
~ASCII -----------------------------------------------------
# ...
 3100.00000  207.85600  211.42280  203.80960  211.42280   27.00130   26.43560   26.43560 2658.23240    0.01840    -999.25    0.03030   37.03530  207.85600  105.77790   85.80720   85.80720   37.03530   63.00660   63.00660    0.12450    -999.25    0.12450 2658.23240   59.60000  -84.12300  -22.26680   59.60000
 3150.00000  165.27980  249.90620  223.17540  249.90620    4.45610   71.96500   71.96500 2662.53220    0.01840    -999.25    0.02780  224.41030  165.27980   20.66740   26.67330   26.67330  224.41030  458.30010  458.30010    0.02120    -999.25    0.02120 2662.53220  664.98100 -121.75470  -59.97340  664.98100
 3200.00000  170.70960  300.17830  208.65630  300.17830    4.00450  102.83750  102.83750 2503.00240    0.11560    -999.25    0.12110  249.72160  170.70960   20.82220   25.20570   25.20570  249.72160  121.51440  121.51440    0.02140    -999.25    0.02140 2503.00240  809.33140 -146.48440  -87.42190  809.33140
 3250.00000  167.18890  291.00760  190.37120  291.00760    6.50910  124.66000  124.66000 2408.04590    0.16750    -999.25    0.17660  153.63180  167.18890   13.44120   24.22490   24.22490  153.63180  967.88050  967.88050    0.03620    -999.25    0.03620 2408.04590  360.65540 -174.37840 -118.03470  360.65540
 3300.00000  174.69790  339.29090  238.50540  339.29090    8.40230  144.44260  144.44260 2087.74710    0.37160    -999.25    0.36390  119.01530  174.69790   19.74510   24.98770   24.98770  119.01530  212.11430  212.11430    0.04220    -999.25    0.04220 2087.74710  347.56240 -156.78050 -103.15560  347.56240
 3350.00000  166.68750  241.44730  224.20240  241.44730   16.06900   80.66380   80.66380 2628.19430    0.04960    -999.25    0.04780   62.23170  166.68750   15.51080   21.32910   21.32910   62.23170   66.62980   66.62980    0.03280    -999.25    0.03280 2628.19430  134.13480 -227.37900 -176.47290  134.13480
 3400.00000  260.17010  391.44330  343.56570  391.44330   93.70580  -14.71710  -14.71710 1949.10350    0.48460    -999.25    0.44500   10.67170  260.17010  154.93650  133.20560  133.20560   10.67170    9.60900    9.60900    0.35370    -999.25    0.35380 1949.10350   12.38970 -127.22990  -79.04260   12.38970
 3450.00000  168.88700  262.68610  228.90660  262.68610    0.91060    9.22050    9.22050 2893.09280   -0.12040    -999.25   -0.10710 1098.21790  168.88700   20.05080   17.74950   17.74950 1098.21790 1884.47800 1884.47800    0.00460    -999.25    0.00460 2893.09280 2039.87560 -102.53200  -57.06340 2039.87560
 3500.00000  192.98410  232.26630  210.98500  232.26630   60.07520   30.40170   30.40170 2671.38820    0.01260    -999.25    0.02260   16.64580  192.98410   75.74300   58.80630   58.80630   16.64580   19.33580   19.33580    0.10890    -999.25    0.10890 2671.38820   27.07540 -203.46030 -147.69710   27.07540
 3550.00000  232.08050  240.85570  211.35700  240.85570  143.32810   97.81980   97.81980 2526.88160    0.09760    -999.25    0.10710    6.97700  232.08050  138.58370  106.95300  106.95300    6.97700    7.46550    7.46550    0.27790    -999.25    0.27790 2526.88160   12.20960 -224.80600 -147.55090   12.20960
 3600.00000  255.06250  257.83650  246.84930  257.83650  284.37370   83.32180   83.32180 2618.22390    0.04240    -999.25    0.05370    3.51650  255.06250  146.50330  112.48830  112.48830    3.51650    4.26400    4.26400    0.28770    -999.25    0.28770 2618.22390    5.49400 -117.72050  -24.66250    5.49400
 3650.00000  231.57810  219.78230  228.36160  219.78230  178.51090   38.46740   38.46740 2693.15870   -0.00040    -999.25    0.00980    5.60190  231.57810  138.96860  108.99780  108.99780    5.60190    6.38670    6.38670    0.20250    -999.25    0.20250 2693.15870    8.41610 -236.30260 -166.90330    8.41610
 3700.00000  237.15340  243.75060  227.62450  243.75060  177.98030   54.21270   54.21270 2640.14720    0.03190    -999.25    0.04080    5.61860  237.15340  158.91660  121.43080  121.43080    5.61860    6.48590    6.48590    0.22240    -999.25    0.22240 2640.14720    8.57810 -232.67670 -186.93610    8.57810
 3750.00000  256.86530  248.57410  239.70990  248.57410   40.40700   90.86300   90.86300 2592.10110    0.06260    -999.25    0.06890   24.74820  256.86530  159.75910  138.62920  138.62920   24.74820   30.38520   30.38520    0.26430    -999.25    0.26430 2592.10110   35.37790  -58.43560  -33.17310   35.37790
 3800.00000  171.20190  210.36530  236.31200  210.36530    8.97550   40.39580   40.39580 2741.76930   -0.02870    -999.25   -0.01860  111.41450  171.20190   54.36660   41.59830   41.59830  111.41450  202.15790  202.15790    0.06020    -999.25    0.06020 2741.76930  205.90190 -192.07670 -186.76060  205.90190
 3850.00000  168.41080  232.99180  223.27190  232.99180   20.01060   51.19910   51.19910 2771.84940   -0.04310    -999.25   -0.03620   49.97350  168.41080   90.68110   71.80380   71.80380   49.97350   67.15570   67.15570    0.10440    -999.25    0.10440 2771.84940   62.32060    1.15210  -13.94380   62.32060
