~Version ---------------------------------------------------
VERS.      2.0 : CWLS log ASCII Standard -VERSION 2.0
WRAP.       NO : One line per depth step
CREA. 11/03/17 : LAS Creation Date
~Well ------------------------------------------------------
STRT.FT                         1550.0 : START DEPTH
STOP.FT                        12000.0 : STOP DEPTH
STEP.FT                       50.00000 : STEP LENGTH
NULL.                          -999.25 : NULL VALUE
COMP. AMOCO CANADA PETROLEUM CO., LTD. : COMPANY
WELL.  AMOCO C-2 WASKAHIGAN 7-22-63-24 : WELL
FLD .                       WASKAHIGAN : FIELD
LOC .                                  : LOCATION
CTRY.                           CANADA : COUNTRY
SRVC.                          Unknown : SERVICE COMPANY
DATE.                      14-Dec-1976 : LOGDATE
PROV.                          Alberta : PROVINCE
UWI .                 100072206324W500 : UNIQUE WELL ID
SLAT.WGS84                    54.46349 : SURFACE LATITUDE
SLON.WGS84                   -117.5411 : SURFACE LONGITUDE
~Curve Information -----------------------------------------
DEPT    .FT    : Depth Curve
CALDED  .IN    : CALIPER FROM DENSITY LOG [ADJ. TO RESISTIVITY LOG]
CALSED  .IN    : CALIPER FROM SONIC LOG [ADJ. TO RESISTIVITY LOG]
CALWS   .IN    : CALIPER [CALDED]
CONDWS  .MMHO  : CONDUCTIVITY [1000/DRESWS]
DCORED  .G/C3  : DENSITY CORRECTION FROM DENSITY LOG [ADJ. TO RESISTIVITY LOG]
DCORWS  .G/C3  : DENSITY CORRECTION [DCORED]
DENWS   .G/C3  : FORMATION BULK DENSITY [RHOBED]
DPHILSED.V/V   : DENSITY POROSITY LIMESTONE [M=2.71, F=1.00 ASSUMED] FROM DENSITY LOG [ADJ. TO RESISTIVITY LOG]
DPHISSED.V/V   : DENSITY POROSITY SANDSTONE [M=2.65, F=1.00 ASSUMED] FROM DENSITY LOG [ADJ. TO RESISTIVITY LOG]
DPOLSWS .V/V   : DENSITY POROSITY LIMESTONE [CALC FROM DENWS, M=2710,F=1000 ASSUMED]
DRESWS  .OHMM  : DEEP RESISTIVITY [ILDED]
DTED    .US/F  : DELTA TIME FROM SONIC LOG [ADJ. TO RESISTIVITY LOG]
DTWS    .US/F  : COMPRESSIONAL SONIC [DTED]
GRDED   .GAPI  : GAMMA RAY FROM DENSITY LOG [ADJ. TO RESISTIVITY LOG]
GRSED   .GAPI  : GAMMA RAY FROM SONIC LOG [ADJ. TO RESISTIVITY LOG]
GRSRED  .GAPI  : GAMMA RAY (REPEAT SECTION) FROM SONIC LOG [ADJ. TO RESISTIVITY LOG]
GRWS    .GAPI  : GAMMA RAY [GRDED SPL. TO GRSRED @ 11982']
ILDED   .OHMM  : DEEP INDUCTION LOG RESISTIVITY FROM RESISTIVITY LOG
ILMED   .OHMM  : MEDIUM INDUCTION LOG RESISTIVITY FROM RESISTIVITY LOG
LL8ED   .OHMM  : 8 INCH LATEROLOG RESISTIVITY FROM RESISTIVITY LOG
MRESWS  .OHMM  : MEDIUM RESISTIVITY [ILMED]
NPHILSED.V/V   : NEUTRON POROSITY LIMESTONE FROM DENSITY LOG [ADJ. TO RESISTIVITY LOG]
NPHISSED.V/V   : NEUTRON POROSITY SANDSTONE FROM DENSITY LOG [ADJ. TO RESISTIVITY LOG]
NPOLSWS .V/V   : NEUTRON POROSITY LIMESTONE [SCHL. NPHISSED MATRIX CONVERSION FOR LIMESTONE, SPL. TO NPHILSED @ 7464']
RHOBED  .G/C3  : BULK DENSITY FROM DENSITY LOG [ADJ. TO RESISTIVITY LOG]
SPRED   .MV    : SPONTANEOUS POTENTIAL FROM RESISTIVITY LOG
SPWS    .MV    : SPONTANEOUS POTENTIAL [BASELINE 0 MV, SPRED]
SRESWS  .OHMM  : SHALLOW RESISTIVITY [LL8ED]
~Params ----------------------------------------------------
PD  .                     GL : PERMANENT DATUM
EPD .FT               2789.5 : ELEVATION PERMANENT DATUM
LMF .                     KB : LOG MEASURED FROM
DAPD.FT                 20.5 : FEET ABOVE PERMANENT DATUM
EKB .FT               2810.0 : KELLY BUSHING
EGL .FT               2789.5 : GROUND LEVEL
DATE.               12/14/76 : RUN DATE
RUN .                      1 : RUN NUMBER
DD  .FT                12005 : DEPTH DRILLER
DL  .FT                12008 : DEPTH LOGGER
BLI .FT                12002 : BOTTOM LOG INTERVAL
TLI .FT                 1519 : TOP LOG INTERVAL
CBD .FT                 1519 : CASING BOTTOM DRILLER
CBL .FT                 1519 : CASING BOTTOM LOGGER
BS  .IN                  8.5 : BIT SIZE
BSD .FT                12005 : BIT SIZE AT DEPTH
DFT .                    GEL : DRILLING FLUID TYPE
DFD .                    9.0 : DRILLING FLUID DENSITY
DFV .                     75 : DRILLING FLUID VISCOSITY
DFPH.                    9.5 : DRILLING FLUID PH
DFL .                   12.2 : DRILLING FLUID LOSS
MSS .               FLOWLINE : MUD SAMPLE SOURCE
RMS .OHMM               2.89 : RESISTIVITY MUD SAMPLE
MST .DEGF                 44 : MUD SAMPLE TEMPERATURE
RMF .OHMM               2.32 : RESISTIVITY MUD FILTRATE SAMPLE
MFST.DEGF                 62 : MUD FILTRATE SAMPLE TEMPERATURE
TCS .HRS                   4 : TIME CIRCULATED STOPPED
LUN .                   7635 : LOGGING UNIT NUMBER
LUL .                    EDM : LOGGING UNIT LOCATION
ENGI.                 PAQUIN : RECORDING ENGINEER
WITN.       MACDONALD FARLEY : WITNESSED BY
CLNT.                A2DTECH : CLIENT CODE
ORIG.            2" 5" PRINT : ORIGIN OF DATA
UWI .       100072206324W500 : UNIQUE WELL ID
DICO. A2D Technologies, Inc. : DIGITIZING COMPANY
~Other -----------------------------------------------------
DIL-CNFD-BCS TOOL RUN
GAPS IN DT AS PER IMAGE SPLICED
~ASCII -----------------------------------------------------
# ...
 5300.00000   11.22930    9.44610   11.22930   88.19040    0.11660    0.11660    2.48120    -999.25    0.09920    0.13380   11.33910   75.39350   75.39350  122.32990  131.33010    -999.25  122.32990   11.33910   10.95800   11.75720   10.95800    -999.25    0.28240    0.23840    2.48120 -200.04150   -9.71740   11.75720
 5350.00000   11.89530    9.56760   11.89530  103.65060    0.23680    0.23680    2.26580    -999.25    0.24140    0.25970    9.64780   77.77130   77.77130  131.52240  138.17720    -999.25  131.52240    9.64780    9.31380    9.76690    9.31380    -999.25    0.30030    0.25630    2.26580 -203.32540   -8.80920    9.76690
 5400.00000   11.61660    9.67420   11.61660  122.52950    0.23170    0.23170    2.32150    -999.25    0.20580    0.22720    8.16130   83.49460   83.49460  136.51550  141.78230    -999.25  136.51550    8.16130    7.56380    8.08520    7.56380    -999.25    0.38860    0.34550    2.32150 -203.06760   -4.35930    8.08520
 5450.00000   10.38430    9.39880   10.38430  101.61570    0.22230    0.22230    2.31790    -999.25    0.21210    0.22930    9.84100   80.75050   80.75050  150.67430  151.44460    -999.25  150.67430    9.84100    9.59990   10.60090    9.59990    -999.25    0.37280    0.32950    2.31790 -199.57170   -2.04040   10.60090
 5500.00000    8.62320    9.61500    8.62320  132.39250    0.12160    0.12160    2.49410    -999.25    0.10180    0.12630    7.55330   85.38820   85.38820  142.31560  160.52980    -999.25  142.31560    7.55330    7.25420    7.88270    7.25420    -999.25    0.46990    0.42890    2.49410 -198.76120   -3.58550    7.88270
 5550.00000    9.71060    9.95660    9.71060   97.65720    0.02030    0.02030    2.56280    -999.25    0.05750    0.08610   10.23990   74.66900   74.66900  116.13750  136.10290    -999.25  116.13750   10.23990    9.95510   10.73900    9.95510    -999.25    0.32040    0.27650    2.56280 -201.12630   -4.45190   10.73900
 5600.00000    9.60980    9.96900    9.60980  104.36130    0.12040    0.12040    2.46590    -999.25    0.10980    0.14270    9.58210   74.44510   74.44510  115.34000  128.79750    -999.25  115.34000    9.58210    9.21840   11.02480    9.21840    -999.25    0.37620    0.33290    2.46590 -197.01690   -7.78430   11.02480
 5650.00000   11.62030    9.58050   11.62030  125.60130    0.19700    0.19700    2.29380    -999.25    0.21330    0.24340    7.96170   85.55460   85.55460  140.53740  154.42400    -999.25  140.53740    7.96170    7.68540    8.27780    7.68540    -999.25    0.48580    0.44540    2.29380 -189.60880   -8.63380    8.27780
 5700.00000   13.21050   10.47210   13.21050  149.28270    0.14140    0.14140    2.18350    -999.25    0.28610    0.30790    6.69870   86.22490   86.22490  136.41540  150.18750    -999.25  136.41540    6.69870    6.44140    7.62440    6.44140    -999.25    0.52870    0.49030    2.18350 -162.19810   -6.23490    7.62440
 5750.00000   12.18810    9.72280   12.18810  241.27780    0.12650    0.12650    2.08550    -999.25    0.33140    0.36520    4.14460   99.73570   99.73570  153.13550  169.65180    -999.25  153.13550    4.14460    4.03880    4.89000    4.03880    -999.25    0.55140    0.51430    2.08550 -140.42050   -2.02460    4.89000
 5800.00000   10.79110    9.59260   10.79110  257.26120    0.13210    0.13210    2.19970    -999.25    0.28260    0.29840    3.88710   88.32080   88.32080  112.41990  125.91990    -999.25  112.41990    3.88710    3.62760    5.12390    3.62760    -999.25    0.54220    0.50460    2.19970 -139.61960   -4.56600    5.12390
 5850.00000    9.49380   10.15750    9.49380  302.11480    0.16270    0.16270    2.23290    -999.25    0.24700    0.27900    3.31000   94.76050   94.76050  135.62620  138.44840    -999.25  135.62620    3.31000    3.16000    3.77770    3.16000    -999.25    0.57460    0.53890    2.23290 -139.07050   -4.26010    3.77770
 5900.00000    9.20740    9.74610    9.20740  168.43810    0.18420    0.18420    2.16140    -999.25    0.31570    0.32080    5.93690   85.84190   85.84190  134.42120  143.10670    -999.25  134.42120    5.93690    5.72810    6.47840    5.72810    -999.25    0.46190    0.42060    2.16140 -139.36560   -4.79840    6.47840
 5950.00000    9.56530    9.61620    9.56530  233.83060    0.19770    0.19770    2.24910    -999.25    0.24620    0.26950    4.27660   94.87360   94.87360  144.71880  153.70830    -999.25  144.71880    4.27660    4.13340    5.18550    4.13340    -999.25    0.50740    0.46800    2.24910 -139.54570   -5.22160    5.18550
 6000.00000    9.03750    8.97360    9.03750   51.33580    0.22490    0.22490    2.43700    -999.25    0.13780    0.15960   19.47960   72.37310   72.37310  105.07130  114.61160    -999.25  105.07130   19.47960   18.76250   24.69680   18.76250    -999.25    0.25470    0.21080    2.43700 -138.68190   -4.60100   24.69680
 6050.00000    8.65060    8.75370    8.65060   56.68130    0.22290    0.22290    2.60610    -999.25    0.03130    0.06080   17.64250   71.17380   71.17380  123.58960  129.40680    -999.25  123.58960   17.64250   17.20160   20.74200   17.20160    -999.25    0.26080    0.21680    2.60610 -138.89300   -5.05530   20.74200
 6100.00000   11.25750    9.54770   11.25750   57.94210    0.15370    0.15370    2.32690    -999.25    0.19430    0.22400   17.25860   72.56620   72.56620  113.74090  116.28080    -999.25  113.74090   17.25860   18.35970   23.27750   18.35970    -999.25    0.29260    0.24860    2.32690 -136.71010   -3.11560   23.27750
 6150.00000    8.92680    9.09230    8.92680  119.18240    0.02270    0.02270    2.56630    -999.25    0.04780    0.08410    8.39050   73.10190   73.10190  118.09120  120.33330    -999.25  118.09120    8.39050    8.26240    8.74980    8.26240    -999.25    0.32600    0.28210    2.56630 -138.74720   -5.39590    8.74980
 6200.00000    9.10110    9.06870    9.10110   47.43270    0.01930    0.01930    2.57730    -999.25    0.06680    0.07760   21.08250   68.03590   68.03590   88.98370   96.30250    -999.25   88.98370   21.08250   21.80050   27.23480   21.80050    -999.25    0.30200    0.25800    2.57730 -138.49570   -5.38760   27.23480
 6250.00000    9.38510    9.34540    9.38510   99.81930    0.00460    0.00460    2.54070    -999.25    0.07200    0.09900   10.01810   73.06030   73.06030   81.96360   78.78220    -999.25   81.96360   10.01810   10.93070   11.08180   10.93070    -999.25    0.24060    0.19680    2.54070 -138.94160   -6.01920   11.08180
 6300.00000    9.37660    8.74340    9.37660   73.55650    0.04280    0.04280    2.55060    -999.25    0.06320    0.09320   13.59500   71.77050   71.77050   63.89010   64.14300    -999.25   63.89010   13.59500   16.51000   23.14020   16.51000    -999.25    0.24480    0.20090    2.55060 -143.51590  -10.77800   23.14020
 6350.00000   11.33610    9.75680   11.33610   94.85600    0.18310    0.18310    2.24470    -999.25    0.24050    0.27210   10.54230   81.88330   81.88330  122.95120  128.21510    -999.25  122.95120   10.54230   11.28570   14.15060   11.28570    -999.25    0.49740    0.45750    2.24470 -139.18710   -6.63380   14.15060
 6400.00000    8.50560    8.81440    8.50560   56.42740    0.00770    0.00770    2.59900    -999.25    0.02920    0.06490   17.72190   71.01100   71.01100   97.72800  104.65110    -999.25   97.72800   17.72190   19.43470   21.26140   19.43470    -999.25    0.32570    0.28180    2.59900 -141.03280   -8.66400   21.26140
 6450.00000   11.59090   10.42040   11.59090   58.85430    0.15520    0.15520    2.00590    -999.25    0.37540    0.41180   16.99110   83.33180   83.33180   97.08340   97.67180    -999.25   97.08340   16.99110   20.05570   23.25170   20.05570    -999.25    0.50770    0.46830    2.00590 -141.77640   -9.59220   23.25170
 6500.00000    8.88470    8.95360    8.88470   55.88970   -0.00640   -0.00640    2.59480    -999.25    0.03800    0.06740   17.89240   71.58670   71.58670  102.45090  108.42170    -999.25  102.45090   17.89240   18.46000   21.07860   18.46000    -999.25    0.31370    0.26980    2.59480 -141.45940   -9.45970   21.07860
