~Version ---------------------------------------------------
VERS.      2.0 : CWLS log ASCII Standard -VERSION 2.0
WRAP.       NO : ONE LINE PER DEPTH STEP
CREA. 08/28/13 : LAS CREATION DATE
~Well ------------------------------------------------------
STRT.M                     450.0 : START DEPTH
STOP.M                    3750.0 : STOP DEPTH
STEP.M                  50.00000 : STEP LENGTH
NULL.                    -999.25 : NULL VALUE
COMP. ALBERTA ENERGY COMPANY LTD : COMPANY
WELL.   AEC NORTH KARR 4-26-66-1 : WELL
FLD .                            : FIELD
LOC .                            : LOCATION
CTRY.                     CANADA : COUNTRY
SRVC.                    Unknown : SERVICE COMPANY
DATE.                18-Oct-1996 : LOGDATE
PROV.                    Alberta : PROVINCE
UWI .           100042606601W600 : UNIQUE WELL ID
SLAT.WGS84              54.73603 : SURFACE LATITUDE
SLON.WGS84             -118.0441 : SURFACE LONGITUDE
~Curve Information -----------------------------------------
DEPT    .M      : DEPTH METERS
AHIBDED .MM     : ARRAY INDUCTION INPUT BOREHOLE DIAMETER TO AIT PROCESSING
AHT10ED .OHMM   : 10 INCH RESISTIVITY TWO FOOT RESOLUTION FROM AIT LOG
AHT20ED .OHMM   : 20 INCH RESISTIVITY TWO FOOT RESOLUTION FROM AIT LOG
AHT30ED .OHMM   : 30 INCH RESISTIVITY TWO FOOT RESOLUTION FROM AIT LOG
AHT60ED .OHMM   : 60 INCH RESISTIVITY TWO FOOT RESOLUTION FROM AIT LOG
AHT90ED .OHMM   : 90 INCH RESISTIVITY TWO FOOT RESOLUTION FROM AIT LOG
AHTRTED .OHMM   : ARRAY INDUCTION TWO FOOT RT
AHTRXED .OHMM   : ARRAY INDUCTION TWO FOOT RT
CALDED  .MM     : CALIPER FROM DENSITY LOG
CALRED  .MM     : CALIPER FROM RESISTIVITY LOG
CALWS   .MM     : CALIPER [HCLARED]<3625>[CALRED]
CGRDED  .GAPI   : GAMMA RAY FROM DENSITY LOG
CONDWS  .MMHO   : CONDUCTIVITY [1000/DRESWS]
DCORWS  .KG/M3  : DENSITY CORRECTION [HDRAED]<3625>[DRHOED]
DENWS   .KG/M3  : BULK DENSITY [RHOZED]<3625>[RHOBED]
DPHILSED.V/V    : DENSITY POROSITY [M=2710 F=1000] FROM DENSITY LOG
DPHZLSED.V/V    : DENSITY POROSITY LIMESTONE FROM DENSITY LOG
DPHZSSED.V/V    : DENSITY POROSITY SANDSTONE FROM DENSITY LOG
DPOLSWS .V/V    : DENSITY POROSITY LIMESTONE [CALCULATED FROM DENWS]
DRESWS  .OHMM   : DEEP RESISTIVITY [AHT90ED], SPLICED WITH [LLDED]AT 3625m
DRHOED  .KG/M3  : DENSITY CORRECTION FROM DENSITY LOG
DT4PED  .US/M   : DELTA TIME COMP - P & S FROM DIPOLE SONIC LOG
DTCOED  .US/M   : DELTA TIME COMPRESSIONAL FROM SONIC LOG
DTED    .US/M   : DELTA TIME FROM SONIC LOG
DTWS    .US/M   : DELTA TIME [DTED]
GRRED   .GAPI   : GAMMA RAY FROM RESISTIVITY LOG
GRSED   .GAPI   : GAMMA RAY FROM SONIC LOG
GRWS    .GAPI   : GAMMA RAY [GRRED]
HCALRED .MM     : HRCC CALIPER CALIBRATED FROM RES. LOG
HDDED   .MM     : HOLE DIAMETER FROM DENSITY LOG
HDRAED  .KG/M3  : DENSITY CORRECTION FROM DENSITY LOG
HDSED   .MM     : HOLE DIAMETER FROM SONIC LOG
LLDED   .OHMM   : LATEROLOG DEEP RESISTIVITY
LLSED   .OHMM   : LATEROLOG SHALLOW RESISTIVITY
MRESWS  .OHMM   : MEDIUM RESISTIVITY [LLSED]
MSFLED  .OHMM   : MICROSPHERICALLY FOCUSED LOG RESISTIVITY
NPOLSWS .V/V    : NUTRON POROSITY LIMESTONE [NPORLSED], MATRIX CONVERTED [NPORSSED] TO LIMESTONE FROM TOP TO 2150m
NPORLSED.V/V    : NUTRON POROSITY LIMESTONE FROM DENSITY LOG
NPORSSED.V/V    : NUTRON POROSITY SANDSTONE FROM DENSITY LOG
PEFED   .B/E    : PHOTOELECTRIC FACTOR FROM DENSITY LOG
PEFWS   .B/E    : PHOTOELECTRIC FACTOR [PEFED]
PEFZED  .B/E    : PHOTOELECTRIC FACTOR STANDARD RESOLUTION FROM DENSITY LOG
RHOBED  .KG/M3  : BULK DENSITY FROM DENSITY LOG
RHOZED  .KG/M3  : BULK DENSITY FROM DENSITY LOG
SGRDED  .GAPI   : GAMMA RAY FROM DENSITY LOG
SPRED   .MV     : SPONTANEOUS POTENTIAL FROM RESISTIVITY LOG
SPWS    .MV     : SPONTANEOUS POTENTIAL [BASELINE 0 MV] [SPRED]
SRESWS  .OHMM   : SHALLOW RESISTIVITY [AHT10ED], SPLICED WITH [LLSED] AT 3625m
TENDED  .N      : TENSION FROM DENSITY LOG
TENRED  .N      : TENSION FROM RESISTIVITY LOG
TENSED  .N      : TENSION FROM SONIC LOG
~Params ----------------------------------------------------
PD  .                        GL : PERMANENT DATUM
EPD .M                    811.6 : ELEVATION PERMANENT DATUM
LMF .                        KB : LOG MEASURED FROM
DAPD.M                      7.4 : FEET ABOVE PERMANENT DATUM
DMF .                        KB : DRILLING MEASURED FROM
EKB .M                      819 : KELLY BUSHING
EDF .M                    818.7 : DRILLING FLOOR
EGL .M                    811.6 : GROUND LEVEL
DATE.                  10/18/96 : RUN DATE
RUN .                         1 : RUN NUMBER
DD  .M                     3755 : DEPTH DRILLER
DL  .M                     3756 : DEPTH LOGGER
BLI .M                   3755.2 : BOTTOM LOG INTERVAL
TLI .M                     3627 : TOP LOG INTERVAL
CS  .MM                   177.8 : CASING SIZE
CBD .M                     3628 : CASING BOTTOM DRILLER
CBL .M                     3627 : CASING BOTTOM LOGGER
BS  .MM                     152 : BIT SIZE
BSD .M                     3755 : BIT SIZE AT DEPTH
DFT .                  GEL CHEM : DRILLING FLUID TYPE
DFD .                      1130 : DRILLING FLUID DENSITY
DFV .                        60 : DRILLING FLUID VISCOSITY
DFPH.                      10.5 : DRILLING FLUID PH
DFL .                         8 : DRILLING FLUID LOSS
MSS .                  FLOWLINE : MUD SAMPLE SOURCE
RMS .OHMM                  3.32 : RESISTIVITY MUD SAMPLE
MST .DEGC                     9 : MUD SAMPLE TEMPERATURE
RMF .OHMM                  2.76 : RESISTIVITY MUD FILTRATE SAMPLE
MFST.DEGC                     9 : MUD FILTRATE SAMPLE TEMPERATURE
RMC .OHMM                  1.85 : RESISTIVITY MUD CAKE
MCST.DEGC                    11 : MUD CAKE SAMPLE TEMPERATURE
MFSS.                  MEASURED : MUD FILTRATE SAMPLE SOURCE
MCSS.                  MEASURED : MUD CAKE SAMPLE SOURCE
RMB .OHMM                 0.824 : RESISTIVITY MUD AT BHT
TCS .HRS                   2230 : TIME CIRCULATED STOPPED
TLAB.HRS                   1545 : TIME LOGGER AT BOTTOM
LUN .                      2028 : LOGGING UNIT NUMBER
LUL .            GRANDE PRAIRIE : LOGGING UNIT LOCATION
ENGI.           GIESSEN CARRCLL : RECORDING ENGINEER
WITN.                    SHIPKA : WITNESSED BY
CLNT.                   A2DTECH : CLIENT CODE
ORIG. 16.5"/100M 33"/100M PRINT : ORIGIN OF DATA
UWI .          100042606601W600 : UNIQUE WELL ID
DICO.    A2D Technologies, Inc. : DIGITIZING COMPANY
~Other -----------------------------------------------------
~ASCII -----------------------------------------------------
# ...
 3250.00000  232.87980 1779.98380 1431.42820  294.79820  234.51570  213.31400  213.37630 1711.41480    -999.25    -999.25  229.45490    -999.25    -999.25  378.21020 2815.71040    -999.25   -0.05560   -0.09790   -0.06180  213.31400    -999.25  161.97120  160.03490  160.78340  160.78340   12.16180    8.43730   12.16180  229.45490  213.47230  378.21020  241.22020    -999.25    -999.25  294.79820    -999.25    0.00890    0.00890    0.03950    -999.25    4.87200    4.87200    -999.25 2815.71040    -999.25    -999.25    -999.25 1779.98380    -999.25 18555.08010    -999.25
 3300.00000  217.21600    -999.25    -999.25    -999.25 2023.16910 2007.75850 1990.93030 2020.10490    -999.25    -999.25  216.31200    -999.25    -999.25   35.82020 2880.72580    -999.25   -0.10090   -0.14340   -0.09980 2007.75850    -999.25  162.83920  162.88790  163.51830  163.51830   12.08900    8.69960   12.08900  216.31200  218.95440   35.82020  241.55170    -999.25    -999.25    -999.25    -999.25    0.01850    0.01850    0.05200    -999.25    4.88170    4.88170    -999.25 2880.72580    -999.25    -999.25    -999.25    -999.25    -999.25 18295.82620    -999.25
 3350.00000  217.16920    -999.25    -999.25    -999.25 1822.02700 1739.85510 1154.92970 1765.84580    -999.25    -999.25  216.96560    -999.25    -999.25    6.30830 2910.90580    -999.25   -0.11980   -0.15940   -0.11750 1739.85510    -999.25  164.65030  164.30540  164.88740  164.88740    4.72160    2.71560    4.72160  216.96560  218.19960    6.30830  240.61790    -999.25    -999.25    -999.25    -999.25   -0.01500   -0.01500    0.00700    -999.25    5.31950    5.31950    -999.25 2910.90580    -999.25    -999.25    -999.25    -999.25    -999.25 19092.46090    -999.25
 3400.00000  214.43700 1947.46000 1935.22610 1311.09400 1928.80190 1005.82950 1369.30700 1998.78020    -999.25    -999.25  214.49560    -999.25    -999.25   23.70590 2666.96480    -999.25    0.02450   -0.01000    0.02520 1005.82950    -999.25  175.97610  175.42660  176.12790  176.12790   23.03430   18.35360   23.03430  214.49560  218.87810   23.70590  224.62810    -999.25    -999.25 1311.09400    -999.25    0.02900    0.02900    0.06640    -999.25    4.99000    4.99000    -999.25 2666.96480    -999.25    -999.25    -999.25 1947.46000    -999.25 18741.75200    -999.25
 3450.00000  216.44690    3.05070    2.88840    2.64510    2.59130    2.55360    2.69480    3.06430    -999.25    -999.25  215.82460    -999.25    -999.25   40.85910 2671.83860    -999.25    0.02190   -0.01300    0.02230    2.55360    -999.25  264.70670  253.09010  258.41240  258.41240  110.09820   95.66590  110.09820  215.82460  209.35700   40.85910  221.51870    -999.25    -999.25    2.64510    -999.25    0.20270    0.20270    0.25470    -999.25    4.03220    4.03220    -999.25 2671.83860    -999.25    -999.25    -999.25    3.05070    -999.25 19074.85350    -999.25
 3500.00000  215.15670    8.87680    8.59940    7.65150    7.20780    6.75650    6.95400    9.52980    -999.25    -999.25  214.88990    -999.25    -999.25   36.33080 2681.54640    -999.25    0.01570   -0.02120    0.01660    6.75650    -999.25  203.37100  201.55410  202.74570  202.74570   51.59570   45.47250   51.59570  214.88990  208.77930   36.33080  222.08630    -999.25    -999.25    7.65150    -999.25    0.10620    0.10620    0.15070    -999.25    4.56210    4.56210    -999.25 2681.54640    -999.25    -999.25    -999.25    8.87680    -999.25 19229.13280    -999.25
 3550.00000  214.36830    6.31300    6.22130    5.43910    5.07780    4.82130    4.83030    6.18350    -999.25    -999.25  213.97870    -999.25    -999.25   48.60310 2670.26440    -999.25    0.02360   -0.01120    0.02320    4.82130    -999.25  224.21270  224.10890  224.77090  224.77090   72.30340   61.14380   72.30340  213.97870  207.92640   48.60310  221.95270    -999.25    -999.25    5.43910    -999.25    0.14450    0.14450    0.19460    -999.25    4.19470    4.19470    -999.25 2670.26440    -999.25    -999.25    -999.25    6.31300    -999.25 19750.95310    -999.25
 3600.00000  214.34830    5.31800    6.14460    7.03890    9.49050    9.67370    4.82950   10.21100    -999.25    -999.25  214.26280    -999.25    -999.25   52.15610 2643.68190    -999.25    0.03960    0.00140    0.03880    9.67370    -999.25  275.95720  276.35770  277.57660  277.57660  120.70090  111.32060  120.70090  214.26280  208.70110   52.15610  225.78860    -999.25    -999.25    7.03890    -999.25    0.22610    0.22610    0.27680    -999.25    3.54690    3.54690    -999.25 2643.68190    -999.25    -999.25    -999.25    5.31800    -999.25 19619.02730    -999.25
 3650.00000    -999.25    -999.25    -999.25    -999.25    -999.25    -999.25    -999.25    -999.25  146.17090  149.22830  149.22830   29.76140    9.18100   10.22660 2709.06250    0.00120    -999.25    -999.25    0.00050  108.92060   10.22660    -999.25  178.23440  179.82600  179.82600   34.79730    -999.25   34.79730    -999.25    -999.25    -999.25  152.72430  108.92060  113.99200    -999.25  140.44610    0.05150    0.05150    -999.25    4.75170    4.75170    -999.25 2709.06250    -999.25   33.73260  -32.85690  -13.24240  113.99200 22854.64840 22894.69140 19795.03520
 3700.00000    -999.25    -999.25    -999.25    -999.25    -999.25    -999.25    -999.25    -999.25  149.75380  154.94960  154.94960   10.90590    0.14000    2.76560 2694.37380    0.01050    -999.25    -999.25    0.00910 7144.62350    2.76560    -999.25  163.84940  165.63510  165.63510   14.39130    -999.25   14.39130    -999.25    -999.25    -999.25  151.19830 7144.62350 10507.64450    -999.25   71.16670    0.01680    0.01680    -999.25    4.61710    4.61710    -999.25 2694.37380    -999.25   17.10500  -38.16230  -14.13320 10507.64450 22866.06250 22806.32620 19757.88280
 3750.00000    -999.25    -999.25    -999.25    -999.25    -999.25    -999.25    -999.25    -999.25  185.24970    -999.25    -999.25    -999.25    -999.25  233.83100 2354.11280    0.20710    -999.25    -999.25    0.20810    -999.25  233.83100    -999.25  266.55960  268.55710  268.55710    -999.25    -999.25    -999.25    -999.25    -999.25    -999.25  202.64000    -999.25    -999.25    -999.25    -999.25    0.14780    0.14780    -999.25    3.28900    3.28900    -999.25 2354.11280    -999.25    -999.25    -999.25    -999.25    -999.25 23529.18750 23397.02540 19789.82620
