~Version ---------------------------------------------------
VERS.      2.0 : CWLS log ASCII Standard -VERSION 2.0
WRAP.       NO : One line per depth step
CREA. 11/16/17 : LAS Creation Date
~Well ------------------------------------------------------
STRT.FT                            300.0 : START DEPTH
STOP.FT                          10650.0 : STOP DEPTH
STEP.FT                         50.00000 : STEP LENGTH
NULL.                            -999.25 : NULL VALUE
COMP.               IMPERIAL OIL LIMITED : COMPANY
WELL. IMPERIAL VIRGINIA HILLS 6-36-63-12 : WELL
FLD .                                 WC : FIELD
LOC .                                    : LOCATION
CTRY.                             CANADA : COUNTRY
SRVC.                       Schlumberger : SERVICE COMPANY
DATE.                        16-Jul-1956 : LOGDATE
PROV.                            Alberta : PROVINCE
UWI .                   100063606312W500 : UNIQUE WELL ID
SLAT.WGS84                  54.492313385 : SURFACE LATITUDE
SLON.WGS84               -115.6804122925 : SURFACE LONGITUDE
~Curve Information -----------------------------------------
DEPT  .FT         : Depth Curve
CALMED.IN         : CALIPER FROM MICRO LOG
CALWS .IN         : CALIPER [CALMED]
CONDWS.MMHO       : CONDUCTIVITY [1000/DRESWS]
DRESWS.OHMM       : DEEP RESISTIVITY [LNED]
GRNED .UgRa-Eq/T  : GAMMA RAY FROM GRN LOG
GRWS  .GAPI       : GAMMA RAY [GRNED*16.5]
LNED  .OHMM       : LONG NORMAL 64" FROM RESISTIVITY LOG
LT18ED.OHMM       : LATERAL 18" FROM RESISTIVITY LOG
MLLED .OHMM       : MICROLATEROLOG RESISTIVITY FROM MICRO LOG
NEUTED.SCPS       : NEUTRON FROM GRN LOG
NEUTWS.SCPS       : NEUTRON [NEUTED]
SNED  .OHMM       : 16 INCH SHORT NORMAL RESISTIVITY FROM RESISTIVITY LOG
SPRED .MV         : SPONTANEOUS POTENTIAL FROM RESISTIVITY LOG
SPWS  .MV         : SPONTANEOUS POTENTIAL [BASELINE 0 MV, SPRED]
SRESWS.OHMM       : SHALLOW RESISTIVITY [SNED]
~Params ----------------------------------------------------
LMF .                     KB : LOG MEASURED FROM
DMF .                     KB : DRILLING MEASURED FROM
EKB .FT                 3708 : KELLY BUSHING
DATE.               07/16/56 : RUN DATE
RUN .                      1 : RUN NUMBER
DD  .FT                10710 : DEPTH DRILLER
DL  .FT                10689 : DEPTH LOGGER
BLI .FT                10688 : BOTTOM LOG INTERVAL
TLI .FT                  714 : TOP LOG INTERVAL
CBD .FT                  713 : CASING BOTTOM DRILLER
CBL .FT                  714 : CASING BOTTOM LOGGER
BS  .IN                    9 : BIT SIZE
BSD .FT                10710 : BIT SIZE AT DEPTH
DFT .                    GEL : DRILLING FLUID TYPE
DFD .                     10 : DRILLING FLUID DENSITY
DFV .                    140 : DRILLING FLUID VISCOSITY
DFPH.                      9 : DRILLING FLUID PH
DFL .                      9 : DRILLING FLUID LOSS
RMS .OHMM                2.2 : RESISTIVITY MUD SAMPLE
MST .DEGF                 72 : MUD SAMPLE TEMPERATURE
RMB .OHMM                0.8 : RESISTIVITY MUD AT BHT
TCS .HRS                   4 : TIME CIRCULATED STOPPED
LUN .                   1890 : LOGGING UNIT NUMBER
LUL .                    SKW : LOGGING UNIT LOCATION
ENGI.                CHARLES : RECORDING ENGINEER
WITN.                PURCELL : WITNESSED BY
CLNT.                A2DTECH : CLIENT CODE
ORIG.            2" 5" PRINT : ORIGIN OF DATA
UWI .       100063606312W500 : UNIQUE WELL ID
DICO. A2D Technologies, Inc. : DIGITIZING COMPANY
~Other -----------------------------------------------------
~ASCII -----------------------------------------------------
# ...
 2600.00000    9.53120    9.53120  115.15030    8.68430    4.54520   74.99580    8.68430    8.12280    -999.25  260.94200  260.94200    8.11540  -81.48000  -27.39470    8.11540
 2650.00000    -999.25    -999.25  202.71100    4.93310    5.53800   91.37700    4.93310    5.36510    -999.25  243.90330  243.90330    4.39560  -61.82730   -7.79660    4.39560
 2700.00000    -999.25    -999.25  163.19070    6.12780    4.04740   66.78210    6.12780   11.47510    -999.25  303.78470  303.78470   14.71600  -68.75840  -14.78270   14.71600
 2750.00000    -999.25    -999.25  221.60170    4.51260    5.75930   95.02840    4.51260    4.91190    -999.25  234.12740  234.12740    4.08190  -62.50510   -8.58410    4.08190
 2800.00000    -999.25    -999.25  220.10010    4.54340    5.54760   91.53540    4.54340    5.40650    -999.25  236.87910  236.87910    4.04870  -62.04970   -8.18340    4.04870
 2850.00000    -999.25    -999.25  221.53300    4.51400    5.89560   97.27740    4.51400    5.25380    -999.25  230.36890  230.36890    3.80820  -61.29950   -7.48820    3.80820
 2900.00000    -999.25    -999.25  203.31880    4.91840    5.44430   89.83100    4.91840    4.56530    -999.25  230.46250  230.46250    4.25850  -61.59380   -7.83710    4.25850
 2950.00000    -999.25    -999.25  242.83630    4.11800    4.59600   75.83400    4.11800    7.69320    -999.25  286.14370  286.14370    7.47860  -68.85210  -15.15040    7.47860
 3000.00000    -999.25    -999.25  230.13900    4.34520    5.53790   91.37530    4.34520    5.71490    -999.25  232.38570  232.38570    3.80270  -61.24280   -7.59580    3.80270
 3050.00000    -999.25    -999.25  216.42220    4.62110    5.11290   84.36280    4.62110    5.23460    -999.25  240.84400  240.84400    5.14830  -61.64510   -8.05270    5.14830
 3100.00000   10.01240   10.01240  123.31670    8.10920    5.50930   90.90340    8.10920    3.48420    -999.25  229.88500  229.88500    6.12360  -61.44220   -7.90490    6.12360
 3150.00000    9.53440    9.53440   97.57530   10.24880    4.02330   66.38450   10.24880    9.69540    -999.25  302.45000  302.45000   15.45070  -81.58660  -28.10390   15.45070
 3200.00000   10.50220   10.50220  237.73300    4.20640    5.41020   89.26830    4.20640    6.32230    2.00740  236.50230  236.50230    3.82510  -62.18680   -8.75910    3.82510
 3250.00000    -999.25    -999.25  253.01720    3.95230    5.50900   90.89850    3.95230    6.47510    -999.25  232.03390  232.03390    4.69250  -60.87970   -7.50670    4.69250
 3300.00000    -999.25    -999.25  240.12000    4.16460    5.75500   94.95750    4.16460    4.56260    -999.25  224.23450  224.23450    4.48930  -61.04160   -7.72320    4.48930
 3350.00000    -999.25    -999.25  181.14960    5.52030    5.85750   96.64870    5.52030    4.86640    -999.25  228.35860  228.35860    5.04370  -63.47070  -10.20740    5.04370
 3400.00000    -999.25    -999.25  149.19480    6.70270    7.09910  117.13520    6.70270    7.29520    -999.25  219.75170  219.75170    6.15960  -70.10810  -16.89940    6.15960
 3450.00000    -999.25    -999.25  157.39110    6.35360    7.51060  123.92490    6.35360    6.93060    -999.25  209.22440  209.22440    5.69910  -69.36550  -16.21180    5.69910
 3500.00000    -999.25    -999.25  164.79080    6.06830    7.61100  125.58150    6.06830    6.48310    -999.25  217.06750  217.06750    5.62710  -70.23510  -17.13610    5.62710
 3550.00000    -999.25    -999.25  131.03190    7.63200   11.65410  192.29260    7.63200    5.25150    -999.25  220.94180  220.94180    8.05260  -65.48820  -12.44380    8.05260
 3600.00000    -999.25    -999.25  127.13750    7.86550    7.41610  122.36570    7.86550    7.17130    -999.25  225.83450  225.83450    8.20570  -66.62720  -13.63780    8.20570
 3650.00000    -999.25    -999.25  148.21260    6.74720    7.03790  116.12540    6.74720    9.24220    -999.25  242.39450  242.39450    7.18970  -66.12890  -13.19420    7.18970
 3700.00000    -999.25    -999.25  147.25150    6.79110    6.99010  115.33670    6.79110    7.07090    -999.25  222.42180  222.42180    7.30630  -70.57340  -17.69370    7.30630
 3750.00000    -999.25    -999.25  170.59610    5.86180    7.61030  125.56990    5.86180    6.97370    -999.25  225.90750  225.90750    6.17300  -71.57430  -18.74930    6.17300
 3800.00000    -999.25    -999.25  137.49210    7.27320    6.95050  114.68330    7.27320    8.42340    -999.25  228.56450  228.56450    7.97780  -67.88400  -15.11360    7.97780
 3850.00000    -999.25    -999.25  146.20520    6.83970    7.66780  126.51870    6.83970    6.74200    -999.25  220.99300  220.99300    7.42670  -70.64990  -17.93450    7.42670
 3900.00000    -999.25    -999.25  153.91380    6.49710    7.58970  125.23000    6.49710    7.40790    -999.25  228.83430  228.83430    6.97410  -71.63040  -18.96970    6.97410
 3950.00000    -999.25    -999.25  146.36360    6.83230    7.65960  126.38340    6.83230    7.83520    -999.25  236.39300  236.39300    7.56910  -69.84090  -17.23520    7.56910
 4000.00000    -999.25    -999.25  176.12460    5.67780    7.42300  122.47950    5.67780    6.16480    -999.25  221.51740  221.51740    6.33350  -72.21830  -19.66730    6.33350
 4050.00000    -999.25    -999.25  135.74780    7.36660    7.86630  129.79400    7.36660    8.59670    -999.25  226.57240  226.57240    7.99670  -69.45030  -16.95390    7.99670
 4100.00000    -999.25    -999.25  158.46100    6.31070    7.96280  131.38620    6.31070    7.21580    -999.25  233.23590  233.23590    7.09910  -69.72580  -17.28440    7.09910
 4150.00000    -999.25    -999.25  141.56740    7.06400    7.31210  120.64960    7.06400    7.37710    -999.25  236.98250  236.98250    7.50050  -66.01000  -13.62330    7.50050
 4200.00000    -999.25    -999.25  173.72570    5.75620    7.79860  128.67690    5.75620    5.90050    -999.25  221.28200  221.28200    6.19840  -64.67250  -12.34080    6.19840
 4250.00000    -999.25    -999.25  144.05280    6.94190    8.43070  139.10660    6.94190    7.18140    -999.25  224.01390  224.01390    7.62240  -63.32320  -11.04620    7.62240
 4300.00000    -999.25    -999.25  134.26520    7.44800    7.85410  129.59260    7.44800    6.74620    -999.25  237.77240  237.77240    8.77200  -62.82710  -10.60470    8.77200
 4350.00000    -999.25    -999.25  111.62210    8.95880    8.83230  145.73290    8.95880    6.84730    -999.25  228.77180  228.77180    9.81630  -60.00470   -7.83730    9.81630
 4400.00000    -999.25    -999.25  132.52330    7.54600    8.45620  139.52730    7.54600    7.09470    -999.25  236.37970  236.37970    7.11760  -60.74190   -8.62920    7.11760
 4450.00000    -999.25    -999.25  185.17490    5.40030    7.77520  128.29080    5.40030    7.24370    -999.25  234.20550  234.20550    5.94100  -62.25230  -10.19460    5.94100
 4500.00000    -999.25    -999.25  120.91020    8.27060    4.97430   82.07600    8.27060   13.09770    -999.25  299.52690  299.52690   22.44730  -79.57410  -27.57100   22.44730
 4550.00000    -999.25    -999.25  164.24950    6.08830    7.12660  117.58890    6.08830    6.02910    -999.25  239.21850  239.21850    6.41730  -60.93100   -8.98260    6.41730
 4600.00000    -999.25    -999.25  188.22110    5.31290    8.44470  139.33750    5.31290    4.73040    -999.25  220.25130  220.25130    5.75640  -59.52290   -7.62950    5.75640
 4650.00000    -999.25    -999.25  213.75060    4.67840    7.52020  124.08330    4.67840    5.15460    -999.25  232.32840  232.32840    5.49610  -58.35050   -6.51180    5.49610
 4700.00000    -999.25    -999.25  209.97380    4.76250    8.06290  133.03790    4.76250    4.40490    -999.25  230.47320  230.47320    5.13950  -59.94890   -8.16520    5.13950
 4750.00000    -999.25    -999.25  199.25880    5.01860    7.25530  119.71250    5.01860    6.92170    -999.25  228.76960  228.76960    5.74110  -56.56650   -4.83740    5.74110
 4800.00000    -999.25    -999.25  398.66060    2.50840    6.68300  110.26950    2.50840    2.49270    -999.25  230.82990  230.82990    3.00740  -55.51100   -3.83660    3.00740
 4850.00000    -999.25    -999.25  295.98060    3.37860    6.99240  115.37460    3.37860    3.19370    -999.25  229.49830  229.49830    4.27230  -55.67350   -4.14810    4.27230
