~Version ---------------------------------------------------
VERS.      2.0 : CWLS log ASCII Standard -VERSION 2.0
WRAP.       NO : One line per depth step
CREA. 12/12/17 : LAS Creation Date
~Well ------------------------------------------------------
STRT.FT                    750.0 : START DEPTH
STOP.FT                   6850.0 : STOP DEPTH
STEP.FT                 50.00000 : STEP LENGTH
NULL.                    -999.25 : NULL VALUE
COMP.       SHELL CANADA LIMITED : COMPANY
WELL. SHELL WESTLOCK 10-33-61-27 : WELL
FLD .                            : FIELD
LOC .                            : LOCATION
CTRY.                     CANADA : COUNTRY
SRVC.               Schlumberger : SERVICE COMPANY
DATE.                01-Feb-1966 : LOGDATE
PROV.                    Alberta : PROVINCE
UWI .           100103306127W400 : UNIQUE WELL ID
SLAT.WGS84              54.32129 : SURFACE LATITUDE
SLON.WGS84             -113.9838 : SURFACE LONGITUDE
~Curve Information -----------------------------------------
DEPT   .FT    : Depth Curve
CALDED .IN    : CALIPER FROM DENSITY LOG [ADJ. TO DIL LOG]
CALWS  .IN    : CALIPER [CALDED]
CILDED .MMHO  : CONDUCTIVITY FROM IEL LOG [ADJ. TO DIL LOG]
CONDWS .MMHO  : CONDUCTIVITY [1000/DRESWS]
DCORWS .G/C3  : DENSITY CORRECTION [DRHOED]
DENWS  .G/C3  : FORMATION BULK DENSITY [RHOBED]
DPOLSWS.V/V   : DENSITY POROSITY LIMESTONE [CALC FROM DENWS, M=2.71, F=1.00 ASSUMED]
DRESWS .OHMM  : DEEP RESISTIVITY [ILDED]
DRHOED .G/C3  : DENSITY CORRECTION FROM DENSITY LOG [ADJ. TO DIL LOG]
DTED   .US/F  : DELTA TIME FROM SONIC LOG [ADJ. TO DIL LOG]
DTWS   .US/F  : COMPRESSIONAL SONIC [DTED]
GRDED  .GAPI  : GAMMA RAY FROM DENSITY LOG [ADJ. TO DIL LOG]
GRSED  .GAPI  : GAMMA RAY FROM SONIC LOG [ADJ. TO DIL LOG]
GRWS   .GAPI  : GAMMA RAY [GRDED]
ILD1ED .OHMM  : DEEP INDUCTION LOG RESISTIVITY FROM IEL LOG [ADJ. TO DIL LOG]
ILDED  .OHMM  : DEEP INDUCTION LOG RESISTIVITY FROM DIL LOG (ILD SPL. TO ILD_2 @ 6068'-6572')
ILMED  .OHMM  : MEDIUM INDUCTION LOG RESISTIVITY FROM DIL LOG (ILM SPL. TO ILM_2 @ 6068'-6576')
LL8ED  .OHMM  : 8 INCH LATEROLOG RESISTIVITY FROM DIL LOG (LL8 SPL. TO LL8_2 @ 6068'-6506')
MRESWS .OHMM  : MEDIUM RESISTIVITY [ILMED]
RHOBED .G/C3  : BULK DENSITY FROM DENSITY LOG [ADJ. TO DIL LOG]
SNED   .OHMM  : 16 INCH SHORT NORMAL RESISTIVITY FROM IEL LOG [ADJ. TO DIL LOG]
SPR1ED .MV    : SPONTANEOUS POTENTIAL FROM IEL LOG [ADJ. TO DIL LOG]
SPRED  .MV    : SPONTANEOUS POTENTIAL FROM DIL LOG (SPR SPL. TO SPR_2 @ 6068'-6577')
SPWS   .MV    : SPONTANEOUS POTENTIAL [BASELINE 0 MV, SPRED]
SRESWS .OHMM  : SHALLOW RESISTIVITY [LL8ED]
~Params ----------------------------------------------------
PD  .                     GL : PERMANENT DATUM
EPD .FT               2008.9 : ELEVATION PERMANENT DATUM
LMF .                     KB : LOG MEASURED FROM
DAPD.FT                 13.8 : FEET ABOVE PERMANENT DATUM
EKB .FT               2022.7 : KELLY BUSHING
EGL .FT               2008.9 : GROUND LEVEL
DATE.               02/01/66 : RUN DATE
RUN .                      2 : RUN NUMBER
DD  .FT                 6850 : DEPTH DRILLER
DL  .FT                 6850 : DEPTH LOGGER
BLI .FT                 6846 : BOTTOM LOG INTERVAL
TLI .FT                 2900 : TOP LOG INTERVAL
CBD .FT                  724 : CASING BOTTOM DRILLER
CBL .FT                  724 : CASING BOTTOM LOGGER
BS  .IN                7.875 : BIT SIZE
BSD .FT                 6850 : BIT SIZE AT DEPTH
DFT .                    GEL : DRILLING FLUID TYPE
DFD .                    9.9 : DRILLING FLUID DENSITY
DFV .                     80 : DRILLING FLUID VISCOSITY
DFPH.                     11 : DRILLING FLUID PH
DFL .                    6.2 : DRILLING FLUID LOSS
RMS .OHMM               0.15 : RESISTIVITY MUD SAMPLE
MST .DEGF                 62 : MUD SAMPLE TEMPERATURE
RMF .OHMM               0.07 : RESISTIVITY MUD FILTRATE SAMPLE
MFST.DEGF                122 : MUD FILTRATE SAMPLE TEMPERATURE
RMC .OHMM               0.18 : RESISTIVITY MUD CAKE
MCST.DEGF                 68 : MUD CAKE SAMPLE TEMPERATURE
RMB .OHMM               0.09 : RESISTIVITY MUD AT BHT
TCS .HRS                   2 : TIME CIRCULATED STOPPED
LUN .                   2547 : LOGGING UNIT NUMBER
LUL .                     SL : LOGGING UNIT LOCATION
ENGI.                  CRAIN : RECORDING ENGINEER
WITN.                PHERSON : WITNESSED BY
CLNT.                A2DTECH : CLIENT CODE
ORIG.            2" 5" PRINT : ORIGIN OF DATA
UWI .       100103306127W400 : UNIQUE WELL ID
DICO. A2D Technologies, Inc. : DIGITIZING COMPANY
~Other -----------------------------------------------------
DIL-IEL-FDC-BCS TOOL RUN
~ASCII -----------------------------------------------------
# ...
 4950.00000   13.48750   13.48750  270.08740  280.20620    0.17000    2.17300    0.31400    3.56880    0.17000   83.65180   83.65180   76.37850   65.40640   76.37850    3.99780    3.56880    3.87000    5.27000    3.87000    2.17300    3.87900  -26.00030  -18.63160   -7.21140    5.27000
 5000.00000   13.45070   13.45070  167.49090  168.75070    0.24360    2.17220    0.31450    5.92590    0.24360   79.43260   79.43260   67.53490   61.61880   67.53490    6.41820    5.92590    4.03110   13.37350    4.03110    2.17220    4.79990  -26.03130  -19.46230   -7.69830   13.37350
 5050.00000   13.29050   13.29050  251.66530  266.10610    0.16690    1.92170    0.46100    3.75920    0.16690   88.65360   88.65360   84.04560   74.13260   84.04560    4.21820    3.75920    3.18000   11.30540    3.18000    1.92170    4.21690  -29.71130  -22.04780   -9.94000   11.30540
 5100.00000    8.32190    8.32190   31.85140   20.44040    0.00040    2.70100    0.00530   48.92280    0.00040   56.89390   56.89390   28.66200   22.62340   28.66200   31.04760   48.92280   15.45110   53.45120   15.45110    2.70100   22.76400  -36.46210  -31.79060  -19.33680   53.45120
 5150.00000    9.29110    9.29110  120.13830  134.86720   -0.00640    2.64050    0.04060    7.41470   -0.00640   71.85290   71.85290   63.92550   54.98980   63.92550    8.55040    7.41470   14.14920    9.54850   14.14920    2.64050   10.56320  -29.03650  -24.08760  -11.29000    9.54850
 5200.00000    8.59470    8.59470   65.76360   70.43690   -0.01400    2.67230    0.02200   14.19710   -0.01400   63.59900   63.59900   49.78530   43.28170   49.78530   14.82300   14.19710    8.95610   22.89480    8.95610    2.67230   15.52390  -31.03590  -22.69810   -9.59930   22.89480
 5250.00000    8.25480    8.25480   49.09110   42.90040   -0.01450    2.66300    0.02750   23.30980   -0.01450   53.58790   53.58790    9.91980   11.94340    9.91980   21.54190   23.30980   13.23470   78.35130   13.23470    2.66300   26.09730  -49.39380  -42.38590  -29.05890   78.35130
 5300.00000    8.05330    8.05330  135.77370  142.53200   -0.00380    2.54920    0.09410    7.01800   -0.00380   58.03180   58.03180    8.99770    9.83920    8.99770    7.42870    7.01800    9.35070   44.05700    9.35070    2.54920   19.71390  -57.93900  -51.08380  -37.52850   44.05700
 5350.00000    8.38330    8.38330   18.99270   13.37400   -0.00780    2.70210    0.00460   74.77200   -0.00780   53.67470   53.67470   21.35740   22.49310   21.35740   62.85430   74.77200   34.55000   79.38630   34.55000    2.70210   31.95120  -39.77210  -35.50810  -21.72310   79.38630
 5400.00000    9.07670    9.07670   76.30220   81.42390    0.07180    2.69420    0.00920   12.28140    0.07180   63.73600   63.73600   47.90990   45.54280   47.90990   13.22010   12.28140   10.46610   18.76350   10.46610    2.69420   13.35780  -26.62610  -20.36310   -6.34980   18.76350
 5450.00000    9.07530    9.07530   88.70340   97.82150   -0.01380    2.64670    0.03700   10.22270   -0.01380   66.46240   66.46240   56.11370   52.94130   56.11370   11.40270   10.22270    9.05870   14.54010    9.05870    2.64670   10.94680  -25.38500  -19.50080   -5.25780   14.54010
 5500.00000    8.44470    8.44470   26.73080   11.47500   -0.01930    2.68310    0.01570   87.14630   -0.01930   51.32530   51.32530   15.32950   15.02860   15.32950   47.87220   87.14630   28.29260   94.70520   28.29260    2.68310   23.64830  -33.12830  -27.78330  -13.31200   94.70520
 5550.00000    8.57650    8.57650   72.11240   70.12840   -0.00350    2.68660    0.01370   14.26230   -0.00350   62.08570   62.08570   56.75400   51.34040   56.75400   14.40720   14.26230   10.65880   26.34280   10.65880    2.68660   13.24890  -25.18520  -21.25400   -6.55450   26.34280
 5600.00000    8.31940    8.31940   84.70110   83.22860   -0.00340    2.66630    0.02560   12.01510   -0.00340   65.42510   65.42510   60.28740   55.01390   60.28740   11.96040   12.01510   11.61180   22.39910   11.61180    2.66630   13.45680  -25.72370  -21.51660   -6.58730   22.39910
 5650.00000   10.86160   10.86160  155.71480  173.22620    0.23110    2.12330    0.34310    5.77280    0.23110   77.94990   77.94990   71.07670   67.64360   71.07670    6.17280    5.77280    3.93970  170.23340    3.93970    2.12330    6.54120  -27.28450  -18.03340   -2.87590  170.23340
 5700.00000    8.24830    8.24830   21.88830   17.36000    0.00150    2.69540    0.00850   57.60360    0.00150   56.02460   56.02460   24.30110   25.34390   24.30110   46.59600   57.60360   92.45330   67.92050   92.45330    2.69540   26.42010  -26.53310  -20.24800   -4.30830   67.92050
 5750.00000    8.38990    8.38990   33.31490   24.10810   -0.01210    2.72740   -0.01020   41.47990   -0.01210   52.52190   52.52190   34.90670   29.90950   34.90670   29.52990   41.47990   58.13140  242.85450   58.13140    2.72740   23.29150  -27.21340  -20.56670   -3.71050  242.85450
 5800.00000   10.74350   10.74350  300.40800  303.65760    0.01640    1.80390    0.52990    3.30970    0.01640   91.83350   91.83350   94.02090   92.00420   94.02090    3.44800    3.30970  357.95020   13.31060  357.95020    1.80390    5.88500  -36.63650  -22.13290   -4.36030   13.31060
 5850.00000    8.70940    8.70940  112.78610  116.57050    0.00280    2.61910    0.05320    8.57850    0.00280   72.33980   72.33980   89.26880   84.20060   89.26880    8.82930    8.57850    8.72230   21.91360    8.72230    2.61910   10.60300  -33.27890  -22.25700   -3.56190   21.91360
 5900.00000    9.98720    9.98720  309.41730  350.15230   -0.05500    2.21010    0.29230    2.85590   -0.05500   86.17520   86.17520   96.47030   80.12140   96.47030    3.37660    2.85590 1441.12590    4.94060 1441.12590    2.21010    7.56230  -43.08030  -25.59990   -5.98830    4.94060
 5950.00000    8.51470    8.51470  134.24350  142.37510    0.00910    2.69560    0.00840    7.02370    0.00910   64.62910   64.62910   57.08150   58.95580   57.08150    7.60160    7.02370    9.40710   20.76430    9.40710    2.69560   10.48920  -40.64100  -24.66410   -4.40330   20.76430
 6000.00000    8.97090    8.97090  327.75890  252.88290   -0.01170    2.57210    0.08060    3.95440   -0.01170   79.46520   79.46520  122.88250  115.35630  122.88250    3.24110    3.95440    2.73120    4.59440    2.73120    2.57210    3.88630  -39.36270  -23.63820   -3.64780    4.59440
 6050.00000    8.83730    8.83730  324.46630  328.14570    0.02900    2.57050    0.08160    3.04790    0.02900   74.10110   74.10110   98.77280   91.28960   98.77280    3.28330    3.04790    3.69600    4.24070    3.69600    2.57050    4.78930  -39.67200  -23.13970   -3.41980    4.24070
 6100.00000    8.40930    8.40930  233.58230  241.12650   -0.01590    2.64630    0.03730    4.14720   -0.01590   69.21820   69.21820   51.00440   60.81750   51.00440    4.49230    4.14720    4.37680    9.15950    4.37680    2.64630    6.89210  -39.83910  -27.52870   -8.03860    9.15950
 6150.00000    8.17060    8.17060  185.02940  196.70710   -0.00270    2.67570    0.02010    5.08370   -0.00270   63.80830   63.80830   79.29520   75.74430   79.29520    5.60990    5.08370    4.71740   12.23540    4.71740    2.67570    9.95080  -46.98150  -34.87270  -15.57330   12.23540
 6200.00000    8.15420    8.15420  425.17550  388.01800    0.02680    2.55290    0.09190    2.57720    0.02680   66.84260   66.84260   81.76170   71.07430   81.76170    2.69890    2.57720    2.37670    5.27130    2.37670    2.55290    4.36680  -55.23780  -49.18810  -30.08070    5.27130
 6250.00000    8.15530    8.15530   58.09480   59.67300    0.00350    2.76200   -0.03040   16.75800    0.00350   48.84910   48.84910   26.91840   22.21740   26.91840   18.02530   16.75800   15.89890   25.90200   15.89890    2.76200   13.49160  -49.03460  -47.32380  -28.40720   25.90200
 6300.00000    8.05680    8.05680   67.01850   68.57290    0.00160    2.75050   -0.02370   14.59530    0.00160   55.50180   55.50180   57.95220   52.60260   57.95220   15.56330   14.59530   11.06780   13.83700   11.06780    2.75050   12.74550  -41.41150  -40.33950  -21.61370   13.83700
