~Version ---------------------------------------------------
VERS. 2.0 : CWLS log ASCII Standard -VERSION 2.0
WRAP.  NO : ONE LINE PER DEPTH STEP
~Well ------------------------------------------------------
STRT.F                            1100.0 : START DEPTH
STOP.F                           10400.0 : STOP DEPTH
STEP.F                          50.00000 : STEP LENGTH
NULL.                            -999.25 : NULL VALUE
COMP.               CHEVRON STANDARD LTD : COMPANY
WELL. CHEVRON GULF PASS CREEK 7-36-61-18 : WELL
FLD .                                    : FIELD
LOC .                                    : LOCATION
CTRY.                             CANADA : COUNTRY
SRVC.                       Schlumberger : SERVICE COMPANY
DATE.                        11-Jan-1976 : LOGDATE
PROV.                            Alberta : PROVINCE
UWI .                   100073606118W500 : UNIQUE WELL ID
SLAT.WGS84                      54.31663 : SURFACE LATITUDE
SLON.WGS84                      -116.558 : SURFACE LONGITUDE
~Curve Information -----------------------------------------
DEPT   .F    0   1   0  0 : 1 MEASURED DEPTH
SPR    .MV   07 010 01 00 : SPONTANEOUS POTENTIAL FROM RESISTIVITY LOG
ILD    .OHMM 07 120 46 00 : INDUCTION DEEP RESISTIVITY
ILM    .OHMM 07 120 44 00 : INDUCTION MEDIUM RESISTIVITY
LL8    .OHMM 07 220 08 00 : LATEROLOG 8
GRS    .GAPI 60 310 01 00 : GAMMA RAY FROM SONIC LOG
DT     .US/F 60 500 00 00 : DELTA-T (INTERVAL TRANSIT TIME)
CALS   .IN   60 280 50 00 : CALIPER FROM SONIC LOG
DCOR   .G/C3 45 356 01 00 : DENSITY CORRECTION
CALD   .IN   45 280 60 00 : CALIPER FROM DENSITY LOG
RHOB   .G/C3 45 350 01 00 : BULK DENSITY
GRD    .GAPI 45 310 01 00 : GAMMA RAY FROM DENSITY LOG
DPHI_SS.DEC  45 890 12 00 : DENSITY POROSITY SANDSTONE
NPHI_SS.DEC  42 890 03 00 : NEUTRON POROSITY SANDSTONE
NPHI_LS.DEC  42 890 01 00 : NEUTRON POROSITY LIMESTONE
DPHI_LS.DEC  45 890 10 00 : DENSITY POROSITY LIMESTONE
~Params ----------------------------------------------------
PD  .                     GL : PERMANENT DATUM
EPD .FT                 2874 : ELEVATION PERMANENT DATUM
LMF .                     KB : LOG MEASURED FROM
DAPD.FT                   15 : FEET ABOVE PERMANENT DATUM
EKB .FT                 2889 : KELLY BUSHING
EGL .FT                 2874 : GROUND LEVEL
DATE.               01/11/76 : RUN DATE
RUN .                      1 : RUN NUMBER
DD  .FT                10410 : DEPTH DRILLER
DL  .FT                10421 : DEPTH LOGGER
BLI .FT                10415 : BOTTOM LOG INTERVAL
TLI .FT                 1118 : TOP LOG INTERVAL
CBD .FT                 1118 : CASING BOTTOM DRILLER
CBL .FT                 1121 : CASING BOTTOM LOGGER
BS  .IN                 8.75 : BIT SIZE
BSD .FT                10410 : BIT SIZE AT DEPTH
DFT .               GEL CHEM : DRILLING FLUID TYPE
DFD .                    9.5 : DRILLING FLUID DENSITY
DFV .                    137 : DRILLING FLUID VISCOSITY
DFPH.                    9.5 : DRILLING FLUID PH
DFL .                      9 : DRILLING FLUID LOSS
MSS .               FLOWLINE : MUD SAMPLE SOURCE
RMS .OHMM               2.38 : RESISTIVITY MUD SAMPLE
MST .DEGF                 54 : MUD SAMPLE TEMPERATURE
RMF .OHMM               2.06 : RESISTIVITY MUD FILTRATE SAMPLE
MFST.DEGF                 60 : MUD FILTRATE SAMPLE TEMPERATURE
RMC .OHMM               1.88 : RESISTIVITY MUD CAKE
MCST.DEGF                 42 : MUD CAKE SAMPLE TEMPERATURE
RMB .OHMM               0.66 : RESISTIVITY MUD AT BHT
TCS .HRS                 5.5 : TIME CIRCULATED STOPPED
LUN .                   7657 : LOGGING UNIT NUMBER
ENGI.                STANDEN : RECORDING ENGINEER
WITN.                   WONG : WITNESSED BY
CLNT.                A2DTECH : CLIENT CODE
ORIG.            2" 5" PRINT : ORIGIN OF DATA
UWI .       100073606118W500 : UNIQUE WELL ID
DICO. A2D Technologies, Inc. : DIGITIZING COMPANY
~Other -----------------------------------------------------
~ASCII -----------------------------------------------------
# ...
 5700.00000  -26.85470    9.26770    9.55630    8.34430   89.57940   86.43750   11.03860    0.01590   11.47530    2.56590   84.21380    0.07650    0.28540    -999.25    -999.25
 5750.00000  -34.08870    9.42030    9.72840   11.33230   74.09560   72.73300   10.18780    0.01780   10.30240    2.62580   84.18780    0.01660    0.24410    -999.25    -999.25
 5800.00000  -30.51000   11.70200   18.34940   21.17480   70.54620   76.61070   10.49780   -0.01210   10.44810    1.88320   42.32150    0.37240    0.39640    -999.25    -999.25
 5850.00000  -51.57360   15.13090   16.65100   19.28470   88.23160   71.17340   10.43470   -0.02250   10.37360    2.45410   99.33160    0.07440    0.26960    -999.25    -999.25
 5900.00000  -37.93500   10.75990   11.69230   14.15350   71.57210   81.82370   10.24420    0.03710   10.19300    2.52900   62.26770    0.10090    0.26160    -999.25    -999.25
 5950.00000  -59.44560    9.53780   10.33090   18.34180   52.22450   73.16730    9.82770    0.07050   10.33220    2.51990   63.57440    0.08970    0.23390    -999.25    -999.25
 6000.00000  -68.83940    7.33280    8.46480   11.95050   49.30680   71.87630    9.93720    0.01700   10.32650    2.51710   49.29160    0.07270    0.21210    -999.25    -999.25
 6050.00000  -28.90830   13.22220   14.18630   16.29320   86.68860   70.82600   10.49520    0.02820   10.90510    2.68740   89.13490   -0.00960    0.20850    -999.25    -999.25
 6100.00000  -29.27550    8.01330    9.06370   13.20790   77.46270   90.39550   13.11210    0.02060   12.33430    2.63120   84.71230    0.04090    0.25740    -999.25    -999.25
 6150.00000  -32.53090   10.26640   10.63050   12.33500   86.92480   69.66090   10.88880    0.03320   12.01020    2.65910  100.21830   -0.00000    0.22510    -999.25    -999.25
 6200.00000  -66.70340   11.40600   12.23050   16.91140   52.72190   69.88980   10.97390    0.05600   11.15970    2.44340   53.15180    0.11660    0.20300    -999.25    -999.25
 6250.00000  -41.45890   17.09540   22.24500   43.62170   92.30120   87.33520   10.39500    0.05920   10.65390    2.41520   77.38150    0.17680    0.39850    -999.25    -999.25
 6300.00000  -35.06500    6.48300    7.95040    9.24940   71.46730   98.63270   14.16210    0.26070   13.25290    2.28710   71.77650    0.36430    0.32950    -999.25    -999.25
 6350.00000   -9.20110    7.56610    8.64310   10.05330  100.06860   81.60500   10.63890    0.01800   11.20580    2.57550  101.06000    0.03710    0.28720    -999.25    -999.25
 6400.00000  -18.43950    4.75160    5.26320    6.19460   91.35070   81.52830   13.60700    0.17980   14.50420    2.53550   94.39710    0.06090    0.36710    -999.25    -999.25
 6450.00000  -21.50500    2.53500    3.35700    4.17300   67.58550  118.13950   14.21020    0.22930    -999.25    2.17090   83.67870    0.39120    0.45060    -999.25    -999.25
 6500.00000  -16.04150   13.68540   17.27660   30.33370  105.93170   78.34510   10.64800    0.12550   10.85880    2.13170  102.75720    0.25930    0.35200    -999.25    -999.25
 6550.00000  -31.47460   89.64640   47.87690  462.29500  173.22650   70.61950    9.11640    0.02590    9.03500    2.50700  180.65230    0.14080    0.23800    -999.25    -999.25
 6600.00000  -25.73260   15.48280   17.79080   23.09020   82.26610   63.03560    9.82520    0.01380    9.74520    2.63490   81.68130    0.01650    0.11530    -999.25    -999.25
 6650.00000  -49.35860   19.59190   22.11600   25.76630   86.46380   64.78500   10.28600    0.01370   10.18000    2.65100   92.09230    0.00420    0.12110    0.07880    -999.25
 6700.00000  -84.29560   25.00030   25.77820   27.30070   70.28670   52.80370   10.29550    0.00680   10.50230    2.61900   74.00160    0.01070    0.11710    0.07030    0.05530
 6750.00000  -88.88760   13.46020   14.17130   21.35680   32.39120   53.00900   10.07970    0.05610    9.99770    2.78780   36.57340    -999.25    0.13300    0.08600   -0.07800
 6800.00000  -68.45500   33.50610   36.36860   52.84010   59.76320   57.27050   10.29970    0.03010   10.16480    2.60030   47.37200    -999.25    -999.25    0.06550    0.05090
 6850.00000  -96.41570    7.54440    8.65910   29.27990   36.10750   55.85830    9.62960    0.01220    9.41840    2.77420   37.40350    -999.25    -999.25    0.08690   -0.03800
 6900.00000  -86.80380    8.06720   11.99150   30.06030   51.76140   59.58760   10.05790    0.01600    9.92010    2.72450   49.87880    -999.25    -999.25    0.11020   -0.01580
 6950.00000 -101.69470    5.44010    9.26630   24.12150   36.05430   58.00750   10.29720    0.06910    9.50680    2.69240   38.08320    -999.25    -999.25    0.12310    0.00520
 7000.00000 -168.45210  250.73380  266.08110  523.99680    9.43710   51.80710   10.92850    0.07790   11.74620    2.88700   10.85740    -999.25    -999.25   -0.01190   -0.12680
 7050.00000 -138.27300   23.44350   41.66690  151.09220   16.37020   50.47130   10.43570    0.06460   10.19930    2.70490   20.12210    -999.25    -999.25    0.02110    0.00240
 7100.00000 -131.62910   28.95150   33.08590  124.36030   15.51890   51.59300    9.45100    0.04100    9.82270    2.72850   14.61040    -999.25    -999.25    0.00990   -0.00640
 7150.00000  -38.74260    4.20930    5.12120    7.82380   52.13320   60.46080   10.43410    0.00950   10.23880    2.67440   55.02350    -999.25    -999.25    0.11710    0.00120
 7200.00000  -56.58720    8.21390    8.84550   10.98350   80.58820   59.39630    9.74460    0.03340    9.74670    2.73010   84.57220    -999.25    -999.25    0.09120   -0.00590
 7250.00000  -75.31130    2.66160    3.18040    8.38080   54.62740   66.24570   10.75320    0.01910   10.54890    2.64430   62.43720    -999.25    -999.25    0.16260    0.04330
 7300.00000  -25.75430   13.21640   14.75180   17.85260   69.63010   62.18610   10.55350    0.01220   10.26080    2.68160   68.50960    -999.25    -999.25    0.08970    0.00670
 7350.00000  -30.34600   60.02110   92.66580  116.46630   26.36660   51.86990   10.20590    0.00760    9.83210    2.71880   32.08430    -999.25    -999.25    0.00810   -0.00690
 7400.00000  -26.44310   35.61620   38.21590   53.92040   38.60930   54.35480    9.51530    0.02230    9.36360    2.72770   40.42170    -999.25    -999.25    0.02860   -0.03160
 7450.00000  -40.32300   83.43420   91.94600  134.47570   28.27990   53.63660    9.25840    0.01530    9.15120    2.70860   26.59830    -999.25    -999.25    0.01360   -0.01180
 7500.00000  -42.53780   82.86610   88.20710  116.76850   32.93210   53.45390    9.23990   -0.00150    9.10840    2.71550   32.95610    -999.25    -999.25    0.01700   -0.01100
 7550.00000  -43.87470   92.92000   97.90520  146.30880   30.47250   53.27380    9.21070    0.01530    9.06160    2.71560   33.29240    -999.25    -999.25    0.01900   -0.01490
 7600.00000  -68.87640  220.47980  252.41540  418.76640   23.75670   51.52540    9.16830    0.00900    9.01210    2.73150   25.84310    -999.25    -999.25    0.01050   -0.01870
 7650.00000   -7.05910   59.54400   63.66960   81.31440   73.49720   59.21850    9.24970    0.01270    9.15130    2.67180   76.30860    -999.25    -999.25    0.06020    0.01020
 7700.00000  -24.54770   18.00170   20.04110   28.14550   73.05160   57.42770    9.37550    0.00060    9.33280    2.68720   79.38680    -999.25    -999.25    0.07460   -0.00230
 7750.00000  -72.49570  224.53980  288.74770  444.66690   29.17550   50.07050    9.27270   -0.01050    9.47900    2.70320   31.11930    -999.25    -999.25    0.00230   -0.00680
 7800.00000 -145.47110  530.67250  383.03890  751.35420   15.66560   50.19130    9.60230    0.13670   10.54730    2.70170   16.18670    -999.25    -999.25    0.00040   -0.00880
 7850.00000 -129.21490  306.16950  356.55670  453.33880   13.37930   50.18590    9.17550    0.01700    9.71590    2.72690   14.06950    -999.25    -999.25    0.00020   -0.00240
 7900.00000 -137.72340  290.88990  253.92100  413.33580   13.36140   50.07010    9.54530    0.27040   10.97330    2.57430   14.89940    -999.25    -999.25   -0.00210    0.05080
 7950.00000 -128.44400  155.49620  132.23700  153.67010   13.45460   48.92600    9.00140    0.01110    9.05010    2.71980   12.88390    -999.25    -999.25   -0.00030   -0.00770
