~Version ---------------------------------------------------
VERS.      2.0 : CWLS log ASCII Standard -VERSION 2.0
WRAP.       NO : One line per depth step
CREA. 12/21/17 : LAS Creation Date
~Well ------------------------------------------------------
STRT.FT                           300.0 : START DEPTH
STOP.FT                         10850.0 : STOP DEPTH
STEP.FT                        50.00000 : STEP LENGTH
NULL.                           -999.25 : NULL VALUE
COMP. HUDSONS BAY OIL & GAS COMPANY LTD : COMPANY
WELL.    H.B. UNION KAYBOB S 7-14-62-20 : WELL
FLD .                                   : FIELD
LOC .                                   : LOCATION
CTRY.                            CANADA : COUNTRY
SRVC.            Schlumberger of Canada : SERVICE COMPANY
DATE.                       27-Mar-1965 : LOGDATE
PROV.                           Alberta : PROVINCE
UWI .                  100071406220W500 : UNIQUE WELL ID
SLAT.WGS84                      54.3613 : SURFACE LATITUDE
SLON.WGS84                    -116.8845 : SURFACE LONGITUDE
~Curve Information -----------------------------------------
DEPT   .FT        : Depth Curve
CALSED .IN        : CALIPER FROM SONIC LOG
CALWS  .IN        : CALIPER [TOP MCALED 6870' CALSED TD]
CILDED .MMHO      : CONDUCTIVITY FROM IEL LOG
CONDWS .MMHO      : CONDUCTIVITY [1000/DRESWS]
DRESWS .OHMM      : DEEP RESISTIVITY [1000/CILDED IF ILDED<5, ILDED]
DTED   .US/F      : SHEAR SONIC FROM SONIC LOG
DTWS   .US/F      : COMPRESSIONAL  SONIC [DTED]
GRED   .GAPI      : GAMMA RAY FROM CBL LOG
GRSED  .GAPI      : GAMMA RAY FROM SONIC LOG
GRWS   .GAPI      : GAMMA RAY [GRED SPL. TO GRSED @ 7000']
ILDED  .OHMM      : DEEP INDUCTION FROM IEL LOG
MCALED .IN        : CALIPER FROM MICROLOG
RATIOED.UNITLESS  : RATIO FROM TDT LOG
SIGMAED.CU        : CAPTURE CROSS SECTION FROM TDT LOG
SNED   .OHMM      : 16 INCH SHORT NORMAL RESISTIVITY FROM IEL LOG
SPRED  .MV        : SPONTANEOUS POTENTIAL FROM IEL LOG
SPWS   .MV        : SPONTANEOUS POTENTIAL [BASELINE 0 MV, SPRED]
SRESWS .OHMM      : SHALLOW RESISTIVITY [SNED]
TENED  .LBF       : TENSION FROM CBL LOG
~Params ----------------------------------------------------
PD  .                     GL : PERMANENT DATUM
EPD .FT                 2833 : ELEVATION PERMANENT DATUM
LMF .                     KB : LOG MEASURED FROM
DAPD.FT                   16 : FEET ABOVE PERMANENT DATUM
EKB .FT                 2849 : KELLY BUSHING
EGL .FT                 2833 : GROUND LEVEL
DATE.               03/27/65 : RUN DATE
RUN .                      2 : RUN NUMBER
TCS .HRS                 3.5 : TIME CIRCULATED STOPPED
LUN .                   1576 : LOGGING UNIT NUMBER
LUL .                    WCT : LOGGING UNIT LOCATION
ENGI.              DEMETRICK : RECORDING ENGINEER
WITN.               HAMILTON : WITNESSED BY
CLNT.                A2DTECH : CLIENT CODE
ORIG.            2" 5" PRINT : ORIGIN OF DATA
UWI .       100071406220W500 : UNIQUE WELL ID
DICO. A2D Technologies, Inc. : DIGITIZING COMPANY
~Other -----------------------------------------------------
CALIPER-CBL-GR-IEL-ML-TDT-SONIC LOG RAN
EL: ALL CURVES HAVE BEEN VERIFIED FROM 1" SECTION @TOP-1146',3454'-4150',4398'-5498'.
MCAL HAS BEEN VERIFIED FROM 1" SECTION @TOP-1940',3450'-4140',4400'-5500'
~ASCII -----------------------------------------------------
# ...
 9550.00000    9.98860    9.98860   59.34530   59.34530   16.85050   93.44470   93.44470    -999.25   59.74500   59.74500   17.22870    -999.25    -999.25    -999.25   26.97870  -59.73230  -18.46440   26.97870    -999.25
 9600.00000   11.07250   11.07250  141.12970  141.12970    7.08570  114.25410  114.25410    -999.25   75.31420   75.31420    6.28910    -999.25    -999.25    -999.25   13.00370  -56.76940  -18.34330   13.00370    -999.25
 9650.00000   11.42150   11.42150  130.13280  130.13280    7.68450  135.47130  135.47130    -999.25   79.42810   79.42810    7.11590    -999.25    -999.25    -999.25   13.06970  -45.57330   -9.96950   13.06970    -999.25
 9700.00000   11.29350   11.29350   89.08740   89.08740   11.22490  134.94590  134.94590    -999.25   80.15410   80.15410   11.59580    -999.25    -999.25    -999.25   17.38620  -37.95850   -5.19650   17.38620    -999.25
 9750.00000    9.96650    9.96650   81.72230   81.72230   12.23660  103.47090  103.47090    -999.25   67.27440   67.27440   11.96840    -999.25    -999.25    -999.25   17.19930  -35.80970   -5.37600   17.19930    -999.25
 9800.00000   14.30110   14.30110  216.34550  216.34550    4.62220  139.85390  139.85390    -999.25   86.95200   86.95200    3.97030    -999.25    -999.25    -999.25    7.47190  -61.23760  -30.23580    7.47190    -999.25
 9850.00000   15.00000   15.00000  249.70580  249.70580    4.00470  140.00000  140.00000    -999.25   76.73010   76.73010    3.06070    -999.25    -999.25    -999.25    5.24270  -55.51940  -23.76480    5.24270    -999.25
 9900.00000    9.71670    9.71670   53.78760   53.78760   18.59160  104.57510  104.57510    -999.25   74.27130   74.27130   18.99080    -999.25    -999.25    -999.25   17.78880  -38.18910   -5.69700   17.78880    -999.25
 9950.00000    9.69300    9.69300   95.85690   95.85690   10.43220  107.27250  107.27250    -999.25   75.59360   75.59360   10.54820    -999.25    -999.25    -999.25   15.32930  -37.18050   -3.93550   15.32930    -999.25
 10000.00000    9.49530    9.49530   99.20180   99.20180   10.08050  105.48940  105.48940   39.72820   72.17180   72.17180    9.82830    -999.25    -999.25    -999.25   15.34070  -36.65340   -4.42730   15.34070    -999.25
 10050.00000    9.46990    9.46990  108.90010  113.82780    8.78520  108.39910  108.39910   40.06880   81.27420   81.27420    8.78520    -999.25    -999.25    -999.25   14.51760  -40.11310  -10.26720   14.51760    -999.25
 10100.00000    9.83550    9.83550  162.77480  192.08970    5.20590  137.57370  137.57370   53.16200   96.48090   96.48090    5.20590    -999.25    -999.25    -999.25   10.02360  -34.21200   -6.75140   10.02360    -999.25
 10150.00000    9.42810    9.42810  136.44900  136.44900    7.32870  115.72630  115.72630   54.41410   82.35750   82.35750    6.63700    -999.25    -999.25    -999.25   11.71570  -33.76790   -8.68740   11.71570    -999.25
 10200.00000    9.41630    9.41630  137.40180  137.40180    7.27790  119.92840  119.92840   46.20460   77.82240   77.82240    6.77050    -999.25    -999.25    -999.25   11.94470  -40.77030  -18.07510   11.94470    -999.25
 10250.00000    9.38760    9.38760   19.09510   19.09510   52.36950  133.88150  133.88150   51.91940  110.72960  110.72960   77.82090    -999.25    -999.25    -999.25   78.73750  -36.31040  -15.99530   78.73750    -999.25
 10300.00000    9.20000    9.20000    6.70510    6.70510  149.14020  117.90880  117.90880   45.70480  101.87570  101.87570  483.11220    -999.25    -999.25    -999.25  183.82030  -47.71680  -29.78190  183.82030    -999.25
 10350.00000    9.30650    9.30650    7.20950    7.20950  138.70590  132.14550  132.14550   89.00380  146.58330  146.58330  531.60990    -999.25    -999.25    -999.25  179.79990  -52.69730  -37.14770  179.79990    -999.25
 10400.00000    9.66830    9.66830   27.01390   27.01390   37.01800  119.32240  119.32240   51.27000  100.48200  100.48200   45.08790    -999.25    -999.25    -999.25   71.47730  -47.17320  -34.00370   71.47730    -999.25
 10450.00000    9.11120    9.11120   11.33080   11.33080   88.25500  140.21160  140.21160   36.18340   50.95340   50.95340  156.63040    -999.25    -999.25    -999.25  110.11300  -34.91470  -24.13050  110.11300    -999.25
 10500.00000    8.94940    8.94940   20.03330   20.03330   49.91690   81.41410   81.41410   30.94780   50.35280   50.35280   63.04800    -999.25    2.89010   36.72740   74.17480  -27.62310  -16.04540   74.17480    -999.25
 10550.00000    8.71470    8.71470    7.89020    7.89020  126.73950   83.18670   83.18670   19.19560   18.69320   18.69320  531.36440    -999.25    1.71800   12.55720  199.02760 -122.77280 -105.32760  199.02760    -999.25
 10600.00000    8.69990    8.69990  107.54230  107.54230    9.29870   85.87750   85.87750    -999.25   21.95130   21.95130    8.94910    -999.25    1.89990   16.66720   40.47390 -191.03270 -167.71880   40.47390    -999.25
 10650.00000    8.71390    8.71390  114.64010  114.64010    8.72300   92.39640   92.39640    -999.25   32.97910   32.97910    9.01940    -999.25    2.51760   18.93380   26.12190 -192.85690 -163.67540   26.12190    -999.25
 10700.00000    8.82390    8.82390   80.18360   80.18360   12.47140   62.22830   62.22830    -999.25   15.50640   15.50640   12.91700    -999.25    1.99510   16.76310   32.27870 -188.84330 -153.79310   32.27870    -999.25
 10750.00000    9.11810    9.11810    9.53100    9.53100  104.92080   56.10020   56.10020    -999.25   17.42730   17.42730  209.95900    -999.25    1.33530   11.92520  137.69250 -171.91270 -130.99490  137.69250    -999.25
 10800.00000    9.12590    9.12590    7.07000    7.07000  141.44270   65.25930   65.25930    -999.25   24.40000   24.40000  404.61530    -999.25    -999.25    -999.25  120.89280 -143.83790  -97.05260  120.89280    -999.25
 10850.00000    8.55840    8.55840   95.23240   95.23240   10.50060  139.90440  139.90440    -999.25   36.37290   36.37290   10.98820    -999.25    -999.25    -999.25   36.17740 -166.12680 -115.40780   36.17740    -999.25
