~Version ---------------------------------------------------
VERS. 2.0 : CWLS log ASCII Standard -VERSION 2.0
WRAP. YES : MULTIPLE LINES PER DEPTH STEP
~Well ------------------------------------------------------
STRT.M                       300.0 : START DEPTH
STOP.M                      3900.0 : STOP DEPTH
STEP.M                    50.00000 : STEP LENGTH
NULL.                      -999.25 : NULL VALUE
COMP.       FOREST OIL CORPORATION : COMPANY
WELL. FOREST ET AL KARR 14-10-66-1 : WELL
FLD .                           WC : FIELD
LOC .                              : LOCATION
CTRY.                       CANADA : COUNTRY
SRVC.                 Schlumberger : SERVICE COMPANY
DATE.                  17-Oct-1980 : LOGDATE
LOC1.                              : LOCATION 1
SECT.                              : SECTION
TOWN.                              : TOWNSHIP
RNGE.                              : RANGE
PDAT.                              : PERM DATUM
EPD .                       857.38 : ELEVATION
LMF .                           KB : LOG MEASURED FROM
DMF .                           KB : DRILL MEASURED FROM
APD .                              : ABOVE PERM DATUM
EKB .                       865.37 : ELEV-KELLY BUSHING.
EDF .                              : ELEV-DRILL FLOOR
EGL .                       857.38 : ELEV-GROUND LEVEL
PROV.                      Alberta : PROVINCE
UWI .             100141006601W600 : UNIQUE WELL ID
SLAT.WGS84                54.70329 : SURFACE LATITUDE
SLON.WGS84               -118.0652 : SURFACE LONGITUDE
~Curve Information -----------------------------------------
DEPT    .M      : DEPTH METERS
CALDED  .MM     : CALIPER FROM CNFD LOG
CALSED  .MM     : CALIPER FROM SONIC LOG
CALWS   .MM     : CALIPER [CALSED]
CONDWS  .MMHO   : CONDUCTIVITY [1000/DRESWS]
DCORED  .KG/M3  : DENSITY CORRECTION FROM CNFD LOG
DCORWS  .KG/M3  : DENSITY CORRECTION [DCORED]
DENWS   .KG/M3  : BULK DENSITY [RHOBED]
DPHILSED.V/V    : DENSITY POROSITY [M=2.71 F=1.0] FROM CNFD LOG
DPHISSED.V/V    : DENSITY POROSITY [M=2.65 F=1.0] FROM CNFD LOG
DPOLSWS .V/V    : DENSITY POROSITY LIMESTONE [CALCULATED FROM RHOBED]
DRESWS  .OHMM   : DEEP RESISTIVITY [LLDED]
DTED    .US/M   : DELTA TIME FROM SONIC LOG
DTWS    .US/M   : DELTA TIME [DTED]
GRDED   .GAPI   : GAMMA RAY FROM CNFD LOG
GRRED   .GAPI   : GAMMA RAY FROM RESISTIVITY LOG
GRSED   .GAPI   : GAMMA RAY FROM SONIC LOG
GRWS    .GAPI   : GAMMA RAY [GRSED]
LLDED   .OHMM   : LATEROLOG DEEP RESISTIVITY
LLSED   .OHMM   : LATEROLOG SHALLOW RESISTIVITY
MRESWS  .OHMM   : MEDIUM RESISTIVITY [LLSED]
NPHILSED.V/V    : NEUTRON POROSITY LIMESTONE FROM CNFD LOG
NPHISSED.V/V    : NEUTRON POROSITY SANDSTONE FROM CNFD LOG
NPOLSWS .V/V    : NEUTRON POROSITY LINESTONE [NPHILSED], SPLICED WITH CONVERTED MATRIX FROM SANDSTONE TO LIMESTONE FROM 300-2606
RHOBED  .KG/M3  : BULK DENSITY FROM CNFD LOG
SPRED   .MV     : SPONTANEOUS POTENTIAL FROM RESISTIVITY LOG
SPWS    .MV     : SPONTANEOUS POTENTIAL [BASELINE 0 MV] [SPRED]
TENDED  .N      : TENSION FROM CNFD LOG
~Params ----------------------------------------------------
CLNT. A2DTECH : CLIENT CODE
~Other -----------------------------------------------------
~ASCII -----------------------------------------------------
# ...
 2900.00000  314.16280  248.07210  248.07210    0.55740  152.88410  152.88410 2519.70510    0.10520    -999.25    0.11130 1794.03890  162.65560  162.65560   12.87400   11.91000   17.11610   17.11610 1794.03890  289.79570  289.79570    0.01970    -999.25    0.01970 2519.70510  116.13000  -54.11270 22474.30490
 2950.00000  250.40450  247.72120  247.72120   62.50550    1.70600    1.70600 2678.83300    0.00710    -999.25    0.01820   15.99860  193.50610  193.50610   53.56740   57.79110   59.55170   59.55170   15.99860   15.95660   15.95660    0.06860    -999.25    0.06860 2678.83300  115.03770  -63.53100 23646.60940
 3000.00000  228.73360  236.78470  236.78470   12.12890   17.83760   17.83760 2728.17900   -0.01000    -999.25   -0.01060   82.44800  181.99430  181.99430   38.67780   37.86310   43.66040   43.66040   82.44800   98.45630   98.45630    0.03380    -999.25    0.03380 2728.17900  133.92860  -50.36910 22821.61810
 3050.00000  262.14170  258.13850  258.13850   12.35290   -4.81950   -4.81950 2682.05570    0.01860    -999.25    0.01630   80.95260  184.71190  184.71190   42.11600   43.68190   50.80400   50.80400   80.95260   58.23470   58.23470    0.03250    -999.25    0.03250 2682.05570  164.47740  -25.54930 23402.90200
 3100.00000  368.74080  255.49010  255.49010    1.00420  230.12770  230.12770 2517.84520    0.11420    -999.25    0.11240  995.79050  167.91590  167.91590   18.45720   20.94950   29.69230   29.69230  995.79050  182.88680  182.88680    0.05570    -999.25    0.05570 2517.84520   84.26150  -69.53960 23136.72520
 3150.00000  306.96750  239.32510  239.32510    0.22190  241.21540  241.21540 2454.72660    0.14760    -999.25    0.14930 4507.43750  161.42650  161.42650   14.52520   14.17950   27.49050   27.49050 4507.43750  191.10370  191.10370    0.02040    -999.25    0.02040 2454.72660   37.99300  -72.86580 23792.57070
 3200.00000  317.53940  240.07890  240.07890    0.15440    -999.25    -999.25 2517.99020    0.10420    -999.25    0.11230 6477.64060  159.42580  159.42580    8.86200   17.29740   14.76850   14.76850 6477.64060  223.87650  223.87650    0.01240    -999.25    0.01240 2517.99020   36.92630  -30.99030 23992.56720
 3250.00000  349.48400  236.02600  236.02600    0.02740  179.18270  179.18270 2429.22950    0.16080    -999.25    0.16420 36493.20310  161.01370  161.01370   12.56310   20.25750   20.43330   20.43330 36493.20310  132.30500  132.30500    0.02250    -999.25    0.02250 2429.22950 -129.32090  -94.89790 24216.39190
 3300.00000  312.00580  233.31390  233.31390    0.30710    -999.25    -999.25 2424.62110    0.16370    -999.25    0.16690 3256.12650  157.79430  157.79430   11.49130   15.25860   14.48830   14.48830 3256.12650  342.30810  342.30810    0.00500    -999.25    0.00500 2424.62110  -99.80090  -80.41400 24720.61790
 3350.00000  244.70750  230.48030  230.48030    0.29060  249.19400  249.19400 2531.36010    0.07280    -999.25    0.10450 3441.52200  163.81080  163.81080   23.91930   38.86420   36.92720   36.92720 3441.52200 6141.27200 6141.27200    0.00740    -999.25    0.00740 2531.36010  -80.54780  -76.19700 25256.47470
 3400.00000  236.01370  235.37960  235.37960    0.04670  -14.57140  -14.57140 2791.09990   -0.04770    -999.25   -0.04740 21405.50200  164.74550  164.74550   29.63930   47.62300   49.72930   49.72930 21405.50200 1953.75330 1953.75330    0.01740    -999.25    0.01740 2791.09990 -148.12570 -158.81090 25258.66820
 3450.00000  239.90260  231.39520  231.39520   14.17290  210.22370  210.22370 2740.00880    0.00380    -999.25   -0.01750   70.55700  184.18250  184.18250   37.94360   64.33530   64.26660   64.26660   70.55700  102.46940  102.46940    0.06020    -999.25    0.06020 2740.00880  -82.25110 -107.97240 25736.84360
 3500.00000  364.77180  265.05330  265.05330  218.36920  249.14260  249.14260 2433.48560    0.16830    -999.25    0.16170    4.57940  267.16720  267.16720   85.60270   95.56510   94.33690   94.33690    4.57940    5.28480    5.28480    0.26130    -999.25    0.26130 2433.48560   23.40810  -16.04920 26391.53150
 3550.00000  379.56070  311.58630  311.58630  220.03170  164.34100  164.34100 2346.99100    0.19120    -999.25    0.21230    4.54480  260.49740  260.49740   85.41940   86.09610   86.01110   86.01110    4.54480    4.99550    4.99550    0.30740    -999.25    0.30740 2346.99100    2.42530  -54.10250 25768.74750
 3600.00000  257.05180  268.22260  268.22260  169.46570   30.14800   30.14800 2724.15060    0.00200    -999.25   -0.00830    5.90090  232.34710  232.34710   79.95340   87.58470   89.73230   89.73230    5.90090    6.70900    6.70900    0.17630    -999.25    0.17630 2724.15060   -3.98050  -81.26550 27262.72030
 3650.00000  261.31950  252.93630  252.93630  113.35430   -1.25160   -1.25160 2687.22340    0.01340    -999.25    0.01330    8.82190  218.05600  218.05600   68.72520   88.77700   90.26210   90.26210    8.82190    9.85040    9.85040    0.13580    -999.25    0.13580 2687.22340   93.86980   -4.17240 27376.38700
 3700.00000  381.57140  291.32950  291.32950  119.22220  201.21980  201.21980 2222.08370    0.25950    -999.25    0.28530    8.38770  276.45100  276.45100  103.81590  115.51170  115.34490  115.34490    8.38770    7.78180    7.78180    0.25440    -999.25    0.25440 2222.08370   93.39200  -17.44470 27593.90860
 3750.00000  247.88950  240.10710  240.10710   27.71080    2.57400    2.57400 2705.82130    0.00390    -999.25    0.00240   36.08700  183.64450  183.64450   51.42570   58.32690   52.16860   52.16860   36.08700   37.46770   37.46770    0.04620    -999.25    0.04620 2705.82130   45.70930  -57.48190 27367.77260
 3800.00000  314.08540  238.76950  238.76950    4.63030  246.42000  246.42000 2620.23830    0.09460    -999.25    0.05250  215.96840  158.82440  158.82440   73.63760   71.98870  106.76650  106.76650  215.96840  172.52900  172.52900    0.01990    -999.25    0.01990 2620.23830    3.08210  -92.46360 27628.92100
 3850.00000  467.56370  337.97250  337.97250   46.70690  178.25210  178.25210 2013.99950    0.56570    -999.25    0.40700   21.41010  299.37730  299.37730  128.95980  121.12550  127.27250  127.27250   21.41010   16.19290   16.19290    0.50380    -999.25    0.50380 2013.99950   26.75380  -61.14650 28032.47800
 3900.00000  227.34310  227.38560  227.38560   47.55880   -2.75410   -2.75410 2574.47780    0.08230    -999.25    0.07930   21.02660  211.86870  211.86870  139.36400  151.21630  153.52910  153.52910   21.02660   22.03800   22.03800    0.04790    -999.25    0.04790 2574.47780  -56.99810 -137.25290 28192.60510
