~Version ---------------------------------------------------
VERS.      2.0 : CWLS log ASCII Standard -VERSION 2.0
WRAP.       NO : One line per depth step
CREA. 11/03/17 : LAS Creation Date
~Well ------------------------------------------------------
STRT.FT                    1000.0 : START DEPTH
STOP.FT                    9800.0 : STOP DEPTH
STEP.FT                  50.00000 : STEP LENGTH
NULL.                     -999.25 : NULL VALUE
COMP.      FRONTIER PRODUCING INC : COMPANY
WELL. FRONT BA KAYBOB 10-31-63-17 : WELL
FLD .                             : FIELD
LOC .                             : LOCATION
CTRY.                      CANADA : COUNTRY
SRVC.                Schlumberger : SERVICE COMPANY
DATE.                 21-Feb-1966 : LOGDATE
PROV.                     Alberta : PROVINCE
UWI .            100103106317W500 : UNIQUE WELL ID
SLAT.WGS84               54.49605 : SURFACE LATITUDE
SLON.WGS84              -116.5551 : SURFACE LONGITUDE
~Curve Information -----------------------------------------
DEPT  .FT    : Depth Curve
CALSED.IN    : CALIPERFROM SONIC LOG [ADJ. TO RESISTIVITY LOG]
CALWS .IN    : CALIPER [CALSED]
CILDED.MMHO  : CONDUCTIVITY FROM RESISTIVITY LOG
CONDWS.MMHO  : CONDUCTIVITY [1000/DRESWS]
DRESWS.OHMM  : DEEP RESISTIVITY [1000/CILDED, IF ILDED<5, ILDED]
DTED  .US/F  : DELTA TIME FROM SONIC LOG [ADJ. TO RESISTIVITY LOG]
DTWS  .US/F  : COMPRESSIONAL SONIC [DTED]
GRSED .GAPI  : GAMMA RAY FROM SONIC LOG [ADJ. TO RESISTIVITY LOG]
GRWS  .GAPI  : GAMMA RAY [GRSED]
ILDED .OHMM  : DEEP INDUCTION RESISTIVITY FROM RESISTIVITY LOG
SNED  .OHMM  : SHORT NORMAL 16" RESISTIVITY FROM RESISTIVITY LOG
SPRED .MV    : SPONTANEOUS POTENTIAL FROM RESISTIVITY LOG
SPWS  .MV    : SPONTANEOUS POTENTIAL [BASELINE 0 MV, SPRED]
SRESWS.OHMM  : SHALLOW RESISTIVITY [SNED]
~Params ----------------------------------------------------
PD  .                     GL : PERMANENT DATUM
EPD .FT                 2653 : ELEVATION PERMANENT DATUM
LMF .                     KB : LOG MEASURED FROM
DAPD.FT                   13 : FEET ABOVE PERMANENT DATUM
EKB .FT                 2666 : KELLY BUSHING
EGL .FT                 2653 : GROUND LEVEL
DATE.               02/21/66 : RUN DATE
RUN .                      1 : RUN NUMBER
DD  .FT                 9820 : DEPTH DRILLER
DL  .FT                 9821 : DEPTH LOGGER
BLI .FT                 9820 : BOTTOM LOG INTERVAL
TLI .FT                  996 : TOP LOG INTERVAL
CBD .FT                  996 : CASING BOTTOM DRILLER
CBL .FT                  996 : CASING BOTTOM LOGGER
BS  .IN                7.875 : BIT SIZE
BSD .FT                 9820 : BIT SIZE AT DEPTH
DFT .            CAUSTIC GEL : DRILLING FLUID TYPE
DFD .                    9.7 : DRILLING FLUID DENSITY
DFV .                    110 : DRILLING FLUID VISCOSITY
DFPH.                     10 : DRILLING FLUID PH
DFL .                    8.2 : DRILLING FLUID LOSS
RMS .OHMM               2.59 : RESISTIVITY MUD SAMPLE
MST .DEGF                 46 : MUD SAMPLE TEMPERATURE
RMF .OHMM               1.16 : RESISTIVITY MUD FILTRATE SAMPLE
MFST.DEGF                 46 : MUD FILTRATE SAMPLE TEMPERATURE
RMC .OHMM                2.7 : RESISTIVITY MUD CAKE
MCST.DEGF                 46 : MUD CAKE SAMPLE TEMPERATURE
TCS .HRS                   3 : TIME CIRCULATED STOPPED
LUN .                   3534 : LOGGING UNIT NUMBER
LUL .                    WCT : LOGGING UNIT LOCATION
ENGI.               THOMPSON : RECORDING ENGINEER
WITN.                   YONT : WITNESSED BY
CLNT.                A2DTECH : CLIENT CODE
ORIG.            2" 5" PRINT : ORIGIN OF DATA
UWI .       100103106317W500 : UNIQUE WELL ID
DICO. A2D Technologies, Inc. : DIGITIZING COMPANY
~Other -----------------------------------------------------
IEL-SONIC TOOL RUN
CALS DARK PART @ 9800'-FR HAS TAKEN FROM SMALL SECTION
RESISTIVITY LOG (TOP TO 4630') AND SONIC LOG (1356'-1480') FROM SMALL SECTION
~ASCII -----------------------------------------------------
# ...
 8350.00000   10.50490   10.50490  167.49080  167.49080    5.97050   72.71420   72.71420   67.70060   67.70060    5.54820    9.03570  -78.94790  -22.67170    9.03570
 8400.00000    9.06400    9.06400  108.94730  108.94730    9.17870   64.66420   64.66420   62.55340   62.55340    9.16320   15.01340  -80.69520  -24.43200   15.01340
 8450.00000    8.92310    8.92310  120.86180  120.86180    8.27390   65.93030   65.93030   53.03630   53.03630    8.20360   14.18690  -88.09400  -31.84400   14.18690
 8500.00000    8.87600    8.87600   64.61760   64.61760   15.47570   60.54900   60.54900   49.21870   49.21870   15.78330   24.90970  -84.69790  -28.46100   24.90970
 8550.00000    9.28350    9.28350  153.68300  153.68300    6.50690   67.00780   67.00780   63.55630   63.55630    6.27240   11.23080 -106.82480  -50.60100   11.23080
 8600.00000   10.82530   10.82530  212.02820  212.02820    4.71640   73.04080   73.04080   65.44830   65.44830    4.42080    8.09690 -137.97810  -81.76750    8.09690
 8650.00000   11.16520   11.16520  176.50470  176.50470    5.66560   74.23180   74.23180   68.24570   68.24570    5.17690    9.32220 -129.54470  -73.34710    9.32220
 8700.00000   11.45680   11.45680  235.40590  235.40590    4.24800   80.82160   80.82160   85.96420   85.96420    3.65140    6.97330 -140.98230  -84.79790    6.97330
 8750.00000   14.08570   14.08570  244.13670  244.13670    4.09610   82.17560   82.17560   80.29250   80.29250    3.49110    5.49160 -149.54900  -93.37770    5.49160
 8800.00000   11.42400   11.42400  120.37770  120.37770    8.30720   73.16160   73.16160   89.18930   89.18930    8.22350   13.00760 -115.84450  -59.68630   13.00760
 8850.00000    8.83570    8.83570  116.64440  116.64440    8.57310   65.09150   65.09150   68.63370   68.63370    8.20670   14.84150  -94.86090  -38.71590   14.84150
 8900.00000    8.76630    8.76630  109.15510  109.15510    9.16130   65.81190   65.81190   72.46120   72.46120    9.11320   15.91330  -76.57830  -20.44640   15.91330
 8950.00000    8.59870    8.59870   67.50100   67.50100   14.81460   60.10780   60.10780   54.88880   54.88880   14.65170   24.59830  -56.51830   -0.39950   24.59830
 9000.00000    9.66870    9.66870  118.04550  118.04550    8.47130   73.95900   73.95900   86.61610   86.61610    8.24510   14.00310  -81.31950  -25.21380   14.00310
 9050.00000    9.14400    9.14400  141.65210  141.65210    7.05950   71.81300   71.81300   96.89200   96.89200    6.95850   12.52310  -70.76460  -14.67200   12.52310
 9100.00000    8.92400    8.92400  168.15400  168.15400    5.94690   70.29870   70.29870   82.49340   82.49340    5.61310   11.28610  -70.48920  -14.40980   11.28610
 9150.00000    8.53620    8.53620  111.18220  111.18220    8.99420   67.51940   67.51940   84.52570   84.52570    8.93650   15.96560  -78.10490  -22.03860   15.96560
 9200.00000    8.34770    8.34770    7.14670    3.64270  274.52050   68.87910   68.87910   99.71050   99.71050  274.52050  270.03170 -106.82510  -50.77190  270.03170
 9250.00000    8.30220    8.30220   11.51120    9.79570  102.08580   74.29980   74.29980  138.80650  138.80650  102.08580  117.73270  -83.38620  -27.33820  117.73270
 9300.00000    8.39170    8.39170   12.80070   10.70170   93.44310   51.61270   51.61270   26.56110   26.56110   93.44310  121.42770  -94.57650  -38.52850  121.42770
 9350.00000    8.84100    8.84100   68.05360   65.78000   15.20220   82.18300   82.18300  126.30710  126.30710   15.20220   33.08870 -123.06990  -67.02190   33.08870
 9400.00000    8.07150    8.07150   14.80270   12.15420   82.27590   58.68420   58.68420   47.23870   47.23870   82.27590   96.74030  -90.84690  -34.79890   96.74030
 9450.00000    8.13140    8.13140   13.89560   10.89730   91.76610   50.44870   50.44870   26.87010   26.87010   91.76610   78.17350 -122.37730  -66.32930   78.17350
 9500.00000    8.06490    8.06490    8.02590    4.21000  237.52820   48.57390   48.57390   22.07790   22.07790  237.52820  159.85670 -122.88630  -66.83830  159.85670
 9550.00000    8.03010    8.03010   17.04720   16.35170   61.15570   53.31640   53.31640   34.30430   34.30430   61.15570   75.16230 -134.95910  -78.91110   75.16230
 9600.00000    7.96960    7.96960   10.62310    7.63390  130.99500   56.78860   56.78860   45.14390   45.14390  130.99500  154.56080  -88.84070  -32.79270  154.56080
 9650.00000    8.01260    8.01260    4.20160    4.59940  217.42130   53.70090   53.70090   37.89320   37.89320  217.42130  161.40550 -106.85870  -50.81070  161.40550
 9700.00000    7.97940    7.97940    5.65670    1.71030  584.68680   48.96030   48.96030   13.29780   13.29780  584.68680  468.23190 -170.77990 -114.73190  468.23190
 9750.00000    8.01580    8.01580    5.68280    4.06570  245.96160   48.33050   48.33050    9.80490    9.80490  245.96160  141.64190 -164.16230 -108.11430  141.64190
 9800.00000    7.68260    7.68260  189.77240  189.77240    5.26950   65.39250   65.39250    -999.25    -999.25    4.94860   27.14410 -188.88200 -132.83400   27.14410
