~Version ---------------------------------------------------
VERS.      2.0 : CWLS log ASCII Standard -VERSION 2.0
WRAP.       NO : One line per depth step
CREA. 10/27/17 : LAS Creation Date
~Well ------------------------------------------------------
STRT.FT                           900.0 : START DEPTH
STOP.FT                          9800.0 : STOP DEPTH
STEP.FT                        50.00000 : STEP LENGTH
NULL.                           -999.25 : NULL VALUE
COMP.      CANADIAN HOMESTEAD OILS LTD. : COMPANY
WELL. HOMESTEAD SHELL SNIPE 12-29-68-18 : WELL
FLD .                                   : FIELD
LOC .                                   : LOCATION
CTRY.                            CANADA : COUNTRY
SRVC.                      Schlumberger : SERVICE COMPANY
DATE.                       11-Apr-1970 : LOGDATE
PROV.                           Alberta : PROVINCE
UWI .                  100122906818W500 : UNIQUE WELL ID
SLAT.WGS84                     54.91763 : SURFACE LATITUDE
SLON.WGS84                    -116.7151 : SURFACE LONGITUDE
~Curve Information -----------------------------------------
DEPT    .FT    : Depth Curve
CALSED  .IN    : CALIPER FROM SONIC LOG [ADJ. TO RESISTIVITY LOG]
CALWS   .IN    : CALIPER [CALSED]
CONDWS  .MMHO  : CONDUCTIVITY [1000/DRESWS]
DRESWS  .OHMM  : DEEP RESISTIVITY [ILDED]
DTED    .US/F  : DELTA TIME FROM SONIC LOG [ADJ. TO RESISTIVITY LOG]
DTWS    .US/F  : COMPRESSIONAL SONIC [DTED]
GRSED   .GAPI  : GAMMA RAY FROM SONIC LOG [ADJ. TO RESISTIVITY LOG]
GRWS    .GAPI  : GAMMA RAY [GRSED]
ILDED   .OHMM  : DEEP INDUCTION RESISTIVITY FROM RESISTIVITY LOG
ILMED   .OHMM  : MEDIUM INDUCTION RESISTIVITY FROM RESISTIVITY LOG
LL8ED   .OHMM  : LATEROLOG 8 FROM RESISTIVITY LOG
MRESWS  .OHMM  : MEDIUM RESISTIVITY [ILMED]
SPHILSED.V/V   : SONIC POROSITY LIMESTONE [DTM=47.6,DTF=189.0] FROM SONIC LOG [ADJ. TO RESISTIVITY LOG]
SPHISSED.V/V   : SONIC POROSITY SANDSTONE [DTM=55.6,DTF=189.0] FROM SONIC LOG [ADJ. TO RESISTIVITY LOG]
SPOWS   .V/V   : SONIC POROSITY [SPHISSED SPL. TO SPHILSED @ 5500']
SPRED   .MV    : SPONTANEOUS POTENTIAL FROM RESISTIVITY LOG
SPWS    .MV    : SPONTANEOUS POTENTIAL [BASELINE 0 MV, SPRED]
SRESWS  .OHMM  : SHALLOW RESISTIVITY [LL8ED]
~Params ----------------------------------------------------
PD  .                     GL : PERMANENT DATUM
EPD .FT                 2869 : ELEVATION PERMANENT DATUM
LMF .                     KB : LOG MEASURED FROM
DAPD.FT                   14 : FEET ABOVE PERMANENT DATUM
EKB .FT                 2883 : KELLY BUSHING
EGL .FT                 2869 : GROUND LEVEL
DATE.               04/11/70 : RUN DATE
RUN .                      1 : RUN NUMBER
DD  .FT                 9835 : DEPTH DRILLER
DL  .FT                 9820 : DEPTH LOGGER
BLI .FT                 9816 : BOTTOM LOG INTERVAL
TLI .FT                 1012 : TOP LOG INTERVAL
CBD .FT                 1008 : CASING BOTTOM DRILLER
CBL .FT                 1012 : CASING BOTTOM LOGGER
BS  .IN                7.875 : BIT SIZE
BSD .FT                 9835 : BIT SIZE AT DEPTH
DFT .               CHEM GEL : DRILLING FLUID TYPE
DFD .                     93 : DRILLING FLUID DENSITY
DFV .                     75 : DRILLING FLUID VISCOSITY
DFPH.                   10.5 : DRILLING FLUID PH
DFL .                    9.2 : DRILLING FLUID LOSS
MSS .               FLOWLINE : MUD SAMPLE SOURCE
RMS .OHMM               2.03 : RESISTIVITY MUD SAMPLE
MST .DEGF                 73 : MUD SAMPLE TEMPERATURE
RMF .OHMM               1.92 : RESISTIVITY MUD FILTRATE SAMPLE
MFST.DEGF                 71 : MUD FILTRATE SAMPLE TEMPERATURE
RMC .OHMM               2.16 : RESISTIVITY MUD CAKE
MCST.DEGF                 73 : MUD CAKE SAMPLE TEMPERATURE
TCS .HRS                   3 : TIME CIRCULATED STOPPED
LUN .                   5630 : LOGGING UNIT NUMBER
LUL .                    EDM : LOGGING UNIT LOCATION
ENGI.                 SLADEN : RECORDING ENGINEER
WITN.           SLOAN ELFORD : WITNESSED BY
CLNT.                A2DTECH : CLIENT CODE
ORIG.            2" 5" PRINT : ORIGIN OF DATA
UWI .       100122906818W500 : UNIQUE WELL ID
DICO. A2D Technologies, Inc. : DIGITIZING COMPANY
~Other -----------------------------------------------------
DIL-BCS TOOL RUN
~ASCII -----------------------------------------------------
# ...
 4800.00000    9.56610    9.56610  281.28110    3.55530   88.14190   88.14190   77.24460   77.24460    3.55530    3.65490    4.20000    3.65490    -999.25    0.23540    0.23540  -82.05210   -1.84320    4.20000
 4850.00000    9.51460    9.51460  200.20820    4.99480   87.77160   87.77160   78.27550   78.27550    4.99480    5.14460    5.94820    5.14460    -999.25    0.23210    0.23210  -81.55020   -2.03110    5.94820
 4900.00000    9.85550    9.85550  257.61210    3.88580   94.77160   94.77160   85.71400   85.71400    3.88580    4.11500    5.35340    4.11500    -999.25    0.27940    0.27940  -85.36290   -6.56360    5.35340
 4950.00000    9.41240    9.41240  210.08840    4.75990  101.14010  101.14010   69.37770   69.37770    4.75990    5.42340    8.14630    5.42340    -999.25    0.31960    0.31960  -87.04750   -8.97270    8.14630
 5000.00000   11.41420   11.41420  296.65670    3.37090   94.91680   94.91680   84.01480   84.01480    3.37090    3.50670    4.60100    3.50670    -999.25    0.28710    0.28710  -81.11730   -3.76230    4.60100
 5050.00000    9.35570    9.35570  102.79550    9.75150   90.19210   90.19210   91.95580   91.95580    9.75150   10.80300   12.32760   10.80300    -999.25    0.24890    0.24890  -80.54430   -3.90900   12.32760
 5100.00000    9.35870    9.35870   92.11410   10.85610   77.35450   77.35450   80.77210   80.77210   10.85610   11.45420   16.00520   11.45420    -999.25    0.15120    0.15120  -81.86630   -5.95550   16.00520
 5150.00000    9.46010    9.46010  141.55650    7.06490   80.41780   80.41780   87.41620   87.41620    7.06490    7.32630    9.42510    7.32630    -999.25    0.17580    0.17580  -77.96970   -2.77870    9.42510
 5200.00000    9.31570    9.31570   57.24200   17.46970  101.32160  101.32160  119.83710  119.83710   17.46970   23.73730   39.59030   23.73730    -999.25    0.33580    0.33580  -91.82540  -21.01620   39.59030
 5250.00000    9.60000    9.60000   17.12180   58.40510  109.05070  109.05070  129.19030  129.19030   58.40510   64.73200   48.87480   64.73200    -999.25    0.38770    0.38770  -71.85290   -4.89230   48.87480
 5300.00000    8.59730    8.59730    0.62240 1606.60650   75.43890   75.43890  110.70780  110.70780 1606.60650 1690.17410 1623.60810 1690.17410    -999.25    0.13960    0.13960  -74.02450  -26.87850 1623.60810
 5350.00000    8.94350    8.94350  142.30420    7.02720   74.44890   74.44890   72.99910   72.99910    7.02720    8.98160   14.83430    8.98160    -999.25    0.13270    0.13270  -24.23790  -13.66300   14.83430
 5400.00000    8.89500    8.89500  310.90370    3.21650   76.65100   76.65100   62.30800   62.30800    3.21650    5.07690   14.71160    5.07690    -999.25    0.15570    0.15570  -50.97320  -32.17830   14.71160
 5450.00000    7.94470    7.94470  190.88340    5.23880   74.73100   74.73100   47.79710   47.79710    5.23880   10.76750   28.86820   10.76750    -999.25    0.14030    0.14030 -129.93950 -107.32710   28.86820
 5500.00000    7.86120    7.86120  575.40710    1.73790   74.36660   74.36660   12.43240   12.43240    1.73790    2.94590   15.30140    2.94590    -999.25    0.14860    0.14860 -124.29680 -113.99120   15.30140
 5550.00000    8.06340    8.06340   83.01970   12.06060   52.57250   52.57250   18.75680   18.75680   12.06060   21.66510  154.91240   21.66510    0.03450    -999.25    0.03450  -94.38300  -96.38420  154.91240
 5600.00000    8.15140    8.15140  138.77520    7.20590   57.64380   57.64380   27.68700   27.68700    7.20590    9.19350   35.56440    9.19350    0.06810    -999.25    0.06810  -78.99600  -93.38500   35.56440
 5650.00000    8.74630    8.74630    3.63080  275.43680   55.53720   55.53720   35.77180   35.77180  275.43680  136.40990  112.86540  136.40990    0.05550    -999.25    0.05550   10.30030  -15.51620  112.86540
 5700.00000    8.70660    8.70660   17.23350   58.02660   51.97240   51.97240   12.54310   12.54310   58.02660  173.92720  380.63890  173.92720    0.02960    -999.25    0.02960  -66.44300 -100.00820  380.63890
 5750.00000    9.08120    9.08120   71.02020   14.08050   64.74310   64.74310   82.48490   82.48490   14.08050   14.97890   22.66060   14.97890    0.11980    -999.25    0.11980   27.76640  -13.49690   22.66060
 5800.00000    9.02430    9.02430   40.48910   24.74120   58.68010   58.68010   49.95330   49.95330   24.74120   27.36400   36.36310   27.36400    0.07660    -999.25    0.07660   35.94770   -9.50260   36.36310
 5850.00000    8.77220    8.77220    7.57250  132.05750   59.00800   59.00800   17.39020   17.39020  132.05750  241.89850  884.46970  241.89850    0.04980    -999.25    0.04980  -14.65040  -59.71020  884.46970
 5900.00000    9.27900    9.27900  703.12010    1.42280   67.84730   67.84730   41.57600   41.57600    1.42280    2.21190   11.00340    2.21190    0.14290    -999.25    0.14290  -78.09790 -122.76970   11.00340
 5950.00000    9.08050    9.08050   62.89350   15.89990   59.03290   59.03290   28.31820   28.31820   15.89990   25.99340   43.25110   25.99340    0.08000    -999.25    0.08000  -63.10060 -107.38190   43.25110
 6000.00000    8.89420    8.89420   87.66240   11.40740   55.99250   55.99250   19.83370   19.83370   11.40740   13.87750   51.09910   13.87750    0.05890    -999.25    0.05890  -49.88500  -93.77840   51.09910
 6050.00000    8.86980    8.86980   92.23410   11.02160   57.47210   57.47210   23.16130   23.16130   11.02160   13.97590   35.47180   13.97590    0.06690    -999.25    0.06690  -52.96870  -96.47410   35.47180
 6100.00000    8.64000    8.64000  150.87740    6.62790   59.98070   59.98070   17.08910   17.08910    6.62790    9.39580   48.03590    9.39580    0.08460    -999.25    0.08460 -136.39070 -179.50560   48.03590
 6150.00000    8.80710    8.80710   41.21290   24.26430   55.34890   55.34890    8.56390    8.56390   24.26430   46.16830  343.38920   46.16830    0.05390    -999.25    0.05390 -110.56160 -153.28860  343.38920
 6200.00000    9.11730    9.11730   14.23810   70.23420   53.03980   53.03980    8.98050    8.98050   70.23420  128.73440  144.61230  128.73440    0.03760    -999.25    0.03760  -75.66530 -118.00170  144.61230
 6250.00000    9.82650    9.82650  304.52520    3.28380   76.31850   76.31850   78.20490   78.20490    3.28380    3.60640    4.84210    3.60640    0.20420    -999.25    0.20420   19.74870  -21.76560    4.84210
 6300.00000    9.48050    9.48050  179.59450    5.58440   67.50550   67.50550   52.34140   52.34140    5.58440    6.46360   11.45400    6.46360    0.15130    -999.25    0.15130    8.14560  -31.63390   11.45400
 6350.00000    9.06880    9.06880  148.40980    6.73810   63.93900   63.93900   60.21390   60.21390    6.73810    7.71820   11.04410    7.71820    0.11240    -999.25    0.11240   13.99420  -24.03900   11.04410
 6400.00000    9.12550    9.12550   71.29050   14.03630   60.58660   60.58660   40.13000   40.13000   14.03630   14.63650   18.24260   14.63650    0.08950    -999.25    0.08950   20.77070  -15.52770   18.24260
 6450.00000    8.96910    8.96910   54.02220   18.51090   55.87640   55.87640   17.81570   17.81570   18.51090   25.47090   44.48080   25.47090    0.05840    -999.25    0.05840   21.78950  -12.76270   44.48080
 6500.00000    8.60820    8.60820   32.59800   30.67670   57.68260   57.68260   23.87170   23.87170   30.67670   31.54100   32.99680   31.54100    0.06970    -999.25    0.06970    1.38610  -31.43120   32.99680
 6550.00000    8.67410    8.67410   45.21790   22.11570   57.85980   57.85980   11.97980   11.97980   22.11570   32.20670  107.03770   32.20670    0.07010    -999.25    0.07010  -78.45670 -109.53920  107.03770
 6600.00000    8.51930    8.51930   39.26770   25.46620   58.68970   58.68970   30.95890   30.95890   25.46620   27.20660   33.46160   27.20660    0.07700    -999.25    0.07700  -17.20360  -46.53990   33.46160
 6650.00000    8.42250    8.42250   16.76410   59.67890   55.87390   55.87390   23.04760   23.04760   59.67890   56.85490   55.25300   56.85490    0.05730    -999.25    0.05730  -38.20240  -65.80380   55.25300
 6700.00000    8.41080    8.41080    7.10310  140.78380   55.21020   55.21020   17.72250   17.72250  140.78380  149.85770  125.37850  149.85770    0.05310    -999.25    0.05310  -38.38040  -64.23560  125.37850
