~Version ---------------------------------------------------
VERS.      2.0 : CWLS log ASCII Standard -VERSION 2.0
WRAP.       NO : One line per depth step
CREA. 08/01/17 : LAS Creation Date
~Well ------------------------------------------------------
STRT.FT                            1050.0 : START DEPTH
STOP.FT                           10000.0 : STOP DEPTH
STEP.FT                          50.00000 : STEP LENGTH
NULL.                             -999.25 : NULL VALUE
COMP.               UNOCAL CANADA LIMITED : COMPANY
WELL. UNION LL&E SHINING BANK 11-24-56-14 : WELL
FLD .                                  WC : FIELD
LOC .                                     : LOCATION
CTRY.                              CANADA : COUNTRY
SRVC.                        Schlumberger : SERVICE COMPANY
DATE.                         03-Aug-1971 : LOGDATE
PROV.                             Alberta : PROVINCE
UWI .                    100112405614W500 : UNIQUE WELL ID
SLAT.WGS84                  53.8561852475 : SURFACE LATITUDE
SLON.WGS84                -115.9502838878 : SURFACE LONGITUDE
~Curve Information -----------------------------------------
DEPT  .FT    : Depth Curve
CALSED.IN    : CALIPER FROM BCS LOG
CALWS .IN    : CALIPER [CALSED]
CILDED.MMHO  : DEEP INDUCTION CONDUCTIVITY FROM DIL LOG
CONDWS.MMHO  : CONDUCTIVITY [1000/DRESWS]
DRESWS.OHMM  : DEEP RESISTIVITY [1000/CILDED IF ILDED<4, ILDED]
DTED  .US/F  : DELTA-T (INTERVAL TRANSIT TIME) FROM BCS LOG
DTWS  .US/F  : COMPRESSIONAL  SONIC [DTED]
GRSED .GAPI  : GAMMA RAY FROM BCS LOG
GRWS  .GAPI  : GAMMA RAY [GRSED]
ILDED .OHMM  : DEEP INDUCTION RESISTIVITY FROM DIL LOG
ILMED .OHMM  : INDUCTION MEDIUM RESISTIVITY FROM DIL LOG
LL8ED .OHMM  : LATEROLOG 8 FROM DIL LOG
MRESWS.OHMM  : MEDIUM RESISTIVITY [ILMED]
SPRED .MV    : SPONTANEOUS POTENTIAL FROM DIL LOG
SPWS  .MV    : SPONTANEOUS POTENTIAL [BASELINE 0 MV, SPRED]
SRESWS.OHMM  : SHALLOW RESISTIVITY [LL8ED]
~Params ----------------------------------------------------
PD  .                     GL : PERMANENT DATUM
EPD .FT                 2733 : ELEVATION PERMANENT DATUM
LMF .                     KB : LOG MEASURED FROM
DAPD.FT                15.25 : FEET ABOVE PERMANENT DATUM
EKB .FT              2748.25 : KELLY BUSHING
EGL .FT                 2733 : GROUND LEVEL
DATE.                      1 : RUN DATE
RUN .               08/03/71 : RUN NUMBER
DD  .FT                10035 : DEPTH DRILLER
DL  .FT                10039 : DEPTH LOGGER
BLI .FT                10033 : BOTTOM LOG INTERVAL
TLI .FT                 1030 : TOP LOG INTERVAL
CBD .FT                 1030 : CASING BOTTOM DRILLER
CBL .FT                 1030 : CASING BOTTOM LOGGER
BS  .IN                 8.75 : BIT SIZE
BSD .FT                10035 : BIT SIZE AT DEPTH
DFT .                    GEL : DRILLING FLUID TYPE
DFD .                    9.5 : DRILLING FLUID DENSITY
DFV .                     85 : DRILLING FLUID VISCOSITY
DFPH.                     10 : DRILLING FLUID PH
DFL .                     10 : DRILLING FLUID LOSS
MSS .               FLOWLINE : MUD SAMPLE SOURCE
RMS .OHMM               1.45 : RESISTIVITY MUD SAMPLE
MST .DEGF                 84 : MUD SAMPLE TEMPERATURE
RMF .OHMM               1.21 : RESISTIVITY MUD FILTRATE SAMPLE
MFST.DEGF                 82 : MUD FILTRATE SAMPLE TEMPERATURE
RMB .OHMM               0.59 : RESISTIVITY MUD AT BHT
TCS .HRS                   4 : TIME CIRCULATED STOPPED
LUN .                   5628 : LOGGING UNIT NUMBER
LUL .                    EDM : LOGGING UNIT LOCATION
ENGI.                 ZANUSS : RECORDING ENGINEER
WITN.       HARRIS LEVLINLLE : WITNESSED BY
CLNT.                A2DTECH : CLIENT CODE
ORIG.            2" 5" PRINT : ORIGIN OF DATA
UWI .       100112405614W500 : UNIQUE WELL ID
DICO. A2D Technologies, Inc. : DIGITIZING COMPANY
~Other -----------------------------------------------------
GR & DT HAVE BEEN TAKEN FROM 1" @CSG. TO 5480'.
SP & RESISTIVITY CURVES HAVE BEEN TAKEN IN 1" SECTION @CSG.  TO 2556' & 3846' TO 5480'.
~ASCII -----------------------------------------------------
# ...
 5350.00000   11.45880   11.45880  169.04180  159.27720    6.27840   86.21510   86.21510   86.59060   86.59060    6.27840    -999.25    7.49580    -999.25 -113.06050   -1.72650    7.49580
 5400.00000   12.05660   12.05660  178.11540  160.35410    6.23620   83.33900   83.33900   90.76340   90.76340    6.23620    -999.25    7.39470    -999.25 -111.95630   -1.76430    7.39470
 5450.00000   11.25360   11.25360  245.58380  238.40230    4.19470   93.73660   93.73660  104.15700  104.15700    4.19470    -999.25    6.09150    -999.25 -111.56960   -2.82000    6.09150
 5500.00000   11.09380   11.09380    -999.25    -999.25    -999.25  101.73830  101.73830   86.04430   86.04430    2.39210    2.54610    3.55910    2.54610 -109.43860   -2.15820    3.55910
 5550.00000   11.55250   11.55250    -999.25  232.99700    4.29190   92.70020   92.70020   88.68980   88.68980    4.29190    4.60400    5.24360    4.60400 -108.71960   -2.90850    5.24360
 5600.00000    9.54770    9.54770    -999.25   76.76650   13.02790   68.92580   68.92580   51.13920   51.13920   13.02790   17.31690   22.41400   17.31690 -146.13220  -40.82370   22.41400
 5650.00000   10.31460   10.31460    -999.25   66.63160   15.00790   68.06480   68.06480   56.58990   56.58990   15.00790   17.23380   19.38180   17.23380 -121.79120  -16.48270   19.38180
 5700.00000   10.15760   10.15760    -999.25  132.15120    7.56720   74.67050   74.67050   50.61150   50.61150    7.56720    9.01470   10.54740    9.01470 -115.32480  -10.98960   10.54740
 5750.00000   10.35620   10.35620    -999.25  235.92700    4.23860  134.51780  134.51780   60.47390   60.47390    3.84950    5.29460    8.66390    5.29460 -103.66640   -1.48230    8.66390
 5800.00000   10.16400   10.16400    -999.25   97.95470   10.20880   70.79080   70.79080   42.71150   42.71150   10.20880   14.20620   23.48600   14.20620 -154.47280  -52.78620   23.48600
 5850.00000   10.00990   10.00990    -999.25   48.13270   20.81160   63.40820   63.40820   48.34210   48.34210   20.81160   32.14580   65.78150   32.14580 -115.94940  -20.25510   65.78150
 5900.00000   11.09780   11.09780    -999.25   86.79270   11.52170   99.43140   99.43140   69.39870   69.39870   11.52170   14.51800   37.25580   14.51800  -91.00280   -1.26160   37.25580
 5950.00000   10.34460   10.34460    -999.25   90.36660   11.06600   65.82960   65.82960   56.12170   56.12170   11.06600   12.09190   17.28190   12.09190 -106.05310  -24.73350   17.28190
 6000.00000    9.85540    9.85540    -999.25   72.45480   13.80170   69.66980   69.66980   34.75190   34.75190   13.80170   18.84690   37.86480   18.84690 -119.57330  -33.13800   37.86480
 6050.00000   10.29000   10.29000    -999.25   95.85250   10.43270   69.24400   69.24400   51.17890   51.17890   10.43270   10.90200   22.49520   10.90200 -107.57860  -16.01850   22.49520
 6100.00000   10.31510   10.31510    -999.25  191.59220    5.21940   72.06320   72.06320   51.90510   51.90510    5.21940    6.32630   10.19380    6.32630 -125.20480  -36.90770   10.19380
 6150.00000   10.37470   10.37470    -999.25   80.22910   12.46430   68.84960   68.84960   68.35640   68.35640   12.46430   13.71730   17.20770   13.71730  -88.54590   -3.49030   17.20770
 6200.00000   11.08120   11.08120    -999.25  108.75720    9.19490   74.98770   74.98770   73.93230   73.93230    9.19490    9.84140   12.14850    9.84140  -85.63890   -2.52400   12.14850
 6250.00000   10.32680   10.32680    -999.25   86.00890   11.62670   76.37140   76.37140   70.57190   70.57190   11.62670   12.68950   13.61430   12.68950  -86.06320   -3.40070   13.61430
 6300.00000   10.66650   10.66650    -999.25   46.98410   21.28380   71.84040   71.84040   59.85980   59.85980   21.28380   21.53690   44.54680   21.53690  -86.04990   -4.04220   44.54680
 6350.00000    9.35680    9.35680    -999.25   50.97110   19.61900   72.06840   72.06840   30.58480   30.58480   19.61900   24.73110   41.95290   24.73110 -126.35530  -45.00670   41.95290
 6400.00000   10.53400   10.53400    -999.25   78.82270   12.68670   77.81320   77.81320   89.07210   89.07210   12.68670   13.34660   18.33420   13.34660  -82.05460   -1.36070   18.33420
 6450.00000    9.88600    9.88600    -999.25   47.07890   21.24170   57.43410   57.43410   33.57540   33.57540   21.24170   26.11960   31.81460   26.11960  -90.13940  -10.10460   31.81460
 6500.00000   10.07900   10.07900    -999.25   62.94650   15.88650   68.76570   68.76570   59.88290   59.88290   15.88650   20.57620   38.68340   20.57620  -81.47960   -2.09960   38.68340
 6550.00000    9.36340    9.36340    -999.25   56.56460   17.67890   59.30550   59.30550   36.70800   36.70800   17.67890   30.11230   90.62280   30.11230 -165.89170  -87.66680   90.62280
 6600.00000    9.22740    9.22740    -999.25   12.14640   82.43620   53.80450   53.80450   21.31600   21.31600   82.43620  119.80720  407.44880  119.80720 -147.67880  -70.88630  407.44880
 6650.00000    9.40720    9.40720    -999.25    1.21150  825.45320   58.42650   58.42650   23.36030   23.36030  825.45320  514.00380 1762.20940  514.00380  -99.05660  -23.68710 1762.20940
 6700.00000    9.35350    9.35350    -999.25    2.27090  440.39530   62.82210   62.82210   58.18850   58.18850  440.39530  331.24700  908.50160  331.24700  -78.81120   -3.92460  908.50160
 6750.00000    9.34100    9.34100    -999.25   90.53210   11.04580   56.03870   56.03870  175.93770  175.93770   11.04580   12.42410   31.75510   12.42410 -151.28240  -74.87350   31.75510
 6800.00000    8.95970    8.95970    -999.25   92.47100   10.81420   52.61400   52.61400   15.75680   15.75680   10.81420   21.42890  123.66550   21.42890 -188.67370 -110.74240  123.66550
 6850.00000    9.48100    9.48100    -999.25  162.58110    6.15300   60.11550   60.11550   63.30900   63.30900    6.15300    6.51040   13.01100    6.51040  -91.98330  -12.51970   13.01100
 6900.00000    9.39990    9.39990    -999.25  103.84650    9.62960   57.14880   57.14880   49.38460   49.38460    9.62960   10.85550   20.39490   10.85550  -94.94620  -20.06950   20.39490
 6950.00000    9.50910    9.50910    -999.25  132.32700    7.56020   56.38700   56.38700   35.21250   35.21250    7.56020    8.25550   22.24890    8.25550 -111.90810  -44.08420   22.24890
 7000.00000    9.74960    9.74960    -999.25   87.22050   11.46520   57.83810   57.83810   38.58410   38.58410   11.46520   12.20650   16.22710   12.20650  -90.95070  -25.82820   16.22710
 7050.00000    9.91320    9.91320    -999.25    6.39880  156.27920   51.21310   51.21310   17.40150   17.40150  156.27920  183.84210  934.85320  183.84210  -95.88450  -33.46330  934.85320
 7100.00000    9.39730    9.39730    -999.25   49.55760   20.18350   54.12840   54.12840   31.38870   31.38870   20.18350   21.24600   33.11260   21.24600  -85.05980  -24.84300   33.11260
 7150.00000    9.16130    9.16130    -999.25   29.25620   34.18080   52.40220   52.40220   21.07600   21.07600   34.18080   36.26120   45.11410   36.26120 -110.33270  -49.55730   45.11410
 7200.00000    9.16260    9.16260    -999.25   26.10740   38.31020   52.12420   52.12420   21.29850   21.29850   38.31020   43.64100   62.87110   43.64100 -108.17900  -46.84130   62.87110
 7250.00000    9.26810    9.26810    -999.25    6.97770  143.31310   51.97500   51.97500   28.13100   28.13100  143.31310  201.14900  356.10770  201.14900  -87.73450  -25.83820  356.10770
 7300.00000    9.31120    9.31120    -999.25   17.44320   57.32900   53.47890   53.47890   30.98730   30.98730   57.32900   60.97990   77.91230   60.97990  -66.22940   -3.77450   77.91230
 7350.00000    9.17470    9.17470    -999.25   19.94790   50.14160   54.26140   54.26140   35.45980   35.45980   50.14160   55.52090   74.85560   55.52090  -60.86260   -8.82540   74.85560
 7400.00000    9.44220    9.44220    -999.25   14.57100   68.62960   52.88000   52.88000   35.45090   35.45090   68.62960   69.48050  117.24520   69.48050  -95.00870  -48.35770  117.24520
 7450.00000    9.45510    9.45510    -999.25   19.58560   51.05820   54.74340   54.74340   39.31970   39.31970   51.05820   63.48170   70.51170   63.48170  -66.60550  -18.22820   70.51170
