~Version ---------------------------------------------------
VERS.      2.0 : CWLS log ASCII Standard -VERSION 2.0
WRAP.       NO : One line per depth step
CREA. 09/09/14 : LAS Creation Date
~Well ------------------------------------------------------
STRT.FT                          1100.0 : START DEPTH
STOP.FT                         10200.0 : STOP DEPTH
STEP.FT                        50.00000 : STEP LENGTH
NULL.                           -999.25 : NULL VALUE
COMP.          CHEVRON STANDARD LIMITED : COMPANY
WELL. CHEVRON GULF E KAYBOB 12-25-62-18 : WELL
FLD .                                   : FIELD
LOC .                                   : LOCATION
CTRY.                            CANADA : COUNTRY
SRVC.                      Schlumberger : SERVICE COMPANY
DATE.                       18-Aug-1973 : LOGDATE
PROV.                           Alberta : PROVINCE
UWI .                  100122506218W500 : UNIQUE WELL ID
SLAT.WGS84                     54.39495 : SURFACE LATITUDE
SLON.WGS84                    -116.5696 : SURFACE LONGITUDE
~Curve Information -----------------------------------------
DEPT.FT    : DEPTH FEET
CALS.IN    : CALIPER FROM SONIC LOG
DT  .US/F  : DELTA TIME FROM SONIC LOG
GRS .GAPI  : GAMMA RAY FROM SONIC LOG
ILD .OHMM  : INDUCTION LOG DEEP RESISTIVITY
ILM .OHMM  : INDUCTION LOG MEDIUM RESISTIVITY
LL8 .OHMM  : 8 INCH LATEROLOG RESISTIVITY
SPR .MV    : SPONTANEOUS POTENTIAL FROM RESISTIVITY LOG
~Params ----------------------------------------------------
PD  .                     GL : PERMANENT DATUM
EPD .FT               2847.5 : ELEVATION PERMANENT DATUM
LMF .                     KB : LOG MEASURED FROM
DAPD.FT                   14 : FEET ABOVE PERMANENT DATUM
EKB .FT               2861.5 : KELLY BUSHING
EGL .FT               2847.5 : GROUND LEVEL
DATE.               08/18/73 : RUN DATE
RUN .                      1 : RUN NUMBER
DD  .FT                10235 : DEPTH DRILLER
DL  .FT                10238 : DEPTH LOGGER
BLI .FT                10232 : BOTTOM LOG INTERVAL
TLI .FT                 1119 : TOP LOG INTERVAL
CBD .FT                 1119 : CASING BOTTOM DRILLER
CBL .FT                 1119 : CASING BOTTOM LOGGER
BS  .IN                 8.75 : BIT SIZE
BSD .FT                10235 : BIT SIZE AT DEPTH
DFT .              BENEX GEL : DRILLING FLUID TYPE
DFD .                    9.3 : DRILLING FLUID DENSITY
DFV .                    100 : DRILLING FLUID VISCOSITY
DFPH.                      9 : DRILLING FLUID PH
DFL .                    8.4 : DRILLING FLUID LOSS
MSS .                   CIRC : MUD SAMPLE SOURCE
RMS .OHMM               2.62 : RESISTIVITY MUD SAMPLE
MST .DEGF                 46 : MUD SAMPLE TEMPERATURE
RMF .OHMM                2.1 : RESISTIVITY MUD FILTRATE SAMPLE
MFST.DEGF                 56 : MUD FILTRATE SAMPLE TEMPERATURE
RMC .OHMM               1.99 : RESISTIVITY MUD CAKE
MCST.DEGF                 64 : MUD CAKE SAMPLE TEMPERATURE
RMB .OHMM               0.65 : RESISTIVITY MUD AT BHT
TCS .HRS                   3 : TIME CIRCULATED STOPPED
LUN .                   7636 : LOGGING UNIT NUMBER
LUL .                    EDM : LOGGING UNIT LOCATION
ENGI.                  IBSEN : RECORDING ENGINEER
WITN.                   GOLL : WITNESSED BY
CLNT.                A2DTECH : CLIENT CODE
ORIG.            2" 5" PRINT : ORIGIN OF DATA
UWI .       100122506218W500 : UNIQUE WELL ID
DICO. A2D Technologies, Inc. : DIGITIZING COMPANY
~Other -----------------------------------------------------
~ASCII -----------------------------------------------------
 1100.00000    -999.25    -999.25   59.45420    -999.25    -999.25    -999.25    -999.25
 1150.00000   10.39100  110.69200   77.54250    4.59090    4.37210    4.27460 -112.56890
 1200.00000   10.62510  115.31950   79.26280    4.31620    4.21670    4.87530 -113.35580
 1250.00000   10.35910  147.39910   63.98380    4.69750    4.33310    5.77220 -114.11770
 1300.00000   12.92790  135.53470   67.62970    2.88340    3.07990    3.27320 -116.41700
 1350.00000   10.19530  119.36690  119.29730    2.13230    2.37160    2.58140 -115.31130
 1400.00000   10.15100  122.20830   57.32190    3.58390    3.42190    3.10540 -115.57410
 1450.00000   10.42000  108.09660   64.04210    6.86440    6.05450    5.36540 -115.85740
 1500.00000    9.75840  103.70000   56.08710   12.47630   13.45630   14.37000 -115.87480
 1550.00000    9.85050  116.03360   82.46320    2.51560    2.69950    3.45960 -115.87980
 1600.00000   10.61950  138.47400   69.20350    4.05460    4.41090    5.54660 -113.97860
 1650.00000   10.16940  104.35010   91.04440    3.17180    3.37230    3.60060 -114.26980
 1700.00000   11.50860  131.54560   73.83010    3.21480    3.33320    3.68400 -114.90470
 1750.00000   10.00430  112.90830   78.01440    6.81820    7.19440    7.20560 -113.47550
 1800.00000   10.65420  118.16180   82.54240    2.72030    2.81530    3.25920 -113.37460
 1850.00000    9.65690  115.42720   85.39270    3.82240    4.01350    4.18210 -114.34730
 1900.00000   11.16420  107.00840   79.40640    4.90880    3.75440    5.34690 -112.40350
 1950.00000   10.16870   94.34970   82.21970    3.08270    3.29670    3.51490 -112.88560
 2000.00000   10.86160  106.78030   76.93330    3.52050    3.64740    3.72470 -113.36590
 2050.00000    9.71190   96.72070   66.00670    3.25800    3.49300    3.58210 -113.95850
 2100.00000   10.71820  117.28870   67.23320    3.47500    3.46640    3.58490 -115.59360
 2150.00000    9.89970   97.44250   67.84890    4.80500    4.93190    5.54500 -113.76240
 2200.00000    9.88350  116.73260   96.89630    2.13040    2.25780    2.72440 -113.58300
 2250.00000   10.24660   96.18370   79.82470    6.62990    7.04620    7.13620 -116.16900
 2300.00000   10.41270  122.04940   74.86320    2.83670    3.03920    2.75360 -113.31960
 2350.00000   10.16930  108.02740   74.78720    4.52760    4.90380    5.18000 -112.74900
 2400.00000   10.42990   98.80790   57.68010    5.80500    6.53750    6.78190 -114.21000
 2450.00000   10.21130  113.53140   73.35110    4.09280    4.31560    5.02200 -114.15800
 2500.00000   11.40530  120.72500   60.91360    3.41900    3.59690    3.26090 -114.80260
 2550.00000    9.99720   89.87800   49.80140    8.47680    9.15160    8.67430 -115.77880
 2600.00000   10.12870   89.23280   44.79300   10.53910    9.99090    9.31800 -116.84580
 2650.00000    9.08790   90.27810   57.45670   11.35710   12.98110   16.05180 -116.62080
 2700.00000   10.31430   99.14820   68.10040    4.27290    4.50710    4.67880 -114.71540
 2750.00000   10.98870  114.71950   69.35530    3.91900    4.42970    4.53320 -113.66160
 2800.00000    9.41550   93.64500   50.42080   11.66440   12.58050   11.15420 -116.37110
 2850.00000    9.36940   91.85790   38.93350   12.19420   11.53580    8.09420 -118.31820
 2900.00000   12.55060   99.71650   65.68540    4.46690    4.79370    5.14370 -114.01820
 2950.00000    9.52150   82.55570   35.74160   30.32310   28.15280   30.03530 -131.33670
 3000.00000    9.90740   96.68640   66.16600    6.87890    7.78440   12.72710 -114.39130
 3050.00000    8.45820   87.76270   49.18960   13.42510   14.17250   10.95100 -131.64610
 3100.00000    8.96580   92.18920   55.87230    6.24080    6.72790    6.79150 -115.49640
 3150.00000   10.09200   95.21580   63.30750    4.07260    4.39800    4.65970 -114.03840
 3200.00000   10.83450   99.16250   78.67790    4.05270    4.38710    4.88950 -112.83960
 3250.00000   10.71410   90.59330   79.95840    5.90380    6.38470    7.18920 -113.35260
 3300.00000   12.08880   91.32430   87.63780    5.84390    6.12760    6.36200 -116.72390
 3350.00000   11.17770   91.05710   85.38070    6.76100    7.14680    7.58080 -115.90730
 3400.00000   11.25370   92.01550   93.13790    6.33210    6.72040    7.20560 -116.73520
 3450.00000   10.99360   99.04820  112.89840    5.82450    6.29870    7.45510 -114.91500
 3500.00000   10.06600   85.19460   99.38120    9.54640   10.56670   12.70520 -115.53150
 3550.00000   10.93790   89.05760   94.30990    7.45500    8.12980    8.70720 -113.97880
 3600.00000   11.19000   87.23690   95.31280    7.62090    8.19990    8.39170 -115.20620
 3650.00000   10.86060   89.21380   97.95380    5.82450    6.18570    6.79260 -115.62990
 3700.00000   11.86160   91.12010   91.24130    7.28320    7.59860    8.01000 -115.40620
 3750.00000   13.37880   84.79090   83.47630    7.83130    8.31920    8.48550 -116.70160
 3800.00000   11.51650   92.74150   90.66290    6.25520    6.66010    7.66690 -114.41700
 3850.00000   12.13060   97.44790  103.92750    5.34940    5.79020    6.45010 -114.79640
 3900.00000   12.21640   89.48460  101.22190    6.50270    6.97540    7.15480 -114.13850
 3950.00000   11.53240   82.89720   91.48710    6.59920    7.01540    7.05720 -113.28670
 4000.00000   12.28230   94.45190   95.67290    6.71480    7.40080    7.64920 -113.10010
 4050.00000   10.82370   84.89760   94.25030    8.33660    9.00090    9.89690 -112.82880
 4100.00000   11.16640   80.99560   95.08470    8.34810    9.08900    9.06450 -113.37810
 4150.00000   11.51040   83.41220   93.42930    7.20790    7.77560    8.42630 -111.92040
 4200.00000   11.49550   83.90270  101.39100    7.04450    7.56860    7.78020 -112.66050
 4250.00000   11.72550   90.72070  105.10910    6.18030    6.81450    7.66130 -111.14260
 4300.00000   11.43890   95.11650  118.06060    5.70490    6.34990    7.29990 -109.73280
 4350.00000   10.56510   94.61440  111.06410    7.18070    8.19020    9.51860 -107.10710
 4400.00000   10.17080   92.15620  107.34740    7.60240    8.48940   10.38400 -107.56280
 4450.00000    9.91630   93.73530  113.71740    8.05450    9.09840   11.69790 -107.17910
 4500.00000   10.02300   95.16670  123.93000    8.44150    9.61310   12.20890 -105.44510
 4550.00000   10.84140   98.97410  104.97800    6.04050    6.72870    8.56460 -106.64980
 4600.00000   11.03680   85.56810   94.69020    6.95800    7.82860    8.42780 -108.74330
 4650.00000   11.33070   87.71640  101.77490    5.50950    6.20350    6.74620 -108.07130
 4700.00000   10.93220   89.10150   97.80090    5.62820    6.32290    7.53650 -106.94690
 4750.00000   11.12230   84.77460   94.08400    5.22010    6.11060    6.54470 -105.88940
 4800.00000   10.56950   79.93580   89.01800    7.64280    8.37340   10.30110 -107.17500
 4850.00000   11.32620   83.37870   85.92560    5.11100    5.50610    6.07460 -105.04810
 4900.00000   12.46570   94.41100   94.87920    3.84060    4.06430    5.32490 -103.97090
 4950.00000   12.20930   89.53680   96.51450    4.65270    4.98720    6.06770 -103.31060
 5000.00000   11.48800  101.31820  104.79800    2.92460    3.21190    4.34190 -101.68950
 5050.00000   11.73750  110.83540   90.35780    2.30330    2.42320    3.09160 -102.07100
 5100.00000   11.85930   84.66400   86.20200    4.46310    4.90630    5.43810 -101.80830
 5150.00000   11.96880   91.23050  102.45270    3.63120    4.03400    5.29020 -101.90300
 5200.00000   10.19160   77.53510   58.72450   16.97840   18.51370   21.51410 -112.67920
 5250.00000   12.64280  159.55740   89.37130    1.47530    1.54750    2.59540 -101.90920
 5300.00000   11.55170   76.73060   62.89150   11.81900   14.01180   19.33160 -105.33280
 5350.00000   14.69670  119.60230   67.81880   10.96670   11.53720   43.99310  -98.48020
 5400.00000   13.42740   85.93890   73.11050    6.38720    6.66070    9.01000 -100.00730
 5450.00000   11.79960   73.87330   76.31150    9.78040   11.18160   12.00950  -95.82120
 5500.00000   13.34050   75.05650   50.73390    7.82070   10.11370   13.17740 -131.37120
 5550.00000   13.52490   73.18220   52.36570    8.22800    9.22760    9.36110 -107.55820
