~Version ---------------------------------------------------
VERS.      2.0 : CWLS log ASCII Standard -VERSION 2.0
WRAP.       NO : One line per depth step
CREA. 12/21/17 : LAS Creation Date
~Well ------------------------------------------------------
STRT.FT                             1150.0 : START DEPTH
STOP.FT                            10850.0 : STOP DEPTH
STEP.FT                           50.00000 : STEP LENGTH
NULL.                              -999.25 : NULL VALUE
COMP.             CANADIAN KEWANEE LIMITED : COMPANY
WELL. KEWANEE ET AL SAKWATAMAU 10-15-63-15 : WELL
FLD .                                   WC : FIELD
LOC .                                      : LOCATION
CTRY.                               CANADA : COUNTRY
SRVC.                         Schlumberger : SERVICE COMPANY
DATE.                          21-Mar-1965 : LOGDATE
PROV.                              Alberta : PROVINCE
UWI .                     100101506315W500 : UNIQUE WELL ID
SLAT.WGS84                        54.45235 : SURFACE LATITUDE
SLON.WGS84                        -116.177 : SURFACE LONGITUDE
~Curve Information -----------------------------------------
DEPT  .FT    : Depth Curve
CALSED.IN    : CALIPER FROM SONIC LOG LOG [ADJ. TO RESISTIVITY LOG]
CALWS .IN    : CALIPER [CALSED]
CILDED.MMHO  : CONDUCTIVITY FROM RESISTIVITY LOG
CONDWS.MMHO  : CONDUCTIVITY [1000/DRESWS]
DRESWS.OHMM  : DEEP RESISTIVITY [1000/CILDED IF ILDED < 5, ILDED]
DTED  .US/F  : DELTA T FROM SONIC LOG [ADJ. TO RESISTIVITY LOG]
DTWS  .US/F  : COMPRESSIONAL SONIC [DTED]
GRSED .GAPI  : GAMMA RAY FROM SONIC LOG LOG [ADJ. TO RESISTIVITY LOG]
GRWS  .GAPI  : GAMMA RAY [GRSED]
ILDED .OHMM  : DEEP INDUCTION RESISTIVITY FROM RESISTIVITY LOG
SNED  .OHMM  : SHORT NORMAL FROM RESISTIVITY LOG
SPRED .MV    : SPONTANEOUS POTENTIAL FROM RESISTIVITY LOG
SPWS  .MV    : SPONTANEOUS POTENTIAL [BASELINE 0 MV, SPRED]
SRESWS.OHMM  : SHALLOW RESISTIVITY [SNED]
~Params ----------------------------------------------------
PD  .                    SCF : PERMANENT DATUM
EPD .FT                 3104 : ELEVATION PERMANENT DATUM
LMF .                    SCF : LOG MEASURED FROM
EKB .FT               3117.1 : KELLY BUSHING
EGL .FT                 3103 : GROUND LEVEL
DATE.               03/12/65 : RUN DATE
RUN .                      1 : RUN NUMBER
DD  .FT                10858 : DEPTH DRILLER
DL  .FT                10864 : DEPTH LOGGER
BLI .FT                10863 : BOTTOM LOG INTERVAL
TLI .FT                 9600 : TOP LOG INTERVAL
BS  .IN                 8.75 : BIT SIZE
BSD .FT                10858 : BIT SIZE AT DEPTH
DFT .                    GEL : DRILLING FLUID TYPE
DFD .                    9.8 : DRILLING FLUID DENSITY
DFV .                     73 : DRILLING FLUID VISCOSITY
DFPH.                     10 : DRILLING FLUID PH
DFL .                    7.8 : DRILLING FLUID LOSS
RMS .OHMM               2.32 : RESISTIVITY MUD SAMPLE
MST .DEGF                 52 : MUD SAMPLE TEMPERATURE
RMF .OHMM               1.72 : RESISTIVITY MUD FILTRATE SAMPLE
MFST.DEGF                 52 : MUD FILTRATE SAMPLE TEMPERATURE
RMC .OHMM                2.1 : RESISTIVITY MUD CAKE
MCST.DEGF                 52 : MUD CAKE SAMPLE TEMPERATURE
RMB .OHMM               0.56 : RESISTIVITY MUD AT BHT
TCS .HRS                   2 : TIME CIRCULATED STOPPED
LUN .                   3534 : LOGGING UNIT NUMBER
LUL .                    WCT : LOGGING UNIT LOCATION
ENGI.                  HAYES : RECORDING ENGINEER
WITN.                 FISHER : WITNESSED BY
CLNT.                A2DTECH : CLIENT CODE
ORIG.               5" PRINT : ORIGIN OF DATA
UWI .       100101506315W500 : UNIQUE WELL ID
DICO. A2D Technologies, Inc. : DIGITIZING COMPANY
~Other -----------------------------------------------------
IEL-SONIC-GR LOG RUN
RESISTIVITY CURVES FROM SMALL SCALE SECTION FROM TOP TO 6100'
SONIC CURVES FROM SMALL SCALE SECTION FROM TOP TO 4990'
RESISTIVITY DATA FROM LANE WELLS & SCHLUMBERGER SPLICED TO CREATE SINGLE CURVES
~ASCII -----------------------------------------------------
# ...
 3600.00000   13.14990   13.14990  142.49970  126.13360    7.92810   92.15940   92.15940   66.08110   66.08110    7.92810    8.29680  -45.17540   -1.96610    8.29680
 3650.00000   12.79480   12.79480  211.39490  173.48760    5.76410  105.50280  105.50280    -999.25    -999.25    5.76410    6.14890  -45.52960   -3.09680    6.14890
 3700.00000   13.04020   13.04020  185.26090  149.84640    6.67350   96.43590   96.43590   57.78780   57.78780    6.67350    6.05570  -45.94290   -3.80820    6.05570
 3750.00000   13.22450   13.22450  154.00270  128.99730    7.75210   87.75270   87.75270   53.26760   53.26760    7.75210    7.24070  -45.51930   -2.82510    7.24070
 3800.00000   12.77780   12.77780  200.83090  160.19220    6.24250  110.25460  110.25460   64.55440   64.55440    6.24250    5.95720  -45.82520   -2.57160    5.95720
 3850.00000   13.07110   13.07110  150.23690  123.58190    8.09180  120.48440  120.48440   57.69150   57.69150    8.09180    7.54930  -45.74040   -1.92360    7.54930
 3900.00000   11.12950   11.12950  147.62470  127.61120    7.83630   95.09730   95.09730   58.61080   58.61080    7.83630    6.73890  -47.05280   -2.67650    6.73890
 3950.00000   11.22350   11.22350  160.11180  139.95800    7.14500   98.63680   98.63680   68.08420   68.08420    7.14500    6.30280  -47.36130   -2.59050    6.30280
 4000.00000   11.41950   11.41950  164.27920  133.75060    7.47660   90.80800   90.80800   63.86950   63.86950    7.47660    6.87730  -46.02280   -1.71850    6.87730
 4050.00000   13.14930   13.14930  176.37370  154.23290    6.48370   97.62340   97.62340   57.36610   57.36610    6.48370    7.24660  -45.36640   -1.52860    7.24660
 4100.00000   13.32620   13.32620  175.19280  150.96160    6.62420   97.96120   97.96120   73.88140   73.88140    6.62420    7.34570  -44.06090   -0.69250    7.34570
 4150.00000   13.26070   13.26070  166.04640  142.78370    7.00360   97.82560   97.82560   78.66280   78.66280    7.00360    8.01640  -43.51460   -0.61270    8.01640
 4200.00000   12.15530   12.15530  163.47070  139.32040    7.17770  101.69430  101.69430   81.34860   81.34860    7.17770    8.75540  -43.47680   -1.04440    8.75540
 4250.00000   10.03310   10.03310  133.69610  116.07530    8.61510  110.87020  110.87020   90.93180   90.93180    8.61510   12.45260  -42.65410   -0.68820   12.45260
 4300.00000   13.01630   13.01630  207.26070  166.46690    6.00720  102.16460  102.16460   63.07370   63.07370    6.00720    6.65920  -43.42580   -1.80370    6.65920
 4350.00000   12.63320   12.63320  245.11060  189.47650    5.27770  109.15290  109.15290   58.83030   58.83030    5.27770    5.09980  -46.09010   -4.80450    5.09980
 4400.00000   13.41600   13.41600  272.78750  272.78750    3.66590   98.22720   98.22720   59.45500   59.45500    4.91710    5.53780  -42.95740   -2.00600    5.53780
 4450.00000   13.39770   13.39770  287.14920  287.14920    3.48250   97.06140   97.06140   59.52410   59.52410    4.62080    4.99590  -43.36930   -2.75440    4.99590
 4500.00000   12.21980   12.21980  213.11180  175.69440    5.69170   93.24930   93.24930   70.66890   70.66890    5.69170    6.62080  -44.20710   -3.92650    6.62080
 4550.00000   12.95550   12.95550  259.81630  259.81630    3.84890   93.17250   93.17250   65.15320   65.15320    4.90430    5.45790  -44.34110   -4.39480    5.45790
 4600.00000   14.02250   14.02250  310.13230  310.13230    3.22440  102.27980  102.27980   62.06780   62.06780    4.11500    4.55880  -44.46050   -4.85060    4.55880
 4650.00000   13.98650   13.98650  240.15710  195.63730    5.11150   95.16440   95.16440   66.65660   66.65660    5.11150    6.16640  -41.83700   -2.56140    6.16640
 4700.00000   12.88540   12.88540  511.02880  511.02880    1.95680  113.01240  113.01240   81.24200   81.24200    3.17910    3.78770  -41.07700   -2.13790    3.78770
 4750.00000   12.41700   12.41700  472.18830  472.18830    2.11780  107.56960  107.56960   59.11990   59.11990    3.25020    3.44350  -41.38350   -2.77870    3.44350
 4800.00000   12.82130   12.82130  278.09770  278.09770    3.59590   83.66570   83.66570   55.86700   55.86700    4.37320    4.83200  -42.09930   -3.83570    4.83200
 4850.00000   12.24470   12.24470  302.81910  302.81910    3.30230  108.65080  108.65080   65.00050   65.00050    4.37710    5.18360  -42.63280   -4.83770    5.18360
 4900.00000   10.88820   10.88820  130.10510  116.01330    8.61970   76.48220   76.48220   32.76400   32.76400    8.61970   12.44690  -57.75530  -20.42560   12.44690
 4950.00000   12.27340   12.27340  626.99900  626.99900    1.59490  153.60530  153.60530   51.61390   51.61390    2.78670    3.33040  -42.46730   -5.60610    3.33040
 5000.00000   10.92320   10.92320  113.48260  104.33510    9.58450   79.67910   79.67910   41.40550   41.40550    9.58450   16.88810  -56.21450  -19.81880   16.88810
 5050.00000   11.00680   11.00680  162.44280  142.26370    7.02920   84.33190   84.33190   53.33900   53.33900    7.02920   12.27450  -65.21420  -29.28400   12.27450
 5100.00000   11.18210   11.18210  206.37950  174.72740    5.72320   84.17650   84.17650   45.49840   45.49840    5.72320    7.02520  -37.91540   -2.45370    7.02520
 5150.00000   12.36460   12.36460  182.20010  157.96040    6.33070   76.97910   76.97910   38.60120   38.60120    6.33070    7.93780  -38.42740   -3.43110    7.93780
 5200.00000   12.66350   12.66350  170.96070  150.59330    6.64040   81.30260   81.30260   40.49100   40.49100    6.64040    8.72370  -41.38090   -6.64130    8.72370
 5250.00000   12.49060   12.49060  177.51570  155.29400    6.43940   90.05810   90.05810   32.39620   32.39620    6.43940    8.94430  -49.00630  -13.88470    8.94430
 5300.00000   12.39770   12.39770  179.73440  154.46880    6.47380   78.24630   78.24630   29.76770   29.76770    6.47380    8.66240  -46.29510  -10.79150    8.66240
 5350.00000   11.30620   11.30620  173.72590  150.67730    6.63670   77.66060   77.66060   37.06030   37.06030    6.63670   12.97700  -57.45900  -21.57090   12.97700
 5400.00000   10.67110   10.67110  156.81610  139.39610    7.17380   74.91590   74.91590   35.43960   35.43960    7.17380   15.48290  -88.03810  -51.76800   15.48290
 5450.00000   11.24250   11.24250  246.39980  199.34610    5.01640   81.20410   81.20410   46.90580   46.90580    5.01640    9.56490  -59.36510  -22.71050    9.56490
 5500.00000   11.23610   11.23610  191.28740  164.52780    6.07800   78.65140   78.65140   58.31310   58.31310    6.07800    9.44960  -51.18680  -14.15020    9.44960
 5550.00000   11.34540   11.34540  152.77910  135.01650    7.40650   78.13520   78.13520   56.41900   56.41900    7.40650   11.89910  -39.49110   -2.07260   11.89910
 5600.00000   11.60540   11.60540  182.25470  158.36820    6.31440   80.73840   80.73840   59.66960   59.66960    6.31440    8.13700  -38.88800   -1.81790    8.13700
 5650.00000   11.42620   11.42620  158.26110  139.42720    7.17220   72.43850   72.43850   53.64730   53.64730    7.17220   11.50980  -38.67410   -2.37070   11.50980
 5700.00000   10.64000   10.64000   80.42830   73.24450   13.65290   76.30990   76.30990   48.23370   48.23370   13.65290   21.40960  -42.05370   -6.52200   21.40960
 5750.00000   10.81070   10.81070  132.74980  116.82650    8.55970   82.48160   82.48160   63.79930   63.79930    8.55970   15.71800  -49.24550  -14.48050   15.71800
 5800.00000   11.78760   11.78760  213.98820  182.32540    5.48470   90.28930   90.28930   65.36310   65.36310    5.48470    7.82100  -35.91970   -1.92130    7.82100
 5850.00000   10.53860   10.53860   96.26980   89.11230   11.22180   76.19890   76.19890   58.42900   58.42900   11.22180   17.07170  -33.90630   -0.67950   17.07170
 5900.00000   11.38600   11.38600  163.69170  146.33150    6.83380   91.31440   91.31440   56.47060   56.47060    6.83380    9.23320  -34.54700   -1.94070    9.23320
 5950.00000    9.69950    9.69950   16.44460   11.55310   86.55670   61.74070   61.74070   14.99060   14.99060   86.55670  115.07040  -60.38590  -28.39600  115.07040
 6000.00000    9.60550    9.60550   97.73280   87.99330   11.36450   77.25370   77.25370  185.26280  185.26280   11.36450   72.78550 -109.04230  -77.66480   72.78550
