~Version ---------------------------------------------------
VERS. 2.0 : CWLS log ASCII Standard -VERSION 2.0
WRAP.  NO : One line per depth step
~Well ------------------------------------------------------
STRT.FT                        600.0 : START DEPTH
STOP.FT                      10150.0 : STOP DEPTH
STEP.FT                     50.00000 : STEP LENGTH
NULL.                        -999.25 : NULL VALUE
COMP.     THE CALIFORNIA STANDARD CO : COMPANY
WELL. CALSTAN B A IOSEGUN 7-33-63-19 : WELL
FLD .                         KAYBOB : FIELD
LOC .                                : LOCATION
CTRY.                         CANADA : COUNTRY
SRVC.         Schlumberger of Canada : SERVICE COMPANY
DATE.                    08-Oct-1957 : LOGDATE
PROV.                        Alberta : PROVINCE
UWI .               100073306319W500 : UNIQUE WELL ID
SLAT.WGS84                  54.49249 : SURFACE LATITUDE
SLON.WGS84                 -116.8075 : SURFACE LONGITUDE
~Curve Information -----------------------------------------
DEPT.FT    : DEPTH FEET
CILD.MMHO  : CONDUCTIVITY FROM RESISTIVITY LOG
GRN .CU    : GAMMA RAY FROM NEUTRON LOG
ILD .OHMM  : INDUCTION LOG DEEP RESISTIVITY
LAT .OHMM  : 18 FOOT 8 INCH LATERAL RESISTIVITY FROM IEL
LN  .OHMM  : 64 INCH LONG NORMAL RESISTIVITY FROM IEL
MCAL.IN    : CALIPER MICROLOG
MLL .OHMM  : MICROLATEROLOG RESISTIVITY
NEUT.CU    : NEUTRON FROM NEUTRON LOG
SN  .OHMM  : 16 INCH SHORT NORMAL RESISTIVITY FROM IEL
SPR .MV    : SPONTANEOUS POTENTIAL FROM RESISTIVITY LOG
SPR1.MV    : SPONTANEOUS POTENTIAL FROM RESISTIVITY LOG
~Params ----------------------------------------------------
LMF .                     KB : LOG MEASURED FROM
DMF .                     KB : DRILLING MEASURED FROM
EKB .FT                 2601 : KELLY BUSHING
EGL .FT                 2588 : GROUND LEVEL
DATE.               10/08/57 : RUN DATE
RUN .                      1 : RUN NUMBER
DD  .FT                10194 : DEPTH DRILLER
DL  .FT                10189 : DEPTH LOGGER
BLI .FT                10188 : BOTTOM LOG INTERVAL
TLI .FT                  825 : TOP LOG INTERVAL
CBD .FT                  825 : CASING BOTTOM DRILLER
CBL .FT                  825 : CASING BOTTOM LOGGER
BS  .IN                    9 : BIT SIZE
BSD .FT                10194 : BIT SIZE AT DEPTH
DFT .                    GEL : DRILLING FLUID TYPE
DFD .                   10.6 : DRILLING FLUID DENSITY
DFV .                    177 : DRILLING FLUID VISCOSITY
DFPH.                    9.5 : DRILLING FLUID PH
DFL .                    5.4 : DRILLING FLUID LOSS
RMS .OHMM                8.0 : RESISTIVITY MUD SAMPLE
RMF .OHMM                1.6 : RESISTIVITY MUD FILTRATE SAMPLE
MFST.DEGF                 62 : MUD FILTRATE SAMPLE TEMPERATURE
RMC .OHMM                2.1 : RESISTIVITY MUD CAKE
MCST.DEGF                 62 : MUD CAKE SAMPLE TEMPERATURE
RMB .OHMM                1.0 : RESISTIVITY MUD AT BHT
TCS .HRS                   2 : TIME CIRCULATED STOPPED
LUN .                   1534 : LOGGING UNIT NUMBER
LUL .                     VV : LOGGING UNIT LOCATION
ENGI.               THOMPSON : RECORDING ENGINEER
WITN.                JOHNSON : WITNESSED BY
CLNT.                A2DTECH : CLIENT CODE
ORIG.            2" 5" PRINT : ORIGIN OF DATA
UWI .       100073306319W500 : UNIQUE WELL ID
DICO. A2D Technologies, Inc. : DIGITIZING COMPANY
~Other -----------------------------------------------------
~ASCII -----------------------------------------------------
# ...
 3650.00000  177.91430   25.64690    5.43690    9.68240    8.20670   12.42510    3.27960  992.53960    7.01450 -140.07830 -104.73410
 3700.00000  121.91700   30.19360    8.47230   11.27820   12.02130   12.92400    3.13440  945.59050    9.22750 -140.69760 -105.02300
 3750.00000  130.58870   33.59680    7.77720   10.84620   10.95910   14.07850    4.44090  946.51030    8.74890 -140.31380 -104.12990
 3800.00000  159.02210   29.60540    6.27150   10.01270    9.96740   14.73600    3.42640 1000.80080    7.58060 -139.68140 -103.51470
 3850.00000  126.53190   32.02010    8.02590   10.48910   10.30720    -999.25    -999.25 1063.77420    8.94750 -139.27980 -103.12100
 3900.00000  167.63600   36.86020    5.71730    8.73470    8.59490    -999.25    -999.25  954.99290    6.98490 -138.86360 -102.50520
 3950.00000  160.16890   36.94900    5.84680    8.96170    9.64690    -999.25    -999.25  999.35470    7.85370 -137.78870 -101.38030
 4000.00000  139.13070   37.34590    7.07940    8.52000   10.97660    -999.25    -999.25  956.60190    8.83380 -136.42930  -99.85410
 4050.00000  139.07730   35.20040    7.12180   10.42080   11.17110    -999.25    -999.25  929.98110    9.31580 -135.94180  -99.27550
 4100.00000  127.27340   35.65260    7.88790    9.82260   12.37480    -999.25    -999.25  935.51420   10.26470 -134.19000  -97.34560
 4150.00000  140.40430   36.00690    6.98190    9.61930   11.93520    -999.25    -999.25  935.14780    9.81100 -135.25040  -97.84450
 4200.00000   66.53300   51.88710   14.70220   19.34220   15.22260    -999.25    -999.25 1032.05710   21.23660 -132.89030  -94.78920
 4250.00000  156.47560   33.82120    6.17820    9.25120    9.80050    -999.25    -999.25  884.50820    8.62550 -134.73070  -97.10590
 4300.00000  164.32120   28.11530    6.02420   10.90340    7.98510    -999.25    -999.25  978.26210    6.82550 -135.72080  -99.53460
 4350.00000  182.51370   31.84990    5.19230    8.37710    7.06940    -999.25    -999.25  916.96840    6.46130 -135.45250  -98.59350
 4400.00000  159.37900   31.10590    6.13860    7.77440    8.10900    -999.25    -999.25 1024.85940    7.34890 -134.77350  -97.49740
 4450.00000  183.03790   31.54840    5.29220    7.89970    7.09260    -999.25    -999.25  945.25100    6.60180 -133.43770  -96.39640
 4500.00000  128.32800   28.89810    7.73860    6.99440   10.30620    -999.25    -999.25 1051.19800    9.53440 -134.95480  -97.16510
 4550.00000  189.88350   30.00650    4.88720    7.41500    7.16730    -999.25    -999.25  939.10790    6.76570 -133.56260  -95.98480
 4600.00000  199.66960   29.19300    4.70840    5.45340    5.97800    -999.25    -999.25  968.79210    6.43630 -133.39750  -95.22470
 4650.00000  200.49810   28.81310    4.69950    6.53400    6.77440    -999.25    -999.25 1011.08680    6.47970 -133.54830  -95.51800
 4700.00000  289.44210   34.53760    3.24030    5.03200    4.44420    -999.25    -999.25  919.58150    4.66220 -132.44300  -93.63190
 4750.00000  390.84370   32.62550    2.39850    3.48390    3.64740    -999.25    -999.25  925.34690    3.43010 -132.13310  -93.55910
 4800.00000  230.33280   28.21390    4.00220    3.65320    5.17050    -999.25    -999.25 1031.88070    5.23520 -132.73130  -93.46140
 4850.00000  258.40750   31.92610    3.82710    5.39840    5.27690    -999.25    -999.25 1039.04580    5.28650 -131.89880  -92.91100
 4900.00000  209.14000   31.10260    4.78750    4.76590    7.41340   11.30500    2.24780 1034.48910    6.93960 -132.98590  -92.84980
 4950.00000   49.27520   27.41500   22.09490   19.84140   26.40590    9.81120   27.88690  923.30250   23.04440 -155.78600 -111.32120
 5000.00000  132.41820   26.25110    8.29220    2.76970    9.82990   10.67500   13.51620 1050.53660   11.41540 -132.06620  -91.81190
 5050.00000   94.66700   25.90980   10.37320   36.38280   12.97280   11.37900   15.98650 1045.07760   15.48150 -145.57150 -103.58610
 5100.00000  113.99310   25.23930    9.21970    9.55030   13.11430   11.01390   10.05580 1327.27840    9.27790 -133.89990  -94.40220
 5150.00000   80.02190   22.73040   13.21980   14.66090   21.71930   11.18910   18.98680 1145.62960   17.89000 -132.60970  -91.08330
 5200.00000  112.34240   23.82000    9.09670    4.22540   26.44360   10.82120   10.41000 1373.12650   14.92730 -133.51140  -91.29940
 5250.00000   98.94700   22.51060   10.59740  116.32310   14.60500   11.78210   69.50020  969.03160   16.32180 -132.35560  -91.39270
 5300.00000   91.11880   15.78520   11.31230    8.64690   21.15490   11.14530   13.97440 1361.55990   13.82630 -141.87470 -100.89420
 5350.00000   79.89240   26.25580   14.16860   18.68650   33.13660   11.30570  126.30000 1249.81020   26.78880 -130.74230  -91.04600
 5400.00000   63.32320   25.95480   16.43000   20.25440   32.94460    9.64100   24.97210 1385.73060   23.96190 -168.87600 -124.69550
 5450.00000   63.28070   18.15780   16.76760   25.61730   23.62290    9.56920    8.97630 1437.57920   23.45490 -170.28590 -132.26270
 5500.00000   97.01850   27.05010   10.66440    6.13890   20.94340   11.25620   15.14370 1248.11470   14.26970 -130.69960  -92.10770
 5550.00000   58.77120   18.84920   18.12360   12.73900   21.46110    9.08180   24.89370 1235.47560   23.69680 -183.83000 -137.40320
 5600.00000   75.96180   26.29510   13.69930   12.96930   15.13290   10.28760   23.65690 1371.05270   16.40680 -129.73760  -91.54240
 5650.00000   95.83090   26.89750   10.59100   12.45640   15.27390   10.44790    9.17350 1231.41990   14.30200 -125.91920  -86.03460
 5700.00000  111.70990   25.68850    9.39960    8.57150    9.68430   10.65810   12.82570 1103.16220   11.37930 -123.75480  -84.58550
 5750.00000  292.75480    8.49270    3.30180    9.91410   10.11200    8.44940   22.99760 1416.25670   16.79440 -228.38460 -188.12600
 5800.00000   39.84200   12.63990   28.07890   11.98430   41.97890    9.72700  107.07420 1606.50500   39.19410 -162.49700 -120.41370
 5850.00000   63.99430   23.72890   16.42450   23.42190   33.03360   10.64410   17.94430 1452.73120   23.80350 -124.20370  -89.01620
 5900.00000   59.05920   13.36140   18.20200   27.85790   26.78430    8.22960   26.41610 1319.73300   24.42110 -202.55650 -162.51030
 5950.00000  166.76970   23.85710    6.44400    3.63290    8.75360   10.27530   27.34760 1089.17130    8.98280 -117.56830  -86.46820
 6000.00000  384.23340   20.97640    2.80910    3.45920    3.92110   12.65920    1.45760 1032.54640    4.14240 -118.18200  -87.67140
 6050.00000  327.73780   21.49670    3.27460    4.26820    4.48820   14.05150    1.13020  915.55130    4.90490 -117.35030  -86.38290
 6100.00000   72.81940   44.85150   15.09250   60.51400   62.86730   12.16190    4.20020 1005.32760   30.36510 -112.47940  -75.79580
 6150.00000   10.31100   66.80840  158.45240   23.60630   71.90850    9.29420  261.72260 1419.29420   46.45760 -116.29530  -74.62000
 6200.00000   67.92020   25.51550   15.64450 1023.44680   41.53340    9.77680   64.03530 1919.27390   18.80010 -130.81730 -108.68000
 6250.00000   60.11730   24.81660   18.00440   20.45140   25.74860   10.32720   30.24560 1669.48950   20.55300 -132.74620  -93.75950
 6300.00000   78.38950   23.77380   13.51510   13.96590   18.73610   10.00110   36.49480 1682.21530   17.62000 -141.59650 -105.24260
 6350.00000   95.39720   24.83430   11.20940   17.76910   21.15920    9.78800   47.19390 1569.48650   20.38420 -161.27180 -116.32900
 6400.00000   59.08660    6.98210   19.35460   68.69450   51.68590    8.30880   46.35950 1484.04000   40.67520 -214.27100 -194.32550
 6450.00000   13.83690   10.81500   87.43800  148.21490  203.91530   10.82440  398.74880 1627.63680   91.60210 -149.78060 -108.95150
 6500.00000  144.18220   12.27570    7.20040  163.44500   77.11560    8.64800  304.15990 1675.76330   49.62770 -252.10910 -199.62450
 6550.00000   11.30360   12.16550  116.92530  112.75320  295.25100    9.08000  400.00140 2041.28200  126.55020 -161.93730 -106.80670
 6600.00000   26.00640   10.87320   49.09100  124.93570  104.94510    9.49110   21.20360 2366.53980   55.98010 -115.17480  -77.34490
 6650.00000  173.96750   10.51550    5.72410  326.48070   26.52030    8.95440   21.05270 1768.24010   24.68480 -255.12990 -203.35330
