~Version ---------------------------------------------------
VERS.      2.0 : CWLS log ASCII Standard -VERSION 2.0
WRAP.       NO : One line per depth step
CREA. 09/29/17 : LAS Creation Date
~Well ------------------------------------------------------
STRT.FT                        1400.0 : START DEPTH
STOP.FT                       12550.0 : STOP DEPTH
STEP.FT                      50.00000 : STEP LENGTH
NULL.                         -999.25 : NULL VALUE
COMP.    PAN AMERICAN PETROLEUM CORP. : COMPANY
WELL. SCURRY C-1 GOLD CREEK 6-17-68-4 : WELL
FLD .                                 : FIELD
LOC .                                 : LOCATION
CTRY.                          CANADA : COUNTRY
SRVC.                      Lane Wells : SERVICE COMPANY
DATE.                     15-Apr-1965 : LOGDATE
PROV.                         Alberta : PROVINCE
UWI .                100061706804W600 : UNIQUE WELL ID
SLAT.WGS84                   54.88524 : SURFACE LATITUDE
SLON.WGS84                   -118.574 : SURFACE LONGITUDE
~Curve Information -----------------------------------------
DEPT  .FT    : Depth Curve
AC1ED .US/F  : DELTA TIME (1' SPAN ACOUSTIC) FROM SONIC LOG
ACED  .US/F  : DELTA TIME (3' SPAN ACOUSTIC) FROM SONIC LOG
CALWS .IN    : CALIPER [MCALED]
CILDED.MMHO  : CONDUCTIVITY FROM RESISTIVITY LOG
CONDWS.MMHO  : CONDUCTIVITY [1000/DRESWS]
DRESWS.OHMM  : DEEP RESISTIVITY [1000/CILDED IF ILDED <=1 THEN ILDED]
DTWS  .US/F  : COMPRESSIONAL SONIC [ACED]
GRNED .GAPI  : GAMMA RAY FROM NEUTRON LOG [ADJ.TO RESISTIVITY LOG]
GRSED .GAPI  : GAMMA RAY FROM SONIC LOG
GRWS  .GAPI  : GAMMA RAY [GRSED]
ILDED .OHMM  : DEEP INDUCTION FROM RESISTIVITY LOG
MCALED.IN    : MICRO CALIPER FROM MLL LOG [ADJ.TO RESISTIVITY LOG]
NEUTED.NAPI  : NEUTRON FROM NEUTRON LOG [ADJ.TO RESISTIVITY LOG]
NEUTWS.NAPI  : NEUTRON [NEUTED]
SNED  .OHMM  : SHORT NORMAL FROM RESISTIVITY LOG
SPRED .MV    : SPONTANEOUS POTENTIAL FROM RESISTIVITY LOG
SPWS  .MV    : SPONTANEOUS POTENTIAL [BASELINE 0 MV, SPRED]
SRESWS.OHMM  : SHALLOW RESISTIVITY [SNED]
~Params ----------------------------------------------------
PD  .                     GL : PERMANENT DATUM
EPD .FT                 2238 : ELEVATION PERMANENT DATUM
LMF .                     KB : LOG MEASURED FROM
DAPD.FT                 15.1 : FEET ABOVE PERMANENT DATUM
DMF .                     KB : DRILLING MEASURED FROM
EKB .FT                 2253 : KELLY BUSHING
EGL .FT                 2238 : GROUND LEVEL
DATE.               04/15/65 : RUN DATE
RUN .                      2 : RUN NUMBER
DD  .FT                12655 : DEPTH DRILLER
DL  .FT                12596 : DEPTH LOGGER
BLI .FT                12592 : BOTTOM LOG INTERVAL
TLI .FT                11054 : TOP LOG INTERVAL
CS  .IN               13.375 : CASING SIZE
CBD .FT                 1389 : CASING BOTTOM DRILLER
CBL .FT                 1389 : CASING BOTTOM LOGGER
BS  .IN                6.125 : BIT SIZE
BSD .FT                12655 : BIT SIZE AT DEPTH
DFT .                MUD GEL : DRILLING FLUID TYPE
DFD .                    9.8 : DRILLING FLUID DENSITY
DFV .                    120 : DRILLING FLUID VISCOSITY
DFPH.                   10.5 : DRILLING FLUID PH
DFL .                      7 : DRILLING FLUID LOSS
MSS .               MUD TANK : MUD SAMPLE SOURCE
RMS .OHMM                1.4 : RESISTIVITY MUD SAMPLE
MST .DEGF                 40 : MUD SAMPLE TEMPERATURE
RMF .OHMM                0.8 : RESISTIVITY MUD FILTRATE SAMPLE
MFST.DEGF                 55 : MUD FILTRATE SAMPLE TEMPERATURE
RMC .OHMM               1.15 : RESISTIVITY MUD CAKE
MCST.DEGF                 60 : MUD CAKE SAMPLE TEMPERATURE
MFSS.                   MEAS : MUD FILTRATE SAMPLE SOURCE
MCSS.                   MEAS : MUD CAKE SAMPLE SOURCE
RMB .OHMM               0.25 : RESISTIVITY MUD AT BHT
TCS .HRS                   7 : TIME CIRCULATED STOPPED
LUN .                   8054 : LOGGING UNIT NUMBER
LUL .                     WC : LOGGING UNIT LOCATION
ENGI.        MOORE MCFADZEAN : RECORDING ENGINEER
WITN.                  SAMIS : WITNESSED BY
CLNT.                A2DTECH : CLIENT CODE
ORIG.            2" 5" PRINT : ORIGIN OF DATA
UWI .       100061706804W600 : UNIQUE WELL ID
DICO. A2D Technologies, Inc. : DIGITIZING COMPANY
~Other -----------------------------------------------------
IEL-AC-NEUTRON LOG RUN
~ASCII -----------------------------------------------------
# ...
 3350.00000    -999.25   96.76410   15.36260  104.95100   98.11420   10.19220   96.76410    -999.25   59.69020   59.69020   10.19220   15.36260    -999.25    -999.25   10.89980  -43.85220  -16.84800   10.89980
 3400.00000    -999.25   91.05890   15.75550  102.36830   96.04760   10.41150   91.05890    -999.25   61.06210   61.06210   10.41150   15.75550    -999.25    -999.25   11.46080  -46.11120  -19.25730   11.46080
 3450.00000    -999.25   90.84850   14.11170  100.87080   93.71110   10.67110   90.84850    -999.25   68.97210   68.97210   10.67110   14.11170    -999.25    -999.25   12.38580  -48.11780  -21.41590   12.38580
 3500.00000    -999.25   90.04500   14.40100   98.69950   93.15840   10.73440   90.04500    -999.25   71.86080   71.86080   10.73440   14.40100    -999.25    -999.25   13.13070  -39.19720  -12.64670   13.13070
 3550.00000    -999.25   88.49230   15.00780   98.68690   93.18120   10.73180   88.49230    -999.25   69.51510   69.51510   10.73180   15.00780    -999.25    -999.25   12.97130  -40.75470  -14.35420   12.97130
 3600.00000    -999.25   90.03300   13.59570   96.49520   91.40850   10.93990   90.03300    -999.25   70.78830   70.78830   10.93990   13.59570    -999.25    -999.25   14.02210  -44.32530  -18.07650   14.02210
 3650.00000    -999.25   89.02970   14.09690   95.96310   90.96530   10.99320   89.02970    -999.25   72.01180   72.01180   10.99320   14.09690    -999.25    -999.25   14.72050  -45.54200  -19.44360   14.72050
 3700.00000    -999.25   82.41020   13.22230   91.62190   87.01100   11.49280   82.41020    -999.25   58.34470   58.34470   11.49280   13.22230    -999.25    -999.25   14.89060  -47.53950  -21.59320   14.89060
 3750.00000    -999.25   86.91400   12.52690   96.22740   89.69820   11.14850   86.91400    -999.25   78.19850   78.19850   11.14850   12.52690    -999.25    -999.25   14.29280  -49.19980  -23.40470   14.29280
 3800.00000    -999.25   87.56450   12.51410   86.26050   81.68670   12.24190   87.56450    -999.25   71.08720   71.08720   12.24190   12.51410    -999.25    -999.25   18.26540  -48.01060  -22.36560   18.26540
 3850.00000    -999.25   82.50090   12.57250   84.69030   80.19120   12.47020   82.50090    -999.25   75.98660   75.98660   12.47020   12.57250    -999.25    -999.25   17.54280  -48.17390  -22.68070   17.54280
 3900.00000    -999.25   88.18020   12.17330   89.59430   85.02900   11.76070   88.18020    -999.25   74.68090   74.68090   11.76070   12.17330    -999.25    -999.25   16.47740  -43.35770  -18.01470   16.47740
 3950.00000    -999.25  103.08590   11.44470   77.88760   73.95140   13.52240  103.08590    -999.25   99.14140   99.14140   13.52240   11.44470    -999.25    -999.25   28.03860  -54.34530  -28.31530   28.03860
 4000.00000    -999.25   82.30670   14.10240   88.48300   83.88840   11.92060   82.30670    -999.25   70.47630   70.47630   11.92060   14.10240    -999.25    -999.25   15.25060  -57.99110  -29.56970   15.25060
 4050.00000    -999.25  105.71070   12.40140   78.95240   74.41660   13.43990  105.71070    -999.25  106.98710  106.98710   13.43990   12.40140    -999.25    -999.25   23.43160  -55.66280  -24.10080   23.43160
 4100.00000    -999.25   74.50710   13.83340   86.58490   82.09780   12.18060   74.50710    -999.25   58.90120   58.90120   12.18060   13.83340    -999.25    -999.25   15.47840  -58.96430  -24.15450   15.47840
 4150.00000    -999.25   83.56830   14.95830   95.10680   88.65800   11.27930   83.56830    -999.25   55.00370   55.00370   11.27930   14.95830    -999.25    -999.25   13.26380  -59.62070  -21.59520   13.26380
 4200.00000    -999.25   85.29990   14.12340  109.17070  102.84790    9.72310   85.29990    -999.25   63.99040   63.99040    9.72310   14.12340    -999.25    -999.25   11.25660  -60.63630  -19.36350   11.25660
 4250.00000   73.93510   83.87530   10.45440   68.26580   64.06360   15.60950   83.87530    -999.25   29.38990   29.38990   15.60950   10.45440    -999.25    -999.25   26.46860  -89.09050  -44.58650   26.46860
 4300.00000   61.77980   82.55170   12.13240   92.34080   86.05390   11.63100   82.55170    -999.25   48.35130   48.35130   11.63100   12.13240    -999.25    -999.25   18.05890  -67.15190  -19.43210   18.05890
 4350.00000   80.01090  116.39420   13.18540  110.98510   99.43720   10.05660  116.39420    -999.25   62.07350   62.07350   10.05660   13.18540    -999.25    -999.25   13.26340  -71.70920  -21.01130   13.26340
 4400.00000   58.89730   82.45770   14.12970  107.73140  101.33770    9.86800   82.45770    -999.25   64.19460   64.19460    9.86800   14.12970    -999.25    -999.25   12.09030  -59.41580   -6.85730   12.09030
 4450.00000    -999.25   72.85100   13.45050   85.62640   81.07210   12.33470   72.85100    -999.25   60.73700   60.73700   12.33470   13.45050    -999.25    -999.25   18.71420  -65.63210  -11.19460   18.71420
 4500.00000    -999.25   85.03400   11.40230   99.69480   93.96110   10.64270   85.03400    -999.25   65.97450   65.97450   10.64270   11.40230    -999.25    -999.25   14.60870  -62.75650   -7.53190   14.60870
 4550.00000    -999.25   69.37690   12.15490   77.31330   72.98470   13.70150   69.37690    -999.25   52.81300   52.81300   13.70150   12.15490    -999.25    -999.25   22.73050  -69.26430  -14.00300   22.73050
 4600.00000    -999.25   75.95410   12.81520   80.69360   75.96530   13.16390   75.95410    -999.25   61.86280   61.86280   13.16390   12.81520    -999.25    -999.25   21.18580  -63.57770   -8.37430   21.18580
 4650.00000    -999.25   77.44620   13.08950   99.00440   94.36370   10.59730   77.44620    -999.25   75.46820   75.46820   10.59730   13.08950    -999.25    -999.25   14.34450  -58.82370   -3.67740   14.34450
 4700.00000    -999.25   76.14270   12.99680  106.97340  101.18280    9.88310   76.14270    -999.25   69.26140   69.26140    9.88310   12.99680    -999.25    -999.25   13.53110  -58.20140   -3.11290   13.53110
 4750.00000    -999.25   91.41450   13.51300  180.83020  162.08510    6.16960   91.41450    -999.25   74.84040   74.84040    6.16960   13.51300    -999.25    -999.25    6.84490  -57.70740   -2.67650    6.84490
 4800.00000    -999.25   89.93350   14.03070  168.68230  150.95820    6.62430   89.93350    -999.25   81.11330   81.11330    6.62430   14.03070    -999.25    -999.25    7.70290  -57.81760   -2.84400    7.70290
 4850.00000    -999.25   94.16030   14.57710  181.16970  158.17530    6.32210   94.16030    -999.25   80.57050   80.57050    6.32210   14.57710    -999.25    -999.25    7.14910  -61.42870   -6.51300    7.14910
 4900.00000    -999.25   86.95470   14.38150  350.72140  289.39370    3.45550   86.95470    -999.25   71.90940   71.90940    3.45550   14.38150    -999.25    -999.25    4.28260  -60.05190   -5.19320    4.28260
 4950.00000    -999.25  100.35170   14.39080  143.82950  126.48620    7.90600  100.35170    -999.25   62.60190   62.60190    7.90600   14.39080    -999.25    -999.25    8.42660  -62.37400   -7.57310    8.42660
 5000.00000    -999.25   90.50030   14.16970  113.75140  102.67470    9.73950   90.50030    -999.25   53.40190   53.40190    9.73950   14.16970    -999.25    -999.25    9.44400  -59.37070   -4.62740    9.44400
 5050.00000    -999.25   88.53600   14.46540  132.88540  124.53240    8.03010   88.53600    -999.25   64.65790   64.65790    8.03010   14.46540    -999.25    -999.25    7.46920  -60.77530   -6.08940    7.46920
 5100.00000    -999.25   79.61030   13.77150   86.88000   83.33750   11.99940   79.61030    -999.25   57.26860   57.26860   11.99940   13.77150    -999.25    -999.25   13.66140  -59.42120   -4.83130   13.66140
 5150.00000    -999.25   86.29110   12.68230  101.18460   92.52150   10.80830   86.29110    -999.25   59.83930   59.83930   10.80830   12.68230    -999.25    -999.25   10.16190  -59.80540   -8.57820   10.16190
 5200.00000   57.37980   72.06710   11.70770   58.62290   55.81450   17.91650   72.06710    -999.25   65.66220   65.66220   17.91650   11.70770    -999.25    -999.25   20.84970  -58.46850   -9.38060   20.84970
 5250.00000   59.62210   74.88650    9.60310   51.17770   46.86430   21.33820   74.88650    -999.25   25.20610   25.20610   21.33820    9.60310    -999.25    -999.25   34.85700 -119.51780  -71.76590   34.85700
