~Version ---------------------------------------------------
VERS.      2.0 : CWLS log ASCII Standard -VERSION 2.0
WRAP.       NO : One line per depth step
CREA. 11/17/17 : LAS Creation Date
~Well ------------------------------------------------------
STRT.FT                            800.0 : START DEPTH
STOP.FT                           7700.0 : STOP DEPTH
STEP.FT                         50.00000 : STEP LENGTH
NULL.                            -999.25 : NULL VALUE
COMP.       CANADIAN HOMESTEAD OILS LTD. : COMPANY
WELL. HOMESTEAD SHELL ENILDA 11-14-71-14 : WELL
FLD .                                    : FIELD
LOC .                                    : LOCATION
CTRY.                             CANADA : COUNTRY
SRVC.             Schlumberger of Canada : SERVICE COMPANY
DATE.                        20-Mar-1970 : LOGDATE
PROV.                            Alberta : PROVINCE
UWI .                   100111407114W500 : UNIQUE WELL ID
SLAT.WGS84                      55.15191 : SURFACE LATITUDE
SLON.WGS84                     -116.0425 : SURFACE LONGITUDE
~Curve Information -----------------------------------------
DEPT    .FT    : Depth Curve
CALSED  .IN    : CALIPER FROM SONIC LOG [ADJ. TO RESISTIVITY LOG]
CALWS   .IN    : CALIPER [CALSED]
CONDWS  .MMHO  : CONDUCTIVITY [1000/DRESWS]
DRESWS  .OHMM  : DEEP RESISTIVITY [ILDED]
DTED    .US/F  : DELTA-T FROM SONIC LOG [ADJ. TO RESISTIVITY LOG]
DTWS    .US/F  : SPONTANEOUS POTENTIAL [BASELINE 0MV, SPRED]
GRSED   .GAPI  : GAMMA RAY FROM SONIC LOG [ADJ. TO RESISTIVITY LOG]
GRWS    .GAPI  : GAMMA RAY [GRSED]
ILDED   .OHMM  : DEEP INDUCTION RESISTIVITY FROM RESISTIVITY LOG
ILMED   .OHMM  : MEDIUM INDUCTION RESISTIVITY FROM RESISTIVITY LOG
LL8ED   .OHMM  : LATEROLOG 8 FROM RESISTIVITY LOG
MRESWS  .OHMM  : MEDIUM RESISTIVITY [ILMED]
SPHILSED.V/V   : SONIC POROSITY LIMESTONE [DTM=47.6,DTF=189(ASSUMED)] FROM SONIC LOG [ADJ. TO RESISTIVITY LOG]
SPHISSED.V/V   : SONIC POROSITY SANDSTONE [DTM=55.6,DTF=189(ASSUMED)] FROM SONIC LOG [ADJ. TO RESISTIVITY LOG]
SPOWS   .V/V   : SONIC POROSITY [SPHISSED SPL. TO SPHILSED @ 3620']
SPRED   .MV    : SPONTANEOUS POTENTIAL FROM RESISTIVITY LOG
SPWS    .MV    : SPONTANEOUS POTENTIAL [BASELINE 0MV, SPRED]
SRESWS  .OHMM  : SHALLOW RESISTIVITY [LL8ED]
~Params ----------------------------------------------------
PD  .                     GL : PERMANENT DATUM
EPD .FT                 2409 : ELEVATION PERMANENT DATUM
LMF .                     KB : LOG MEASURED FROM
DAPD.FT                   13 : FEET ABOVE PERMANENT DATUM
EKB .FT                 2422 : KELLY BUSHING
EGL .FT                 2409 : GROUND LEVEL
DATE.               03/20/70 : RUN DATE
RUN .                      1 : RUN NUMBER
DD  .FT                 7744 : DEPTH DRILLER
DL  .FT                 7741 : DEPTH LOGGER
BLI .FT                 7739 : BOTTOM LOG INTERVAL
TLI .FT                  792 : TOP LOG INTERVAL
CBD .FT                  791 : CASING BOTTOM DRILLER
CBL .FT                  792 : CASING BOTTOM LOGGER
BS  .IN                 8.75 : BIT SIZE
BSD .FT                 7744 : BIT SIZE AT DEPTH
DFT .               GEL CHEM : DRILLING FLUID TYPE
DFD .                    9.8 : DRILLING FLUID DENSITY
DFV .                    120 : DRILLING FLUID VISCOSITY
DFPH.                     10 : DRILLING FLUID PH
DFL .                     10 : DRILLING FLUID LOSS
MSS .               FLOWLINE : MUD SAMPLE SOURCE
RMS .OHMM               1.55 : RESISTIVITY MUD SAMPLE
MST .DEGF                 67 : MUD SAMPLE TEMPERATURE
RMB .OHMM               2.79 : RESISTIVITY MUD AT BHT
TCS .HRS                   4 : TIME CIRCULATED STOPPED
LUN .                   7014 : LOGGING UNIT NUMBER
LUL .                     RD : LOGGING UNIT LOCATION
ENGI.                 HEGSON : RECORDING ENGINEER
WITN.                  FOOTE : WITNESSED BY
CLNT.                A2DTECH : CLIENT CODE
ORIG.            2" 5" PRINT : ORIGIN OF DATA
UWI .       100111407114W500 : UNIQUE WELL ID
DICO. A2D Technologies, Inc. : DIGITIZING COMPANY
~Other -----------------------------------------------------
DI-LL-BHC LOG RUN
~ASCII -----------------------------------------------------
# ...
 2750.00000    8.87780    8.87780  281.45230    3.55300  124.34110  124.34110   70.45020   70.45020    3.55300    3.07450    4.16780    3.07450    -999.25    0.42420    0.42420  -98.57890  -19.86320    4.16780
 2800.00000    9.48360    9.48360  362.85790    2.75590  119.46770  119.46770   73.04030   73.04030    2.75590    2.20460    3.95720    2.20460    -999.25    0.44120    0.44120  -96.26560  -17.27360    3.95720
 2850.00000    9.06450    9.06450   58.39010   17.12620   57.42690   57.42690   46.17670   46.17670   17.12620    8.99910   67.05610    8.99910    -999.25    0.01240    0.01240  -95.62970  -17.45070   67.05610
 2900.00000   11.80370   11.80370  386.89210    2.58470  103.72370  103.72370   68.48280   68.48280    2.58470    2.16270    3.34620    2.16270    -999.25    0.36440    0.36440  -91.83390  -14.46250    3.34620
 2950.00000   10.07040   10.07040  315.68650    3.16770   94.07710   94.07710   68.28890   68.28890    3.16770    2.71520    3.49660    2.71520    -999.25    0.29160    0.29160  -88.85920  -12.30080    3.49660
 3000.00000    8.75570    8.75570  205.93080    4.85600  107.10460  107.10460   62.95590   62.95590    4.85600    3.35300    5.64730    3.35300    -999.25    0.38630    0.38630 -118.41110  -42.66030    5.64730
 3050.00000    8.40520    8.40520  209.74030    4.76780  101.09870  101.09870   67.30940   67.30940    4.76780    3.40260    7.19930    3.40260    -999.25    0.33860    0.33860 -129.56170  -54.61860    7.19930
 3100.00000   11.52670   11.52670  360.26950    2.77570  102.36770  102.36770   76.17320   76.17320    2.77570    2.53560    3.00690    2.53560    -999.25    0.35310    0.35310  -91.91250  -17.78230    3.00690
 3150.00000   10.71650   10.71650  450.16660    2.22140  102.83770  102.83770   69.67050   69.67050    2.22140    1.86550    3.42750    1.86550    -999.25    0.35570    0.35570  -96.79280  -23.47030    3.42750
 3200.00000   10.57530   10.57530  295.02880    3.38950   91.69810   91.69810   62.41940   62.41940    3.38950    2.41300    6.83780    2.41300    -999.25    0.26980    0.26980 -122.77130  -50.26170    6.83780
 3250.00000    9.27570    9.27570  213.81680    4.67690   86.20660   86.20660   59.42990   59.42990    4.67690    3.28820    7.23610    3.28820    -999.25    0.22730    0.22730 -124.44330  -52.74140    7.23610
 3300.00000   11.44400   11.44400  363.96720    2.74750   93.84370   93.84370   71.83820   71.83820    2.74750    2.40440    3.64240    2.40440    -999.25    0.28840    0.28840  -95.61530  -24.72100    3.64240
 3350.00000   11.26600   11.26600  222.40510    4.49630   82.77350   82.77350   78.83640   78.83640    4.49630    4.21190    4.97320    4.21190    -999.25    0.20660    0.20660  -89.53160  -19.45030    4.97320
 3400.00000   10.98050   10.98050  285.74690    3.49960   81.94040   81.94040   75.79610   75.79610    3.49960    3.18560    5.78400    3.18560    -999.25    0.20940    0.20940  -81.17870  -11.90500    5.78400
 3450.00000    8.84210    8.84210  110.01220    9.08990   82.83070   82.83070   58.86000   58.86000    9.08990    6.22900   13.17530    6.22900    -999.25    0.20710    0.20710 -123.85360  -55.39290   13.17530
 3500.00000    8.85700    8.85700   91.73980   10.90040   91.67460   91.67460   45.35390   45.35390   10.90040    9.60250   10.96130    9.60250    -999.25    0.27290    0.27290 -133.81630  -66.16330   10.96130
 3550.00000    8.96580    8.96580  167.99660    5.95250   87.16910   87.16910   66.94920   66.94920    5.95250    4.58540    5.85980    4.58540    -999.25    0.24000    0.24000 -136.09320  -69.24780    5.85980
 3600.00000    8.89150    8.89150  105.31420    9.49540   93.42980   93.42980   79.34500   79.34500    9.49540    6.92030   11.64890    6.92030    -999.25    0.29070    0.29070 -114.43170  -48.39930   11.64890
 3650.00000   10.26240   10.26240  114.45050    8.73740   62.73580   62.73580   48.32960   48.32960    8.73740    7.88760    9.59390    7.88760    0.11010    -999.25    0.11010  -87.52060  -22.29580    9.59390
 3700.00000   10.88830   10.88830   61.05860   16.37770   62.89580   62.89580   49.69600   49.69600   16.37770   14.85540   22.49380   14.85540    0.11170    -999.25    0.11170  -69.15100   -4.73920   22.49380
 3750.00000   10.33810   10.33810   45.50480   21.97570   49.29350   49.29350   37.24180   37.24180   21.97570   16.06950   73.21130   16.06950    0.01350    -999.25    0.01350  -77.52010  -14.02070   73.21130
 3800.00000   10.26160   10.26160  600.02400    1.66660   68.87280   68.87280   34.92480   34.92480    1.66660    1.25420    5.97220    1.25420    0.14990    -999.25    0.14990 -119.61870  -57.08940    5.97220
 3850.00000   10.37920   10.37920  101.46210    9.85590   55.64040   55.64040   30.21290   30.21290    9.85590    8.99330   14.27070    8.99330    0.05720    -999.25    0.05720  -86.53480  -24.98210   14.27070
 3900.00000   10.73670   10.73670  124.50350    8.03190   57.55500   57.55500   22.79960   22.79960    8.03190    5.95890   18.14230    5.95890    0.07100    -999.25    0.07100 -113.20560  -52.62300   18.14230
 3950.00000   10.47860   10.47860   54.64240   18.30080   62.22350   62.22350   33.87390   33.87390   18.30080   10.91870   23.05300   10.91870    0.10430    -999.25    0.10430  -82.50620  -22.90020   23.05300
 4000.00000    8.82150    8.82150   61.05860   16.37770   61.70130   61.70130   32.34630   32.34630   16.37770    8.27430   44.72200    8.27430    0.10130    -999.25    0.10130 -155.17320  -96.53730   44.72200
 4050.00000   10.19610   10.19610  130.26600    7.67660   59.67050   59.67050   27.07830   27.07830    7.67660    5.96780   13.84500    5.96780    0.08990    -999.25    0.08990 -123.93260  -66.26690   13.84500
 4100.00000    8.89570    8.89570   34.14890   29.28350   61.65460   61.65460   33.25090   33.25090   29.28350   16.05150   62.05320   16.05150    0.10220    -999.25    0.10220 -155.63000  -98.94080   62.05320
 4150.00000    9.71380    9.71380   38.29040   26.11620   56.68430   56.68430   37.26700   37.26700   26.11620   21.56100   42.18210   21.56100    0.04850    -999.25    0.04850  -88.77180  -33.05280   42.18210
 4200.00000    9.29530    9.29530  212.57600    4.70420   70.45960   70.45960   58.22450   58.22450    4.70420    2.94360   12.20990    2.94360    0.16330    -999.25    0.16330 -108.01080  -53.26830   12.20990
 4250.00000   11.48210   11.48210  249.85010    4.00240   62.10680   62.10680   43.58520   43.58520    4.00240    3.49680   11.93320    3.49680    0.30030    -999.25    0.30030  -81.70850  -27.93620   11.93320
 4300.00000   11.66880   11.66880  340.03200    2.94090   70.11580   70.11580   53.37420   53.37420    2.94090    2.70090    4.27320    2.70090    0.29980    -999.25    0.29980  -75.64940  -22.84720    4.27320
 4350.00000    9.17200    9.17200   77.83010   12.84850   57.07910   57.07910   23.57840   23.57840   12.84850    9.55450   38.77860    9.55450    0.06840    -999.25    0.06840 -114.95180  -63.12620   38.77860
 4400.00000    9.44640    9.44640   66.23170   15.09850   57.59630   57.59630   35.36050   35.36050   15.09850   12.98270   25.59330   12.98270    0.07430    -999.25    0.07430  -58.82760   -7.97210   25.59330
 4450.00000    9.70790    9.70790   58.35330   17.13700   56.23510   56.23510   19.21950   19.21950   17.13700   15.12220   26.80180   15.12220    0.06170    -999.25    0.06170  -91.01660  -40.67460   26.80180
 4500.00000    9.16570    9.16570   96.37630   10.37600   62.15360   62.15360   36.69500   36.69500   10.37600    9.08190   11.91560    9.08190    0.10630    -999.25    0.10630  -71.22160  -21.30420   11.91560
 4550.00000    9.17150    9.17150   97.50960   10.25540   61.50690   61.50690   31.05950   31.05950   10.25540    8.80010   13.68530    8.80010    0.10030    -999.25    0.10030  -76.80110  -27.30820   13.68530
 4600.00000    9.18140    9.18140  108.77960    9.19290   61.88530   61.88530   34.80340   34.80340    9.19290    7.93500   11.54570    7.93500    0.10340    -999.25    0.10340  -71.35460  -22.28910   11.54570
 4650.00000    9.29670    9.29670   88.23090   11.33390   60.34600   60.34600   38.01000   38.01000   11.33390    9.79930   11.98460    9.79930    0.09310    -999.25    0.09310  -71.71050  -23.06950   11.98460
