~Version ---------------------------------------------------
VERS.      2.0 : CWLS log ASCII Standard -VERSION 2.0
WRAP.       NO : One line per depth step
CREA. 08/31/17 : LAS Creation Date
~Well ------------------------------------------------------
STRT.FT                          850.0 : START DEPTH
STOP.FT                        11250.0 : STOP DEPTH
STEP.FT                       50.00000 : STEP LENGTH
NULL.                          -999.25 : NULL VALUE
COMP.        ATLANTIC REFINING COMPANY : COMPANY
WELL. ATLANTIC CROOKED LAKE 4-27-63-22 : WELL
FLD .                               WC : FIELD
LOC .                                  : LOCATION
CTRY.                           CANADA : COUNTRY
SRVC.           Schlumberger of Canada : SERVICE COMPANY
DATE.                      08-Mar-1961 : LOGDATE
PROV.                          Alberta : PROVINCE
UWI .                 100042706322W500 : UNIQUE WELL ID
SLAT.WGS84                    54.47412 : SURFACE LATITUDE
SLON.WGS84                   -117.2467 : SURFACE LONGITUDE
~Curve Information -----------------------------------------
DEPT  .FT    : Depth Curve
CALWS .IN    : CALIPER [MCALED]
CILDED.MMHO  : CONDUCTIVITY FROM IEL LOG
CONDWS.MMHO  : CONDUCTIVITY [1000/DRESWS]
DRESWS.OHMM  : DEEP RESISTIVITY [CALCULATED FROM 1000/CILDED, IF ILDED<1, ILDED]
DT1ED .US/F  : DELTA-T FROM SONIC LOG [ADJ.TO ILDED]
DTED  .US/F  : DELTA-T FROM SONIC LOG [ADJ.TO ILDED]
DTWS  .US/F  : COMPRESSIONAL SONIC [DTED SPL.TO DT1ED @ 11232']
GRSED .GAPI  : GAMMA RAY FROM SONIC LOG [ADJ.TO ILDED]
GRWS  .GAPI  : GAMMA RAY [GRSED*16.50]
ILDED .OHMM  : DEEP INDUCTION FROM IEL LOG
MCALED.IN    : MICRO CALIPER FROM MICRO LOG [ADJ.TO ILDED]
SNED  .OHMM  : SHORT NORMAL FROM IEL LOG
SPRED .MV    : SPONTANEOUS POTENTIAL FROM IEL LOG
SPWS  .MV    : SPONTANEOUS POTENTIAL [BASELINE 0 MV, SPRED]
SRESWS.OHMM  : SHALLOW RESISTIVITY [SNED]
~Params ----------------------------------------------------
LMF .                     KB : LOG MEASURED FROM
DMF .                     KB : DRILLING MEASURED FROM
EKB .FT                 2751 : KELLY BUSHING
EGL .FT               2736.1 : GROUND LEVEL
DATE.               03/08/61 : RUN DATE
RUN .                      1 : RUN NUMBER
DD  .FT                11255 : DEPTH DRILLER
DL  .FT                11257 : DEPTH LOGGER
BLI .FT                11256 : BOTTOM LOG INTERVAL
TLI .FT                 1146 : TOP LOG INTERVAL
CBD .FT                 1146 : CASING BOTTOM DRILLER
CBL .FT                 1146 : CASING BOTTOM LOGGER
BS  .IN                    9 : BIT SIZE
BSD .FT                11255 : BIT SIZE AT DEPTH
DFT .                GEL OIL : DRILLING FLUID TYPE
DFD .                    9.9 : DRILLING FLUID DENSITY
DFV .                    119 : DRILLING FLUID VISCOSITY
DFPH.                    9.5 : DRILLING FLUID PH
DFL .                    6.4 : DRILLING FLUID LOSS
RMS .OHMM               1.35 : RESISTIVITY MUD SAMPLE
MST .DEGF                 68 : MUD SAMPLE TEMPERATURE
RMF .OHMM               3.04 : RESISTIVITY MUD FILTRATE SAMPLE
MFST.DEGF                 68 : MUD FILTRATE SAMPLE TEMPERATURE
TCS .HRS                   4 : TIME CIRCULATED STOPPED
LUN .                  15730 : LOGGING UNIT NUMBER
LUL .                     WC : LOGGING UNIT LOCATION
ENGI.              HAUSEGGER : RECORDING ENGINEER
WITN.                  COWAN : WITNESSED BY
CLNT.                A2DTECH : CLIENT CODE
ORIG.            2" 5" PRINT : ORIGIN OF DATA
UWI .       100042706322W500 : UNIQUE WELL ID
DICO. A2D Technologies, Inc. : DIGITIZING COMPANY
~Other -----------------------------------------------------
~ASCII -----------------------------------------------------
# ...
 3150.00000    9.45220  150.77670  144.91490    6.90060    -999.25   79.98620   79.98620   89.22870   89.22870    6.90060    9.45220    7.44200  -71.74290   -4.27470    7.44200
 3200.00000    9.50090  180.96350  198.70440    5.03260    -999.25  108.33130  108.33130   94.86590   94.79740    5.03260    9.50090    6.86760  -71.22350   -4.04350    6.86760
 3250.00000    8.98100   50.08170   49.15410   20.34420    -999.25   81.18760   81.18760   73.01740   73.01830   20.34420    8.98100   18.20830  -80.94330  -14.04960   18.20830
 3300.00000    9.49670   75.46330   81.93700   12.20450    -999.25   83.80310   83.80310   85.49470   85.49470   12.20450    9.49670   14.59440  -77.25460  -10.64720   14.59440
 3350.00000   10.64930   96.19080  113.08760    8.84270    -999.25   90.23380   90.23380   90.10570   90.33750    8.84270   10.64930    9.29920  -70.79780   -4.47860    9.29920
 3400.00000   12.80690  167.44490  179.67510    5.56560    -999.25   94.96890   94.96890  104.15790  104.15790    5.56560   12.80690    6.51350  -70.31390   -4.28100    6.51350
 3450.00000   15.29130  169.84240  185.50470    5.39070    -999.25   93.35960   93.35960   97.05380   97.10250    5.39070   15.29130    6.57170  -69.49830   -3.75360    6.57170
 3500.00000   15.25970  118.37670  129.97480    7.69380    -999.25   92.20830   92.20830  131.02150  131.02150    7.69380   15.25970    8.11840  -70.66600   -5.20760    8.11840
 3550.00000   15.28820  109.26280  121.27390    8.24580    -999.25   89.90660   89.90660  112.66860  112.66860    8.24580   15.28820    8.82300  -70.85830   -5.68620    8.82300
 3600.00000   15.25560  117.19620  122.10910    8.18940    -999.25   98.51400   98.51400  126.95680  128.16540    8.18940   15.25560    8.78560  -70.40060   -5.51670    8.78560
 3650.00000   15.20910   90.26510   99.46090   10.05420    -999.25   91.69080   91.69080  138.25350  138.25350   10.05420   15.20910   11.66980  -69.64990   -5.05230   11.66980
 3700.00000   15.25420   81.51460   90.26900   11.07800    -999.25   86.89180   86.89180  124.99410  124.42650   11.07800   15.25420   12.56010  -69.16120   -4.85180   12.56010
 3750.00000   13.04730  106.31530  115.82250    8.63390    -999.25   91.51710   91.51710  129.99200  129.99200    8.63390   13.04730   10.41080  -68.17960   -4.15650   10.41080
 3800.00000   10.86140  131.42850  137.80940    7.25640    -999.25   93.08400   93.08400  128.02190  128.02190    7.25640   10.86140    8.54140  -69.87350   -6.13670    8.54140
 3850.00000   10.09580  139.91210  145.40590    6.87730    -999.25   88.23430   88.23430  132.98340  132.65170    6.87730   10.09580    8.36000  -69.63300   -6.18440    8.36000
 3900.00000   10.43930  106.75720  113.31190    8.82520    -999.25   90.01560   90.01560  117.94700  117.94700    8.82520   10.43930    9.89830  -68.75090   -5.58860    9.89830
 3950.00000   10.84140   65.31530   69.05980   14.48020    -999.25   81.44090   81.44090  110.31080  110.72160   14.48020   10.84140   14.75180  -70.63600   -7.76190   14.75180
 4000.00000   11.26920  119.61230  124.12800    8.05620    -999.25   93.54810   93.54810  129.17520  129.17520    8.05620   11.26920    9.53940  -68.23380   -5.64600    9.53940
 4050.00000   11.92430  118.93580  124.03560    8.06220    -999.25   91.67210   91.67210  131.00010  131.00010    8.06220   11.92430    9.55370  -66.98530   -4.68380    9.55370
 4100.00000   11.94270  142.38090  148.67010    6.72630    -999.25   91.40310   91.40310  132.00000  131.75750    6.72630   11.94270    7.80870  -67.06880   -5.05550    7.80870
 4150.00000   10.86190  115.90520  123.87580    8.07260    -999.25   86.00090   86.00090  125.71850  125.71850    8.07260   10.86190    9.36100  -65.92230   -4.19530    9.36100
 4200.00000   10.44780   67.09450   70.73740   14.13680    -999.25   82.67070   82.67070  121.61570  119.65970   14.13680   10.44780   16.71010  -71.72160  -10.28280   16.71010
 4250.00000   11.38070   93.76460   96.17140   10.39810    -999.25   88.01650   88.01650  126.72830  126.72830   10.39810   11.38070   11.78860  -65.28590   -4.25630   11.78860
 4300.00000   11.87050   81.40890   84.11420   11.88860    -999.25   85.76820   85.76820  132.33990  132.33990   11.88860   11.87050   13.65800  -64.21230   -3.83540   13.65800
 4350.00000   12.06490   92.06240   99.65620   10.03450    -999.25   93.33260   93.33260  130.77980  131.35980   10.03450   12.06490   11.08160  -63.45230   -3.73230   11.08160
 4400.00000   13.67880   99.58270  104.30360    9.58740    -999.25  120.44840  120.44840  130.54960  130.54960    9.58740   13.67880   10.58580  -63.32040   -4.25310   10.58580
 4450.00000   13.71650  125.44630  133.00880    7.51830    -999.25  124.70110  124.70110  135.05830  132.93390    7.51830   13.71650    9.06300  -62.00400   -3.59370    9.06300
 4500.00000   14.13400  117.64520  124.31320    8.04420    -999.25   95.23890   95.23890  130.10250  130.10250    8.04420   14.13400    9.98910  -60.38010   -2.62250    9.98910
 4550.00000   14.50180  121.20040  129.30590    7.73360    -999.25  102.21840  102.21840  139.27480  139.27480    7.73360   14.50180    9.66840  -59.68610   -2.58120    9.66840
 4600.00000   15.11960  101.53530  107.77140    9.27890    -999.25   96.27340   96.27340  133.57080  134.84960    9.27890   15.11960   11.37800  -59.37650   -2.92850   11.37800
 4650.00000   15.20170  106.98370  110.76280    9.02830    -999.25  104.49370  104.49370  132.09070  132.09070    9.02830   15.20170   11.05820  -58.20970   -2.41440   11.05820
 4700.00000   14.96300   70.73480   73.16520   13.66770    -999.25   96.98560   96.98560  129.53080  126.38840   13.66770   14.96300   15.79960  -58.06170   -2.92340   15.79960
 4750.00000   14.86790   93.20680   98.90220   10.11100    -999.25   93.18610   93.18610  125.01060  125.01060   10.11100   14.86790   11.80960  -57.31300   -2.82740   11.80960
 4800.00000   12.11210   55.43610   52.88680   18.90830    -999.25   84.67730   84.67730  126.91470  126.91470   18.90830   12.11210   23.32800  -55.88790   -2.05490   23.32800
 4850.00000   12.00940  117.91320  125.21130    7.98650    -999.25   94.92530   94.92530  112.23710  111.83370    7.98650   12.00940   10.77560  -55.06300   -1.88700   10.77560
 4900.00000   11.39960   74.78820   75.05030   13.32440    -999.25   98.14170   98.14170  155.13630  155.13630   13.32440   11.39960   16.41410  -55.47410   -2.95080   16.41410
 4950.00000   12.42760  141.75470  153.55790    6.51220    -999.25   88.87890   88.87890  120.53410  120.08870    6.51220   12.42760    8.41640  -56.78940   -4.92310    8.41640
 5000.00000   12.46540  141.17710  148.99130    6.71180    -999.25   87.10340   87.10340  125.96590  125.96590    6.71180   12.46540    8.11480  -56.27110   -5.05740    8.11480
 5050.00000   12.09080   85.29940   90.09660   11.09920    -999.25   83.17290   83.17290  124.74990  124.74990   11.09920   12.09080   12.27840  -56.89830   -6.33730   12.27840
 5100.00000   12.58240  102.30710  106.58250    9.38240    -999.25   80.22270   80.22270  132.64680  132.73260    9.38240   12.58240   10.90910  -55.27250   -5.36850   10.90910
 5150.00000   12.09290  125.92320  127.38530    7.85020    -999.25   84.77610   84.77610  126.80090  126.80090    7.85020   12.09290    9.27550  -53.34380   -4.09250    9.27550
 5200.00000   11.06970  167.41310  175.39240    5.70150    -999.25   89.58910   89.58910  119.85930  116.97840    5.70150   11.06970    7.49730  -52.86140   -4.26710    7.49730
 5250.00000   11.58130  148.78970  151.99880    6.57900    -999.25   82.27690   82.27690  124.68720  124.68720    6.57900   11.58130    7.90180  -52.97580   -5.03410    7.90180
 5300.00000   12.86970  143.79540  150.86370    6.62850    -999.25   88.98750   88.98750  131.40760  131.40760    6.62850   12.86970    8.15420  -51.64770   -4.35870    8.15420
 5350.00000   13.38900  182.50840  189.54110    5.27590    -999.25   89.81330   89.81330  132.26730  133.13520    5.27590   13.38900    7.40770  -50.52670   -3.89470    7.40770
 5400.00000   11.79650  146.93910  162.09030    6.16940    -999.25  116.14130  116.14130  247.11550  247.11550    6.16940   11.79650    9.43170  -49.84450   -3.86520    9.43170
