~Version ---------------------------------------------------
VERS.      2.0 : CWLS log ASCII Standard -VERSION 2.0
WRAP.       NO : One line per depth step
CREA. 10/01/14 : LAS Creation Date
~Well ------------------------------------------------------
STRT.FT                                  935.9 : START DEPTH
STOP.FT                                 9375.9 : STOP DEPTH
STEP.FT                                0.50000 : STEP LENGTH
NULL.                                  -999.25 : NULL VALUE
COMP. THE BRITISH AMERICAN OIL COMPANY LIMITED : COMPANY
WELL.        B.A. EAST GOOSE RIVER 10-22-66-15 : WELL
FLD .                                          : FIELD
LOC .                                          : LOCATION
CTRY.                                   CANADA : COUNTRY
SRVC.                   Schlumberger of Canada : SERVICE COMPANY
DATE.                              16-Mar-1960 : LOGDATE
PROV.                                  Alberta : PROVINCE
UWI .                         100102206615W500 : UNIQUE WELL ID
SLAT.WGS84                            54.72873 : SURFACE LATITUDE
SLON.WGS84                           -116.1771 : SURFACE LONGITUDE
~Curve Information -----------------------------------------
DEPT.FT      : DEPTH FEET
CILD.MMHO    : CONDUCTIVITY FROM RESISTIVITY LOG
DT  .US/F    : DELTA-T FROM SONIC LOG
GRS .MG/TON  : GAMMA RAY FROM SONIC LOG
ILD .OHMM    : DEEP INDUCTION FROM RESISTIVITY LOG
MCAL.IN      : MLT CALIPER FROM MICRO LOG
SN  .OHMM    : SHORT NORMAL FROM RESISTIVITY LOG
SPR .MV      : SPONTANEOUS POTENTIAL FROM RESISTIVITY LOG
~Params ----------------------------------------------------
LMF .                     KB : LOG MEASURED FROM
DMF .                     KB : DRILLING MEASURED FROM
EKB .FT                 3222 : KELLY BUSHING
EGL .FT                 3205 : GROUND LEVEL
DATE.               03/16/60 : RUN DATE
RUN .                      2 : RUN NUMBER
DD  .FT                 9370 : DEPTH DRILLER
DL  .FT                 9378 : DEPTH LOGGER
BLI .FT                 9373 : BOTTOM LOG INTERVAL
TLI .FT                 5000 : TOP LOG INTERVAL
CBD .FT                  975 : CASING BOTTOM DRILLER
BS  .IN                    9 : BIT SIZE
BSD .FT                 9370 : BIT SIZE AT DEPTH
DFT .                    GEL : DRILLING FLUID TYPE
DFD .                     10 : DRILLING FLUID DENSITY
DFV .                    120 : DRILLING FLUID VISCOSITY
DFPH.                     10 : DRILLING FLUID PH
DFL .                    6.2 : DRILLING FLUID LOSS
RMS .OHMM                2.8 : RESISTIVITY MUD SAMPLE
MST .DEGF                 59 : MUD SAMPLE TEMPERATURE
RMF .OHMM               1.41 : RESISTIVITY MUD FILTRATE SAMPLE
MFST.DEGF                 68 : MUD FILTRATE SAMPLE TEMPERATURE
RMC .OHMM               2.56 : RESISTIVITY MUD CAKE
MCST.DEGF                 67 : MUD CAKE SAMPLE TEMPERATURE
RMB .OHMM               0.94 : RESISTIVITY MUD AT BHT
TCS .HRS                 4.5 : TIME CIRCULATED STOPPED
LUN .                  1573C : LOGGING UNIT NUMBER
LUL .                     WC : LOGGING UNIT LOCATION
ENGI.              HAUSEGGER : RECORDING ENGINEER
WITN.                   COTE : WITNESSED BY
CLNT.                A2DTECH : CLIENT CODE
ORIG.            2" 5" PRINT : ORIGIN OF DATA
UWI .       100102206615W500 : UNIQUE WELL ID
DICO. A2D Technologies, Inc. : DIGITIZING COMPANY
~Other -----------------------------------------------------
~ASCII -----------------------------------------------------
# ...
 6020.90000  118.29260   66.49840    3.26350   10.81440   10.09120   13.39740  -44.17310
 6021.40000  117.01560   67.03880    3.30450   10.79250   10.04910   13.25330  -44.18930
 6021.90000  123.45460   69.23860    3.64350   10.08560    9.99770   12.30110  -44.32270
 6022.40000  133.89360   70.92470    3.78330    9.63270   10.06610   11.77160  -44.34190
 6022.90000  145.88920   80.10400    3.98100    8.49180   10.58170   10.18260  -45.23610
 6023.40000  150.52840   84.91630    3.95460    8.12570   11.20010    9.84580  -45.84020
 6023.90000  162.08300   84.80240    4.05700    7.51610   11.71770    9.27960  -47.90430
 6024.40000  167.42300   83.99420    4.19100    7.24230   11.20720    9.21570  -48.44470
 6024.90000  189.32330   82.71750    4.55850    6.20070   10.42230    9.01070  -49.23860
 6025.40000  195.85820   81.10750    4.58780    5.95480   10.36440    8.82580  -48.92500
 6025.90000  204.82490   74.23990    4.66570    5.74170   10.29500    8.65170  -46.73270
 6026.40000  201.03980   67.34500    4.68070    5.87160   10.28780    8.95440  -45.51850
 6026.90000  179.34070   65.46010    4.59850    6.79310   10.24430   10.15900  -43.14960
 6027.40000  171.16820   66.35360    4.47700    7.17550   10.21160   10.46410  -42.91300
 6027.90000  147.64110   67.14930    4.20700    8.46060   10.14980   11.25360  -42.12790
 6028.40000  132.91880   67.12630    3.96440    9.41020   10.12490   11.88940  -41.64170
 6028.90000  121.23830   67.11640    3.84590   10.41490   10.10130   12.62340  -41.88460
 6029.40000  114.36480   67.24360    4.02550   11.03350   10.06900   13.21980  -41.65800
 6029.90000  115.77280   67.34930    4.31770   10.96500   10.05900   13.40210  -41.58230
 6030.40000  120.85590   67.41400    4.45250   10.52750   10.06850   13.04010  -42.41200
 6030.90000  129.40980   67.75920    4.19660    9.71870   10.08330   12.33790  -42.92930
 6031.40000  139.09770   68.65720    3.95170    9.04700   10.11050   11.41490  -42.84290
 6031.90000  148.36760   69.34400    3.90950    8.71580   10.12630   10.81390  -42.63550
 6032.40000  158.69420   72.74200    3.97330    7.72830   10.16100    9.22770  -42.14460
 6032.90000  165.23760   73.88860    4.09230    7.40830   10.18490    8.95400  -41.96640
 6033.40000  188.26990   77.09980    4.43140    6.23070   10.25290    8.13620  -41.35970
 6033.90000  194.76910   78.48400    4.46650    5.98890   10.28220    7.84430  -41.01120
 6034.40000  211.98820   79.34860    4.48490    5.53020   10.35050    7.16660  -40.12640
 6034.90000  213.94830   79.69500    4.47700    5.49760   10.30620    7.28570  -40.27910
 6035.40000  212.84020   82.58130    4.46880    5.60670   10.35580    7.81640  -41.40060
 6035.90000  209.01640   83.57820    4.52860    5.76580   10.45800    7.91860  -42.18090
 6036.40000  192.22600   79.79960    4.72920    6.29410   10.35950    8.33960  -44.90050
 6036.90000  186.25590   76.89500    4.72270    6.51390   10.16920    8.71750  -45.73600
 6037.40000  172.32520   72.29420    4.46780    7.17680    9.87690   10.05920  -47.23350
 6037.90000  167.27200   70.49220    4.34240    7.56500    9.84470   10.47640  -46.69160
 6038.40000  147.84980   63.27240    3.85030    8.91160    9.80510   12.49490  -45.02950
 6038.90000  132.92330   58.00320    3.64310   10.00260    9.82290   14.13440  -43.81950
 6039.40000  115.45180   61.05540    3.37100   11.39220    9.86020   15.31680  -43.57090
 6039.90000  104.52110   62.75700    3.05610   12.36310    9.89950   15.78030  -44.04350
 6040.40000  101.23130   64.03700    2.99180   12.73300    9.92750   15.78630  -44.33540
 6040.90000  102.80700   66.56020    3.09140   12.19320    9.93500   15.29870  -44.32180
 6041.40000  107.92540   68.09780    3.23390   11.50090    9.89680   14.80850  -44.30830
 6041.90000  116.23400   67.76790    3.58400   10.61030    9.82430   14.42490  -44.42590
 6042.40000  124.13790   67.58040    3.74830   10.16250    9.81180   14.27280  -44.57980
 6042.90000  131.20480   68.67150    4.08000    9.44200    9.85470   13.76360  -45.16390
 6043.40000  132.59430   69.26690    4.05950    9.34630    9.87890   13.74490  -45.44680
 6043.90000  136.85210   66.87850    3.87060    9.10130    9.93620   13.87180  -45.67680
 6044.40000  138.28620   66.30230    3.81520    8.99240    9.95050   13.78880  -45.24190
 6044.90000  142.96340   67.65410    3.53760    8.70390    9.97410   13.07460  -43.51000
 6045.40000  143.68670   69.83340    3.36530    8.70280   10.05650   12.59460  -43.17080
 6045.90000  143.74020   71.08100    2.65680    8.81870   10.41240   11.30020  -43.20380
 6046.40000  144.85440   70.09010    2.52440    8.75190   10.37350   10.96910  -43.73400
 6046.90000  153.72900   70.88700    3.08250    7.97050   10.07520   10.12410  -45.99540
 6047.40000  161.57840   71.77970    3.64910    7.53030   10.07900    9.98780  -47.43910
 6047.90000  195.33920   71.50810    4.84270    6.20850   10.09520    9.39100  -53.29780
 6048.40000  208.84570   69.47260    4.84640    5.73770    9.98280    9.59370  -56.29870
 6048.90000  249.17010   67.23580    4.67930    4.55580    9.32200    9.94040  -65.32920
 6049.40000  276.33270   70.46780    4.38410    4.02850    9.33780    9.90660  -73.02000
 6049.90000  302.53080   72.77960    3.80340    3.76720    9.58910    9.31740  -78.90760
 6050.40000  324.24260   74.45420    3.14190    3.54650    9.95000    8.20630  -82.98450
 6050.90000  340.04920   75.86380    2.67250    3.38350   10.31500    6.76150  -81.78390
 6051.40000  351.30670   78.29790    2.80200    3.27550   10.39240    5.41290  -75.44730
 6051.90000  361.54600   82.46740    3.13480    3.24110   10.47090    4.76010  -66.11250
 6052.40000  362.98660   89.65000    3.33400    3.23200   10.89790    4.43500  -57.44300
 6052.90000  354.97630   92.49900    3.39160    3.30250   11.92180    4.44510  -54.09410
 6053.40000  338.49290   94.95030    3.46540    3.50450   14.49020    4.71120  -47.46520
 6053.90000  327.18900   92.72710    3.50510    3.58510   13.56790    4.80330  -46.57140
 6054.40000  297.35730   87.54460    3.78730    3.98400   11.35590    5.07970  -44.53010
 6054.90000  287.69330   83.45360    3.93900    4.11770   11.22510    5.16130  -44.30270
 6055.40000  261.17280   67.27200    4.25630    4.58260   10.50630    5.63620  -44.99320
 6055.90000  253.58290   63.74310    4.31180    4.76220   10.43050    5.92070  -46.10350
 6056.40000  225.31060   59.22560    4.04620    5.39440   10.36170    6.86270  -50.29200
 6056.90000  214.73610   60.08070    3.80650    5.67510   10.37020    7.16660  -51.62600
 6057.40000  188.15900   63.23940    3.07700    6.60850   10.39340    7.88910  -54.03010
 6057.90000  181.70500   65.70110    2.97960    6.77330   10.40300    7.93860  -53.63130
 6058.40000  170.20090   69.37720    3.15510    7.10060   10.41840    7.98900  -52.45550
 6058.90000  169.60090   69.85820    3.37350    7.11490   10.41410    8.03330  -52.43970
 6059.40000  169.01520   70.04010    3.85930    7.16540   10.37770    8.24530  -54.15480
 6059.90000  168.34690   69.69710    3.80640    7.24080   10.35600    8.59900  -57.26900
 6060.40000  164.54980   68.66720    3.40910    7.45470   10.33470    9.04370  -60.79670
 6060.90000  159.18140   66.05580    3.08600    7.98310   10.34230    9.60920  -63.32900
 6061.40000  151.51860   65.44630    2.92390    8.42690   10.33970   10.33740  -63.96880
 6061.90000  141.85490   65.22540    2.87810    9.05370   10.33180   11.09140  -65.19070
 6062.40000  133.14810   64.72940    2.84210    9.77920   10.31010   11.77960  -67.03340
 6062.90000  126.13420   64.06390    2.68820   10.34470   10.29450   12.17680  -69.40970
 6063.40000  125.08980   63.95410    2.62180   10.18780   10.29430   12.23100  -70.27280
 6063.90000  130.17840   64.15740    2.47810    9.39320   10.29380   12.13920  -72.68460
 6064.40000  138.13070   64.38260    2.53780    8.91910   10.29370   11.84830  -73.44410
 6064.90000  165.58300   65.76370    2.58730    7.17040   10.30830   10.65310  -74.75530
 6065.40000  178.57540   66.80110    2.57840    6.61500   10.32190   10.01150  -74.68930
