~Version ---------------------------------------------------
VERS. 2.0 : CWLS log ASCII Standard -VERSION 2.0
WRAP. YES : MULTIPLE LINES PER DEPTH STEP
~Well ------------------------------------------------------
STRT.FT                       2050.0 : START DEPTH
STOP.FT                      10550.0 : STOP DEPTH
STEP.FT                     50.00000 : STEP LENGTH
NULL.                        -999.25 : NULL VALUE
COMP. QUINTANA PETROLEUM CORPORATION : COMPANY
WELL.                       HARLE #1 : WELL
FLD .                        BUCKLEY : FIELD
LOC .                                : LOCATION
CNTY.                       LA SALLE : COUNTY
STAT.                          TEXAS : STATE
CTRY.       UNITED STATES OF AMERICA : COUNTRY
SRVC.    HALLIBURTON Sperry Drilling : SERVICE COMPANY
DATE.                    12-Nov-1991 : LOGDATE
API .                 42283314640000 : API NUMBER
UWI .                 42283314640000 : UNIQUE WELL ID
SLAT.WGS84             28.3427642272 : SURFACE LATITUDE
SLON.WGS84            -99.0284847769 : SURFACE LONGITUDE
~Curve Information -----------------------------------------
DEPT    .FT    : DEPTH FEET
CALRED  .IN    : CALIPER FROM RESISTIVITY LOG
CALWS   .IN    : CALIPER [DCALRED+8.75]
CONDWS  .MMHO  : CONDUCTIVITY [1000/DRESWS]
DCALRED .IN    : DIFFERENTIAL CALIPER FROM RESISTIVITY LOG
DCORWS  .G/C3  : DENSITY CORRECTION [DRHOED]
DENWS   .G/C3  : BULK DENSITY  [CALCULATED FROM DPOWS][M=2.65 F=1.0]<9190>[M=2.71 F=1.0]
DFLED   .OHMM  : DIGITALLY FOCUSED LATEROLOG
DPHILSED.V/V   : DENSITY POROSITY [M=2.71 F=1.0] FROM DENSITY LOG
DPHISSED.V/V   : DENSITY POROSITY [M=2.65 F=1.0] FROM DENSITY LOG
DPOWS   .V/V   : DENSITY POROSITY [DPHISSED]<9190>DPHILSED
DRESWS  .OHMM  : DEEP RESISTIVITY [HDRSED]
DRHOED  .G/C3  : DENSITY CORRECTION FROM RES. LOG, DEPTH ADJUSTED WITH [GRRED]
DTED    .US/F  : DELTA TIME FROM SONIC LOG
DTWS    .US/F  : DELTA TIME [DTED]
GRKTED  .GAPI  : GAMMA RAY KT FROM SPECTRAL LOG, DEPTH ADJUSTED WITH [GRRED]
GRKUTED .GAPI  : GAMMA RAY KUT FROM SPECTRAL LOG, DEPTH ADJUSTED WITH [GRRED]
GRR1ED  .GAPI  : GAMMA RAY FROM INDUCTION [ILDED] LOG, DEPTH ADJUSTED WITH [GRRED]
GRRED   .GAPI  : GAMMA RAY FROM RESISTIVITY LOG
GRTHED  .GAPI  : GAMMA RAY TH FROM SPECTRAL LOG, DEPTH ADJUSTED WITH [GRRED]
GRWS    .GAPI  : GAMMA RAY [GRRED]
GUARDED .OHMM  : GUARD LOG RESISTIVITY
HDRSED  .OHMM  : HRI DEEP RESISTIVITY
HMRSED  .OHMM  : HRI MEDIUM RESISTIVITY
ILDED   .OHMM  : INDUCTION LOG DEEP RESISTIVITY , DEPTH ADJUSTED WITH [GRRED]
ILMED   .OHMM  : INDUCTION LOG MEDIUM RESISTIVITY, DEPTH ADJUSTED WITH [GRRED]
MRESWS  .OHMM  : MEDIUM RESISTIVITY [HMRSED]
NPHILSED.V/V   : NEUTRON POROSITY LIMESTONE FROM DENSITY LOG
NPHISSED.V/V   : NEUTRON POROSITY SANDSTONE FROM DENSITY LOG
NPOWS   .V/V   : NEUTRON POROSITY SANDSTONE [NPHISSED]<9190>LIMESTONE [NPHILSED]
SFLED   .OHMM  : SPHERICALLY FOCUSED LOG RESISTIVITY
SPRED   .MV    : SPONTANEOUS POTENTIAL FROM RESISTIVITY LOG
SPWS    .MV    : SPONTANEOUS POTENTIAL [BASELINE 0 MV] [SPRED]
SRESWS  .OHMM  : SHALLOW RESISTIVITY [DFLED]
TENRED  .LBF   : TENSION FROM RESISTIVITY LOG
~Params ----------------------------------------------------
PD  .                     GL : PERMANENT DATUM
EPD .F                 379.7 : ELEVATION PERMANENT DATUM
LMF .                    TKB : LOG MEASURED FROM
DAPD.F                    19 : FEET ABOVE PERMANENT DATUM
DMF .                    TKB : DRILLING MEASURED FROM
EKB .F                 398.7 : KELLING BUSHING
EDF .F                 397.7 : DRILLING FLOOR
EGL .F                 379.7 : GROUND LEVEL
DATE.             11-12-1991 : RUN DATE
RUN .                      1 : RUN NUMBER
DD  .F                 10615 : DEPTH DRILLER
DL  .F                 10568 : DEPTH LOGGER
BLI .F                 10566 : BOTTOM LOG INTERVAL
TLI .F                  2010 : TOP LOG INTERVAL
CS  .IN                9.625 : CASING SIZE
CBD .F                  2012 : CASING BOTTOM DRILLER
CBL .F                  2010 : CASING BOTTOM LOGGER
BS  .IN                 8.75 : BIT SIZE
BSD .F                 10615 : BIT SIZE AT DEPTH
DFT .              LIGNO-HFI : DRILLING FLUID TYPE
DFD .                   10.3 : DRILLING FLUID DENSITY
DFV .                     42 : DRILLING FLUID VISCOSITY
DFPH.                   10.5 : DRILLING FLUID PH
DFL .                    5.7 : DRILLING FLUID LOSS
MSS .               FLOWLINE : MUD SAMPLE SOURCE
RMS .OHMM               1.31 : RESISTIVITY MUD SAMPLE
MST .F                    75 : MUD SAMPLE TEMPERATURE
RMF .OHMM               1.04 : RESISTIVITY MUD FILTRATE SAMPLE
MFST.F                    75 : MUD FILTRATE SAMPLE TEMPERATURE
RMC .OHMM                2.6 : RESISTIVITY MUD CAKE
MCST.F                    75 : MUD CAKE SAMPLE TEMPERATURE
MFSS.                   MEAS : MUD FILTRATE SAMPLE SOURCE
MCSS.                   MEAS : MUD CAKE SAMPLE SOURCE
RMB .OHMM               0.43 : RESISTIVITY MUD AT BHT
TCS .HRS                16.5 : TIME CURCULATED STOPPED
TLAB.HRS                1200 : TIME LOGGER AT BOTTOM
LUN .                  51561 : LOGGING UNIT NUMBER
LUL .                  ALICE : LOGGING UNIT LOCATION
ENGI.                MERRELL : RECORDING ENGINEER
WITN.  MR. EVANS/MR. DUCKETT : WITNESSED BY
CLNT.                A2DTECH : CLIENT CODE
ORIG.               5" PRINT : ORIGIN OF DATA
UWI .         42283314640000 : UNIQUE WELL ID
DICO. A2D Technologies, Inc. : DIGITIZING COMPANY
~Other -----------------------------------------------------
~ASCII -----------------------------------------------------
# ...
 6250.00000    -999.25   10.73680  770.95060    1.98680    0.12490    2.35430    1.51920    -999.25    0.17920    0.17920    1.29710    0.12490   99.51180   99.51180    -999.25    -999.25   87.58320   95.01870    -999.25   95.01870    1.69300    1.29710    1.33320    1.23300    1.27600    1.33320    -999.25    0.34560    0.34560    1.71020  -39.33930   -0.44680    1.51920 2939.24660
 6300.00000    -999.25   10.34890  398.53340    1.59890    0.10090    2.47480    2.39130    -999.25    0.10620    0.10620    2.50920    0.10090   92.18050   92.18050    -999.25    -999.25   91.24590  103.49780    -999.25  103.49780    2.55680    2.50920    2.44120    2.41560    2.57000    2.44120    -999.25    0.27530    0.27530    2.53060  -40.84080   -1.99510    2.39130 2909.58080
 6350.00000    -999.25    9.36360  263.85220    0.61360    0.11900    2.51670    4.23060    -999.25    0.08080    0.08080    3.79000    0.11900   84.21030   84.21030    -999.25    -999.25   75.33610   83.37580    -999.25   83.37580    3.23260    3.79000    3.81610    2.85260    3.18190    3.81610    -999.25    0.28100    0.28100    3.76510  -44.51150   -5.73790    4.23060 2963.55470
 6400.00000    -999.25   10.11510  406.85140    1.36510    0.17610    2.48600    2.54390    -999.25    0.09940    0.09940    2.45790    0.17610   87.51860   87.51860    -999.25    -999.25   80.50400   84.42250    -999.25   84.42250    2.72240    2.45790    2.44120    2.35290    2.45130    2.44120    -999.25    0.30090    0.30090    2.60400  -43.54430   -4.84290    2.54390 3074.57760
 6450.00000    -999.25   10.83060  546.74690    2.08060    0.12510    2.42590    2.04170    -999.25    0.13580    0.13580    1.82900    0.12510   98.19550   98.19550    -999.25    -999.25   86.72440   93.08220    -999.25   93.08220    2.18420    1.82900    1.82910    1.75060    1.81200    1.82910    -999.25    0.33290    0.33290    2.14510  -42.94290   -4.31360    2.04170 2971.95190
 6500.00000    -999.25   10.64690  333.31110    1.89690    0.13060    2.49670    3.84250    -999.25    0.09290    0.09290    3.00020    0.13060   81.20300   81.20300    -999.25    -999.25   75.50900   70.73670    -999.25   70.73670    3.23110    3.00020    2.95930    2.43310    2.53530    2.95930    -999.25    0.26590    0.26590    3.22450  -46.54750   -7.99030    3.84250 2961.75710
 6550.00000    -999.25   10.47010  319.85670    1.72010    0.15820    2.52710    5.41830    -999.25    0.07450    0.07450    3.12640    0.15820   74.43590   74.43590    -999.25    -999.25   67.44020   69.95720    -999.25   69.95720    3.86200    3.12640    3.21350    2.43600    2.64300    3.21350    -999.25    0.19700    0.19700    3.79750  -45.64610   -7.16100    5.41830 2999.00170
 6600.00000    -999.25   10.38160  357.02810    1.63160    0.12200    2.50550    2.70630    -999.25    0.08760    0.08760    2.80090    0.12200   87.95440   87.95440    -999.25    -999.25   75.68260   76.58720    -999.25   76.58720    3.23080    2.80090    2.57920    2.41640    2.66040    2.57920    -999.25    0.29000    0.29000    2.82980  -45.34530   -6.93230    2.70630 3011.22240
 6650.00000    -999.25    9.20140  229.96440    0.45140    0.08360    2.52230    7.85330    -999.25    0.07740    0.07740    4.34850    0.08360   71.27820   71.27820    -999.25    -999.25   65.48430   72.19080    -999.25   72.19080    5.26140    4.34850    4.72240    2.90960    3.20250    4.72240    -999.25    0.19850    0.19850    4.88320  -43.54400   -5.20310    7.85330 3009.27540
 6700.00000    -999.25   10.17220  444.87940    1.42220    0.16980    2.41590    2.44120    -999.25    0.14190    0.14190    2.24780    0.16980   91.57890   91.57890    -999.25    -999.25   78.17450   83.40960    -999.25   83.40960    2.53440    2.24780    2.24790    1.94000    2.10200    2.24790    -999.25    0.32520    0.32520    2.47880  -43.24320   -4.97450    2.44120 3057.63350
 6750.00000    -999.25   11.12550  357.02810    2.37550    0.15800    2.49370    2.83970    -999.25    0.09470    0.09470    2.80090    0.15800   86.16490   86.16490    -999.25    -999.25   79.03580   79.29560    -999.25   79.29560    2.77700    2.80090    2.74370    2.36750    2.51810    2.74370    -999.25    0.28500    0.28500    2.86250  -43.84430   -5.64770    2.83970 3028.54320
 6800.00000    -999.25   12.73790  426.87610    3.98790    0.18200    2.44460    2.49200    -999.25    0.12450    0.12450    2.34260    0.18200   92.93230   92.93230    -999.25    -999.25   84.08340   86.29020    -999.25   86.29020    2.25930    2.34260    2.39140    1.88660    1.97950    2.39140    -999.25    0.33170    0.33170    2.35860  -43.84340   -5.71890    2.49200 3031.35520
 6850.00000    -999.25   13.16090  479.80040    4.41090    -999.25    2.42740    2.24800    -999.25    0.13490    0.13490    2.08420    -999.25   92.93140   92.93140    -999.25    -999.25   79.43560   77.36710    -999.25   77.36710    2.38840    2.08420    1.97270    1.90040    2.00800    1.97270    -999.25    0.35670    0.35670    2.20760  -42.94290   -4.89050    2.24800 3054.19210
 6900.00000    -999.25   12.86130  506.91950    4.11130    -999.25    2.40270    2.18690    -999.25    0.14990    0.14990    1.97270    -999.25   92.33050   92.33050    -999.25    -999.25   80.28710   86.47180    -999.25   86.47180    2.37150    1.97270    2.06990    1.83700    1.90080    2.06990    -999.25    0.36150    0.36150    2.15550  -43.24320   -5.26290    2.18690 3076.67820
 6950.00000    -999.25   11.87230  415.29960    3.12230    -999.25    2.38470    2.95940    -999.25    0.16080    0.16080    2.40790    -999.25   90.22650   90.22650    -999.25    -999.25   85.27650   82.43390    -999.25   82.43390    2.70140    2.40790    2.37500    2.03510    2.19310    2.37500    -999.25    0.31190    0.31190    2.52240  -43.24320   -5.33500    2.95940 3080.01250
 7000.00000    -999.25   12.34980  469.99110    3.59980    -999.25    2.39790    2.11310    -999.25    0.15280    0.15280    2.12770    -999.25   92.33080   92.33080    -999.25    -999.25   73.97710   82.31880    -999.25   82.31880    2.32220    2.12770    2.11310    1.92950    2.00680    2.11310    -999.25    0.35280    0.35280    2.33670  -43.84380   -6.00780    2.11310 3197.07840
 7050.00000    -999.25   11.63110  421.07030    2.88110    -999.25    2.40070    2.61490    -999.25    0.15110    0.15110    2.37490    -999.25   88.87220   88.87220    -999.25    -999.25   76.28010   77.26570    -999.25   77.26570    2.53830    2.37490    2.40780    2.09080    2.20070    2.40780    -999.25    0.33140    0.33140    2.56790  -44.14390   -6.38000    2.61490 3087.01980
 7100.00000    -999.25   11.54280  444.85960    2.79280    -999.25    2.42490    2.42450    -999.25    0.13640    0.13640    2.24790    -999.25   90.22410   90.22410    -999.25    -999.25   79.29710   85.12960    -999.25   85.12960    2.50450    2.24790    2.20200    2.02070    2.07690    2.20200    -999.25    0.33730    0.33730    2.45270  -42.94290   -5.25110    2.42450 3180.34640
 7150.00000    -999.25   11.54420  401.28410    2.79420    -999.25    2.45100    2.57920    -999.25    0.12060    0.12060    2.49200    -999.25   87.51880   87.51880    -999.25    -999.25   72.09640   73.29660    -999.25   73.29660    2.60980    2.49200    2.54400    2.12140    2.27140    2.54400    -999.25    0.30880    0.30880    2.72610  -42.04200   -4.42230    2.57920 3193.57590
 7200.00000    -999.25   11.90530  493.16960    3.15530    -999.25    2.42910    2.24790    -999.25    0.13390    0.13390    2.02770    -999.25   91.72930   91.72930    -999.25    -999.25   80.17630   78.03300    -999.25   78.03300    2.32290    2.02770    2.01380    1.82400    1.95410    2.01380    -999.25    0.33430    0.33430    2.34160  -40.84080   -3.29320    2.24790 3112.81930
 7250.00000    -999.25   11.87430  406.81830    3.12430    -999.25    2.48570    2.47500    -999.25    0.09960    0.09960    2.45810    -999.25   87.81890   87.81890    -999.25    -999.25   74.03150   86.66490    -999.25   86.66490    2.47130    2.45810    2.44120    2.09170    2.17920    2.44120    -999.25    0.32170    0.32170    2.64490  -41.44220   -3.96670    2.47500 3243.42260
