~Version ---------------------------------------------------
VERS. 2.0 : CWLS log ASCII Standard -VERSION 2.0
WRAP. YES : MULTIPLE LINES PER DEPTH STEP
~Well ------------------------------------------------------
STRT.FT                    700.0 : START DEPTH
STOP.FT                   6350.0 : STOP DEPTH
STEP.FT                 50.00000 : STEP LENGTH
NULL.                    -999.25 : NULL VALUE
COMP. TEXLARK EXPLORATION CO INC : COMPANY
WELL.            V. STAVINOHA #1 : WELL
FLD .                  CINDY ANN : FIELD
LOC .                            : LOCATION
CNTY.                     WILSON : COUNTY
STAT.                      TEXAS : STATE
CTRY.   UNITED STATES OF AMERICA : COUNTRY
SRVC.                   Gearhart : SERVICE COMPANY
DATE.                31-Mar-1982 : LOGDATE
API .             42493310750000 : API NUMBER
UWI .             42493310750000 : UNIQUE WELL ID
SLAT.WGS84         29.1162057424 : SURFACE LATITUDE
SLON.WGS84        -98.0533635571 : SURFACE LONGITUDE
~Curve Information -----------------------------------------
DEPT   .FT    : DEPTH FEET
CALWS  .IN    : CALIPER [CALXRED]
CALXDED.IN    : CALIPER X FROM DENSITY LOG
CALXRED.IN    : CALIPER X FROM RESISTIVITY LOG
CALYDED.IN    : CALIPER Y FROM DENSITY LOG
CDLSSED.V/V   : COMPENSATED DENSITY POROSITY SANDSTONE FROM DENSITY LOG
CNSSSED.V/V   : COMPENSATED NEUTRON POROSITY SANDSTONE FROM DENSITY LOG
CONDWS .MMHO  : CONDUCTIVITY [1000/DRESWS]
DCORWS .G/C3  : DENSITY CORRECTION [DRHOED]
DENWS  .G/C3  : BULK DENSITY [M=2.65 F=1.0] [RHOBED]
DPOWS  .V/V   : DENSITY POROSITY [M=2.65 F=1.0] [CALCULATED FROM DENWS]
DRESWS .OHMM  : DEEP RESISTIVITY [RILDED]
DRHOED .G/C3  : DENSITY CORRECTION FROM DENSITY LOG
DTED   .US/F  : DELTA TIME FROM SONIC LOG
DTWS   .US/F  : DELTA TIME [DTED]
GRDED  .GAPI  : GAMMA RAY FROM DENSITY LOG
GRNED  .GAPI  : GAMMA RAY FROM NEUTRON LOG [ADJ TO GRRED]
GRRED  .GAPI  : GAMMA RAY FROM RESISTIVITY LOG
GRWS   .GAPI  : GAMMA RAY [SPL GRRED <6056F> GRNED, CSG ABOVE 732F ALSO CASED HOLE DATA FROM 6056-BOTTOM AND BULK SHIFTED +20GAPI]
MRESWS .OHMM  : MEDIUM RESISTIVITY [RILMED]
NEUTED .NAPI  : NEUTRON FROM NEUTRON LOG [ADJ TO GRRED]
NEUTWS .NAPI  : NEUTRON [NEUTED]
NPOWS  .V/V   : NEUTRON POROSITY SANDSTONE [CNSSSED]
RHOBED .G/C3  : BULK DENSITY FROM DENSITY LOG
RILDED .OHMM  : INDUCTION LOG DEEP RESISTIVITY
RILMED .OHMM  : INDUCTION LOG MEDIUM RESISTIVITY
RLLED  .OHMM  : LATEROLOG RESISTIVITY
SPRED  .MV    : SPONTANEOUS POTENTIAL FROM RESISTIVITY LOG
SPWS   .MV    : SPONTANEOUS POTENTIAL [BASELINE 0 MV] [SPRED]
SRESWS .OHMM  : SHALLOW RESISTIVITY [RLLED]
TENDED .LBF   : TENSION FROM DENSITY LOG
TENRED .LBF   : TENSION FROM RESISTIVITY LOG
~Params ----------------------------------------------------
PD  .                     GL : PERMANENT DATUM
EPD .FT                416.4 : ELEVATION PERMANENT DATUM
LMF .                    TKB : LOG MEASURED FROM
DAPD.FT                 13.9 : FEET ABOVE PERMANENT DATUM
DMF .                    TKB : DRILLING MEASURED FROM
EKB .FT                430.3 : KELLY BUSHING
EDF .FT                429.3 : DRILLING FLOOR
EGL .FT                416.4 : GROUND LEVEL
DATE.               03/31/82 : RUN DATE
RUN .                      1 : RUN NUMBER
DD  .FT                 6068 : DEPTH DRILLER
DL  .FT                 6105 : DEPTH LOGGER
BLI .FT                 6104 : BOTTOM LOG INTERVAL
TLI .FT                  675 : TOP LOG INTERVAL
CS  .IN                8.625 : CASING SIZE
CBD .FT                  732 : CASING BOTTOM DRILLER
CBL .FT                  732 : CASING BOTTOM LOGGER
BS  .IN                7.875 : BIT SIZE
BSD .FT                 6068 : BIT SIZE AT DEPTH
DFT .         LIGNOSULFONATE : DRILLING FLUID TYPE
DFD .                    9.8 : DRILLING FLUID DENSITY
DFV .                     75 : DRILLING FLUID VISCOSITY
DFPH.                   10.5 : DRILLING FLUID PH
DFL .                    8.0 : DRILLING FLUID LOSS
MSS .               FLOWLINE : MUD SAMPLE SOURCE
RMS .OHMM                2.3 : RESISTIVITY MUD SAMPLE
MST .DEGF                 75 : MUD SAMPLE TEMPERATURE
RMF .OHMM                2.1 : RESISTIVITY MUD FILTRATE SAMPLE
MFST.DEGF                 75 : MUD FILTRATE SAMPLE TEMPERATURE
RMC .OHMM                2.4 : RESISTIVITY MUD CAKE
MCST.DEGF                 75 : MUD CAKE SAMPLE TEMPERATURE
MFSS.                      M : MUD FILTRATE SAMPLE SOURCE
MCSS.                      C : MUD CAKE SAMPLE SOURCE
RMB .OHMM               1.17 : RESISTIVITY MUD AT BHT
TCS .HRS                1400 : TIME CIRCULATED STOPPED
TLAB.HRS                  30 : TIME LOGGER AT BOTTOM
LUN .                   7506 : LOGGING UNIT NUMBER
LUL .                     CC : LOGGING UNIT LOCATION
ENGI.                  DEPUR : RECORDING ENGINEER
CLNT.                A2DTECH : CLIENT CODE
ORIG.               5" PRINT : ORIGIN OF DATA
UWI .         42493310750000 : UNIQUE WELL ID
DICO. A2D Technologies, Inc. : DIGITIZING COMPANY
~Other -----------------------------------------------------
~ASCII -----------------------------------------------------
# ...
 3000.00000    9.63810    -999.25    9.63810    -999.25    -999.25    -999.25  150.34650    -999.25    -999.25    -999.25    6.65130    -999.25  108.10580  108.10580    -999.25    -999.25   62.93770   62.93770    7.05930    -999.25    -999.25    -999.25    -999.25    6.65130    7.05930    8.28840  -43.63700  -17.37600    8.28840    -999.25  959.37910
 3050.00000    8.67360    -999.25    8.67360    -999.25    -999.25    -999.25  133.57200    -999.25    -999.25    -999.25    7.48660    -999.25  104.51240  104.51240    -999.25    -999.25   48.90200   48.90200    7.78660    -999.25    -999.25    -999.25    -999.25    7.48660    7.78660    7.46060  -45.01610  -19.26500    7.46060    -999.25  944.79080
 3100.00000    8.29680    -999.25    8.29680    -999.25    -999.25    -999.25  121.85460    -999.25    -999.25    -999.25    8.20650    -999.25  116.21100  116.21100    -999.25    -999.25   64.69110   64.69110   14.86400    -999.25    -999.25    -999.25    -999.25    8.20650   14.86400   15.91950  -37.02560  -11.78440   15.91950    -999.25  936.29390
 3150.00000    8.78180    -999.25    8.78180    -999.25    -999.25    -999.25  114.11490    -999.25    -999.25    -999.25    8.76310    -999.25  108.05750  108.05750    -999.25    -999.25   48.86220   48.86220    9.74580    -999.25    -999.25    -999.25    -999.25    8.76310    9.74580   10.06000  -41.80420  -17.07290   10.06000    -999.25  957.87540
 3200.00000    8.59790    -999.25    8.59790    -999.25    -999.25    -999.25  116.33860    -999.25    -999.25    -999.25    8.59560    -999.25  109.68810  109.68810    -999.25    -999.25   51.18890   51.18890    9.48080    -999.25    -999.25    -999.25    -999.25    8.59560    9.48080   10.06220  -39.24040  -15.01900   10.06220    -999.25  961.11940
 3250.00000   10.69020    -999.25   10.69020    -999.25    -999.25    -999.25  460.78700    -999.25    -999.25    -999.25    2.17020    -999.25  125.95460  125.95460    -999.25    -999.25   62.13030   62.13030    2.24490    -999.25    -999.25    -999.25    -999.25    2.17020    2.24490    2.79340  -29.01770   -5.30620    2.79340    -999.25  973.43830
 3300.00000    8.68960    -999.25    8.68960    -999.25    -999.25    -999.25  138.11390    -999.25    -999.25    -999.25    7.24040    -999.25   89.29540   89.29540    -999.25    -999.25   58.08880   58.08880    8.46010    -999.25    -999.25    -999.25    -999.25    7.24040    8.46010    9.55150  -36.00480  -12.80320    9.55150    -999.25 1001.80100
 3350.00000    8.50720    -999.25    8.50720    -999.25    -999.25    -999.25  600.70880    -999.25    -999.25    -999.25    1.66470    -999.25  106.07060  106.07060    -999.25    -999.25   57.12320   57.12320    1.87350    -999.25    -999.25    -999.25    -999.25    1.66470    1.87350    3.04620  -22.21880    0.47290    3.04620    -999.25  977.03790
 3400.00000    7.94280    -999.25    7.94280    -999.25    -999.25    -999.25  110.22200    -999.25    -999.25    -999.25    9.07260    -999.25  107.78480  107.78480    -999.25    -999.25   40.43760   40.43760    9.85350    -999.25    -999.25    -999.25    -999.25    9.07260    9.85350   10.35250  -40.68540  -18.50360   10.35250    -999.25  957.38390
 3450.00000    8.33600    -999.25    8.33600    -999.25    -999.25    -999.25  101.81950    -999.25    -999.25    -999.25    9.82130    -999.25   99.33640   99.33640    -999.25    -999.25   40.78560   40.78560   14.01500    -999.25    -999.25    -999.25    -999.25    9.82130   14.01500   14.42470  -39.35900  -17.68710   14.42470    -999.25  955.27810
 3500.00000    8.14060    -999.25    8.14060    -999.25    -999.25    -999.25  140.53830    -999.25    -999.25    -999.25    7.11550    -999.25  104.27420  104.27420    -999.25    -999.25   45.93470   45.93470    8.43870    -999.25    -999.25    -999.25    -999.25    7.11550    8.43870    8.54480  -41.25830  -19.90980    8.54480    -999.25  955.09390
 3550.00000    8.02200    8.19570    8.02200    7.85170    0.27410    0.46590   83.93980    0.08070    2.19500    0.27580   11.91330    0.08070  100.98270  100.98270   42.64910    -999.25   35.92540   35.92540   14.08080    -999.25    -999.25    0.46590    2.19500   11.91330   14.08080   14.49450  -39.23970  -18.06810   14.49450  983.11380  909.77130
 3600.00000    8.04980    8.49080    8.04980    8.18580    0.17570    0.43310  253.13250    0.08120    2.35050    0.18150    3.95050    0.08120  105.02600  105.02600   80.26870    -999.25   79.86750   79.86750    5.23970    -999.25    -999.25    0.43310    2.35050    3.95050    5.23970    7.27900  -31.11610  -10.12140    7.27900  972.89310  964.18770
 3650.00000    9.34700    9.20780    9.34700    9.70570    0.20040    0.43500  559.47190    0.08980    2.31930    0.20040    1.78740    0.08980  116.57100  116.57100   62.38130    -999.25   64.32180   64.32180    1.91630    -999.25    -999.25    0.43500    2.31930    1.78740    1.91630    2.50470  -23.58340   -2.76560    2.50470  969.57450  964.85180
 3700.00000    9.75080    9.09930    9.75080    7.94870    0.27520    0.37790  203.23550    0.07500    2.19880    0.27350    4.92040    0.07500  100.37970  100.37970   53.02690    -999.25   52.60040   52.60040    5.82510    -999.25    -999.25    0.37790    2.19880    4.92040    5.82510    5.50610  -42.19020  -21.54930    5.50610  956.86960  964.43240
 3750.00000    9.67520    9.68900    9.67520    7.90820    0.20980    0.33200  310.08710    0.07310    2.30460    0.20930    3.22490    0.07310  103.04980  103.04980   76.78870    -999.25   74.88310   74.88310    3.62270    -999.25    -999.25    0.33200    2.30460    3.22490    3.62270    4.67580  -25.54770   -5.08370    4.67580  962.12850  922.25590
 3800.00000   11.64900   11.93700   11.64900    7.97520    0.21670    0.35460  509.19090    0.13420    2.28790    0.21950    1.96390    0.13420  107.35540  107.35540   84.54380    -999.25   88.38020   88.38020    2.18140    -999.25    -999.25    0.35460    2.28790    1.96390    2.18140    2.39540  -23.09800   -2.81090    2.39540  990.55500 1014.88200
 3850.00000    9.09160    9.47360    9.09160    8.72880    0.19540    0.33370  552.73050    0.13880    2.32770    0.19530    1.80920    0.13880  107.28760  107.28760   87.77320    -999.25   87.47090   87.47090    2.06970    -999.25    -999.25    0.33370    2.32770    1.80920    2.06970    2.32440  -20.40610   -0.82030    2.32440  883.71790  970.38200
 3900.00000    9.60420    9.81500    9.60420    7.53060    0.16640    0.25980  305.56740    0.04230    2.37540    0.16640    3.27260    0.04230  100.78300  100.78300   80.70210    -999.25   80.59220   80.59220    3.65990    -999.25    -999.25    0.25980    2.37540    3.27260    3.65990    3.91050  -25.85470   -7.04170    3.91050  928.89640  899.65000
 3950.00000   10.25660   10.32890   10.25660    7.72530    0.16620    0.29710  401.52580    0.14160    2.37580    0.16620    2.49050    0.14160  100.71170  100.71170   77.74990    -999.25   77.89150   77.89150    2.61290    -999.25    -999.25    0.29710    2.37580    2.49050    2.61290    2.81540  -22.40390   -4.36380    2.81540  946.46190  975.68510
 4000.00000    9.86810    -999.25    9.86810    -999.25    -999.25    -999.25  329.53270    -999.25    -999.25    -999.25    3.03460    -999.25   99.07030   99.07030    -999.25    -999.25   81.49800   81.49800    3.16340    -999.25    -999.25    -999.25    -999.25    3.03460    3.16340    3.32080  -21.19420   -3.92690    3.32080    -999.25  944.68650
 4050.00000   10.07150    -999.25   10.07150    -999.25    -999.25    -999.25  472.70150    -999.25    -999.25    -999.25    2.11550    -999.25  105.32150  105.32150    -999.25    -999.25   86.28580   86.28580    2.29840    -999.25    -999.25    -999.25    -999.25    2.11550    2.29840    2.37670  -18.59560   -2.10110    2.37670    -999.25  984.48210
 4100.00000   10.79550    -999.25   10.79550    -999.25    -999.25    -999.25  521.56680    -999.25    -999.25    -999.25    1.91730    -999.25  101.99360  101.99360    -999.25    -999.25   79.89420   79.89420    2.11890    -999.25    -999.25    -999.25    -999.25    1.91730    2.11890    2.23700  -17.94340   -2.22180    2.23700    -999.25  982.01950
