~Version ---------------------------------------------------
VERS. 2.0 : CWLS log ASCII Standard -VERSION 2.0
WRAP. YES : MULTIPLE LINES PER DEPTH STEP
~Well ------------------------------------------------------
STRT.FT                        1500.0 : START DEPTH
STOP.FT                       11350.0 : STOP DEPTH
STEP.FT                      50.00000 : STEP LENGTH
NULL.                         -999.25 : NULL VALUE
COMP.               DAVIS OIL COMPANY : COMPANY
WELL. JOE L. MOCZYGEMBA ET AL UNIT #1 : WELL
FLD .                              WC : FIELD
LOC .                                 : LOCATION
CNTY.                          KARNES : COUNTY
STAT.                           TEXAS : STATE
CTRY.        UNITED STATES OF AMERICA : COUNTRY
SRVC.                    Schlumberger : SERVICE COMPANY
DATE.                     06-Aug-1979 : LOGDATE
API .                  42255307210000 : API NUMBER
UWI .                  42255307210000 : UNIQUE WELL ID
SLAT.WGS84              28.9245629429 : SURFACE LATITUDE
SLON.WGS84             -98.0279225709 : SURFACE LONGITUDE
~Curve Information -----------------------------------------
DEPT    .FT    : DEPTH FEET
CALDED  .IN    : CALIPER FROM DENSITY LOG [ADJ TO LL8ED]
CALWS   .IN    : CALIPER [CALDED]
CONDWS  .MMHO  : CONDUCTIVITY [1000/DRESWS]
DCORWS  .G/C3  : DENSITY CORRECTION [DRHOED]
DENWS   .G/C3  : BULK DENSITY [RHOBED]
DPHILSED.V/V   : DENSITY POROSITY [M=2.71 F=1.0] FROM DENSITY LOG [ADJ TO LL8ED]
DPHISSED.V/V   : DENSITY POROSITY [M=2.65 F=1.0] FROM DENSITY LOG [ADJ TO LL8ED]
DPOWS   .V/V   : DENSITY POROSITY [M=2.71F=1.0] [CALCULATED FROM DENWS]
DRESWS  .OHMM  : DEEP RESISTIVITY [ILDED]
DRHOED  .G/C3  : DENSITY CORRECTION FROM DENSITY LOG [ADJ TO LL8ED]
DTED    .US/F  : DELTA TIME FROM SONIC LOG
DTWS    .US/F  : DELTA TIME [DTED]
GRDED   .GAPI  : GAMMA RAY FROM DENSITY LOG [ADJ TO LL8ED]
GRWS    .GAPI  : GAMMA RAY [GRDED]
ILDED   .OHMM  : INDUCTION LOG DEEP RESISTIVITY
ILMED   .OHMM  : INDUCTION LOG MEDIUM RESISTIVITY
LL8ED   .OHMM  : 8 INCH LATEROLOG RESISTIVITY
MRESWS  .OHMM  : MEDIUM RESISTIVITY [ILMED]
NPHILSED.V/V   : NEUTRON POROSITY LIMESTONE FROM DENSITY LOG [ADJ TO LL8ED]
NPHISSED.V/V   : NEUTRON POROSITY SANDSTONE FROM DENSITY LOG [ADJ TO LL8ED]
NPOWS   .V/V   : NEUTRON POROSITY LIMESTONE [COMVERTED NPHISSED TO LIMESTONE AND SPL WITH NPHILSED @10082F]
RHOBED  .G/C3  : BULK DENSITY FROM DENSITY LOG [ADJ TO LL8ED]
SPRED   .MV    : SPONTANEOUS POTENTIAL FROM RESISTIVITY LOG
SPWS    .MV    : SPONTANEOUS POTENTIAL [BASELINE 0 MV] [SPRED]
SRESWS  .OHMM  : SHALLOW RESISTIVITY [LL8ED]
TENDED  .LBF   : TENSION FROM DENSITY LOG [ADJ TO LL8ED]
~Params ----------------------------------------------------
PD  .                     GL : PERMANENT DATUM
EPD .FT                  402 : ELEVATION PERMANENT DATUM
LMF .                     KB : LOG MEASURED FROM
DAPD.FT                   11 : FEET ABOVE PERMANENT DATUM
DMF .                     KB : DRILLING MEASURED FROM
EKB .FT                  413 : KELLY BUSHING
EDF .FT                  412 : DRILLING FLOOR
EGL .FT                  402 : GROUND LEVEL
DATE.               08/06/79 : RUN DATE
RUN .                      2 : RUN NUMBER
DD  .FT                11364 : DEPTH DRILLER
DL  .FT                11356 : DEPTH LOGGER
BLI .FT                11350 : BOTTOM LOG INTERVAL
TLI .FT                  200 : TOP LOG INTERVAL
CS  .IN                10.75 : CASING SIZE
CBD .FT                 1507 : CASING BOTTOM DRILLER
CBL .FT                    0 : CASING BOTTOM LOGGER
BS  .IN                 8.75 : BIT SIZE
BSD .FT                11364 : BIT SIZE AT DEPTH
DFT .        LIGNO SULFONATE : DRILLING FLUID TYPE
DFD .                   11.7 : DRILLING FLUID DENSITY
DFV .                     48 : DRILLING FLUID VISCOSITY
DFPH.                     11 : DRILLING FLUID PH
DFL .                    4.8 : DRILLING FLUID LOSS
MSS .                    BIN : MUD SAMPLE SOURCE
RMS .OHMM               0.62 : RESISTIVITY MUD SAMPLE
MST .DEGF                 99 : MUD SAMPLE TEMPERATURE
RMF .OHMM               0.57 : RESISTIVITY MUD FILTRATE SAMPLE
MFST.DEGF                 86 : MUD FILTRATE SAMPLE TEMPERATURE
RMC .OHMM                  0 : RESISTIVITY MUD CAKE
MCST.DEGF                 99 : MUD CAKE SAMPLE TEMPERATURE
MFSS.                        : MUD FILTRATE SAMPLE SOURCE
MCSS.                   CALC : MUD CAKE SAMPLE SOURCE
RMB .OHMM                  0 : RESISTIVITY MUD AT BHT
TCS .HRS                   0 : TIME CIRCULATED STOPPED
TLAB.HRS                 715 : TIME LOGGER AT BOTTOM
LUN .                   7799 : LOGGING UNIT NUMBER
LUL .                  PLAES : LOGGING UNIT LOCATION
ENGI.                        : RECORDING ENGINEER
WITN.                  ARREN : WITNESSED BY
CLNT.                A2DTECH : CLIENT CODE
ORIG.               1" PRINT : ORIGIN OF DATA
UWI .         42255307210000 : UNIQUE WELL ID
DICO. A2D Technologies, Inc. : DIGITIZING COMPANY
OS  .                        : OTHER SERVICES
PWI .                        : PRIMARY WELL IDENTIFIER
R1  .                        : REMARKS 1
R2  .                        : REMARKS 2
LSRV.                        : LOG MNEMONIC
~Other -----------------------------------------------------
~ASCII -----------------------------------------------------
# ...
 4200.00000    9.84270    9.84270   50.99440    0.05520    2.19440    -999.25    0.29510    0.30150   19.61000    0.05520  104.02720  104.02720   32.29150   32.29150   19.61000   11.78860   10.46420   11.78860    -999.25    0.29550    0.25150    2.19440   -1.04330   21.67240   10.46420 2557.66330
 4250.00000   10.61940   10.61940   47.75570    0.04960    2.09030    -999.25    0.32490    0.36240   20.93990    0.04960   99.36770   99.36770   37.44880   37.44880   20.93990   12.24520   11.68240   12.24520    -999.25    0.34860    0.30490    2.09030    0.14950   22.74410   11.68240 2562.28980
 4300.00000    9.06630    9.06630   73.34230    0.01460    2.20570    -999.25    0.27840    0.29490   13.63470    0.01460   98.14870   98.14870   44.41710   44.41710   13.63470   10.67070    9.73500   10.67070    -999.25    0.29440    0.25040    2.20570  -16.20540    6.26820    9.73500 2581.93630
 4350.00000    8.89280    8.89280   71.99630    0.00410    2.16530    -999.25    0.26560    0.31850   13.88960    0.00410   98.99930   98.99930   43.67450   43.67450   13.88960    9.70310    9.26180    9.70310    -999.25    0.30060    0.25660    2.16530   -9.52340   12.82920    9.26180 2605.11450
 4400.00000    8.96330    8.96330   56.08080    0.01990    2.18840    -999.25    0.29780    0.30500   17.83140    0.01990  101.94280  101.94280   31.85900   31.85900   17.83140   13.60750   10.90000   13.60750    -999.25    0.31940    0.27550    2.18840   -5.22340   17.00810   10.90000 2631.67430
 4450.00000    8.79740    8.79740   94.42780    0.04280    2.30880    -999.25    0.22360    0.23460   10.59010    0.04280   91.40250   91.40250   64.04370   64.04370   10.59010    9.23310    8.21490    9.23310    -999.25    0.31180    0.26790    2.30880  -18.88030    3.23020    8.21490 2603.84520
 4500.00000    9.15020    9.15020   63.39990    0.02020    2.33880    -999.25    0.18700    0.21710   15.77290    0.02020   88.64360   88.64360   59.18060   59.18060   15.77290   11.90450   10.31430   11.90450    -999.25    0.29490    0.25090    2.33880  -18.67860    3.31080   10.31430 2638.83760
 4550.00000    -999.25    -999.25   60.21410    -999.25    -999.25    -999.25    -999.25    -999.25   16.60740    -999.25   89.85530   89.85530    -999.25    -999.25   16.60740   14.21350    9.75950   14.21350    -999.25    -999.25    -999.25    -999.25  -16.09900    5.76940    9.75950    -999.25
 4600.00000    -999.25    -999.25   98.47370    -999.25    -999.25    -999.25    -999.25    -999.25   10.15500    -999.25   93.30610   93.30610    -999.25    -999.25   10.15500    8.59550    7.41940    8.59550    -999.25    -999.25    -999.25    -999.25  -18.29470    3.45270    7.41940    -999.25
 4650.00000    -999.25    -999.25   84.60520    -999.25    -999.25    -999.25    -999.25    -999.25   11.81960    -999.25   93.22560   93.22560    -999.25    -999.25   11.81960    9.93400    9.03160    9.93400    -999.25    -999.25    -999.25    -999.25  -13.53510    8.09120    9.03160    -999.25
 4700.00000    -999.25    -999.25  137.39090    -999.25    -999.25    -999.25    -999.25    -999.25    7.27850    -999.25   96.08120   96.08120    -999.25    -999.25    7.27850    6.76900    6.03300    6.76900    -999.25    -999.25    -999.25    -999.25  -25.88520   -4.37990    6.03300    -999.25
 4750.00000    -999.25    -999.25  119.06750    -999.25    -999.25    -999.25    -999.25    -999.25    8.39860    -999.25   95.55600   95.55600    -999.25    -999.25    8.39860    7.43770    7.50140    7.43770    -999.25    -999.25    -999.25    -999.25  -23.03240   -1.64810    7.50140    -999.25
 4800.00000    -999.25    -999.25  137.23450    -999.25    -999.25    -999.25    -999.25    -999.25    7.28680    -999.25   98.57710   98.57710    -999.25    -999.25    7.28680    6.80710    6.61660    6.80710    -999.25    -999.25    -999.25    -999.25  -25.91490   -4.65170    6.61660    -999.25
 4850.00000    -999.25    -999.25  157.16600    -999.25    -999.25    -999.25    -999.25    -999.25    6.36270    -999.25   97.65310   97.65310    -999.25    -999.25    6.36270    6.46250    5.93670    6.46250    -999.25    -999.25    -999.25    -999.25  -31.07620   -9.93400    5.93670    -999.25
 4900.00000    -999.25    -999.25  211.61340    -999.25    -999.25    -999.25    -999.25    -999.25    4.72560    -999.25   88.79790   88.79790    -999.25    -999.25    4.72560    5.45050    5.19880    5.45050    -999.25    -999.25    -999.25    -999.25  -42.26040  -21.23930    5.19880    -999.25
 4950.00000    -999.25    -999.25  274.19050    -999.25    -999.25    -999.25    -999.25    -999.25    3.64710    -999.25   95.33980   95.33980    -999.25    -999.25    3.64710    3.76460    4.67800    3.76460    -999.25    -999.25    -999.25    -999.25  -36.20680  -15.30670    4.67800    -999.25
 5000.00000    -999.25    -999.25  383.64150    -999.25    -999.25    -999.25    -999.25    -999.25    2.60660    -999.25   96.73420   96.73420    -999.25    -999.25    2.60660    2.58710    3.12590    2.58710    -999.25    -999.25    -999.25    -999.25  -24.33270   -3.55000    3.12590    -999.25
 5050.00000    -999.25    -999.25  384.23110    -999.25    -999.25    -999.25    -999.25    -999.25    2.60260    -999.25   98.47150   98.47150    -999.25    -999.25    2.60260    2.80940    2.76160    2.80940    -999.25    -999.25    -999.25    -999.25  -32.11280  -11.26770    2.76160    -999.25
 5100.00000    -999.25    -999.25  761.96280    -999.25    -999.25    -999.25    -999.25    -999.25    1.31240    -999.25  116.36640  116.36640    -999.25    -999.25    1.31240    1.33380    1.51740    1.33380    -999.25    -999.25    -999.25    -999.25  -21.78180   -0.87430    1.51740    -999.25
 5150.00000    -999.25    -999.25  317.16830    -999.25    -999.25    -999.25    -999.25    -999.25    3.15290    -999.25   88.49290   88.49290    -999.25    -999.25    3.15290    3.96400    4.35260    3.96400    -999.25    -999.25    -999.25    -999.25  -50.64570  -29.67580    4.35260    -999.25
 5200.00000    -999.25    -999.25  402.41450    -999.25    -999.25    -999.25    -999.25    -999.25    2.48500    -999.25   96.74700   96.74700    -999.25    -999.25    2.48500    2.67710    2.79430    2.67710    -999.25    -999.25    -999.25    -999.25  -31.20130  -10.16910    2.79430    -999.25
 5250.00000    -999.25    -999.25  384.91150    -999.25    -999.25    -999.25    -999.25    -999.25    2.59800    -999.25   99.15040   99.15040    -999.25    -999.25    2.59800    2.73400    2.66340    2.73400    -999.25    -999.25    -999.25    -999.25  -27.65030   -6.36370    2.66340    -999.25
 5300.00000    -999.25    -999.25  207.83970    -999.25    -999.25    -999.25    -999.25    -999.25    4.81140    -999.25   72.97370   72.97370    -999.25    -999.25    4.81140    6.44690    8.59440    6.44690    -999.25    -999.25    -999.25    -999.25  -42.25020  -20.39610    8.59440    -999.25
 5350.00000    -999.25    -999.25  368.82680    -999.25    -999.25    -999.25    -999.25    -999.25    2.71130    -999.25   96.03040   96.03040    -999.25    -999.25    2.71130    2.87040    3.13230    2.87040    -999.25    -999.25    -999.25    -999.25  -25.58910   -3.16750    3.13230    -999.25
 5400.00000    -999.25    -999.25  410.71140    -999.25    -999.25    -999.25    -999.25    -999.25    2.43480    -999.25   89.61430   89.61430    -999.25    -999.25    2.43480    2.50060    2.48370    2.50060    -999.25    -999.25    -999.25    -999.25  -28.00780   -5.01870    2.48370    -999.25
 5450.00000    -999.25    -999.25  542.65250    -999.25    -999.25    -999.25    -999.25    -999.25    1.84280    -999.25  103.81940  103.81940    -999.25    -999.25    1.84280    1.87600    2.03460    1.87600    -999.25    -999.25    -999.25    -999.25  -26.12230   -2.56560    2.03460    -999.25
 5500.00000    -999.25    -999.25  414.74850    -999.25    -999.25    -999.25    -999.25    -999.25    2.41110    -999.25   94.50670   94.50670    -999.25    -999.25    2.41110    2.49150    2.87580    2.49150    -999.25    -999.25    -999.25    -999.25  -30.19940   -6.41940    2.87580    -999.25
