~Version ---------------------------------------------------
VERS. 2.0 : CWLS log ASCII Standard -VERSION 2.0
WRAP. YES : MULTIPLE LINES PER DEPTH STEP
~Well ------------------------------------------------------
STRT.FT                      2550.0 : START DEPTH
STOP.FT                      7550.0 : STOP DEPTH
STEP.FT                    50.00000 : STEP LENGTH
NULL.                       -999.25 : NULL VALUE
COMP. ROBINSON BROTHERS DRILLING CO : COMPANY
WELL.                 LESTER J B #1 : WELL
FLD .                          COST : FIELD
LOC .                               : LOCATION
CNTY.                      GONZALES : COUNTY
STAT.                         TEXAS : STATE
CTRY.      UNITED STATES OF AMERICA : COUNTRY
SRVC.                      Gearhart : SERVICE COMPANY
DATE.                   06-Dec-1980 : LOGDATE
API .                42177306900000 : API NUMBER
UWI .                42177306900000 : UNIQUE WELL ID
SLAT.WGS84            29.4106594536 : SURFACE LATITUDE
SLON.WGS84           -97.5279511295 : SURFACE LONGITUDE
~Curve Information -----------------------------------------
DEPT   .FT    : DEPTH FEET
CALWS  .IN    : CALIPER [CALXRED]
CALXED .IN    : CALIPER X FROM DENSITY LOG
CALXRED.IN    : CALIPER X FROM RESISTIVITY LOG
CALYED .IN    : CALIPER Y FROM DENSITY LOG
CDLLSED.V/V   : DENSITY POROSITY LIMESTONE FROM DENSITY LOG
CNCLSED.V/V   : NEUTRON POROSITY LIMESTONE FROM DENSITY LOG
CONDWS .MMHO  : CONDUCTIVITY [1000/DRESWS]
DCORWS .G/C3  : DENSITY CORRECTION [DRHOED]
DENWS  .G/C3  : BULK DENSITY [M=2.71 F=1.0] [CALCULATED FROM DPOWS]
DPOWS  .V/V   : DENSITY POROSITY [M=2.71 F=1.0] [CDLLSED]
DRESWS .OHMM  : DEEP RESISTIVITY [RILDED]
DRHOED .G/C3  : DENSITY CORRECTION FROM DENSITY LOG
DTED   .US/F  : DELTA TIME FROM DIL/BHC LOG
DTWS   .US/F  : DELTA TIME [DTED]
GRDED  .GAPI  : GAMMA RAY FROM DENSITY LOG [DEPTH ADJ TO GRR]
GRED   .GAPI  : GAMMA RAY FROM GR LOG [DEPTH ADJ TO GRR]
GRRED  .GAPI  : GAMMA RAY FROM RESISTIVITY LOG
GRWS   .GAPI  : GAMMA RAY [MERGED GRED/GRRED AT 6014]
MRESWS .OHMM  : MEDIUM RESISTIVITY [RILMED]
NPOWS  .V/V   : NEUTRON POROSITY SANDSTONE [CNCLSED]
RILDED .OHMM  : INDUCTION LOG DEEP RESISTIVITY
RILMED .OHMM  : INDUCTION LOG MEDIUM RESISTIVITY
RLLED  .OHMM  : LATEROLOG RESISTIVITY
SPRED  .MV    : SPONTANEOUS POTENTIAL FROM RESISTIVITY LOG
SPWS   .MV    : SPONTANEOUS POTENTIAL [BASELINE 0 MV] [SPRED]
SRESWS .OHMM  : SHALLOW RESISTIVITY [RLLED]
~Params ----------------------------------------------------
EKB .F                 324.7 : Kelly bushing
EGL .F                 311.0 : Ground level
EDF .F                 323.7 : Drilling floor
EPD .F                 311.0 : Permanent datum
TD  .F                7584.0 : Total depth
CLNT.                A2DTECH : Client Code
PD  .                     GL : Permanent Datum
LMF .                     KB : Log Measured From
DMF .                     KB : Drilling Measured From
DAPD.F                  13.7 : Feet Above Permanent Datum
DATE.            06-DEC-1980 : Date Logged [DD-MMM-YYYY]
DD  .F                  7584 : Depth driller
DL  .F                  7553 : Depth logger
BLI .F                  7552 : Bottom log interval
TLI .F                  2525 : Top log interval
CS1 .IN                8.625 : Casing size
CBD1.         8.625" @ 2524' : Casing driller 1
CBL1.F                  2525 : Casing logger 1
BS1 .IN                7.875 : Bit size
BSD1.F                  7584 : Depth drilled with bit1
DFT .                   CHEM : Type fluid in hole
DFD .                    9.4 : Density
DFV .                     38 : Viscosity
DFPH.                    9.5 : pH
DFL .                    5.8 : Fluid loss
MSS .               FLOWLINE : Source of sample
RMS .OHMM                2.8 : Rm
RMF .OHMM                2.2 : Rmf
MFSS.                   CALC : Source Rmf.
RMC .OHMM                3.6 : Rmc
MCSS.                   CALC : Source Rmc.
RMB .OHMM                115 : Rm. at BHT
BHT .F                   182 : BHT.
TCS .HRS                 300 : Time Circ. stopped
TLAB.HRS                1015 : Time logger at bottom
LUN .                   7561 : Logging unit number
LUL .                   VICT : Logging unit location
ENGI.                 CURRIN : Recorded By
WITN.                   HOCH : Witnessed by
ORIG.          2.5" 5" PRINT : Origin of data
UWI .         42177306900000 : Unique Well ID
DICO. A2D TECHNOLOGIES, INC. : Digitizing Company
SL  .  499' FSEL & 490' FNWL : Surface Location
~Other -----------------------------------------------------
~ASCII -----------------------------------------------------
 2550.00000   14.01840    -999.25   14.01840    -999.25    -999.25    -999.25  273.74760    -999.25    -999.25    -999.25    3.65300    -999.25  133.73430  133.73430    -999.25    -999.25    -999.25    -999.25    3.36240    -999.25    3.65300    3.36240    3.01770   54.82790   -5.90190    3.01770
 2600.00000   10.96520    -999.25   10.96520    -999.25    -999.25    -999.25  258.53820    -999.25    -999.25    -999.25    3.86790    -999.25  139.84850  139.84850    -999.25    -999.25    -999.25    -999.25    4.07260    -999.25    3.86790    4.07260    4.24550   53.61420   -7.36670    4.24550
 2650.00000   11.77200    -999.25   11.77200    -999.25    -999.25    -999.25  571.20010    -999.25    -999.25    -999.25    1.75070    -999.25  144.01340  144.01340    -999.25    -999.25    -999.25    -999.25    1.87720    -999.25    1.75070    1.87720    2.35150   55.93230   -5.29980    2.35150
 2700.00000   13.47870    -999.25   13.47870    -999.25    -999.25    -999.25  558.72160    -999.25    -999.25    -999.25    1.78980    -999.25  122.49180  122.49180    -999.25    -999.25    -999.25    -999.25    1.85370    -999.25    1.78980    1.85370    2.25410   57.56170   -3.92160    2.25410
 2750.00000   11.38750    -999.25   11.38750    -999.25    -999.25    -999.25  402.93330    -999.25    -999.25    -999.25    2.48180    -999.25  131.00910  131.00910    -999.25    -999.25    -999.25    -999.25    2.57870    -999.25    2.48180    2.57870    2.81490   58.25450   -3.48000    2.81490
 2800.00000    9.59370    -999.25    9.59370    -999.25    -999.25    -999.25  294.71580    -999.25    -999.25    -999.25    3.39310    -999.25  102.12000  102.12000    -999.25    -999.25    -999.25    -999.25    4.01150    -999.25    3.39310    4.01150    4.54810   56.07610   -5.90950    4.54810
 2850.00000   15.97380    -999.25   15.97380    -999.25    -999.25    -999.25  481.67230    -999.25    -999.25    -999.25    2.07610    -999.25  149.53820  149.53820    -999.25    -999.25    -999.25    -999.25    2.22640    -999.25    2.07610    2.22640    2.28170   58.66390   -3.57290    2.28170
 2900.00000   10.13820    -999.25   10.13820    -999.25    -999.25    -999.25  744.37990    -999.25    -999.25    -999.25    1.34340    -999.25  140.65690  140.65690    -999.25    -999.25    -999.25    -999.25    1.49290    -999.25    1.34340    1.49290    1.80830   58.14480   -4.34320    1.80830
 2950.00000   11.01060    -999.25   11.01060    -999.25    -999.25    -999.25  583.36250    -999.25    -999.25    -999.25    1.71420    -999.25  133.62550  133.62550    -999.25    -999.25    -999.25    -999.25    1.86360    -999.25    1.71420    1.86360    2.67350   59.94550   -2.79370    2.67350
 3000.00000    9.26080    -999.25    9.26080    -999.25    -999.25    -999.25  248.10820    -999.25    -999.25    -999.25    4.03050    -999.25  107.49950  107.49950    -999.25    -999.25    -999.25    -999.25    4.30860    -999.25    4.03050    4.30860    4.45150   56.39540   -6.59490    4.45150
 3050.00000   12.45650    -999.25   12.45650    -999.25    -999.25    -999.25  309.34850    -999.25    -999.25    -999.25    3.23260    -999.25  106.84640  106.84640    -999.25    -999.25    -999.25    -999.25    3.33440    -999.25    3.23260    3.33440    3.82000   59.91680   -3.32470    3.82000
 3100.00000    9.89530    -999.25    9.89530    -999.25    -999.25    -999.25  210.52190    -999.25    -999.25    -999.25    4.75010    -999.25   98.39800   98.39800    -999.25    -999.25    -999.25    -999.25    5.00330    -999.25    4.75010    5.00330    5.29060   52.50070  -10.99200    5.29060
 3150.00000    9.71180    -999.25    9.71180    -999.25    -999.25    -999.25  284.51120    -999.25    -999.25    -999.25    3.51480    -999.25   98.63610   98.63610    -999.25    -999.25    -999.25    -999.25    3.77910    -999.25    3.51480    3.77910    4.00730   56.31980   -7.42400    4.00730
 3200.00000   11.77080    -999.25   11.77080    -999.25    -999.25    -999.25  305.38080    -999.25    -999.25    -999.25    3.27460    -999.25  107.80960  107.80960    -999.25    -999.25    -999.25    -999.25    3.42270    -999.25    3.27460    3.42270    4.58310   57.73060   -6.26440    4.58310
 3250.00000   11.54200    -999.25   11.54200    -999.25    -999.25    -999.25  655.73770    -999.25    -999.25    -999.25    1.52500    -999.25  133.50900  133.50900    -999.25    -999.25    -999.25    -999.25    1.66150    -999.25    1.52500    1.66150    2.18620   62.92680   -1.31940    2.18620
 3300.00000    8.67460    -999.25    8.67460    -999.25    -999.25    -999.25  177.26720    -999.25    -999.25    -999.25    5.64120    -999.25   97.67730   97.67730    -999.25    -999.25    -999.25    -999.25    5.89530    -999.25    5.64120    5.89530    6.34770   49.52460  -14.56300    6.34770
 3350.00000   10.76740    -999.25   10.76740    -999.25    -999.25    -999.25  680.73520    -999.25    -999.25    -999.25    1.46900    -999.25  129.46150  129.46150    -999.25    -999.25    -999.25    -999.25    1.57780    -999.25    1.46900    1.57780    2.13700   58.83090   -5.09410    2.13700
 3400.00000    8.34580    -999.25    8.34580    -999.25    -999.25    -999.25  163.02840    -999.25    -999.25    -999.25    6.13390    -999.25   98.02540   98.02540    -999.25    -999.25    -999.25    -999.25    6.24380    -999.25    6.13390    6.24380    6.88690   44.02490  -19.73740    6.88690
 3450.00000    8.57680    -999.25    8.57680    -999.25    -999.25    -999.25   98.47270    -999.25    -999.25    -999.25   10.15510    -999.25   66.83840   66.83840    -999.25    -999.25    -999.25    -999.25   10.47990    -999.25   10.15510   10.47990   21.59890   45.71040  -17.88920   21.59890
 3500.00000    8.95310    -999.25    8.95310    -999.25    -999.25    -999.25  165.58760    -999.25    -999.25    -999.25    6.03910    -999.25   97.24870   97.24870    -999.25    -999.25    -999.25    -999.25    6.14480    -999.25    6.03910    6.14480    7.49760   48.97440  -14.46250    7.49760
 3550.00000    8.06340    -999.25    8.06340    -999.25    -999.25    -999.25  193.16580    -999.25    -999.25    -999.25    5.17690    -999.25  110.51250  110.51250    -999.25    -999.25    -999.25    -999.25    5.72650    -999.25    5.17690    5.72650    6.74210   51.74730  -11.52700    6.74210
 3600.00000    8.33140    -999.25    8.33140    -999.25    -999.25    -999.25  203.90270    -999.25    -999.25    -999.25    4.90430    -999.25   97.95960   97.95960    -999.25    -999.25    -999.25    -999.25    5.38430    -999.25    4.90430    5.38430    5.91250   46.53000  -16.71090    5.91250
 3650.00000    8.10850    -999.25    8.10850    -999.25    -999.25    -999.25  147.98590    -999.25    -999.25    -999.25    6.75740    -999.25   98.16310   98.16310    -999.25    -999.25    -999.25    -999.25    6.87580    -999.25    6.75740    6.87580    8.10330   41.55370  -21.73320    8.10330
 3700.00000    8.46650    -999.25    8.46650    -999.25    -999.25    -999.25  146.76100    -999.25    -999.25    -999.25    6.81380    -999.25   95.68520   95.68520    -999.25    -999.25    -999.25    -999.25    6.93650    -999.25    6.81380    6.93650    8.48470   38.42210  -24.91080    8.48470
 3750.00000    8.05680    -999.25    8.05680    -999.25    -999.25    -999.25  158.56910    -999.25    -999.25    -999.25    6.30640    -999.25   97.28330   97.28330    -999.25    -999.25    -999.25    -999.25    6.61960    -999.25    6.30640    6.61960    8.44610   32.12270  -31.25620    8.44610
 3800.00000   10.04560    -999.25   10.04560    -999.25    -999.25    -999.25  582.07210    -999.25    -999.25    -999.25    1.71800    -999.25  143.45820  143.45820    -999.25    -999.25    -999.25    -999.25    2.03380    -999.25    1.71800    2.03380    2.69720   52.72700  -10.69780    2.69720
 3850.00000    8.68710    -999.25    8.68710    -999.25    -999.25    -999.25  147.17140    -999.25    -999.25    -999.25    6.79480    -999.25   97.46220   97.46220    -999.25    -999.25    -999.25    -999.25    5.75420    -999.25    6.79480    5.75420    7.33030   38.00030  -25.47050    7.33030
