~Version ---------------------------------------------------
VERS. 2.0 : CWLS log ASCII Standard -VERSION 2.0
WRAP. YES : Multiple lines per depth step
~Well ------------------------------------------------------
STRT.ft                   4000.0 : START DEPTH
STOP.ft                   7650.0 : STOP DEPTH
STEP.ft                 50.00000 : STEP LENGTH
NULL.                    -999.25 : NULL VALUE
COMP. CHAMPLIN PETROLEUM COMPANY : COMPANY
WELL.          DOROTHY FRENCH #1 : WELL
FLD .                   GIDDINGS : FIELD
LOC .                            : LOCATION
CNTY.                   BURLESON : COUNTY
STAT.                      TEXAS : STATE
CTRY.   UNITED STATES OF AMERICA : COUNTRY
SRVC.               Schlumberger : SERVICE COMPANY
DATE.                12-Jul-1980 : LOGDATE
API .             42051307360000 : API NUMBER
UWI .             42051307360000 : UNIQUE WELL ID
SLAT.WGS84         30.5639824886 : SURFACE LATITUDE
SLON.WGS84        -96.6621011132 : SURFACE LONGITUDE
~Curve Information -----------------------------------------
DEPT    .ft    : Depth Curve
CALDED  .IN    : CALIPER FROM CNFD LOG [ADJ. TO GRRED]
CALWS   .IN    : CALIPER [CALDED]
CONDWS  .MMHO  : CONDUCTIVITY [1000/DRESWS]
DCORWS  .G/C3  : DENSITY CORRECTION [DRHOED]
DENWS   .G/C3  : FORMATION BULK DENSITY [RHOBED]
DPHILSED.V/V   : DENSITY POROSITY LIMESTONE [M=2.71, F=1.0] FROM CNFD LOG [ADJ. TO GRRED]
DPOWS   .V/V   : DENSITY POROSITY LIMESTONE [CALCULATED FROM DENWS]
DRESWS  .OHMM  : DEEP RESISTIVITY [ILDED]
DRHOED  .G/C3  : BULK DENSITY CORRECTION FROM CNFD LOG [ADJ. TO GRRED]
DTED    .US/F  : DELTA-T FROM DI-SFL-SONIC LOG [ADJ. TO GRRED]
DTWS    .US/F  : COMPRESSIONAL SONIC [DTED]
GRDED   .GAPI  : GAMMA RAY FROM CNFD LOG [ADJ. TO GRRED]
GRRED   .GAPI  : GAMMA RAY FROM DISFL-SONIC LOG
GRWS    .GAPI  : GAMMA RAY [GRRED SPL. TO GRDED @7646.5' ]
ILDED   .OHMM  : DEEP INDUCTION RESISTIVITY FROM DISFL-SONIC LOG
ILMED   .OHMM  : MEDIUM INDUCTION RESISTIVITY FROM DISFL-SONIC LOG
MRESWS  .OHMM  : MEDIUM RESISTIVITY [ILMED]
NPHILSED.V/V   : NEUTRON POROSITY LIMESTONE FROM CNFD LOG [ADJ. TO GRRED]
NPOWS   .V/V   : NEUTRON POROSITY LIMESTONE [NPHILSED]
RHOBED  .G/C3  : BULK DENSITY FROM CNFD LOG [ADJ. TO GRRED]
SFLUED  .OHMM  : SHALLOW FOCUSED RESISTIVITY FROM DISFL-SONIC LOG
SPHILSED.V/V   : SONIC POROSITY LIMESTONE [DTM=50 ,DTF=189] FROM FDC-BCS LOG [ADJ. TO GRRED]
SPOWS   .V/V   : SONIC POROSITY LIMESTONE [SPHILSED]
SPRED   .MV    : SPONTANEOUS POTENTIAL FROM DISFL-SONIC LOG
SPWS    .MV    : SPONTANEOUS POTENTIAL [BASELINE  0 MV, SPRED]
SRESWS  .OHMM  : SHALLOW RESISTIVITY [SFLUED]
~Params ----------------------------------------------------
PD  .                     GL : PERMANENT DATUM
EPD .FT                  406 : ELEVATION PERMANENT DATUM
LMF .                     KB : LOG MEASURED FROM
DAPD.FT                   18 : FEET ABOVE PERMANENT DATUM
DMF .                     KB : DRILLING MEASURED FROM
EKB .FT                  424 : KELLY BUSHING
EDF .FT                  423 : DRILLING FLOOR
EGL .FT                  406 : GROUND LEVEL
DATE.               07/12/80 : RUN DATE
RUN .                      1 : RUN NUMBER
DD  .FT                 7700 : DEPTH DRILLER
DL  .FT                 7682 : DEPTH LOGGER
BLI .FT                 7675 : BOTTOM LOG INTERVAL
TLI .FT                 3989 : TOP LOG INTERVAL
CS  .IN                9.625 : CASING SIZE
CBD .FT                 3990 : CASING BOTTOM DRILLER
CBL .FT                 3989 : CASING BOTTOM LOGGER
BS  .IN                 8.75 : BIT SIZE
BSD .FT                 7700 : BIT SIZE AT DEPTH
DFT .             BEN EX GEL : DRILLING FLUID TYPE
DFD .                    9.5 : DRILLING FLUID DENSITY
DFV .                     51 : DRILLING FLUID VISCOSITY
DFPH.                    9.5 : DRILLING FLUID PH
DFL .                      7 : DRILLING FLUID LOSS
MSS .               FLOWLINE : MUD SAMPLE SOURCE
RMS .OHMM                2.1 : RESISTIVITY MUD SAMPLE
MST .DEGF                 80 : MUD SAMPLE TEMPERATURE
RMF .OHMM               1.96 : RESISTIVITY MUD FILTRATE SAMPLE
MFST.DEGF                 75 : MUD FILTRATE SAMPLE TEMPERATURE
RMC .OHMM               3.15 : RESISTIVITY MUD CAKE
MCST.DEGF                 80 : MUD CAKE SAMPLE TEMPERATURE
MFSS.                      M : MUD FILTRATE SAMPLE SOURCE
MCSS.                      C : MUD CAKE SAMPLE SOURCE
RMB .OHMM               0.91 : RESISTIVITY MUD AT BHT
TCS .HRS                1730 : TIME CIRCULATED STOPPED
TLAB.HRS                2230 : TIME LOGGER AT BOTTOM
LUN .                   8096 : LOGGING UNIT NUMBER
LUL .                BRENHAM : LOGGING UNIT LOCATION
ENGI.               HENDRICK : RECORDING ENGINEER
WITN.                 SCHELL : WITNESSED BY
CLNT.                A2DTECH : CLIENT CODE
ORIG.          1" 2.5" PRINT : ORIGIN OF DATA
UWI .         42051307360000 : UNIQUE WELL ID
DICO. A2D Technologies, Inc. : DIGITIZING COMPANY
~Other -----------------------------------------------------
~ASCII -----------------------------------------------------
 4000.00000    -999.25    -999.25  638.56960    -999.25    -999.25    -999.25    -999.25    1.56600    -999.25  107.62300  107.62300    -999.25  102.53930  102.53930    1.56600    1.61820    1.61820    -999.25    -999.25    -999.25    1.65650    -999.25    -999.25   -4.92030   -4.65000    1.65650
 4050.00000    -999.25    -999.25  448.14910    -999.25    -999.25    -999.25    -999.25    2.23140    -999.25  100.55530  100.55530    -999.25   96.69780   96.69780    2.23140    2.17350    2.17350    -999.25    -999.25    -999.25    1.98810    -999.25    -999.25   -9.48660   -4.97400    1.98810
 4100.00000    -999.25    -999.25  511.09070    -999.25    -999.25    -999.25    -999.25    1.95660    -999.25   93.65980   93.65980    -999.25   92.73110   92.73110    1.95660    1.88540    1.88540    -999.25    -999.25    -999.25    1.69190    -999.25    -999.25   -7.53400   -2.44450    1.69190
 4150.00000    -999.25    -999.25  677.36910    -999.25    -999.25    -999.25    -999.25    1.47630    -999.25  110.41200  110.41200    -999.25   97.21970   97.21970    1.47630    1.43780    1.43780    -999.25    -999.25    -999.25    1.36110    -999.25    -999.25   -8.63290   -3.11920    1.36110
 4200.00000    -999.25    -999.25  683.85420    -999.25    -999.25    -999.25    -999.25    1.46230    -999.25  111.64600  111.64600    -999.25   92.41030   92.41030    1.46230    1.42440    1.42440    -999.25    -999.25    -999.25    1.35890    -999.25    -999.25   -8.12280   -3.32770    1.35890
 4250.00000    -999.25    -999.25  720.35730    -999.25    -999.25    -999.25    -999.25    1.38820    -999.25  113.12030  113.12030    -999.25   87.56610   87.56610    1.38820    1.35210    1.35210    -999.25    -999.25    -999.25    1.30220    -999.25    -999.25   -7.19830   -3.61170    1.30220
 4300.00000    -999.25    -999.25  462.14990    -999.25    -999.25    -999.25    -999.25    2.16380    -999.25   99.73920   99.73920    -999.25  103.91940  103.91940    2.16380    2.10660    2.10660    -999.25    -999.25    -999.25    2.00610    -999.25    -999.25   -8.44720   -5.66380    2.00610
 4350.00000    -999.25    -999.25  655.26510    -999.25    -999.25    -999.25    -999.25    1.52610    -999.25  106.98620  106.98620    -999.25  104.53070  104.53070    1.52610    1.48570    1.48570    -999.25    -999.25    -999.25    1.36240    -999.25    -999.25   -6.25920   -3.41780    1.36240
 4400.00000    -999.25    -999.25  715.92210    -999.25    -999.25    -999.25    -999.25    1.39680    -999.25  106.33370  106.33370    -999.25   96.45070   96.45070    1.39680    1.36090    1.36090    -999.25    -999.25    -999.25    1.25220    -999.25    -999.25   -5.49090   -2.59140    1.25220
 4450.00000    -999.25    -999.25 1256.28140    -999.25    -999.25    -999.25    -999.25    0.79600    -999.25  122.96180  122.96180    -999.25  106.22210  106.22210    0.79600    0.74310    0.74310    -999.25    -999.25    -999.25    0.73830    -999.25    -999.25   -2.78690    0.17070    0.73830
 4500.00000    -999.25    -999.25  649.89930    -999.25    -999.25    -999.25    -999.25    1.53870    -999.25  105.01520  105.01520    -999.25   96.75680   96.75680    1.53870    1.49830    1.49830    -999.25    -999.25    -999.25    1.46610    -999.25    -999.25   -4.90250   -1.88680    1.46610
 4550.00000    -999.25    -999.25  711.79440    -999.25    -999.25    -999.25    -999.25    1.40490    -999.25  109.09070  109.09070    -999.25   93.07370   93.07370    1.40490    1.45580    1.45580    -999.25    -999.25    -999.25    1.35120    -999.25    -999.25   -5.30060   -2.22690    1.35120
 4600.00000    -999.25    -999.25  650.49110    -999.25    -999.25    -999.25    -999.25    1.53730    -999.25  104.88580  104.88580    -999.25   90.45500   90.45500    1.53730    1.58520    1.58520    -999.25    -999.25    -999.25    1.64000    -999.25    -999.25   -7.10520   -3.97340    1.64000
 4650.00000    -999.25    -999.25  778.45240    -999.25    -999.25    -999.25    -999.25    1.28460    -999.25  111.81900  111.81900    -999.25   85.69190   85.69190    1.28460    1.23990    1.23990    -999.25    -999.25    -999.25    1.19500    -999.25    -999.25   -6.65220   -3.46230    1.19500
 4700.00000    -999.25    -999.25  684.36900    -999.25    -999.25    -999.25    -999.25    1.46120    -999.25  106.17300  106.17300    -999.25   85.48720   85.48720    1.46120    1.41700    1.41700    -999.25    -999.25    -999.25    1.50170    -999.25    -999.25  -13.60690  -10.35900    1.50170
 4750.00000    -999.25    -999.25  867.07710    -999.25    -999.25    -999.25    -999.25    1.15330    -999.25  109.75250  109.75250    -999.25   87.85760   87.85760    1.15330    1.19730    1.19730    -999.25    -999.25    -999.25    1.23520    -999.25    -999.25   -8.19360   -4.88760    1.23520
 4800.00000    -999.25    -999.25  754.37540    -999.25    -999.25    -999.25    -999.25    1.32560    -999.25  107.34900  107.34900    -999.25   84.50850   84.50850    1.32560    1.30090    1.30090    -999.25    -999.25    -999.25    1.23780    -999.25    -999.25  -10.39600   -7.03190    1.23780
 4850.00000    -999.25    -999.25  784.19070    -999.25    -999.25    -999.25    -999.25    1.27520    -999.25  107.24710  107.24710    -999.25   77.29600   77.29600    1.27520    1.31140    1.31140    -999.25    -999.25    -999.25    1.36810    -999.25    -999.25  -12.12140   -8.69930    1.36810
 4900.00000    -999.25    -999.25 1072.27110    -999.25    -999.25    -999.25    -999.25    0.93260    -999.25  115.07700  115.07700    -999.25   94.34790   94.34790    0.93260    0.97410    0.97410    -999.25    -999.25    -999.25    1.02470    -999.25    -999.25   -9.98000   -6.49980    1.02470
 4950.00000    -999.25    -999.25  925.06940    -999.25    -999.25    -999.25    -999.25    1.08100    -999.25  113.49110  113.49110    -999.25   98.20560   98.20560    1.08100    1.13970    1.13970    -999.25    -999.25    -999.25    1.13460    -999.25    -999.25   -8.49130   -4.95300    1.13460
 5000.00000    -999.25    -999.25  291.86000    -999.25    -999.25    -999.25    -999.25    3.42630    -999.25   84.47990   84.47990    -999.25   57.37020   57.37020    3.42630    3.58620    3.58620    -999.25    -999.25    -999.25    3.01900    -999.25    -999.25   -4.99580   -1.39950    3.01900
 5050.00000    -999.25    -999.25  909.33890    -999.25    -999.25    -999.25    -999.25    1.09970    -999.25  104.04430  104.04430    -999.25   89.65390   89.65390    1.09970    1.20020    1.20020    -999.25    -999.25    -999.25    1.02190    -999.25    -999.25   -4.28050   -0.62610    1.02190
 5100.00000    -999.25    -999.25  479.50130    -999.25    -999.25    -999.25    -999.25    2.08550    -999.25   86.72400   86.72400    -999.25   66.87080   66.87080    2.08550    2.17150    2.17150    -999.25    -999.25    -999.25    2.58390    -999.25    -999.25  -12.02470   -8.31220    2.58390
 5150.00000    -999.25    -999.25  572.90170    -999.25    -999.25    -999.25    -999.25    1.74550    -999.25   92.31620   92.31620    -999.25   75.94810   75.94810    1.74550    1.87380    1.87380    -999.25    -999.25    -999.25    1.52810    -999.25    -999.25   -7.01660   -3.29310    1.52810
 5200.00000    -999.25    -999.25  751.20190    -999.25    -999.25    -999.25    -999.25    1.33120    -999.25   99.78140   99.78140    -999.25   78.78070   78.78070    1.33120    1.42420    1.42420    -999.25    -999.25    -999.25    1.26620    -999.25    -999.25  -12.31380   -8.59030    1.26620
 5250.00000    -999.25    -999.25 1269.03550    -999.25    -999.25    -999.25    -999.25    0.78800    -999.25  116.81470  116.81470    -999.25  136.04190  136.04190    0.78800    0.85160    0.85160    -999.25    -999.25    -999.25    0.67150    -999.25    -999.25   -5.64560   -1.92210    0.67150
 5300.00000    -999.25    -999.25 1144.68860    -999.25    -999.25    -999.25    -999.25    0.87360    -999.25  109.59950  109.59950    -999.25  124.48570  124.48570    0.87360    0.91290    0.91290    -999.25    -999.25    -999.25    0.82500    -999.25    -999.25   -4.54100   -0.81750    0.82500
