~Version ---------------------------------------------------
VERS.      2.0 : CWLS log ASCII Standard -VERSION 2.0
WRAP.       NO : One line per depth step
CREA. 06/05/13 : LAS Creation Date
~Well ------------------------------------------------------
STRT.FT                 5800.0 : START DEPTH
STOP.FT                13100.0 : STOP DEPTH
STEP.FT               50.00000 : STEP LENGTH
NULL.                  -999.25 : NULL VALUE
COMP.  UNION PACIFIC RESOURCES : COMPANY
WELL.              BOBWHITE #1 : WELL
FLD .                 GIDDINGS : FIELD
LOC .                          : LOCATION
CNTY.                     LEON : COUNTY
STAT.                    TEXAS : STATE
CTRY. UNITED STATES OF AMERICA : COUNTRY
SRVC.             Baker Hughes : SERVICE COMPANY
DATE.              24-Nov-1997 : LOGDATE
API .           42289312770000 : API NUMBER
UWI .           42289312770000 : UNIQUE WELL ID
SLAT.WGS84        31.298928904 : SURFACE LATITUDE
SLON.WGS84      -96.1892526536 : SURFACE LONGITUDE
~Curve Information -----------------------------------------
DEPT.FT     : DEPTH FEET
GR  .GAPI   : GAMMA RAY FROM GAMMA RAY LOG
GRAX.GAPI   : GAMMA RAY [MWD] FROM LWD LOG
ROPS.FT/HR  : DRILLING RATE OF PENETRATION FROM LWD LOG
~Params ----------------------------------------------------
PD  .                     GL : PERMANENT DATUM
LMF .                    RKB : LOG MEASURED FROM
DAPD.FT                   18 : FEET ABOVE PERMANENT DATUM
DMF .                    RKB : DRILLING MEASURED FROM
EGL .FT                  429 : GROUND LEVEL
DATE.               11/24/97 : RUN DATE
DD  .FT                13117 : DEPTH DRILLER
DL  .FT                 6580 : DEPTH LOGGER
BLI .FT                12393 : BOTTOM LOG INTERVAL
TLI .FT                 6550 : TOP LOG INTERVAL
CS  .IN                7.625 : CASING SIZE
CBD .FT                 6281 : CASING BOTTOM DRILLER
BS  .IN                  6.5 : BIT SIZE
BSD .FT                13117 : BIT SIZE AT DEPTH
DFT .              GEL BENEX : DRILLING FLUID TYPE
DFD .                    8.8 : DRILLING FLUID DENSITY
TCS .HRS                2245 : TIME CIRCULATED STOPPED
TLAB.HRS                 800 : TIME LOGGER AT BOTTOM
ENGI.             HUEHLEFELD : RECORDING ENGINEER
WITN.                  GRANT : WITNESSED BY
CLNT.                A2DTECH : CLIENT CODE
ORIG.               5" PRINT : ORIGIN OF DATA
UWI .         42289312770000 : UNIQUE WELL ID
DICO. A2D Technologies, Inc. : DIGITIZING COMPANY
~Other -----------------------------------------------------
~ASCII -----------------------------------------------------
 5800.00000   23.03160    -999.25    -999.25
 5850.00000   35.41130    -999.25    -999.25
 5900.00000   35.82930    -999.25    -999.25
 5950.00000   34.31480    -999.25    -999.25
 6000.00000   33.22140    -999.25    -999.25
 6050.00000   19.63580    -999.25    -999.25
 6100.00000   21.36010    -999.25    -999.25
 6150.00000    -999.25    -999.25    -999.25
 6200.00000    -999.25    -999.25    -999.25
 6250.00000    -999.25    -999.25    -999.25
 6300.00000    -999.25   20.11070    4.21600
 6350.00000    -999.25   56.90300    8.98690
 6400.00000    -999.25   31.66970   17.59410
 6450.00000    -999.25   22.41320   22.84250
 6500.00000    -999.25   24.89310   13.39450
 6550.00000    -999.25   20.17650   15.90960
 6600.00000    -999.25   23.17060   26.35730
 6650.00000    -999.25   11.49150   49.46680
 6700.00000    -999.25   11.86600   85.15520
 6750.00000    -999.25   13.03320   48.13170
 6800.00000    -999.25   11.40910   25.06040
 6850.00000    -999.25   13.50450   85.65800
 6900.00000    -999.25   14.37960  112.26820
 6950.00000    -999.25   19.66660   99.12300
 7000.00000    -999.25   17.04280  101.98760
 7050.00000    -999.25   19.97810   25.44920
 7100.00000    -999.25   17.06580   99.04860
 7150.00000    -999.25   23.41320   84.47480
 7200.00000    -999.25   24.44330   77.38810
 7250.00000    -999.25   14.45450   76.95090
 7300.00000    -999.25   16.09600  100.42140
 7350.00000    -999.25   15.65830   23.18510
 7400.00000    -999.25   16.89050   86.09640
 7450.00000    -999.25   14.63230   96.84770
 7500.00000    -999.25   19.65530  104.44270
 7550.00000    -999.25   11.92650   88.84230
 7600.00000    -999.25   12.70890  100.19280
 7650.00000    -999.25   13.92100   90.05990
 7700.00000    -999.25   19.49490   96.11780
 7750.00000    -999.25   14.18540   85.89170
 7800.00000    -999.25    8.95470   94.02590
 7850.00000    -999.25   17.22470   18.43100
 7900.00000    -999.25   14.48900   85.55390
 7950.00000    -999.25   14.66310   96.90640
 8000.00000    -999.25   13.93970  102.34240
 8050.00000    -999.25    8.46470   98.12250
 8100.00000    -999.25   15.10840  102.28290
 8150.00000    -999.25   14.71830  102.01250
 8200.00000    -999.25    9.99470  110.44380
 8250.00000    -999.25   11.36350   71.60560
 8300.00000    -999.25   14.50330  105.82840
 8350.00000    -999.25   12.40080  109.20250
 8400.00000    -999.25    8.25820   34.50400
 8450.00000    -999.25   10.07700  102.48710
 8500.00000    -999.25    8.31350  112.42570
 8550.00000    -999.25    8.47310   97.36680
 8600.00000    -999.25   14.25510   96.61330
 8650.00000    -999.25    8.37890   96.81140
 8700.00000    -999.25   19.83760   96.84290
 8750.00000    -999.25   31.77280   65.77090
 8800.00000    -999.25   31.57920  112.43010
 8850.00000    -999.25   40.87650  122.32460
 8900.00000    -999.25   28.55370  115.64740
 8950.00000    -999.25   43.47810  130.91120
 9000.00000    -999.25   10.81610  121.29210
 9050.00000    -999.25   13.08010  110.31090
 9100.00000    -999.25    8.03150  105.33450
 9150.00000    -999.25    7.23730  103.15140
 9200.00000    -999.25    6.04290  118.87860
 9250.00000    -999.25    6.15040  132.51510
 9300.00000    -999.25   13.92460  119.39550
 9350.00000    -999.25    -999.25   15.59410
 9400.00000    -999.25    5.58610  120.70110
 9450.00000    -999.25    -999.25  130.52900
 9500.00000    -999.25    9.35120  138.81450
 9550.00000    -999.25   25.67750  107.49700
 9600.00000    -999.25   15.84810  103.83310
 9650.00000    -999.25    -999.25  113.89230
 9700.00000    -999.25   18.19580  117.85530
 9750.00000    -999.25   12.26600  126.25420
 9800.00000    -999.25    -999.25   68.80740
 9850.00000    -999.25   12.84270  106.39910
 9900.00000    -999.25   12.15950   98.72560
 9950.00000    -999.25    7.23760   99.61950
 10000.00000    -999.25   14.18180  107.55340
 10050.00000    -999.25    8.37550  107.80270
 10100.00000    -999.25    8.28440  102.44450
 10150.00000    -999.25    5.82210  104.68720
 10200.00000    -999.25    -999.25  111.30190
 10250.00000    -999.25   11.19280  112.55850
 10300.00000    -999.25    8.18390  109.49880
 10350.00000    -999.25   11.38850  116.28130
 10400.00000    -999.25    9.16700  105.48670
 10450.00000    -999.25    8.40600   30.58910
 10500.00000    -999.25   14.09570  141.14950
 10550.00000    -999.25   16.02080  131.63170
 10600.00000    -999.25   11.60040   90.89930
 10650.00000    -999.25   15.45870   99.85230
 10700.00000    -999.25    9.22980  104.65420
 10750.00000    -999.25    5.78700   16.82920
 10800.00000    -999.25   11.00960   98.16560
 10850.00000    -999.25   11.13190  103.71170
 10900.00000    -999.25   18.35550  102.49310
 10950.00000    -999.25    9.53280   91.90850
 11000.00000    -999.25   14.18450   97.67130
 11050.00000    -999.25    8.43540  101.62260
 11100.00000    -999.25   19.62330  109.76620
 11150.00000    -999.25   11.15000   79.10360
 11200.00000    -999.25   14.30630   96.05330
 11250.00000    -999.25   16.06810  113.02350
 11300.00000    -999.25   11.20030   15.59050
 11350.00000    -999.25    2.99010  112.24100
 11400.00000    -999.25    8.37520  102.14830
 11450.00000    -999.25    8.58120  110.67870
 11500.00000    -999.25    7.95740  109.34080
 11550.00000    -999.25    7.43670  122.24290
 11600.00000    -999.25    5.77590  115.66870
 11650.00000    -999.25   11.38400   13.75650
 11700.00000    -999.25   13.95440   93.86380
 11750.00000    -999.25   27.26670  125.87300
 11800.00000    -999.25   10.63830  107.22990
 11850.00000    -999.25    8.53840  117.07390
 11900.00000    -999.25    3.31610   34.32690
 11950.00000    -999.25    6.64690  108.14900
 12000.00000    -999.25   14.06970  117.86080
 12050.00000    -999.25   13.01950  112.09600
 12100.00000    -999.25   21.09740  117.60440
 12150.00000    -999.25   31.04750  104.00280
 12200.00000    -999.25   18.62980  106.44660
 12250.00000    -999.25   15.62930  117.64020
 12300.00000    -999.25   19.96770  110.67960
 12350.00000    -999.25   14.52690  102.63920
 12400.00000    -999.25    -999.25   90.69410
 12450.00000    -999.25    -999.25  122.25110
 12500.00000    -999.25    -999.25   80.57160
 12550.00000    -999.25    -999.25  101.29190
 12600.00000    -999.25    -999.25  111.79240
 12650.00000    -999.25    -999.25  111.85190
 12700.00000    -999.25    -999.25  100.26220
 12750.00000    -999.25    -999.25  121.35630
 12800.00000    -999.25    -999.25   98.68860
 12850.00000    -999.25    -999.25  118.02070
 12900.00000    -999.25    -999.25  109.38800
 12950.00000    -999.25    -999.25  101.52310
 13000.00000    -999.25    -999.25  111.92590
 13050.00000    -999.25    -999.25  107.07540
 13100.00000    -999.25    -999.25  101.29260
