~Version ---------------------------------------------------
VERS. 2.0 : CWLS log ASCII Standard -VERSION 2.0
WRAP. YES : Multiple lines per depth step
~Well ------------------------------------------------------
STRT.FT                   2500.0 : START DEPTH
STOP.FT                  17250.0 : STOP DEPTH
STEP.FT                 50.00000 : STEP LENGTH
NULL.                    -999.25 : NULL VALUE
COMP. CHAMPLIN PETROLEUM COMPANY : COMPANY
WELL.    FRIAR RANCH GAS UNIT #1 : WELL
FLD .                    WILDCAT : FIELD
LOC .                            : LOCATION
CNTY.                    DE WITT : COUNTY
STAT.                      TEXAS : STATE
CTRY.   UNITED STATES OF AMERICA : COUNTRY
SRVC.                    Unknown : SERVICE COMPANY
DATE.                27-Nov-1979 : LOGDATE
API .             42123309830000 : API NUMBER
UWI .             42123309830000 : UNIQUE WELL ID
SLAT.WGS84           29.12059862 : SURFACE LATITUDE
SLON.WGS84          -97.21043026 : SURFACE LONGITUDE
~Curve Information -----------------------------------------
DEPT    .FT    : DEPTH FEET
ACED    .US/F  : DELTA TIME (ACOUSTIC) FROM SONIC LOG [DEP ADJ TO DTED]
CALDED  .IN    : CALIPER FROM DENSITY LOG [DEP ADJ TO GRRED]
CALRED  .IN    : CALIPER FROM RESISTIVITY LOG
CALWS   .IN    : CALIPER [CALDED]
CONDWS  .MMHO  : CONDUCTIVITY [1000/DRESWS]
CORRED  .G/C3  : DENSITY CORRECTION FROM DENSITY LOG
DCORWS  .G/C3  : DENSITY CORRECTION [CORRED]
DENWS   .G/C3  : BULK DENSITY [M=2.71 F=1.0] [RHOBED]
DPHILSED.V/V   : DENSITY POROSITY [M=2.71 F=1.0] FROM DENSITY LOG [DEP ADJ TO GRRED]
DPHISSED.V/V   : DENSITY POROSITY [M=2.65 F=1.0][7100-10800F M=2.68] FROM DENSITY LOG
DPOLSWS .V/V   : DENSITY POROSITY [M=2.71 F=1.0] [CAL FR DENWS]
DRESWS  .OHMM  : DEEP RESISTIVITY [ILDED]
DTED    .US/F  : DELTA TIME FROM SONIC LOG
DTWS    .US/F  : DELTA TIME [2490 DTED 15878 ACED]
GRDED   .GAPI  : GAMMA RAY FROM DENSITY LOG [DEP ADJ TO GRRED]
GRRED   .GAPI  : GAMMA RAY FROM RESISTIVITY LOG
GRWS    .GAPI  : GAMMA RAY [2490 GRDED 17231 GRRED]
ILDED   .OHMM  : INDUCTION LOG DEEP RESISTIVITY
ILMED   .OHMM  : INDUCTION LOG MEDIUM RESISTIVITY
MRESWS  .OHMM  : MEDIUM RESISTIVITY [ILMED]
NPHILSED.V/V   : NEUTRON POROSITY LIMESTONE FROM DENSITY LOG [DEP ADJ TO GRRED]
NPHISSED.V/V   : NEUTRON POROSITY SANDSTONE FROM DENSITY LOG
NPOLSWS .V/V   : NEUTRON POROSITY LIMESTONE [2490 NPOLSCAL 14943 NPHILSED] [NPHISSED WAS CONVERTED TO NPOLSCAL USING POWERLOG MODULE]
RHOBED  .G/C3  : BULK DENSITY FROM DENSITY LOG [DEP ADJ TO GRRED]
SFLED   .OHMM  : SPHERICALLY FOCUSED LOG RESISTIVITY
SPHILSED.V/V   : SONIC POROSITY FROM SONIC LOG [DEP ADJ TO DTED] [LIMESTONE M=47.5, F=189]
SPOWS   .V/V   : SONIC POROSITY [CAL FR DTWS] [LIMESTONE M=47.5, F=189]
SPRED   .MV    : SPONTANEOUS POTENTIAL FROM RESISTIVITY LOG [SHIFTS ARE REMOVED]
SPWS    .MV    : SPONTANEOUS POTENTIAL [BASELINE 0 MV] [SPRED]
SRESWS  .OHMM  : SHALLOW RESISTIVITY [SFLED]
~Params ----------------------------------------------------
PD  .                     GL : PERMANENT DATUM
EPD .FT                223.8 : ELEVATION PERMANENT DATUM
LMF .                     KB : LOG MEASURED FROM
DAPD.FT                   26 : FEET ABOVE PERMANENT DATUM
DMF .                     KB : DRILLING MEASURED FROM
EKB .FT                249.8 : KELLY BUSHING
EDF .FT                248.8 : DRILLING FLOOR
EGL .FT                223.8 : GROUND LEVEL
DATE.               11/27/79 : RUN DATE
RUN .                      1 : RUN NUMBER
DD  .FT                17252 : DEPTH DRILLER
DL  .FT                17259 : DEPTH LOGGER
BLI .FT                17258 : BOTTOM LOG INTERVAL
TLI .FT                15013 : TOP LOG INTERVAL
CS  .IN                    7 : CASING SIZE
CBD .FT                15015 : CASING BOTTOM DRILLER
CBL .FT                15018 : CASING BOTTOM LOGGER
BS  .IN                5.875 : BIT SIZE
BSD .FT                17252 : BIT SIZE AT DEPTH
DFT .               OIL FAZE : DRILLING FLUID TYPE
DFD .                   12.8 : DRILLING FLUID DENSITY
DFV .                     45 : DRILLING FLUID VISCOSITY
DFL .                   13.6 : DRILLING FLUID LOSS
TCS .HRS                 545 : TIME CIRCULATED STOPPED
TLAB.HRS                1500 : TIME LOGGER AT BOTTOM
LUN .                   8011 : LOGGING UNIT NUMBER
LUL .                   VICT : LOGGING UNIT LOCATION
ENGI.                   SHEA : RECORDING ENGINEER
WITN.            BLANKENSHIP : WITNESSED BY
CLNT.                A2DTECH : CLIENT CODE
ORIG.            1" 5" PRINT : ORIGIN OF DATA
UWI .         42123309830000 : UNIQUE WELL ID
DICO. A2D Technologies, Inc. : DIGITIZING COMPANY
~Other -----------------------------------------------------
~ASCII -----------------------------------------------------
# ...
 3700.00000    -999.25   17.96830    -999.25   17.96830 1058.87330    0.04200    0.04200    2.20040    -999.25    0.27590    0.29800    0.94440  145.78780  145.78780   96.18480    -999.25   96.18480    0.94440    0.91050    0.91050    -999.25    0.41510    0.37250    2.20040    1.06120    -999.25    0.69460  -20.61660   -3.44340    1.06120
 3750.00000    -999.25   16.52750    -999.25   16.52750 1037.45200    0.02550    0.02550    2.23510    -999.25    0.24450    0.27770    0.96390  134.20020  134.20020   87.68330    -999.25   87.68330    0.96390    0.92210    0.92210    -999.25    0.44860    0.40690    2.23510    0.90930    -999.25    0.61270  -21.71570   -4.66820    0.90930
 3800.00000    -999.25   17.93430    -999.25   17.93430 1134.42990    0.04150    0.04150    2.17490    -999.25    0.28920    0.31290    0.88150  146.87570  146.87570   91.44670    -999.25   91.44670    0.88150    0.83070    0.83070    -999.25    0.47470    0.43300    2.17490    1.00260    -999.25    0.70230  -19.98910   -3.06730    1.00260
 3850.00000    -999.25   16.31130    -999.25   16.31130 1047.77870    0.01040    0.01040    2.22210    -999.25    0.25720    0.28530    0.95440  144.30060  144.30060  100.03900    -999.25  100.03900    0.95440    0.90300    0.90300    -999.25    0.44860    0.40690    2.22210    1.02610    -999.25    0.68410  -20.51530   -3.71910    1.02610
 3900.00000    -999.25   16.24760    -999.25   16.24760 1210.50720    0.04020    0.04020    2.25700    -999.25    0.23990    0.26490    0.82610  126.02790  126.02790   94.36040    -999.25   94.36040    0.82610    0.79220    0.79220    -999.25    0.35540    0.31180    2.25700    0.89600    -999.25    0.55500  -17.83060   -1.16010    0.89600
 3950.00000    -999.25   16.23870    -999.25   16.23870 1201.77870    0.01280    0.01280    2.20610    -999.25    0.27440    0.29470    0.83210  148.18540  148.18540  104.08540    -999.25  104.08540    0.83210    0.80320    0.80320    -999.25    0.42610    0.38380    2.20610    0.94450    -999.25    0.71160  -19.62240   -3.05800    0.94450
 4000.00000    -999.25   16.73590    -999.25   16.73590 1192.03710    0.03530    0.03530    2.19990    -999.25    0.27340    0.29830    0.83890  156.53590  156.53590  100.62980    -999.25  100.62980    0.83890    0.78620    0.78620    -999.25    0.49530    0.45360    2.19990    0.94680    -999.25    0.77060  -19.87030   -3.23550    0.94680
 4050.00000    -999.25   16.66320    -999.25   16.66320 1176.19380    0.03980    0.03980    2.15980    -999.25    0.29960    0.32180    0.85020  148.40080  148.40080   97.08380    -999.25   97.08380    0.85020    0.82860    0.82860    -999.25    0.46380    0.42210    2.15980    0.87250    -999.25    0.71310  -19.74420   -3.03890    0.87250
 4100.00000    -999.25   16.52650    -999.25   16.52650 1014.30170    0.01650    0.01650    2.26110    -999.25    0.24060    0.26250    0.98590  147.90460  147.90460  107.28090    -999.25  107.28090    0.98590    0.91790    0.91790    -999.25    0.47990    0.43820    2.26110    1.06740    -999.25    0.70960  -20.46220   -3.68650    1.06740
 4150.00000    -999.25   15.51110    -999.25   15.51110 1197.17470    0.02560    0.02560    2.20350    -999.25    0.27270    0.29620    0.83530  155.35460  155.35460   93.41120    -999.25   93.41120    0.83530    0.78850    0.78850    -999.25    0.45450    0.41280    2.20350    0.96310    -999.25    0.76220  -20.55810   -3.71200    0.96310
 4200.00000    -999.25   14.18470    -999.25   14.18470  843.81070    0.00110    0.00110    2.21530    -999.25    0.26570    0.28930    1.18510  125.75040  125.75040   71.73230    -999.25   71.73230    1.18510    1.12850    1.12850    -999.25    0.41040    0.36770    2.21530    1.46080    -999.25    0.55300  -21.17720   -4.26070    1.46080
 4250.00000    -999.25   14.10860    -999.25   14.10860  814.33220    0.03550    0.03550    2.25590    -999.25    0.23960    0.26560    1.22800  129.65700  129.65700   80.08400    -999.25   80.08400    1.22800    1.16380    1.16380    -999.25    0.44260    0.40070    2.25590    1.23520    -999.25    0.58060  -22.00380   -5.01690    1.23520
 4300.00000    -999.25   12.05320    -999.25   12.05320  909.66970    0.01930    0.01930    2.20720    -999.25    0.27190    0.29400    1.09930  119.25580  119.25580   92.34710    -999.25   92.34710    1.09930    1.07110    1.07110    -999.25    0.47750    0.43580    2.20720    1.13510    -999.25    0.50710  -25.01220   -7.95490    1.13510
 4350.00000    -999.25   12.33050    -999.25   12.33050 1130.71010    0.03550    0.03550    2.20480    -999.25    0.26690    0.29540    0.88440  126.77880  126.77880   91.00290    -999.25   91.00290    0.88440    0.93090    0.93090    -999.25    0.40650    0.36380    2.20480    0.98870    -999.25    0.56030  -25.72800   -8.60020    0.98870
 4400.00000    -999.25   13.37540    -999.25   13.37540  734.80780   -0.00460   -0.00460    2.12250    -999.25    0.32140    0.34360    1.36090  116.94630  116.94630   71.20810    -999.25   71.20810    1.36090    1.82470    1.82470    -999.25    0.40300    0.36020    2.12250    2.89400    -999.25    0.49080  -61.33030  -44.13210    2.89400
 4450.00000    -999.25   14.81290    -999.25   14.81290  911.99270    0.02340    0.02340    2.29290    -999.25    0.21650    0.24390    1.09650  112.12630  112.12630   89.76510    -999.25   89.76510    1.09650    1.12060    1.12060    -999.25    0.38520    0.34210    2.29290    1.72800    -999.25    0.45670  -22.11570   -4.84710    1.72800
 4500.00000    -999.25   13.86900    -999.25   13.86900  886.05350    0.02560    0.02560    2.15850    -999.25    0.29850    0.32250    1.12860  116.78260  116.78260   70.67370    -999.25   70.67370    1.12860    1.39720    1.39720    -999.25    0.35690    0.31330    2.15850    1.95620    -999.25    0.48960  -54.61510  -37.27610    1.95620
 4550.00000    -999.25   14.63780    -999.25   14.63780  826.65120    0.00990    0.00990    2.25750    -999.25    0.24210    0.26460    1.20970  114.22270  114.22270   89.18750    -999.25   89.18750    1.20970    1.30670    1.30670    -999.25    0.32120    0.27730    2.25750    1.53960    -999.25    0.47150  -28.90170  -11.49230    1.53960
 4600.00000    -999.25   14.20780    -999.25   14.20780  676.68150    0.05860    0.05860    2.31290    -999.25    0.22200    0.23220    1.47780  107.29010  107.29010   75.54320    -999.25   75.54320    1.47780    1.75220    1.75220    -999.25    0.30790    0.26390    2.31290    1.78230    -999.25    0.42250  -48.94630  -31.46640    1.78230
 4650.00000    -999.25   15.89500    -999.25   15.89500 1357.22030    0.01970    0.01970    2.20750    -999.25    0.26850    0.29390    0.73680  138.97350  138.97350  107.34310    -999.25  107.34310    0.73680    0.76670    0.76670    -999.25    0.45100    0.40930    2.20750    0.80870    -999.25    0.64650  -21.11530   -3.56500    0.80870
 4700.00000    -999.25   14.95850    -999.25   14.95850 1103.75270    0.04290    0.04290    2.25340    -999.25    0.24110    0.26700    0.90600  121.74800  121.74800  105.51700    -999.25  105.51700    0.90600    0.95660    0.95660    -999.25    0.40860    0.36590    2.25340    1.26270    -999.25    0.52470  -23.30140   -5.68070    1.26270
 4750.00000    -999.25   15.26700    -999.25   15.26700 1158.61430    0.02760    0.02760    2.22900    -999.25    0.25830    0.28130    0.86310  144.54040  144.54040   91.13930    -999.25   91.13930    0.86310    0.96480    0.96480    -999.25    0.44360    0.40170    2.22900    0.94470    -999.25    0.68580  -20.49430   -2.80320    0.94470
 4800.00000    -999.25   13.99540    -999.25   13.99540 1378.16980    0.01130    0.01130    2.20770    -999.25    0.26630    0.29370    0.72560  138.75680  138.75680   99.18840    -999.25   99.18840    0.72560    0.74920    0.74920    -999.25    0.50440    0.46270    2.20770    0.87480    -999.25    0.64490  -20.26750   -2.50600    0.87480
 4850.00000    -999.25   13.93460    -999.25   13.93460  857.04490    0.02680    0.02680    2.25270    -999.25    0.24210    0.26740    1.16680  116.89340  116.89340   90.57960    -999.25   90.57960    1.16680    1.24650    1.24650    -999.25    0.38630    0.34320    2.25270    1.15560    -999.25    0.49040  -27.07560   -9.24360    1.15560
