~Version ---------------------------------------------------
VERS. 2.0 : CWLS log ASCII Standard -VERSION 2.0
WRAP.  NO : ONE LINE PER DEPTH STEP
~Well ------------------------------------------------------
STRT.F                        1200.0 : START DEPTH
STOP.F                        9700.0 : STOP DEPTH
STEP.F                      50.00000 : STEP LENGTH
NULL.                        -999.25 : NULL VALUE
COMP.     HERD PRODUCING COMPANY INC : COMPANY
WELL. BEDDINGFIELD GAS UNIT NO. 1 #2 : WELL
FLD .                      FARRAR SE : FIELD
LOC .                                : LOCATION
CNTY.                      LIMESTONE : COUNTY
STAT.                          TEXAS : STATE
CTRY.       UNITED STATES OF AMERICA : COUNTRY
SRVC.                   Schlumberger : SERVICE COMPANY
DATE.                    26-Apr-1990 : LOGDATE
API .                 42293309280000 : API NUMBER
UWI .                 42293309280000 : UNIQUE WELL ID
SLAT.WGS84              31.411545742 : SURFACE LATITUDE
SLON.WGS84            -96.2671170526 : SURFACE LONGITUDE
~Curve Information -----------------------------------------
DEPT   .F                 : 
DCAL   .IN   07 280 01 00 : DIFFERENTIAL CALIPER
GRR    .GAPI 07 310 01 00 : GAMMA RAY FROM RESISTIVITY LOG
DRHO   .G/C3 45 356 01 00 : BULK DENSITY CORRECTION
DPHI_LS.DEC  45 890 10 00 : DENSITY POROSITY LIMESTONE
NPHI_LS.DEC  42 890 01 00 : NEUTRON POROSITY LIMESTONE
ILD    .OHMM 07 120 46 00 : INDUCTION DEEP RESISTIVITY
ILM    .OHMM 07 120 44 00 : INDUCTION MEDIUM RESISTIVITY
SFLU   .OHMM 07 220 01 00 : SHALLOW FOCUSED RESISTIVITY (UNAVERAGED)
SPR    .MV   07 010 01 00 : SPONTANEOUS POTENTIAL FROM RESISTIVITY LOG
~Params ----------------------------------------------------
PD  .                     GL : PERMANENT DATUM
EPD .FT                396.3 : ELEVATION PERMANENT DATUM
LMF .                    RKB : LOG MEASURED FROM
DAPD.FT                   25 : FEET ABOVE PERMANENT DATUM
DMF .                    RKB : DRILLING MEASURED FROM
EKB .FT                421.3 : KELLY BUSHING
EDF .FT                420.3 : DRILLING FLOOR
EGL .FT                396.3 : GROUND LEVEL
DATE.               04/26/90 : RUN DATE
RUN .                      1 : RUN NUMBER
DD  .FT                 9719 : DEPTH DRILLER
DL  .FT                 9719 : DEPTH LOGGER
BLI .FT                 9713 : BOTTOM LOG INTERVAL
TLI .FT                 1215 : TOP LOG INTERVAL
CS  .IN                8.625 : CASING SIZE
CBD .FT                 1219 : CASING BOTTOM DRILLER
CBL .FT                 1215 : CASING BOTTOM LOGGER
BS  .IN                7.875 : BIT SIZE
BSD .FT                 9719 : BIT SIZE AT DEPTH
DFT .                    CLS : DRILLING FLUID TYPE
DFD .                   10.3 : DRILLING FLUID DENSITY
DFV .                     48 : DRILLING FLUID VISCOSITY
DFPH.                    9.8 : DRILLING FLUID PH
DFL .                    9.8 : DRILLING FLUID LOSS
MSS .               FLOWLINE : MUD SAMPLE SOURCE
RMS .OHMM               1.65 : RESISTIVITY MUD SAMPLE
MST .DEGF                127 : MUD SAMPLE TEMPERATURE
RMF .OHMM               1.48 : RESISTIVITY MUD FILTRATE SAMPLE
MFST.DEGF                 72 : MUD FILTRATE SAMPLE TEMPERATURE
RMC .OHMM               1.03 : RESISTIVITY MUD CAKE
MCST.DEGF                 72 : MUD CAKE SAMPLE TEMPERATURE
MFSS.                   MEAS : MUD FILTRATE SAMPLE SOURCE
MCSS.                   MEAS : MUD CAKE SAMPLE SOURCE
RMB .OHMM              0.974 : RESISTIVITY MUD AT BHT
TCS .HRS                1915 : TIME CIRCULATED STOPPED
TLAB.HRS                1145 : TIME LOGGER AT BOTTOM
LUN .                   8167 : LOGGING UNIT NUMBER
LUL .             SHREVEPORT : LOGGING UNIT LOCATION
ENGI.          FARMER PALMER : RECORDING ENGINEER
WITN.                  FEARS : WITNESSED BY
CLNT.                A2DTECH : CLIENT CODE
ORIG.         1" 2" 5" PRINT : ORIGIN OF DATA
UWI .         42293309280000 : UNIQUE WELL ID
DICO. A2D Technologies, Inc. : DIGITIZING COMPANY
~Other -----------------------------------------------------
~ASCII -----------------------------------------------------
 1200.00000    -999.25   58.73550    -999.25    -999.25    -999.25    -999.25    -999.25    -999.25    -999.25
 1250.00000    3.22050   83.35840   -0.01610    0.32620    0.34850    3.61990    3.12430    3.70330  -55.42570
 1300.00000    5.50540   80.42170   -0.00720    0.34110    0.34400    2.60200    2.35550    2.66140  -54.86330
 1350.00000   11.26300   81.32530   -0.00570    0.33810    0.34850    2.14620    1.92890    2.17970  -45.80130
 1400.00000   12.31510   79.51810   -0.00160    0.34700    0.32390    1.82130    1.56880    1.82250  -46.10300
 1450.00000   13.63080   87.65010    0.00630    0.30560    0.34780    2.01720    1.61270    1.96590  -46.35540
 1500.00000   13.30400   89.23190    0.00370    0.33730    -999.25    1.93570    1.61260    1.87330  -44.89430
 1550.00000   12.97640   80.42190   -0.00270    0.34030    -999.25    1.49050    1.29140    1.58810  -45.80060
 1600.00000   12.02560   94.42810    0.03610    0.28600    0.31880    1.79470    1.56880    1.85440  -46.70690
 1650.00000   14.01790   74.32230    0.07110    0.34930    -999.25    1.45830    1.27590    1.57720  -43.08160
 1700.00000    9.43450   99.17150    0.00030    0.21980    0.26170    2.91880    2.57610    2.87070  -48.56790
 1750.00000   11.33930  100.30120    0.01820    0.26490    0.28710    2.29480    2.08070    2.28730  -46.92210
 1800.00000    9.55340   98.71990    0.00300    0.26160    0.33290    2.01380    1.78470    2.04890  -43.38370
 1850.00000    7.88690   85.84280    0.02270    0.31870    0.34310    2.15700    1.95570    2.19480  -46.70700
 1900.00000    5.83330   79.51810    0.05250    0.35000    -999.25    1.79170    1.57960    1.84780  -43.68600
 1950.00000    5.09430   71.72440    -999.25    0.34720    -999.25    1.37180    1.14280    1.38370  -39.75830
 2000.00000    8.25920   63.25380    -999.25    -999.25    -999.25    1.41070    1.26710    1.47230  -41.26910
 2050.00000    3.00640   87.42470    -999.25    -999.25    -999.25    1.22940    1.10480    1.41260  -41.26840
 2100.00000   11.25000   92.16850    -999.25    -999.25    -999.25    1.16970    1.05210    1.32340  -40.43220
 2150.00000   10.08640   98.04220    -999.25    -999.25    -999.25    1.24640    1.13490    1.41260  -43.08130
 2200.00000    6.99430   97.81660    -999.25    -999.25    -999.25    0.98670    0.89790    1.10270  -38.85170
 2250.00000    6.51800   90.36160    -999.25    -999.25    -999.25    1.60760    1.47450    1.76080  -42.88010
 2300.00000    2.88690   61.67190    -999.25    -999.25    -999.25    2.98560    2.96100    3.65250  -50.33260
 2350.00000    3.34120   77.03310    -999.25    -999.25    -999.25    1.51120    1.52620    1.97370  -44.89430
 2400.00000    4.57410   66.18990    -999.25    -999.25    -999.25    1.81220    1.72190    1.82240  -39.45590
 2450.00000    5.45320  101.65700    -999.25    -999.25    -999.25    1.05030    1.00250    1.10660  -35.22660
 2500.00000    6.26570   84.93960    -999.25    -999.25    -999.25    1.41510    1.26720    1.37440  -35.22660
 2550.00000    5.91930   87.98950    -999.25    -999.25    -999.25    1.58560    1.52610    1.61010  -40.36250
 2600.00000    5.08240   91.03930    -999.25    -999.25    -999.25    1.14730    1.06670    1.32780  -33.11180
 2650.00000    3.89940   85.39160    -999.25    -999.25    -999.25    1.43620    1.32970    1.57730  -39.65790
 2700.00000    1.48700   89.45760    -999.25    -999.25    -999.25    0.96630    0.91040    1.04240  -32.80970
 2750.00000    2.09290   82.68050    -999.25    -999.25    -999.25    1.26370    1.22420    1.52390  -33.71600
 2800.00000    2.87830   84.93960    -999.25    -999.25    -999.25    1.24780    1.17470    1.34630  -34.62240
 2850.00000    4.33480  117.24400    -999.25    -999.25    -999.25    0.95310    0.77700    0.98760  -29.18430
 2900.00000    6.56730   89.68370    -999.25    -999.25    -999.25    1.29890    1.20750    1.45220  -35.22630
 2950.00000    7.26460   89.68370    -999.25    -999.25    -999.25    1.04230    0.98880    1.18930  -30.69490
 3000.00000    7.32440   90.36140    -999.25    -999.25    -999.25    0.99550    0.96860    1.05070  -32.50760
 3050.00000    6.22950   85.16580    -999.25    -999.25    -999.25    1.26370    1.22420    1.42250  -32.20590
 3100.00000    5.93120   84.26240    -999.25    -999.25    -999.25    1.25510    1.20750    1.51350  -31.29910
 3150.00000    5.60810   80.78610    -999.25    -999.25    -999.25    1.06400    1.01650    1.24230  -31.29880
 3200.00000    3.81550   87.42490    -999.25    -999.25    -999.25    1.34440    1.29360    1.52390  -30.09060
 3250.00000    1.14040   79.68340    -999.25    -999.25    -999.25    2.76810    2.66650    3.55350  -47.61300
 3300.00000    1.69910   89.45780    -999.25    -999.25    -999.25    2.41230    2.49260    2.72700  -50.11640
 3350.00000    2.00650  100.97890    -999.25    -999.25    -999.25    1.74600    1.66910    1.96590  -36.13290
 3400.00000    2.38470   87.65020    -999.25    -999.25    -999.25    2.01730    2.01040    2.38380  -33.41390
 3450.00000    4.50070   94.42770    -999.25    -999.25    -999.25    1.20420    1.16140    1.44210  -31.60150
 3500.00000    4.79530   80.19580    -999.25    -999.25    -999.25    1.36300    1.32060    1.57720  -30.69490
 3550.00000    4.56940   88.38080    -999.25    -999.25    -999.25    1.62990    1.57960    1.66660  -33.41410
 3600.00000    4.57400   78.84050    -999.25    -999.25    -999.25    1.48580    1.42780    1.71310  -30.69490
 3650.00000    5.65010  104.59340    -999.25    -999.25    -999.25    1.29000    1.28470    1.57400  -32.20470
 3700.00000    8.31070   89.68410    -999.25    -999.25    -999.25    1.22940    1.24120    1.48250  -29.78850
 3750.00000    9.08230   96.91270    -999.25    -999.25    -999.25    1.17070    1.15860    1.37910  -31.60120
 3800.00000    9.50680   93.75000    -999.25    -999.25    -999.25    1.01400    0.97530    1.25150  -26.76740
 3850.00000    9.37720   90.36160    -999.25    -999.25    -999.25    1.11650    1.12540    1.35950  -31.60120
 3900.00000    7.83250   79.74400    -999.25    -999.25    -999.25    0.96630    0.96190    1.26890  -24.92540
 3950.00000    6.84600   93.07230    -999.25    -999.25    -999.25    1.15550    1.15060    1.37840  -29.78850
 4000.00000    5.52090   92.16870    -999.25    -999.25    -999.25    1.44010    1.45430    1.70590  -27.67370
 4050.00000    2.57110   60.99400    -999.25    -999.25    -999.25    2.96520    2.99770    3.54160  -33.41370
 4100.00000    3.09680   89.41090    -999.25    -999.25    -999.25    2.11680    2.12420    2.74640  -28.27790
 4150.00000    4.99280   96.68620    -999.25    -999.25    -999.25    1.47010    1.47450    1.85400  -29.48620
 4200.00000    4.27520   70.70780    -999.25    -999.25    -999.25    1.79470    1.80050    2.34370  -27.06970
 4250.00000    4.51420   74.99980    -999.25    -999.25    -999.25    1.83200    1.94230    2.03260  -31.29910
 4300.00000    2.60100   42.24400    -999.25    -999.25    -999.25    3.93120    4.11540    4.76840  -33.35260
 4350.00000    2.29700   27.78690    -999.25    -999.25    -999.25    3.88380    4.28900    4.72530  -34.62260
 4400.00000    1.07590   32.75600    -999.25    -999.25    -999.25    4.60510    4.99090    6.63720  -27.67370
 4450.00000    2.33200   41.11450    -999.25    -999.25    -999.25    3.97810    4.28910    5.29100  -33.41390
 4500.00000    3.71450   54.44280    -999.25    -999.25    -999.25    3.40260    3.21150    4.73460  -46.10220
 4550.00000    4.97880  113.17810    -999.25    -999.25    -999.25    0.84800    0.88560    0.85070  -32.50780
 4600.00000    5.11210  122.44010    -999.25    -999.25    -999.25    2.26750    2.26020    2.59550  -30.39300
 4650.00000    7.53360  104.09040    -999.25    -999.25    -999.25    1.36300    1.37640    1.76490  -26.16310
 4700.00000    8.75930  110.55120    -999.25    -999.25    -999.25    1.50080    1.49500    1.81600  -27.67400
 4750.00000    9.65630  102.33420    -999.25    -999.25    -999.25    1.07710    1.07400    1.40710  -24.35020
 4800.00000    8.49500  109.11180    -999.25    -999.25    -999.25    0.95050    0.96200    1.28650  -20.72510
