~Version ---------------------------------------------------
VERS. 2.0 : CWLS log ASCII Standard -VERSION 2.0
WRAP. YES : MULTIPLE LINES PER DEPTH STEP
~Well ------------------------------------------------------
STRT.FT                   3500.0 : START DEPTH
STOP.FT                  16150.0 : STOP DEPTH
STEP.FT                 50.00000 : STEP LENGTH
NULL.                    -999.25 : NULL VALUE
COMP. CHEYENNE PETROLEUM COMPANY : COMPANY
WELL.              RUBY YOUNG #1 : WELL
FLD .                    WILDCAT : FIELD
LOC .                            : LOCATION
CNTY.                     KARNES : COUNTY
STAT.                      TEXAS : STATE
CTRY.   UNITED STATES OF AMERICA : COUNTRY
SRVC.               Schlumberger : SERVICE COMPANY
DATE.                06-Jan-1997 : LOGDATE
API .             42255313650000 : API NUMBER
UWI .             42255313650000 : UNIQUE WELL ID
SLAT.WGS84         28.8201979392 : SURFACE LATITUDE
SLON.WGS84        -97.8404688792 : SURFACE LONGITUDE
~Curve Information -----------------------------------------
DEPT    .FT    : DEPTH FEET
ASFLED  .OHMM  : AMPLIFIED SPHERICALLY FOCUSED LOG RESISTIVITY
CALWS   .IN    : CALIPER [DCALRED+9.875]<15054>[DCALRED+6.5]
CONDWS  .MMHO  : CONDUCTIVITY [1000/DRESWS]
DCALRED .IN    : DIFFERENTIAL CALIPER FROM RESISTIVITY LOG
DCORWS  .G/C3  : DENSITY CORRECTION [DRHOED]
DENWS   .G/C3  : BULK DENSITY [M=2.71 F=1.0] [CALCULATED FROM DPOWS]
DPHILSED.V/V   : DENSITY POROSITY LIMESTONE[M=2.71 F=1.0] FROM COMPOSITE RES. LOG
DPOWS   .V/V   : DENSITY POROSITY [DPHILSED]
DRESWS  .OHMM  : DEEP RESISTIVITY [IDPHED]
DRHOED  .G/C3  : DENSITY CORRECTION FROM COMPOSITE RES. LOG
DTLFED  .US/F  : DELTA TIME LONG SPACING FAR DETECTOR COMPOSITE RES. LOG
DTLNED  .US/F  : DELTA TIME LONG SPACING NEAR DETECTOR COMPOSITE RES. LOG
DTWS    .US/F  : DELTA TIME [DTLFED]
GRRED   .GAPI  : GAMMA RAY FROM RESISTIVITY LOG
GRWS    .GAPI  : GAMMA RAY [GRRED]
IDPHED  .OHMM  : INDUCTION DEEP PHASE RESISTIVITY
IMPHED  .OHMM  : INDUCTION MEDIUM PHASE RESISTIVITY
MRESWS  .OHMM  : MEDIUM RESISTIVITY [IMPHED]
NPHILSED.V/V   : NEUTRON POROSITY LIMESTONE FROM COMPOSITE RES. LOG
NPOWS   .V/V   : NEUTRON POROSITY LIMESTONE [NPHILSED]
SFLUED  .OHMM  : SPHERICALLY FOCUSED LOG RESISTIVITY
SPRED   .MV    : SPONTANEOUS POTENTIAL FROM RESISTIVITY LOG
SPWS    .MV    : SPONTANEOUS POTENTIAL [BASELINE 0 MV] [SPRED]
SRESWS  .OHMM  : SHALLOW RESISTIVITY [ASFLED], SPLICED WITH [SFLUED] AT 12400'
TENRED  .LBF   : TENSION FROM RESISTIVITY LOG
~Params ----------------------------------------------------
PD  .                     GL : PERMANENT DATUM
EPD .FT                258.6 : ELEVATION PERMANENT DATUM
LMF .                     KB : LOG MEASURED FROM
DAPD.FT                   25 : FEET ABOVE PERMANENT DATUM
DMF .                     KB : DRILLING MEASURED FROM
EKB .FT                284.5 : KELLY BUSHING
EDF .FT                283.6 : DRILLING FLOOR
EGL .FT                258.6 : GROUND LEVEL
DATE.               01/06/97 : RUN DATE
RUN .                      2 : RUN NUMBER
DD  .FT                16145 : DEPTH DRILLER
DL  .FT                16144 : DEPTH LOGGER
BLI .FT                16142 : BOTTOM LOG INTERVAL
TLI .FT                15080 : TOP LOG INTERVAL
CS  .IN                7.625 : CASING SIZE
CBD .FT                15084 : CASING BOTTOM DRILLER
CBL .FT                15080 : CASING BOTTOM LOGGER
BS  .IN                  6.5 : BIT SIZE
BSD .FT                16145 : BIT SIZE AT DEPTH
DFT .              LIG DESCO : DRILLING FLUID TYPE
DFD .                   15.9 : DRILLING FLUID DENSITY
DFV .                     47 : DRILLING FLUID VISCOSITY
DFPH.                   10.3 : DRILLING FLUID PH
DFL .                    5.2 : DRILLING FLUID LOSS
MSS .                MUD PIT : MUD SAMPLE SOURCE
RMS .OHMM                0.6 : RESISTIVITY MUD SAMPLE
MST .DEGF                 75 : MUD SAMPLE TEMPERATURE
RMF .OHMM                0.5 : RESISTIVITY MUD FILTRATE SAMPLE
MFST.DEGF                 75 : MUD FILTRATE SAMPLE TEMPERATURE
RMC .OHMM               0.92 : RESISTIVITY MUD CAKE
MCST.DEGF                 75 : MUD CAKE SAMPLE TEMPERATURE
MFSS.               MEASURED : MUD FILTRATE SAMPLE SOURCE
MCSS.             CALCULATED : MUD CAKE SAMPLE SOURCE
RMB .OHMM               0.13 : RESISTIVITY MUD AT BHT
TCS .HRS                   0 : TIME CIRCULATED STOPPED
TLAB.HRS                1530 : TIME LOGGER AT BOTTOM
LUN .                   2020 : LOGGING UNIT NUMBER
LUL .               VICTORIA : LOGGING UNIT LOCATION
ENGI.                  NAHRI : RECORDING ENGINEER
WITN.    ZAUNBRECHER BRANDON : WITNESSED BY
CLNT.                A2DTECH : CLIENT CODE
ORIG.               5" PRINT : ORIGIN OF DATA
UWI .         42255313650000 : UNIQUE WELL ID
DICO. A2D Technologies, Inc. : DIGITIZING COMPANY
~Other -----------------------------------------------------
MUD WEIGHT USED 9.6 TO 18.8 WHILE DRILLING
~ASCII -----------------------------------------------------
# ...
 9100.00000    1.27430    -999.25  809.74570    -999.25    -999.25    -999.25    -999.25    -999.25    1.23500    -999.25  102.68470  102.54170  102.68470   63.19510   63.19510    1.23500    1.16330    1.16330    -999.25    -999.25    -999.25    -999.25    -999.25    1.27430 3599.92140
 9150.00000    1.16180    -999.25  891.56300    -999.25    -999.25    -999.25    -999.25    -999.25    1.12160    -999.25  102.21620  101.35540  102.21620   65.05300   65.05300    1.12160    0.98940    0.98940    -999.25    -999.25    -999.25    -999.25    -999.25    1.16180 3607.35110
 9200.00000    1.30090    -999.25  808.47630    -999.25    -999.25    -999.25    -999.25    -999.25    1.23690    -999.25  103.42210  101.91580  103.42210   74.70030   74.70030    1.23690    1.15970    1.15970    -999.25    -999.25    -999.25    -999.25    -999.25    1.30090 3664.07300
 9250.00000    1.22980    -999.25  857.21090    -999.25    -999.25    -999.25    -999.25    -999.25    1.16660    -999.25  100.78930  101.80250  100.78930   69.40060   69.40060    1.16660    1.12630    1.12630    -999.25    -999.25    -999.25    -999.25    -999.25    1.22980 3614.96460
 9300.00000    1.64380    -999.25  606.29900    -999.25    -999.25    -999.25    -999.25    -999.25    1.64940    -999.25   95.94600   96.69300   95.94600   67.56620   67.56620    1.64940    1.55190    1.55190    -999.25    -999.25    -999.25    -999.25    -999.25    1.64380 3598.99800
 9350.00000    1.90990    -999.25  521.02410    -999.25    -999.25    -999.25    -999.25    -999.25    1.91930    -999.25   98.78830  103.86390   98.78830   73.75810   73.75810    1.91930    1.83640    1.83640    -999.25    -999.25    2.09760    -999.25    -999.25    1.90990 3640.61110
 9400.00000    1.32420    -999.25  820.09300    -999.25    -999.25    -999.25    -999.25    -999.25    1.21940    -999.25   98.97190  100.92700   98.97190   62.25850   62.25850    1.21940    1.15480    1.15480    -999.25    -999.25    -999.25    -999.25    -999.25    1.32420 3682.79910
 9450.00000    1.51190    -999.25  650.66000    -999.25    -999.25    -999.25    -999.25    -999.25    1.53690    -999.25   92.06420   93.32550   92.06420   61.66550   61.66550    1.53690    1.47580    1.47580    -999.25    -999.25    -999.25    -999.25    -999.25    1.51190 3693.09160
 9500.00000    1.34150    -999.25  806.16090    -999.25    -999.25    -999.25    -999.25    -999.25    1.24040    -999.25   99.90640  100.22780   99.90640   72.72060   72.72060    1.24040    1.20580    1.20580    -999.25    -999.25    -999.25    -999.25    -999.25    1.34150 3733.09280
 9550.00000    1.61230    -999.25  644.17760    -999.25    -999.25    -999.25    -999.25    -999.25    1.55240    -999.25   97.75370   97.06710   97.75370   77.27730   77.27730    1.55240    1.47720    1.47720    -999.25    -999.25    -999.25    -999.25    -999.25    1.61230 3725.36690
 9600.00000    1.78260    -999.25  593.67110    -999.25    -999.25    -999.25    -999.25    -999.25    1.68440    -999.25   96.97380   96.30500   96.97380   79.78460   79.78460    1.68440    1.62870    1.62870    -999.25    -999.25    -999.25    -999.25    -999.25    1.78260 3845.53220
 9650.00000    1.50970    -999.25  727.49040    -999.25    -999.25    -999.25    -999.25    -999.25    1.37460    -999.25   97.92460   98.36630   97.92460   70.85800   70.85800    1.37460    1.29180    1.29180    -999.25    -999.25    -999.25    -999.25    -999.25    1.50970 3778.02980
 9700.00000    1.78090    -999.25  596.95850    -999.25    -999.25    -999.25    -999.25    -999.25    1.67520    -999.25   95.27270   95.96460   95.27270   84.20010   84.20010    1.67520    1.61320    1.61320    -999.25    -999.25    -999.25    -999.25    -999.25    1.78090 3906.04540
 9750.00000    2.54610    -999.25  405.82450    -999.25    -999.25    -999.25    -999.25    -999.25    2.46410    -999.25   87.95500   89.88570   87.95500   74.41080   74.41080    2.46410    2.29990    2.29990    -999.25    -999.25    2.56880    -999.25    -999.25    2.54610 3880.73290
 9800.00000    2.33320    -999.25  481.74510    -999.25    -999.25    -999.25    -999.25    -999.25    2.07580    -999.25   89.95670   90.98240   89.95670   81.38410   81.38410    2.07580    1.97390    1.97390    -999.25    -999.25    2.40680    -999.25    -999.25    2.33320 3814.16770
 9850.00000    1.73160    -999.25  621.64990    -999.25    -999.25    -999.25    -999.25    -999.25    1.60860    -999.25   96.92270   97.55180   96.92270   76.42700   76.42700    1.60860    1.55520    1.55520    -999.25    -999.25    -999.25    -999.25    -999.25    1.73160 3898.80440
 9900.00000    1.78690    -999.25  603.05410    -999.25    -999.25    -999.25    -999.25    -999.25    1.65820    -999.25   95.12120   94.66250   95.12120   69.04630   69.04630    1.65820    1.60600    1.60600    -999.25    -999.25    -999.25    -999.25    -999.25    1.78690 3904.41460
 9950.00000    1.65330    -999.25  647.84890    -999.25    -999.25    -999.25    -999.25    -999.25    1.54360    -999.25   96.82080   97.41480   96.82080   73.03840   73.03840    1.54360    1.51210    1.51210    -999.25    -999.25    -999.25    -999.25    -999.25    1.65330 3869.22050
 10000.00000    1.83350    -999.25  590.76200    -999.25    -999.25    -999.25    -999.25    -999.25    1.69270    -999.25   92.85350   93.97180   92.85350   77.28400   77.28400    1.69270    1.63740    1.63740    -999.25    -999.25    -999.25    -999.25    -999.25    1.83350 3919.87130
 10050.00000    2.03130    -999.25  496.52880    -999.25    -999.25    -999.25    -999.25    -999.25    2.01400    -999.25   91.37190   92.07500   91.37190   72.87990   72.87990    2.01400    2.16720    2.16720    -999.25    -999.25    2.02470    -999.25    -999.25    2.03130 3882.42240
 10100.00000    1.83020    -999.25  567.56340    -999.25    -999.25    -999.25    -999.25    -999.25    1.76190    -999.25   95.94240   96.58270   95.94240   74.04470   74.04470    1.76190    1.67750    1.67750    -999.25    -999.25    -999.25    -999.25    -999.25    1.83020 3902.98050
 10150.00000    1.76390    -999.25  601.71060    -999.25    -999.25    -999.25    -999.25    -999.25    1.66190    -999.25   97.57120   96.86460   97.57120   72.69420   72.69420    1.66190    1.57630    1.57630    -999.25    -999.25    -999.25    -999.25    -999.25    1.76390 3949.26070
 10200.00000    1.86410    -999.25  545.16850    -999.25    -999.25    -999.25    -999.25    -999.25    1.83430    -999.25   94.44280   94.08820   94.44280   63.98280   63.98280    1.83430    1.78730    1.78730    -999.25    -999.25    -999.25    -999.25    -999.25    1.86410 3932.73830
 10250.00000    2.15830    -999.25  496.41630    -999.25    -999.25    -999.25    -999.25    -999.25    2.01440    -999.25   86.09790   86.24110   86.09790   70.03920   70.03920    2.01440    1.98050    1.98050    -999.25    -999.25    -999.25    -999.25    -999.25    2.15830 4061.45970
 10300.00000    2.05610    -999.25  500.72240    -999.25    -999.25    -999.25    -999.25    -999.25    1.99710    -999.25   92.96270   93.36120   92.96270   60.40910   60.40910    1.99710    1.88000    1.88000    -999.25    -999.25    2.01820    -999.25    -999.25    2.05610 3950.87300
 10350.00000    2.16450    -999.25  508.87100    -999.25    -999.25    -999.25    -999.25    -999.25    1.96510    -999.25   91.39340   91.39340   91.39340   68.68490   68.68490    1.96510    2.00520    2.00520    -999.25    -999.25    2.28640    -999.25    -999.25    2.16450 3995.72530
 10400.00000    2.19150    -999.25  470.14430    -999.25    -999.25    -999.25    -999.25    -999.25    2.12700    -999.25   94.36830   93.17990   94.36830   72.07360   72.07360    2.12700    1.96840    1.96840    -999.25    -999.25    2.11330    -999.25    -999.25    2.19150 4031.18040
 10450.00000    2.10540    -999.25  477.66540    -999.25    -999.25    -999.25    -999.25    -999.25    2.09350    -999.25   95.12660   93.96350   95.12660   57.71700   57.71700    2.09350    1.97660    1.97660    -999.25    -999.25    2.19230    -999.25    -999.25    2.10540 4029.59840
