~Version ---------------------------------------------------
VERS.      2.0 : CWLS log ASCII Standard -VERSION 2.0
WRAP.      YES : MULTIPLE LINES PER DEPTH STEP
CREA. 08/31/18 : LAS CREATION DATE
~Well ------------------------------------------------------
STRT.FT                 2300.0 : START DEPTH
STOP.FT                11300.0 : STOP DEPTH
STEP.FT               50.00000 : STEP LENGTH
NULL.                  -999.25 : NULL VALUE
COMP.         HUNT OIL COMPANY : COMPANY
WELL.          PIPHER L. A. #1 : WELL
FLD .                  WILDCAT : FIELD
LOC .                          : LOCATION
CNTY.                 GONZALES : COUNTY
STAT.                    TEXAS : STATE
CTRY. UNITED STATES OF AMERICA : COUNTRY
SRVC.             Schlumberger : SERVICE COMPANY
DATE.              06-May-1999 : LOGDATE
API .           42177320410000 : API NUMBER
UWI .           42177320410000 : UNIQUE WELL ID
SLAT.WGS84       29.2698822473 : SURFACE LATITUDE
SLON.WGS84      -97.7138948507 : SURFACE LONGITUDE
~Curve Information -----------------------------------------
DEPT    .FT    : DEPTH FEET
AHT10ED .OHMM  : 10 INCH RESISTIVITY TWO FOOT RESOLUTION FROM AIT LOG
AHT20ED .OHMM  : 20 INCH RESISTIVITY TWO FOOT RESOLUTION FROM AIT LOG
AHT30ED .OHMM  : 30 INCH RESISTIVITY TWO FOOT RESOLUTION FROM AIT LOG
AHT60ED .OHMM  : 60 INCH RESISTIVITY TWO FOOT RESOLUTION FROM AIT LOG
AHT90ED .OHMM  : 90 INCH RESISTIVITY TWO FOOT RESOLUTION FROM AIT LOG
CALWS   .IN    : CALIPER [DCALRED+BITED]
CONDWS  .MMHO  : CONDUCTIVITY [1000/DRESWS]
DCALRED .IN    : DIFFERENTIAL CALIPER FROM RES. LOG
DCORWS  .G/C3  : DENSITY CORRECTION [HDRAED]
DENWS   .G/C3  : BULK DENSITY [M=2.71 F=1.0] [CALCULATED FROM DPOLSWS]
DPHZLSED.V/V   : DENSITY POROSITY [M=2.71 F=1.0] FROM DENSITY LOG
DPOLSWS .V/V   : DENSITY POROSITY [M=2.71 F=1.0] [DPHZLSED]
DRESWS  .OHMM  : DEEP RESISTIVITY [AHT90ED]
DTLFED  .US/F  : DELTA TIME LONG SPACING FAR DETECTOR FROM SONIC LOG
DTLNED  .US/F  : DELTA TIME LONG SPACING NEAR DETECTOR FROM SONIC LOG
DTWS    .US/F  : DELTA TIME [DTLNED]
GRRED   .GAPI  : GAMMA RAY FROM RESISTIVITY LOG
GRWS    .GAPI  : GAMMA RAY [GRRED]
HDRAED  .G/C3  : DENSITY CORRECTION FROM DENSITY LOG
MRESWS  .OHMM  : MEDIUM RESISTIVITY [AHT30ED]
NPORLSED.V/V   : NEUTRON POROSITY LIMESTONE FROM DENSITY LOG
NPOLSWS .V/V   : NEUTRON POROSITY LIMESTONE [NPORLSED]
PEFWS   .B/E   : PHOTOELECTRIC FACTOR [PEFZED]
PEFZED  .B/E   : PHOTOELECTRIC FACTOR STANDARD RESOLUTION FROM DENSITY LOG
SPRED   .MV    : SPONTANEOUS POTENTIAL FROM RESISTIVITY LOG
SPWS    .MV    : SPONTANEOUS POTENTIAL [BASELINE 0 MV] [SPRED]
SRESWS  .OHMM  : SHALLOW RESISTIVITY [AHT10ED]
TENRED  .LBF   : TENSION FROM RESISTIVITY LOG
~Params ----------------------------------------------------
PD  .                     GL : PERMANENT DATUM
EPD .FT                  349 : ELEVATION PERMANENT DATUM
LMF .                     KB : LOG MEASURED FROM
DAPD.FT                 14.5 : FEET ABOVE PERMANENT DATUM
DMF .                     KB : DRILLING MEASURED FROM
EKB .FT                363.5 : KELLY BUSHING
EDF .FT                362.5 : DRILLING FLOOR
EGL .FT                  349 : GROUND LEVEL
DATE.               05/06/99 : RUN DATE
RUN .                      1 : RUN NUMBER
DD  .FT                11318 : DEPTH DRILLER
DL  .FT                11300 : DEPTH LOGGER
BLI .FT                11292 : BOTTOM LOG INTERVAL
TLI .FT                 2462 : TOP LOG INTERVAL
CS  .IN                9.625 : CASING SIZE
CBD .FT                 2469 : CASING BOTTOM DRILLER
CBL .FT                 2462 : CASING BOTTOM LOGGER
BS  .IN                 8.75 : BIT SIZE
BSD .FT                11318 : BIT SIZE AT DEPTH
DFT .              FRESH MUD : DRILLING FLUID TYPE
DFD .                   10.2 : DRILLING FLUID DENSITY
DFV .                     42 : DRILLING FLUID VISCOSITY
DFPH.                     11 : DRILLING FLUID PH
DFL .                      6 : DRILLING FLUID LOSS
MSS .              CIRC TANK : MUD SAMPLE SOURCE
RMS .OHMM              0.812 : RESISTIVITY MUD SAMPLE
MST .DEGF                 75 : MUD SAMPLE TEMPERATURE
RMF .OHMM               0.51 : RESISTIVITY MUD FILTRATE SAMPLE
MFST.DEGF                 75 : MUD FILTRATE SAMPLE TEMPERATURE
RMC .OHMM              1.218 : RESISTIVITY MUD CAKE
MCST.DEGF                 75 : MUD CAKE SAMPLE TEMPERATURE
MFSS.                     MP : MUD FILTRATE SAMPLE SOURCE
MCSS.                   CALC : MUD CAKE SAMPLE SOURCE
RMB .OHMM               0.28 : RESISTIVITY MUD AT BHT
TCS .HRS                1930 : TIME CIRCULATED STOPPED
TLAB.HRS                 630 : TIME LOGGER AT BOTTOM
LUN .                   2129 : LOGGING UNIT NUMBER
LUL .               VICTORIA : LOGGING UNIT LOCATION
ENGI.    VORIS WILBECK BOWEN : RECORDING ENGINEER
WITN.     SIMON SKILES BLACK : WITNESSED BY
CLNT.                A2DTECH : CLIENT CODE
ORIG.         1" 2" 5" PRINT : ORIGIN OF DATA
UWI .         42177320410000 : UNIQUE WELL ID
DICO. A2D Technologies, Inc. : DIGITIZING COMPANY
~Other -----------------------------------------------------
~ASCII -----------------------------------------------------
# ...
 8550.00000    8.39730   19.55300   11.27850   16.79680    7.16690   10.01630  139.53030    1.26630    0.00990    2.58570    0.07270    0.07270    7.16690   52.59040   52.26770   52.26770   21.31330   21.31330    0.00990   11.27850    0.04610    0.04610    5.62410    5.62410  -84.66200  -82.02040    8.39730 2612.62110
 8600.00000   31.69900   32.46880   30.82790   27.90610   25.07230    9.09180   39.88470    0.34180    0.00570    2.73090   -0.01220   -0.01220   25.07230   52.11500   51.81860   51.81860   24.88310   24.88310    0.00570   30.82790    0.02100    0.02100    4.58110    4.58110  -37.03950  -34.37980   31.69900 2624.35180
 8650.00000    5.55730    5.09840    4.93600    4.27850    3.99440    9.50480  250.35050    0.75480    0.00500    2.58070    0.07560    0.07560    3.99440   55.79870   55.46990   55.46990   18.28120   18.28120    0.00500    4.93600    0.05730    0.05730    5.01640    5.01640  -76.51090  -73.83310    5.55730 2660.00810
 8700.00000    3.63200    5.19310    3.11900    1.69200    1.55680    9.47370  642.34330    0.72370    0.02730    2.53150    0.10440    0.10440    1.55680   59.57020   59.18420   59.18420   20.00570   20.00570    0.02730    3.11900    0.08930    0.08930    4.84340    4.84340  -95.91680  -93.22090    3.63200 2654.65160
 8750.00000   24.03110   71.34720   38.64420   35.24940   48.39350   10.41090   20.66390    1.66090    0.00880    2.68330    0.01560    0.01560   48.39350   51.47450   50.57630   50.57630   25.34420   25.34420    0.00880   38.64420    0.01830    0.01830    4.90590    4.90590  -73.06470  -70.35060   24.03110 2691.87300
 8800.00000   76.34460  388.55150  390.56840  510.99300  226.77490   10.14560    4.40970    1.39560    0.15880    2.63950    0.04120    0.04120  226.77490   50.00820   49.47030   49.47030   43.46660   43.46660    0.15880  390.56840    0.03060    0.03060    4.89190    4.89190  -76.73370  -74.00150   76.34460 2703.67970
 8850.00000   50.71260   73.96210   60.43110   58.23030   87.01420    9.09000   11.49240    0.34000    0.00040    2.70710    0.00170    0.00170   87.01420   49.70350   49.42040   49.42040   50.83070   50.83070    0.00040   60.43110    0.01870    0.01870    4.93290    4.93290  -30.10320  -27.35290   50.71260 2719.53150
 8900.00000    1.64770    1.84710    1.86160    1.73070    1.95340   16.14040  511.92790    7.39040    0.18310    2.30320    0.23790    0.23790    1.95340  100.31570  101.45980  101.45980   71.05950   71.05950    0.18310    1.86160    0.39200    0.39200    3.99350    3.99350   -8.79230   -6.55210    1.64770 2721.24950
 8950.00000    1.53760    1.94410    1.70960    1.60810    1.82260   16.06360  548.66670    7.31360    0.15200    2.29100    0.24500    0.24500    1.82260   82.18860   83.80740   83.80740   75.75500   75.75500    0.15200    1.70960    0.35980    0.35980    4.38230    4.38230   -5.96640   -4.68630    1.53760 2783.00170
 9000.00000    3.75300    7.62160    6.00860    4.98320    9.52150   11.49290  105.02550    2.74290    0.16830    2.48150    0.13360    0.13360    9.52150   77.71310   72.53740   72.53740   68.55740   68.55740    0.16830    6.00860    0.17450    0.17450    3.90360    3.90360   -1.98070   -1.66070    3.75300 2782.53100
 9050.00000    2.80570    3.27600    3.36910    3.09840    3.69370   15.39760  270.73120    6.64760    0.19910    2.33400    0.21990    0.21990    3.69370   85.47360   84.36390   84.36390   74.98700   74.98700    0.19910    3.36910    0.32240    0.32240    4.38010    4.38010   -1.27300   -1.91300    2.80570 2764.22920
 9100.00000    5.00310    9.27370    6.26340    5.51480    8.18060   12.34810  122.24040    3.59810    0.08840    2.57610    0.07830    0.07830    8.18060   86.68060   85.70870   85.70870   73.29350   73.29350    0.08840    6.26340    0.19050    0.19050    3.28820    3.28820   -6.06380   -7.45150    5.00310 2787.52370
 9150.00000    3.91000   11.48820    8.85420    6.60190    9.50970   10.90700  105.15580    2.15700    0.11490    2.61830    0.05360    0.05360    9.50970   70.23540   66.55640   66.55640   65.56250   65.56250    0.11490    8.85420    0.12230    0.12230    3.85670    3.85670   -3.24600   -4.67010    3.91000 2783.04640
 9200.00000   28.93490  169.21920   43.49540   34.67780   87.62590   10.47410   11.41220    1.72410    0.07570    2.74040   -0.01780   -0.01780   87.62590   49.91250   46.84020   46.84020   29.37460   29.37460    0.07570   43.49540    0.00150    0.00150    4.95980    4.95980  -23.26550  -24.72610   28.93490 2831.45310
 9250.00000   19.25420   27.92830   25.10070   21.52810   31.84420   10.91760   31.40290    2.16760    0.16630    2.51730    0.11270    0.11270   31.84420   50.28200   49.99310   49.99310   32.61300   32.61300    0.16630   25.10070    0.02880    0.02880    4.66860    4.66860  -36.15440  -37.65140   19.25420 2833.77510
 9300.00000  223.59430 1814.80740  404.29010  333.90590 1398.91420   11.13940    0.71480    2.38940    0.27310    2.67770    0.01890    0.01890 1398.91420   48.72000   48.15020   48.15020   30.41630   30.41630    0.27310  404.29010    0.03670    0.03670    5.14760    5.14760  -58.67140  -60.20490  223.59430 2829.93730
 9350.00000  187.98610  733.32170  373.41160  295.71430 1936.55290   12.45070    0.51640    3.70070    0.11780    2.36000    0.20470    0.20470 1936.55290   49.76810   49.38920   49.38920   28.16910   28.16910    0.11780  373.41160    0.02480    0.02480    5.97990    5.97990  -56.46280  -58.03270  187.98610 2875.37700
 9400.00000  303.10650  145.21560  645.75080  111.13820   72.71430   13.01140   13.75250    4.26140    0.09640    2.39160    0.18620    0.18620   72.71430   47.97150   47.67090   47.67090   28.79920   28.79920    0.09640  645.75080    0.02690    0.02690    7.65800    7.65800  -53.98590  -55.59230  303.10650 2922.45070
 9450.00000   13.21840  178.61960   37.47960   18.68850   24.66970    9.62860   40.53560    0.87860    0.12350    2.83060   -0.07050   -0.07050   24.66970   46.25300   45.89700   45.89700   22.26410   22.26410    0.12350   37.47960    0.03740    0.03740    3.96110    3.96110  -85.18490  -86.82770   13.21840 2924.56540
 9500.00000   19.82330   21.61240   16.41180   14.89600   12.71490    9.60470   78.64790    0.85470    0.05680    2.67680    0.01940    0.01940   12.71490   50.07170   49.24780   49.24780   19.42410   19.42410    0.05680   16.41180    0.07470    0.07470    3.99610    3.99610  -90.37890  -92.05820   19.82330 2916.79960
 9550.00000    7.40270   10.33180    6.45180    5.57690    4.09730   10.39930  244.06320    1.64930    0.03070    2.69360    0.00960    0.00960    4.09730   52.83520   52.34590   52.34590   26.02240   26.02240    0.03070    6.45180    0.08690    0.08690    3.26060    3.26060  -95.42230  -97.13800    7.40270 2937.89500
 9600.00000   20.31090   13.72980   15.15980    7.60610    7.99650   10.87740  125.05470    2.12740    0.10630    2.76710   -0.03340   -0.03340    7.99650   51.38650   50.71050   50.71050   23.79410   23.79410    0.10630   15.15980    0.08750    0.08750    3.37990    3.37990  -85.68560  -87.43780   20.31090 3006.25390
 9650.00000    4.78110   13.67910    8.14580    6.58240   11.29510   11.06160   88.53400    2.31160    0.03660    2.72470   -0.00860   -0.00860   11.29510   53.69400   52.97250   52.97250   39.79060   39.79060    0.03660    8.14580    0.08990    0.08990    3.36910    3.36910  -61.65420  -63.44280    4.78110 3707.94210
 9700.00000   24.07060  134.49540   53.23630   27.44620   69.62960   10.56140   14.36170    1.81140    0.00690    2.76300   -0.03100   -0.03100   69.62960   45.81720   45.53170   45.53170   21.49290   21.49290    0.00690   53.23630    0.06400    0.06400    3.37540    3.37540  -89.44990  -91.27500   24.07060 3693.10740
 9750.00000    7.36230    9.83290    9.26930    8.69690   10.89500   10.96170   91.78520    2.21170    0.14340    2.79460   -0.04950   -0.04950   10.89500   52.88480   52.38940   52.38940   34.69930   34.69930    0.14340    9.26930    0.08860    0.08860    3.01480    3.01480  -61.31450  -63.17600    7.36230 3751.70240
