~Version ---------------------------------------------------
VERS. 2.0 : CWLS log ASCII Standard -VERSION 2.0
WRAP.  NO : ONE LINE PER DEPTH STEP
~Well ------------------------------------------------------
STRT.F                        3850.0 : START DEPTH
STOP.F                        8250.0 : STOP DEPTH
STEP.F                      50.00000 : STEP LENGTH
NULL.                        -999.25 : NULL VALUE
COMP. COLUMBIA GAS DEVELOPMENT CORP. : COMPANY
WELL.     MARION J. FILIPPONE FEE #3 : WELL
FLD .                       GIDDINGS : FIELD
LOC .                                : LOCATION
CNTY.                       BURLESON : COUNTY
STAT.                          TEXAS : STATE
CTRY.       UNITED STATES OF AMERICA : COUNTRY
SRVC.                   Schlumberger : SERVICE COMPANY
DATE.                    23-Jun-1979 : LOGDATE
API .                 42051303970000 : API NUMBER
UWI .                 42051303970000 : UNIQUE WELL ID
SLAT.WGS84             30.4270780332 : SURFACE LATITUDE
SLON.WGS84            -96.7155435742 : SURFACE LONGITUDE
~Curve Information -----------------------------------------
DEPT.F                 : 
DPHI.DEC  45 890 10 00 : DENSITY POROSITY LIMESTONE
NPHI.DEC  42 890 01 00 : NEUTRON POROSITY LIMESTONE
GRD .GAPI 42 310 01 00 : GAMMA RAY
CALD.IN   45 280 60 00 : CALIPER FDC LOG
CORR.G/C3 45 356 01 00 : DENSITY CORRECTION
RHOB.G/C3 45 350 01 00 : BULK DENSITY
DT  .US/F 60 520 00 00 : INTERVAL TRANSIT TIME
ILD .OHMM 07 120 46 00 : INDUCTION LOG DEEP
CALR.IN   07 280 01 00 : CALIPER FROM RESISTIVITY
ILM .OHMM 07 120 44 00 : INDUCTION LOG MEDIUM
SFL .OHMM 07 220 01 00 : SHALLOW FOCUSED LOG RESISTIVITY
SPR .MV   07 010 01 00 : SPONTANEOUS POTENTIAL FROM RES.
~Params ----------------------------------------------------
PD  .                     GL : PERMANENT DATUM
EPD .FT                  360 : ELEVATION PERMANENT DATUM
LMF .                     KB : LOG MEASURED FROM
DAPD.FT                   15 : FEET ABOVE PERMANENT DATUM
DMF .                     KB : DRILLING MEASURED FROM
EKB .FT                  375 : KELLY BUSHING
EDF .FT                  374 : DRILLING FLOOR
EGL .FT                  360 : GROUND LEVEL
DATE.               06/23/79 : RUN DATE
RUN .                      2 : RUN NUMBER
DD  .FT                 8275 : DEPTH DRILLER
DL  .FT                 8284 : DEPTH LOGGER
BLI .FT                 8277 : BOTTOM LOG INTERVAL
TLI .FT                 7673 : TOP LOG INTERVAL
CS  .IN                10.75 : CASING SIZE
BS  .IN                9.875 : BIT SIZE
BSD .FT                 8275 : BIT SIZE AT DEPTH
DFT .                  BENEX : DRILLING FLUID TYPE
DFD .                    9.4 : DRILLING FLUID DENSITY
DFV .                     38 : DRILLING FLUID VISCOSITY
DFPH.                    9.5 : DRILLING FLUID PH
DFL .                      7 : DRILLING FLUID LOSS
MSS .                    PIT : MUD SAMPLE SOURCE
RMS .OHMM               2.31 : RESISTIVITY MUD SAMPLE
MST .DEGF                 75 : MUD SAMPLE TEMPERATURE
RMF .OHMM                1.8 : RESISTIVITY MUD FILTRATE SAMPLE
MFST.DEGF                 75 : MUD FILTRATE SAMPLE TEMPERATURE
RMC .OHMM               3.45 : RESISTIVITY MUD CAKE
MCST.DEGF                 75 : MUD CAKE SAMPLE TEMPERATURE
MFSS.                      M : MUD FILTRATE SAMPLE SOURCE
MCSS.                      C : MUD CAKE SAMPLE SOURCE
RMB .OHMM               1.02 : RESISTIVITY MUD AT BHT
TCS .HRS                1530 : TIME CIRCULATED STOPPED
TLAB.HRS                2100 : TIME LOGGER AT BOTTOM
LUN .                   8101 : LOGGING UNIT NUMBER
LUL .                BRENHAM : LOGGING UNIT LOCATION
ENGI.                   EAST : RECORDING ENGINEER
WITN.                  ONEAL : WITNESSED BY
CLNT.                A2DTECH : CLIENT CODE
ORIG.            2" 5" PRINT : ORIGIN OF DATA
UWI .         42051303970000 : UNIQUE WELL ID
DICO. A2D Technologies, Inc. : DIGITIZING COMPANY
~Other -----------------------------------------------------
~ASCII -----------------------------------------------------
# ...
 6650.00000    0.06970    0.08150   59.79750    8.23570   -0.00810    2.61020   71.76350    4.00000   10.86820    4.65180    4.92510  -41.15210
 6700.00000    0.08190    0.09070   43.26920    8.07150   -0.01030    2.57180   70.53800    4.90250   10.42350    5.12580    5.60250  -46.94100
 6750.00000    0.08300    0.14960   72.13890    8.18410    0.00350    2.60200   82.85050    2.72290   10.48930    2.82250    3.04620  -35.04980
 6800.00000    0.12830    0.24680   87.91310   10.37490    0.09760    2.51000   93.72430    1.52960   12.96460    1.80730    1.96040  -39.76510
 6850.00000    0.13170    0.21970   94.99210    9.25440    0.08620    2.52730   87.47550    1.96740   11.51670    2.30660    2.41100  -37.81070
 6900.00000    0.10370    0.18870   91.06930    9.08180    0.05340    2.52300   84.74940    2.30510   12.28590    2.60960    2.77850  -36.93720
 6950.00000    0.07400    0.13870   83.99540    8.90510   -0.00490    2.58610   78.46080    3.25960   11.61960    3.93780    4.31420  -33.34320
 7000.00000    0.10760    0.23240   94.15560    9.99420    0.07330    2.52040   89.95010    2.00010   12.80430    2.29570    2.48030  -35.89630
 7050.00000    0.05770    0.12040   74.72840    9.24810    0.01320    2.59320   80.42730    2.64370   11.89180    3.09750    3.92020  -34.84430
 7100.00000    0.17140    0.26170  101.31300   12.00430    0.09680    2.46900   93.58690    1.69560   14.41680    1.99490    2.19930  -34.52410
 7150.00000    0.12430    0.25590   97.35410   12.13210    0.07140    2.51980   91.41750    1.80950   14.39860    2.04890    2.08070  -36.76960
 7200.00000    0.10630    0.25020  101.91250   11.76840    0.05810    2.55960   90.06780    1.97340   14.45160    2.34000    2.52270  -33.90350
 7250.00000    0.09820    0.22880   96.42930   11.78210    0.07450    2.60670   89.26440    2.02920   14.08320    2.37930    2.66420  -33.37590
 7300.00000    0.11930    0.24300  100.44530   11.82670    0.10280    2.55660   90.30790    1.92010   14.16530    2.28650    2.55150  -33.80310
 7350.00000    0.07630    0.08710   46.95260    8.61760    0.00960    2.64790   67.28770    4.75030   12.53660    5.33920    6.50000  -36.41670
 7400.00000    0.05410    0.07020   51.30590    8.95680    0.03650    2.62000   69.02500    5.41380   12.37760    5.71040    4.77700  -39.73000
 7450.00000    0.03190    0.03820   32.12180    9.26760   -0.00790    2.64760   61.15450    9.02850   12.90560   10.65370   11.23450  -39.78250
 7500.00000    0.04590    0.06840   52.43770    9.46150    0.02580    2.60340   68.27700    5.92230   12.36550    7.02920    6.41120  -39.96850
 7550.00000    0.04580    0.04080   31.70740    9.61170   -0.00750    2.62250   63.39270    7.57230   12.77380    8.42670    9.84610  -43.11850
 7600.00000    0.04640    0.04390   38.94610    9.08500    0.00350    2.62050   63.08170    5.84330   12.35730    7.04710    7.72520  -44.37110
 7650.00000    0.06590    0.03980   26.95530    8.31600    0.00220    2.61630   61.08130   15.23930   11.23550   28.35830   36.43260  -50.67190
 7700.00000    0.23500    0.06630   43.01390    8.14300   -0.00330    2.52960   65.15740   21.76920   10.18750   22.64220   24.38420  -47.26570
 7750.00000    0.07670    0.08310   50.35910    8.08920   -0.00790    2.57690   64.97590   14.85590   10.02270   18.13790   31.84390  -43.18020
 7800.00000    0.07450    0.06850   40.61040    7.84860   -0.00520    2.58370   67.27400   21.73980    9.64640   24.96350   23.03650  -44.03470
 7850.00000    0.13790    0.32950  111.83080    7.81600    0.06210    2.58100  100.02260    1.29010    9.65490    1.56340    1.93900  -35.97240
 7900.00000    0.10430    0.32860  123.00160    7.84490    0.05290    2.54580   98.61810    1.47730    9.76090    1.73140    2.09510  -40.52080
 7950.00000    0.12530    0.26240  104.38390   10.03390    0.13390    2.48280   93.60460    3.18610    9.74280    -999.25    4.70860  -16.98130
 8000.00000    0.11450    0.21920  123.43300    8.35110   -0.00560    2.51000   87.81450    9.25890    9.02170    -999.25   16.85050  -12.62050
 8050.00000    0.10390    0.32620  112.64190   10.96390    0.15240    2.52570   99.53280    2.91600   10.21190    -999.25    6.03450  -21.63830
 8100.00000    0.12190    0.29050  131.58550    9.71210    0.08550    2.50310   98.30110    2.64920    9.57000    -999.25    3.79890  -23.44630
 8150.00000    0.02110    0.01320   24.51130    7.89840    0.00100    2.67540   55.88220   23.61690    8.48260    -999.25   38.43150  -33.79280
 8200.00000    0.01630    0.02350   42.16220    7.79300   -0.00860    2.68460   56.16170   11.57470    8.23900    -999.25   18.47650  -28.82680
 8250.00000    0.01220    0.00730   20.11510    7.44900    0.01120    2.69340    -999.25   29.85820    8.19090    -999.25   53.35620  -55.66590
