~Version ---------------------------------------------------
VERS. 2.0 : CWLS log ASCII Standard -VERSION 2.0
WRAP. YES : MULTIPLE LINES PER DEPTH STEP
~Well ------------------------------------------------------
STRT.FT                  2700.0 : START DEPTH
STOP.FT                  7350.0 : STOP DEPTH
STEP.FT                50.00000 : STEP LENGTH
NULL.                   -999.25 : NULL VALUE
COMP. EVERGREEN OIL CORPORATION : COMPANY
WELL.         NORMAN BARNETT #1 : WELL
FLD .                        WC : FIELD
LOC .                           : LOCATION
CNTY.                  GONZALES : COUNTY
STAT.                     TEXAS : STATE
CTRY.  UNITED STATES OF AMERICA : COUNTRY
SRVC.              Schlumberger : SERVICE COMPANY
DATE.               09-Apr-1981 : LOGDATE
API .            42177308300000 : API NUMBER
UWI .            42177308300000 : UNIQUE WELL ID
SLAT.WGS84        29.3371011395 : SURFACE LATITUDE
SLON.WGS84       -97.6113826614 : SURFACE LONGITUDE
~Curve Information -----------------------------------------
DEPT    .FT    : DEPTH FEET
CALWS   .IN    : CALIPER [DCALED+7.875]
CONDWS  .MMHO  : CONDUCTIVITY [1000/DRESWS]
DCALRED .IN    : DIFFERENTIAL CALIPER FROM RESISTIVITY LOG
DCORWS  .G/C3  : DENSITY CORRECTION [DRHOED]
DENWS   .G/C3  : BULK DENSITY [CALCULATED FROM DPHISSED <6790F> DPHILSED]
DPHILSED.V/V   : DENSITY POROSITY [M=2.71 F=1.0] FROM DENSITY LOG
DPHISSED.V/V   : DENSITY POROSITY [M=2.68 F=1.0] FROM DENSITY LOG
DPOWS   .V/V   : DENSITY POROSITY [M=2.71 F=1.0] [CALCULATED FROM DENWS]
DRESWS  .OHMM  : DEEP RESISTIVITY [ILDED]
DRHOED  .G/C3  : DENSITY CORRECTION FROM DENSITY LOG
GRRED   .GAPI  : GAMMA RAY FROM RESISTIVITY LOG
GRWS    .GAPI  : GAMMA RAY [GRRED, CSG ABOVE 2671F]
ILDED   .OHMM  : INDUCTION LOG DEEP RESISTIVITY
ILMED   .OHMM  : INDUCTION LOG MEDIUM RESISTIVITY
MRESWS  .OHMM  : MEDIUM RESISTIVITY [ILMED]
NPHILSED.V/V   : NEUTRON POROSITY LIMESTONE FROM DENSITY LOG
NPHISSED.V/V   : NEUTRON POROSITY SANDSTONE FROM DENSITY LOG
NPOWS   .V/V   : NEUTRON POROSITY LIMESTONE [CONVERTED NPHISSED TO LIMESTONE SPL WITH NPHILSED @6790F]
SFLUED  .OHMM  : SPHERICALLY FOCUSED LOG RESISTIVITY
SPRED   .MV    : SPONTANEOUS POTENTIAL FROM RESISTIVITY LOG
SPWS    .MV    : SPONTANEOUS POTENTIAL [BASELINE 0 MV] [SPRED]
SRESWS  .OHMM  : SHALLOW RESISTIVITY [SFLUED]
TENRED  .LBF   : TENSION FROM RESISTIVITY LOG
~Params ----------------------------------------------------
PD  .                     GL : PERMANENT DATUM
EPD .FT                  296 : ELEVATION PERMANENT DATUM
DAPD.FT                   12 : FEET ABOVE PERMANENT DATUM
EKB .FT                  308 : KELLY BUSHING
EDF .FT                  307 : DRILLING FLOOR
EGL .FT                  296 : GROUND LEVEL
DATE.               04/09/81 : RUN DATE
RUN .                      1 : RUN NUMBER
DD  .FT                 7394 : DEPTH DRILLER
DL  .FT                 7406 : DEPTH LOGGER
BLI .FT                 7399 : BOTTOM LOG INTERVAL
TLI .FT                 2672 : TOP LOG INTERVAL
CS  .IN                8.625 : CASING SIZE
CBD .FT                 2675 : CASING BOTTOM DRILLER
CBL .FT                 2672 : CASING BOTTOM LOGGER
BS  .IN                7.875 : BIT SIZE
BSD .FT                 7394 : BIT SIZE AT DEPTH
DFT .          POLYMER ASTRA : DRILLING FLUID TYPE
DFD .                    9.3 : DRILLING FLUID DENSITY
DFV .                     36 : DRILLING FLUID VISCOSITY
DFPH.                   10.2 : DRILLING FLUID PH
DFL .                    8.5 : DRILLING FLUID LOSS
MSS .               CIRC PIT : MUD SAMPLE SOURCE
RMS .OHMM               2.32 : RESISTIVITY MUD SAMPLE
MST .FT                   75 : MUD SAMPLE TEMPERATURE
RMF .OHMM               2.94 : RESISTIVITY MUD FILTRATE SAMPLE
MFST.FT                   75 : MUD FILTRATE SAMPLE TEMPERATURE
RMC .OHMM               3.48 : RESISTIVITY MUD CAKE
MCST.FT                   75 : MUD CAKE SAMPLE TEMPERATURE
MFSS.                      M : MUD FILTRATE SAMPLE SOURCE
RMB .OHMM               1.02 : RESISTIVITY MUD AT BHT
TCS .HRS                 400 : TIME CURCULATED STOPPED
TLAB.HRS                 930 : TIME LOGGER AT BOTTOM
LUN .                   3005 : LOGGING UNIT NUMBER
LUL .               VICTORIA : LOGGING UNIT LOCATION
ENGI.              BENAVIDES : RECORDING ENGINEER
WITN.                   HERD : WITNESSED BY
CLNT.                A2DTECH : CLIENT CODE
ORIG.        0.5" 2.5" PRINT : ORIGIN OF DATA
UWI .         42177308300000 : UNIQUE WELL ID
DICO. A2D Technologies, Inc. : DIGITIZING COMPANY
~Other -----------------------------------------------------
~ASCII -----------------------------------------------------
# ...
 5800.00000   10.92350  696.81560    3.04850    0.09930    2.44010    -999.25    0.14280    0.15780    1.43510    0.09930   90.62140   90.62140    1.43510    1.60670    1.60670    -999.25    0.31840    0.27450    1.84990   -9.48300   -8.20730    1.84990 2656.96750
 5850.00000   10.68970  713.11420    2.81470    0.09860    2.35260    -999.25    0.19490    0.20900    1.40230    0.09860   92.06680   92.06680    1.40230    1.49630    1.49630    -999.25    0.38180    0.33860    1.54500  -10.78340   -9.56060    1.54500 2722.83200
 5900.00000   10.15020  673.53670    2.27520    0.10100    2.31490    -999.25    0.21730    0.23100    1.48470    0.10100   87.60770   87.60770    1.48470    1.62020    1.62020    -999.25    0.36280    0.31930    1.80720   -9.59950   -8.42950    1.80720 2700.38820
 5950.00000    9.85440  643.95650    1.97940    0.10100    2.44870    -999.25    0.13770    0.15280    1.55290    0.10100   82.75990   82.75990    1.55290    1.69210    1.69210    -999.25    0.36270    0.31920    1.94500   -7.51660   -6.39940    1.94500 2745.75590
 6000.00000    8.31210  457.31010    0.43710   -0.01770    2.47470    -999.25    0.12220    0.13760    2.18670   -0.01770   84.11050   84.11050    2.18670    2.52450    2.52450    -999.25    0.28890    0.24490    2.98370   -3.24240   -2.17800    2.98370 2779.17720
 6050.00000    9.48480  596.12520    1.60980    0.10030    2.43690    -999.25    0.14470    0.15970    1.67750    0.10030   87.15250   87.15250    1.67750    1.77390    1.77390    -999.25    0.37330    0.33000    1.86910   -5.92340   -4.90540    1.86910 2811.05470
 6100.00000    8.68530  569.31400    0.81030    0.03690    2.47350    -999.25    0.12290    0.13830    1.75650    0.03690   93.10720   93.10720    1.75650    1.98800    1.98800    -999.25    0.24330    0.19940    2.47480   -3.95370   -2.93570    2.47480 2833.99710
 6150.00000    9.47740  732.43970    1.60240    0.09260    2.41540    -999.25    0.15750    0.17230    1.36530    0.09260   88.44890   88.44890    1.36530    1.49060    1.49060    -999.25    0.29850    0.25450    1.63600   -7.91340   -6.89540    1.63600 2780.42070
 6200.00000    9.60900 1157.27340    1.73400    0.05390    2.19130    -999.25    0.29090    0.30330    0.86410    0.05390  102.36520  102.36520    0.86410    1.01280    1.01280    -999.25    0.36460    0.32110    1.01890   -5.71560   -4.69760    1.01890 2836.31540
 6250.00000   11.96470  872.37200    4.08970    0.10000    2.41150    -999.25    0.15980    0.17450    1.14630    0.10000  109.76190  109.76190    1.14630    1.24580    1.24580    -999.25    0.36420    0.32070    1.34440   -7.71590   -6.69790    1.34440 2814.65110
 6300.00000   13.62400 1052.29930    5.74900    0.09820    2.26250    -999.25    0.24850    0.26170    0.95030    0.09820   93.22520   93.22520    0.95030    1.04660    1.04660    -999.25    0.46660    0.42490    1.13560   -8.74210   -7.72410    1.13560 2817.89480
 6350.00000   10.64640  682.17480    2.77140    0.10010    2.45120    -999.25    0.13620    0.15140    1.46590    0.10010  109.65400  109.65400    1.46590    1.60910    1.60910    -999.25    0.33510    0.29130    1.70910   -8.14140   -7.12340    1.70910 2845.64330
 6400.00000   10.89260  740.63100    3.01760    0.10180    2.46700    -999.25    0.12680    0.14210    1.35020    0.10180  104.78600  104.78600    1.35020    1.48310    1.48310    -999.25    0.32870    0.28490    1.60630   -8.56110   -7.54310    1.60630 2852.40190
 6450.00000   10.82910  983.18750    2.95410    0.06020    2.42770    -999.25    0.15020    0.16510    1.01710    0.06020  107.04000  107.04000    1.01710    1.15430    1.15430    -999.25    0.34350    0.29980    1.27170   -6.78510   -5.76710    1.27170 2897.52490
 6500.00000   10.08480  778.81620    2.20980    0.06700    2.48160    -999.25    0.11810    0.13360    1.28400    0.06700   99.49220   99.49220    1.28400    1.42760    1.42760    -999.25    0.31280    0.26890    1.56080   -5.34510   -4.32710    1.56080 2877.61250
 6550.00000    9.36450  699.49630    1.48950    0.04300    2.47490    -999.25    0.12210    0.13750    1.42960    0.04300   98.50330   98.50330    1.42960    1.64230    1.64230    -999.25    0.29190    0.24790    1.76670   -3.26790   -2.24990    1.76670 2898.18160
 6600.00000    9.71780  764.11710    1.84280    0.04950    2.47450    -999.25    0.12230    0.13770    1.30870    0.04950  105.94400  105.94400    1.30870    1.44070    1.44070    -999.25    0.30410    0.26010    1.58900   -2.78080   -1.76280    1.58900 2897.07500
 6650.00000    9.87050  963.57680    1.99550    0.04690    2.45660    -999.25    0.13300    0.14820    1.03780    0.04690  120.61090  120.61090    1.03780    1.16480    1.16480    -999.25    0.32780    0.28400    1.26390   -1.97830   -0.96030    1.26390 2934.95900
 6700.00000   11.31800  781.55530    3.44300    0.05640    2.48550    -999.25    0.11580    0.13130    1.27950    0.05640   98.61230   98.61230    1.27950    1.43000    1.43000    -999.25    0.32050    0.27660    1.57260   -5.47620   -4.19560    1.57260 2944.81010
 6750.00000   13.11870  859.91920    5.24370    0.04340    2.45320    -999.25    0.13500    0.15020    1.16290    0.04340  107.06830  107.06830    1.16290    1.28120    1.28120    -999.25    0.35010    0.30650    1.43960   -9.43120   -7.85220    1.43960 2951.07640
 6800.00000   12.92270  996.81020    5.04770    0.05150    2.43880    0.15860    -999.25    0.15860    1.00320    0.05150  119.55980  119.55980    1.00320    1.12760    1.12760    0.30170    -999.25    0.30170    1.27050  -18.46080  -16.58340    1.27050 2980.03170
 6850.00000    9.74260  192.97570    1.86760   -0.00460    2.61240    0.05710    -999.25    0.05710    5.18200   -0.00460   45.14910   45.14910    5.18200    6.08500    6.08500    0.09620    -999.25    0.09620    6.80590  -19.08840  -16.91260    6.80590 2992.84640
 6900.00000    9.54730  205.95630    1.67230   -0.00840    2.59320    0.06830    -999.25    0.06830    4.85540   -0.00840   60.06390   60.06390    4.85540    5.16960    5.16960    0.11430    -999.25    0.11430    6.20700  -14.61630  -12.14210    6.20700 2986.63960
 6950.00000    8.87440  165.66170    0.99940   -0.00420    2.63370    0.04460    -999.25    0.04460    6.03640   -0.00420   38.80800   38.80800    6.03640    6.28300    6.28300    0.07790    -999.25    0.07790    5.19500  -16.75290  -13.98030    5.19500    -999.25
 7000.00000    8.59590  810.37280    0.72090    0.01240    2.49060    0.12830    -999.25    0.12830    1.23400    0.01240  219.89030  219.89030    1.23400    1.46410    1.46410    0.20630    -999.25    0.20630    1.88310  -10.98110   -7.91010    1.88310    -999.25
 7050.00000    8.80360  106.35470    0.92860   -0.00520    2.65250    0.03360    -999.25    0.03360    9.40250   -0.00520   36.90680   36.90680    9.40250   10.15610   10.15610    0.05930    -999.25    0.05930   14.02500  -19.89330  -16.52390   14.02500    -999.25
 7100.00000    8.74920  306.67320    0.87420   -0.00440    2.56050    0.08740    -999.25    0.08740    3.26080   -0.00440   63.28360   63.28360    3.26080    3.92040    3.92040    0.13270    -999.25    0.13270    5.27730  -18.64000  -14.97220    5.27730    -999.25
 7150.00000    8.87130  124.45090    0.99630    0.06190    2.65000    0.03510    -999.25    0.03510    8.03530    0.06190   49.51390   49.51390    8.03530   10.27880   10.27880    0.05660    -999.25    0.05660   20.29740  -18.58980  -14.62360   20.29740    -999.25
 7200.00000    9.14060   81.28230    1.26560    0.02610    2.62760    0.04820    -999.25    0.04820   12.30280    0.02610   24.31090   24.31090   12.30280   12.80120   12.80120    0.04030    -999.25    0.04030   11.83490  -22.30780  -18.04320   11.83490    -999.25
 7250.00000    8.59270  151.73820    0.71770   -0.01120    2.60280    0.06270    -999.25    0.06270    6.59030   -0.01120   83.65070   83.65070    6.59030    7.95810    7.95810    0.10650    -999.25    0.10650   18.64650   -9.63740   -5.07440   18.64650    -999.25
 7300.00000    8.49830   27.85350    0.62330   -0.00850    2.54210    0.09820    -999.25    0.09820   35.90210   -0.00850   80.81520   80.81520   35.90210   33.60360   33.60360    0.13350    -999.25    0.13350   66.16800   -8.81470   -4.20390   66.16800    -999.25
