~Version ---------------------------------------------------
VERS. 2.0 : CWLS log ASCII Standard -VERSION 2.0
WRAP. YES : MULTIPLE LINES PER DEPTH STEP
~Well ------------------------------------------------------
STRT.FT                  300.0 : START DEPTH
STOP.FT                14400.0 : STOP DEPTH
STEP.FT               50.00000 : STEP LENGTH
NULL.                  -999.25 : NULL VALUE
COMP.              CONOCO INC. : COMPANY
WELL.       JACQUELYN WOODS #1 : WELL
FLD .                  WILDCAT : FIELD
LOC .                          : LOCATION
CNTY.                ROBERTSON : COUNTY
STAT.                    TEXAS : STATE
CTRY. UNITED STATES OF AMERICA : COUNTRY
SRVC.                          : SERVICE COMPANY
DATE.                          : LOGDATE
API .           42395302880000 : API NUMBER
UWI .           42395302880000 : UNIQUE WELL ID
SLAT.WGS84       31.0997639251 : SURFACE LATITUDE
SLON.WGS84      -96.4923364329 : SURFACE LONGITUDE
~Curve Information -----------------------------------------
DEPT  .FT    : DEPTH
ACED  .US/F  : DELTA TIME
CALRED.IN    : CALIPER FROM RESISTIVITY LOG
RILMED.OHMM  : MEDIUM INDUCTION RESISTIVITY
RFOCED.OHMM  : SHALLOW FOCUSED RESISTIVITY
RILDED.OHMM  : DEEP INDUCTION RESISTIVITY
GRRED .GAPI  : GAMMA RAY FROM RESISTIVITY LOG
TENRED.LBS   : TENSION FROM RESISTIVITY LOG
SFLUED.OHMM  : SPHERICALLY FOCUSED RESISTIVITY
GRDED .GAPI  : GAMMA RAY FROM DENSITY LOG
CALDED.IN    : CALIPER FROM DENSITY LOG
DRHOED.G/C3  : DENSITY CORRECTION
NPHIED.V/V   : NEUTRON POROSITY
RHOBED.G/C3  : BULK DENSITY
TENDED.LBS   : TENSION FROM DENSITY LOG
SRESWS.OHMM  : SHALLOW RESISTIVITY (RFOC+SFLU)
CALWS .IN    : CALIPER
SPED  .MV    : SPONTANEOUS POTENTIAL (BASELINE -10 MV)
SPWS  .MV    : SPONTANEOUS POTENTIAL (BASELINE -10 MV)
DCORWS.G/C3  : DENSITY CORRECTION
GRWS  .GAPI  : GAMMA RAY
DRESWS.OHMM  : DEEP RESISTIVITY (RILD)
MRESWS.OHMM  : MEDIUM RESISTIVITY (RILM)
CONDWS.MMHO  : CONDUCTIVITY FROM DEEP RESISTIVITY
DENWS .G/C3  : BULK DENSITY
DPOWS .V/V   : DENSITY POROSITY (M=2.71 F=1)
NPOWS .V/V   : NEUTRON POROSITY
DTWS  .V/V   : DELTA TIME
~Params ----------------------------------------------------
EKB .F                 513.38 : KELLY BUSHING
EGL .F                 483.38 : ELEVATION GROUND LEVEL
EDF .F                 512.38 : ELEVATION DERRICK FLOOR
EPD .F                 483.38 : ELEVATION PERMANENT DATUM
TD  .F                12197.0 : TOTAL DEPTH
DATE.             17-MAR-1984 : DATE LOGGED
CLNT.                 A2DTECH : CLIENT CODE
SL  . 3400' FNEL & 3500' FNWL : SURFACE LOCATION
PD  .                      GL : PERMANENT DATUM
LMF .                      KB : LOG MEASURED FROM
DMF .                      KB : DRILLING MEASURED FROM
DAPD.F                     30 : FEET ABOVE PERMANENT DATUM
DD  .F                  12195 : DEPTH DRILLER
DL  .F                  12197 : DEPTH LOGGER
BLI .F                  12195 : BOTTOM LOG INTERVAL
TLI .F                  11950 : TOP LOG INTERVAL
CS1 .IN                13.375 : CASING SIZE
CBD1.         13.375" @ 5096' : CASING DRILLER 1
BS1 .IN                 12.25 : BIT SIZE
BSD1.F                  12195 : DEPTH DRILLED WITH BIT1
DFT .             GEL/CAUSTIC : TYPE FLUID IN HOLE
DFD .                     9.8 : DENSITY
DFV .                      44 : VISCOSITY
DFPH.                      11 : PH
DFL .                    11.2 : FLUID LOSS
MSS .                    TANK : SOURCE OF SAMPLE
RMS .OHMM                1.95 : RM
RMF .OHMM                1.35 : RMF
RMC .OHMM                2.53 : RMC
MFSS.                    MEAS : SOURCE RMF.
MCSS.                    MEAS : SOURCE RMC.
RMB .OHMM                0.59 : RM. AT BHT
BHT .F                    246 : BHT.
TCS .HRS                    6 : TIME CIRC. STOPPED
TLAB.HRS                    - : TIME LOGGER AT BOTTOM
LUN .                 HL 6304 : LOGGING UNIT NUMBER
LUL .                   BRYAN : LOGGING UNIT LOCATION
ENGI.               R.R. KIRK : RECORDED BY
WITN.            GALE CLAYTOR : WITNESSED BY
ORIG.                5" PRINT : ORIGIN OF DATA
UWI .          42395302880000 : UNIQUE WELL ID
DICO.  A2D TECHNOLOGIES, INC. : DIGITIZING COMPANY
~Other -----------------------------------------------------
# NPHI 890 01 (LIMESTONE)
~ASCII -----------------------------------------------------
# ...
 9400.00000   58.33700   14.33600   20.51400   21.48200   18.36400   23.73700    0.00000    -999.25   31.24500   13.77600   -0.06200    0.19320    2.44500    5.22250   21.48200   13.77600  -52.56680  -52.56680   -0.06200   23.73700   18.36400   20.51400   54.45440    2.44500    0.15500    0.19320   58.33700
 9450.00000   60.23900   14.39400   15.21300   12.97900   14.00700   50.07700    0.00000    -999.25   68.73200   14.43400   -0.03800    0.10730    2.55800    5.30270   12.97900   14.43400  -40.14590  -40.14590   -0.03800   50.07700   14.00700   15.21300   71.39290    2.55800    0.08890    0.10730   60.23900
 9500.00000   95.50700   14.28100   15.77100   28.99700   11.95600   24.36800    0.00000    -999.25   26.20000   14.05100   -0.02800    0.26600    2.47500    5.38280   28.99700   14.05100  -66.75510  -66.75510   -0.02800   24.36800   11.95600   15.77100   83.64000    2.47500    0.13740    0.26600   95.50700
 9550.00000   66.83100   14.27800   19.02500   24.41400   15.66600   20.67800    0.00000    -999.25   24.77300   14.49400   -0.02700    0.19600    2.45100    5.46300   24.41400   14.49400  -63.86320  -63.86320   -0.02700   20.67800   15.66600   19.02500   63.83250    2.45100    0.15150    0.19600   66.83100
 9600.00000   57.74400   14.13300   18.35700   19.40700   16.60600   48.43300    0.00000    -999.25   55.09900   13.67200   -0.07400    0.13000    2.53800    5.54310   19.40700   13.67200  -48.85140  -48.85140   -0.07400   48.43300   16.60600   18.35700   60.21920    2.53800    0.10060    0.13000   57.74400
 9650.00000   58.02700   14.25300   20.11700   23.88800   18.76300   29.79400    0.00000    -999.25   44.74000   13.76600   -0.03600    0.15900    2.50100    5.62330   23.88800   13.76600  -50.36950  -50.36950   -0.03600   29.79400   18.76300   20.11700   53.29640    2.50100    0.12220    0.15900   58.02700
 9700.00000   72.74000   14.10700   15.18800   26.66000   12.12800   18.88800   13.24300    -999.25   24.50100   14.37500   -0.04600    0.13500    2.47300    5.70340   26.66000   14.37500  -51.69460  -51.69460   -0.04600   18.88800   12.12800   15.18800   82.45380    2.47300    0.13860    0.13500   72.74000
 9750.00000   60.95500   14.24900   14.83500   18.05400   12.94800   40.35200    0.00000    -999.25   56.91500   14.91200   -0.02100    0.08960    2.50700    5.78360   18.05400   14.91200  -50.87580  -50.87580   -0.02100   40.35200   12.94800   14.83500   77.23200    2.50700    0.11870    0.08960   60.95500
 9800.00000   61.01600   14.19100   12.90700   23.23600   10.51500   25.42300    0.00000    -999.25   39.08900   15.05200    0.00800    0.04680    2.44200    5.86370   23.23600   15.05200  -60.04290  -60.04290    0.00800   25.42300   10.51500   12.90700   95.10220    2.44200    0.15670    0.04680   61.01600
 9850.00000   58.20000   14.03400   18.82600   24.91000   15.96300   27.08200    0.00000    -999.25   36.18200   14.86700   -0.05700    0.03690    2.53500    5.94390   24.91000   14.86700  -47.91710  -47.91710   -0.05700   27.08200   15.96300   18.82600   62.64490    2.53500    0.10230    0.03690   58.20000
 9900.00000   57.96000   13.85400   24.90000   31.45100   23.23600   24.74600    0.00000    -999.25   32.77300   13.84600   -0.02400    0.02340    2.49300    6.02400   31.45100   13.84600  -59.69120  -59.69120   -0.02400   24.74600   23.23600   24.90000   43.03670    2.49300    0.12690    0.02340   57.96000
 9950.00000   57.90100   13.70800   21.64200   23.07500   18.87900   34.51300    0.00000    -999.25   50.79900   14.56100   -0.00400    0.05810    2.54400    6.10420   23.07500   14.56100  -65.24940  -65.24940   -0.00400   34.51300   18.87900   21.64200   52.96890    2.54400    0.09710    0.05810   57.90100
 10000.00000   56.99500   13.72400   27.43500   30.54700   26.34200   17.71300    0.00000    -999.25   25.16300   14.55900   -0.04600    0.02800    2.50000    6.18440   30.54700   14.55900  -65.16950  -65.16950   -0.04600   17.71300   26.34200   27.43500   37.96220    2.50000    0.12280    0.02800   56.99500
 10050.00000   64.90700   14.28000   15.67500   18.98400   13.07200   28.99200    0.00000    -999.25   41.33200   15.52300    0.01300    0.06700    2.46600    6.26450   18.98400   15.52300  -58.10570  -58.10570    0.01300   28.99200   13.07200   15.67500   76.49940    2.46600    0.14270    0.06700   64.90700
 10100.00000   60.16700   14.10800   16.83400   21.09900   16.12600   20.52100    0.00000    -999.25   28.97400   14.53500   -0.02300    0.04600    2.47600    6.34470   21.09900   14.53500  -54.52180  -54.52180   -0.02300   20.52100   16.12600   16.83400   62.01170    2.47600    0.13680    0.04600   60.16700
 10150.00000   57.70000   14.04500   20.12000   21.70600   19.14700   24.27600    0.00000    -999.25   30.90400   14.46900   -0.04900    0.03670    2.50000    6.42480   21.70600   14.46900  -64.26490  -64.26490   -0.04900   24.27600   19.14700   20.12000   52.22750    2.50000    0.12280    0.03670   57.70000
 10200.00000   55.59800   14.13500   21.23100   25.49000   23.56000   31.05300    0.00000    -999.25   46.70700   14.61600   -0.07700    0.06020    2.53900    6.50500   25.49000   14.61600  -57.40110  -57.40110   -0.07700   31.05300   23.56000   21.23100   42.44480    2.53900    0.10000    0.06020   55.59800
 10250.00000   59.86100   14.10400   18.01300   19.32700   15.42600   29.62400    0.00000    -999.25   39.39300   14.58700   -0.02700    0.04700    2.53900    6.58510   19.32700   14.58700  -59.62820  -59.62820   -0.02700   29.62400   15.42600   18.01300   64.82560    2.53900    0.10000    0.04700   59.86100
 10300.00000   57.53500   13.77700   24.27200   26.15400   22.92500   28.22800    0.00000    -999.25   45.55900   14.26100    0.06500    0.05400    2.60300    6.66530   26.15400   14.26100  -54.03940  -54.03940    0.06500   28.22800   22.92500   24.27200   43.62050    2.60300    0.06260    0.05400   57.53500
 10350.00000   57.22000   14.14200   19.87300   23.16000   16.84100   38.92200    0.00000    -999.25   43.61200   14.48200   -0.00500    0.04200    2.54500    6.74460   23.16000   14.48200  -46.19650  -46.19650   -0.00500   38.92200   16.84100   19.87300   59.37890    2.54500    0.09650    0.04200   57.22000
 10400.00000   58.56300   14.08400   17.37400   22.76700   16.44100   33.12400    0.00000    -999.25   47.21600   14.48200    0.10800    0.05900    2.56500    6.82480   22.76700   14.48200  -44.21370  -44.21370    0.10800   33.12400   16.44100   17.37400   60.82360    2.56500    0.08480    0.05900   58.56300
 10450.00000   72.19800   14.23300   14.41700   14.31700   12.41600   27.79000    0.00000    -999.25   38.10400   14.46000   -0.03200    0.04400    2.55700    6.90490   14.31700   14.46000  -62.38580  -62.38580   -0.03200   27.79000   12.41600   14.41700   80.54120    2.55700    0.08950    0.04400   72.19800
 10500.00000   59.03800   14.43400   11.14800   20.23200    9.70700   24.65000    0.00000    -999.25   35.92600   14.65900   -0.02100    0.03880    2.54800    6.98510   20.23200   14.65900  -48.11800  -48.11800   -0.02100   24.65000    9.70700   11.14800  103.01840    2.54800    0.09470    0.03880   59.03800
 10550.00000   57.89800   14.49900   19.47700   27.81700   18.34200   36.36500    0.00000    -999.25   33.56000   14.87300   -0.03100    0.02900    2.54000    7.06520   27.81700   14.87300  -45.30510  -45.30510   -0.03100   36.36500   18.34200   19.47700   54.51970    2.54000    0.09940    0.02900   57.89800
 10600.00000   57.52300   14.24700   26.59300   31.94700   25.95700   32.35600    0.00000    -999.25   33.28100   14.72000   -0.04800    0.03100    2.55000    7.14540   31.94700   14.72000  -59.49430  -59.49430   -0.04800   32.35600   25.95700   26.59300   38.52530    2.55000    0.09360    0.03100   57.52300
 10650.00000   59.94000   14.34000   10.26700   13.20700   10.84500   30.98500    0.00000    -999.25   38.08400   14.99700   -0.00400    0.04200    2.56600    7.22560   13.20700   14.99700  -57.18840  -57.18840   -0.00400   30.98500   10.84500   10.26700   92.20840    2.56600    0.08420    0.04200   59.94000
