~Version ---------------------------------------------------
VERS. 2.0 : CWLS log ASCII Standard -VERSION 2.0
WRAP.  NO : ONE LINE PER DEPTH STEP
~Well ------------------------------------------------------
STRT.F                    3350.0 : START DEPTH
STOP.F                    8000.0 : STOP DEPTH
STEP.F                  50.00000 : STEP LENGTH
NULL.                    -999.25 : NULL VALUE
COMP. CHAMPLIN EXPLORATION, INC. : COMPANY
WELL.           JANECKA FELIX #1 : WELL
FLD .                   GIDDINGS : FIELD
LOC .                            : LOCATION
CNTY.                    FAYETTE : COUNTY
STAT.                      TEXAS : STATE
CTRY.   UNITED STATES OF AMERICA : COUNTRY
SRVC.               Schlumberger : SERVICE COMPANY
DATE.                29-Jun-1980 : LOGDATE
API .             42149305750000 : API NUMBER
UWI .             42149305750000 : UNIQUE WELL ID
SLAT.WGS84         29.8069279506 : SURFACE LATITUDE
SLON.WGS84        -97.1784857645 : SURFACE LONGITUDE
~Curve Information -----------------------------------------
DEPT   .F    0   1   0  0 : 1 MEASURED DEPTH
GRR    .GAPI 07 310 01 00 : GAMMA RAY FROM RESISTIVITY LOG
ILD    .OHMM 07 120 46 00 : INDUCTION DEEP RESISTIVITY
SPR    .MV   07 010 01 00 : SPONTANEOUS POTENTIAL FROM RESISTIVITY LOG
DCALR  .IN   07 280 01 00 : DIFFERENTIAL CALIPER FROM RESISTIVITY LOG
SFLU   .OHMM 07 220 01 00 : SHALLOW FOCUSED RESISTIVITY (UNAVERAGED)
ILM    .OHMM 07 120 44 00 : INDUCTION MEDIUM RESISTIVITY
DRHO   .G/C3 45 356 01 00 : BULK DENSITY CORRECTION
NPHI_LS.DEC  42 890 01 00 : NEUTRON POROSITY LIMESTONE
DPHI_LS.DEC  45 890 10 00 : DENSITY POROSITY LIMESTONE
~Params ----------------------------------------------------
PD  .                     GL : PERMANENT DATUM
EPD .FT                  365 : ELEVATION PERMANENT DATUM
LMF .                     KB : LOG MEASURED FROM
DMF .                     KB : DRILLING MEASURED FROM
EKB .FT                  382 : KELLY BUSHING
EDF .FT                  381 : DRILLING FLOOR
EGL .FT                  365 : GROUND LEVEL
DATE.               06/29/80 : RUN DATE
RUN .                      1 : RUN NUMBER
DD  .FT                 8060 : DEPTH DRILLER
DL  .FT                 8054 : DEPTH LOGGER
BLI .FT                 8048 : BOTTOM LOG INTERVAL
TLI .FT                 3347 : TOP LOG INTERVAL
CS  .IN                8.625 : CASING SIZE
CBD .FT                 3365 : CASING BOTTOM DRILLER
CBL .FT                 3347 : CASING BOTTOM LOGGER
BS  .IN                7.875 : BIT SIZE
BSD .FT                 8060 : BIT SIZE AT DEPTH
DFT .                 LIGNOS : DRILLING FLUID TYPE
DFD .                    9.3 : DRILLING FLUID DENSITY
DFV .                     10 : DRILLING FLUID VISCOSITY
DFPH.                     46 : DRILLING FLUID PH
DFL .                    6.1 : DRILLING FLUID LOSS
MSS .               CIRC PIT : MUD SAMPLE SOURCE
RMS .OHMM               1.19 : RESISTIVITY MUD SAMPLE
MST .DEGF                115 : MUD SAMPLE TEMPERATURE
RMF .OHMM               2.07 : RESISTIVITY MUD FILTRATE SAMPLE
MFST.DEGF                 85 : MUD FILTRATE SAMPLE TEMPERATURE
RMC .OHMM               1.75 : RESISTIVITY MUD CAKE
MCST.DEGF                115 : MUD CAKE SAMPLE TEMPERATURE
MFSS.                   MEAS : MUD FILTRATE SAMPLE SOURCE
MCSS.                   CALC : MUD CAKE SAMPLE SOURCE
TCS .HRS                  30 : TIME CIRCULATED STOPPED
TLAB.HRS                 630 : TIME LOGGER AT BOTTOM
LUN .                   8176 : LOGGING UNIT NUMBER
LUL .                BRANHAM : LOGGING UNIT LOCATION
ENGI.                 HARDER : RECORDING ENGINEER
WITN.              ROBERTSON : WITNESSED BY
CLNT.                A2DTECH : CLIENT CODE
ORIG.            2" 5" PRINT : ORIGIN OF DATA
UWI .         42149305750000 : UNIQUE WELL ID
DICO. A2D Technologies, Inc. : DIGITIZING COMPANY
~Other -----------------------------------------------------
~ASCII -----------------------------------------------------
 3350.00000   90.88450  526.53090    2.07280    1.81330    1.70620  893.11130    -999.25    -999.25    -999.25
 3400.00000   43.76280    2.72420  -39.11950    1.16880    5.73120    3.70570    -999.25    -999.25    -999.25
 3450.00000   55.51690    2.27350  -31.10670    0.72250    3.71870    2.88990    -999.25    -999.25    -999.25
 3500.00000   43.42520    2.89690  -24.67350    0.16270    6.09220    3.24920    -999.25    -999.25    -999.25
 3550.00000   56.36190    3.53430  -29.16590    0.15320    6.09710    4.36220    -999.25    -999.25    -999.25
 3600.00000   41.92350    4.26850    3.25510    0.60480    8.87160    4.92130    -999.25    -999.25    -999.25
 3650.00000   93.94330    1.99680   -2.71970    0.57570    2.64040    2.00050    -999.25    -999.25    -999.25
 3700.00000   47.51030    2.23920  -50.27530    0.35030    6.11600    2.97400    -999.25    -999.25    -999.25
 3750.00000   46.79540    2.29000  -44.08350    0.15710    5.96900    2.84580    -999.25    -999.25    -999.25
 3800.00000   77.74750    2.06390  -13.04840    1.02730    1.93940    2.11540    -999.25    -999.25    -999.25
 3850.00000   86.93370    2.14040  -11.82020    0.12840    2.38370    2.27370    -999.25    -999.25    -999.25
 3900.00000  104.07440    2.22440   -6.83140    0.43490    2.05700    2.41690    -999.25    -999.25    -999.25
 3950.00000   70.69060    2.80600  -29.22300    0.12520    3.88590    3.36370    -999.25    -999.25    -999.25
 4000.00000   48.57410    1.96900  -55.17730    0.13520    5.36840    2.55950    -999.25    -999.25    -999.25
 4050.00000   75.66270    2.03230  -56.64090    0.01200    5.69550    2.56650    -999.25    -999.25    -999.25
 4100.00000   42.15880    3.06480  -43.53190    0.28370    7.68780    4.18600    -999.25    -999.25    -999.25
 4150.00000   56.63400    1.94060  -58.25130    0.33920    4.95770    2.46630    -999.25    -999.25    -999.25
 4200.00000   32.99370    1.67240  -60.10450    0.21550    4.94100    2.15110    -999.25    -999.25    -999.25
 4250.00000   76.88720    3.05020    5.10360    1.78010    8.56140    2.89230    -999.25    -999.25    -999.25
 4300.00000   59.24160    2.34020  -46.22550    0.01590    5.74540    2.75550    -999.25    -999.25    -999.25
 4350.00000   80.50160    2.68860  -31.90270    0.17290    5.33650    3.38310    -999.25    -999.25    -999.25
 4400.00000   70.26540    3.06780  -39.03580    0.14800   11.57810    4.01620    -999.25    -999.25    -999.25
 4450.00000   59.36580    1.89040  -57.59590   -0.01540    6.31830    2.38370    -999.25    -999.25    -999.25
 4500.00000  107.46820    2.31280    4.13650    0.42840    2.22890    2.38280    -999.25    -999.25    -999.25
 4550.00000  113.08920    2.56660  -13.03960    0.51560    4.39210    2.88680    -999.25    -999.25    -999.25
 4600.00000  116.87760    2.39090    4.37960    1.30240    2.38300    2.49420    0.08990    0.36310    0.20840
 4650.00000  108.36890    2.60540  -31.70010    0.26880    5.84240    3.36920    0.04100    0.29790    0.25640
 4700.00000   90.66830    2.34030  -35.58640    0.40450    5.28940    2.97710    0.04770    0.28240    0.23630
 4750.00000   85.19280    2.39920  -50.90050    0.03530    6.91480    3.31670    0.03500    0.26580    0.24960
 4800.00000  102.46800    2.64330   -0.41960    1.09130    2.95350    2.74600    0.04960    0.28960    0.19160
 4850.00000  106.30330    2.32440    3.63740    1.64930    2.23450    2.40720    0.04680    0.28240    0.18650
 4900.00000  119.36270    2.29390    6.42130    1.66620    2.23560    2.29730    -999.25    -999.25    -999.25
 4950.00000  104.87900    2.26920    6.05060    2.48540    2.03030    2.20980    -999.25    -999.25    -999.25
 5000.00000  111.07720    2.01420    7.06720    2.07770    1.82180    1.93200    -999.25    -999.25    -999.25
 5050.00000  112.89950    1.67800    6.46590    2.88330    1.60140    1.63290    -999.25    -999.25    -999.25
 5100.00000  119.96350    1.54500    7.15450    2.79460    1.45620    1.50450    -999.25    -999.25    -999.25
 5150.00000  116.62700    1.54020    7.83740    2.42000    1.46450    1.49950    -999.25    -999.25    -999.25
 5200.00000  121.53500    1.46210    7.78820    2.22200    1.53040    1.50900    -999.25    -999.25    -999.25
 5250.00000  117.77600    1.53270    8.60420    2.10910    1.62260    1.57290    -999.25    -999.25    -999.25
 5300.00000  108.98640    1.51820    8.61480    2.01590    1.62890    1.59300    -999.25    -999.25    -999.25
 5350.00000  127.54750    1.39480    7.55320    2.12460    1.48380    1.44340    -999.25    -999.25    -999.25
 5400.00000  122.31970    1.47770    4.53120    2.38740    1.58080    1.51810    -999.25    -999.25    -999.25
 5450.00000  115.60620    1.07100    5.60050    2.16970    1.16790    1.07300    -999.25    -999.25    -999.25
 5500.00000  106.60830    1.07210    7.41370    2.81440    1.13740    1.09780    -999.25    -999.25    -999.25
 5550.00000  105.98380    1.08770    7.24660    2.45310    1.20340    1.14450    -999.25    -999.25    -999.25
 5600.00000   99.72660    1.25780    9.80760    1.61890    1.43670    1.34440    0.02740    0.27170    0.17450
 5650.00000   93.06140    1.53000    7.28290    1.65070    1.44200    1.48550    0.08300    0.26180    0.15270
 5700.00000  101.00160    1.44790   -1.30710    1.66550    1.24750    1.58820    -999.25    0.34320    0.22330
 5750.00000   98.82860    1.79020    5.64000    1.61770    2.09890    1.85650    -999.25    0.27470    0.10790
 5800.00000   90.35200    2.68560    6.69970    0.98210    2.86870    2.77630    0.02440    0.20770    0.11980
 5850.00000   95.33820    1.52000    5.11800    2.98650    1.52900    1.62400    -999.25    0.28330    0.14780
 5900.00000  105.81050    1.22810    6.65680    3.38550    1.40200    1.29080    -999.25    0.31220    0.15680
 5950.00000   94.73270    1.42900    6.45940    3.67860    1.58020    1.50160    0.07160    0.30660    0.16350
 6000.00000  114.27990    1.14970    4.22720    3.91020    1.25250    1.20640    -999.25    0.33550    0.16660
 6050.00000  101.94580    1.19210    2.07980    4.24970    1.46230    1.26040    0.09220    0.28090    0.17000
 6100.00000  102.94720    1.64710    2.47370    4.17180    1.82510    1.72830    -999.25    0.29070    0.15230
 6150.00000   98.92940    1.34120   -1.43210    4.83330    1.47260    1.40800    -999.25    0.30300    0.14700
 6200.00000  104.70370    1.33230   -0.67230    4.06540    1.42810    1.39850    0.06930    0.31440    0.16210
 6250.00000  101.83480    1.63010    0.54440    2.71410    1.88800    1.69900    0.09470    0.28210    0.12240
 6300.00000  144.03460    1.80680    4.00970    1.76630    1.82670    1.95760    -999.25    0.28910    0.14800
 6350.00000  110.48020    1.11210    2.64630    1.95340    1.20400    1.16720    0.07980    0.33030    0.18380
 6400.00000   93.40490    1.21130    5.62870    2.12490    1.37820    1.27320    -999.25    0.34960    0.15340
 6450.00000  110.47510    1.04200    6.08330    3.02860    1.14130    1.09460    0.08580    0.32900    0.18850
 6500.00000  119.18350    1.23070    3.16410    4.05660    1.38050    1.28590    0.05970    0.34230    0.17530
 6550.00000  116.89340    1.30280    3.99560    4.28350    1.52840    1.36720    -999.25    -999.25    -999.25
 6600.00000  160.64240    0.90920    7.43150    4.18400    0.99830    0.95400    -999.25    -999.25    -999.25
 6650.00000  102.01690    1.23830    6.74000    3.61200    1.40070    1.29940    -999.25    -999.25    -999.25
 6700.00000  156.38300    0.99800    8.75980    1.58340    1.04630    1.05810    -999.25    -999.25    -999.25
 6750.00000  103.85860    1.15850    5.10950    3.75610    1.35440    1.21640    -999.25    -999.25    -999.25
 6800.00000  104.69910    1.33580    3.24630    4.38060    1.51470    1.39850    -999.25    -999.25    -999.25
 6850.00000  135.58550    1.36610    6.95710    3.91900    1.51500    1.43380    -999.25    -999.25    -999.25
 6900.00000  115.15980    1.90870    9.09180    2.10900    2.16060    2.00630    -999.25    -999.25    -999.25
 6950.00000  121.01760    2.02520    7.66720    2.64110    2.35680    2.15900    -999.25    -999.25    -999.25
