~Version ---------------------------------------------------
VERS.      2.0 : CWLS log ASCII Standard -VERSION 2.0
WRAP.      YES : Multiple lines per depth step
CREA. 08/18/12 : LAS Creation Date
~Well ------------------------------------------------------
STRT.FT                 2900.0 : START DEPTH
STOP.FT                17850.0 : STOP DEPTH
STEP.FT               50.00000 : STEP LENGTH
NULL.                  -999.25 : NULL VALUE
COMP. AMOCO PRODUCTION COMPANY : COMPANY
WELL.   JIMMY HILL GAS UNIT #1 : WELL
FLD .                  WILDCAT : FIELD
LOC .                          : LOCATION
CNTY.                     LEON : COUNTY
STAT.                    TEXAS : STATE
CTRY. UNITED STATES OF AMERICA : COUNTRY
SRVC.             Schlumberger : SERVICE COMPANY
DATE.              04-Jun-1996 : LOGDATE
API .           42289312310000 : API NUMBER
UWI .           42289312310000 : UNIQUE WELL ID
SLAT.WGS84       31.2538599246 : SURFACE LATITUDE
SLON.WGS84      -96.2196025838 : SURFACE LONGITUDE
~Curve Information -----------------------------------------
DEPT    .FT                                                                                                : DEPTH FEET
AO10ED  .OHMM                                                                                              : ARRAY INDUCTION ONE FOOT RESISTIVITY A10 FROM AIT-PI-DITE-LDT-CNT LOG
AO20ED  .OHMM                                                                                              : ARRAY INDUCTION ONE FOOT RESISTIVITY A20 FROM AIT-PI-DITE-LDT-CNT LOG
AO30ED  .OHMM                                                                                              : ARRAY INDUCTION ONE FOOT RESISTIVITY A30 FROM AIT-PI-DITE-LDT-CNT LOG
AO60ED  .OHMM                                                                                              : ARRAY INDUCTION ONE FOOT RESISTIVITY A60 FROM AIT-PI-DITE-LDT-CNT LOG
AO90ED  .OHMM                                                                                              : ARRAY INDUCTION ONE FOOT RESISTIVITY A90 FROM AIT-PI-DITE-LDT-CNT LOG
CALSED  .IN                                                                                                : CALIPER FROM BCS-CALIPER-GR LOG [ADJ. TO GRRED]
CALWS   .IN                                                                                                : CALIPER [DCALED+BITS]
CONDWS  .MMHO                                                                                              : CONDUCTIVITY [1000/DRESWS]
DCALED  .IN                                                                                                : DIFFERENTIAL CALIPER FROM AIT-PI-DITE-LDT-CNT LOG
DCORWS  .G/C3                                                                                              : DENSITY CORRECTION [DRHED SPL. TO DRHOED @ 10860']
DENWS   .G/C3 :   FORMATION BULK DENSITY [RHOMED, DENWS CALCULATED FROM DPOWS FROM 7004'-10889'] [M:2.71,F : 1.0]
DPHILSED.V/V                                                      :   DENSITY POROSITY LIMESTONE [M:2.71,F : 1.0] FROM AIT-PI-DITE-LDT-CNT LOG
DPOLSED .V/V                                                                                               : DENSITY POROSITY LIMESTONE FROM HOSTILE LDL-CN-GR LOG
DPOWS   .V/V                                                                                               : DENSITY POROSITY [DPHILSED SPL. TO DPOLSED @ 10852']
DRESWS  .OHMM                                                                                              : DEEP RESISTIVITY [AO30ED SPL. TO IDPHED]
DRHED   .G/C3                                                                                              : BULK DENSITY CORRECTION FROM HOSTILE LDL-CN-GR LOG
DRHOED  .G/C3                                                                                              : BULK DENSITY CORRECTION FROM AIT-PI-DITE-LDT-CNT LOG
DTED    .US/F                                                                                              : DELTA T FROM BCS-CALIPER-GR LOG [ADJ. TO GRRED/NPHILSED]
DTLFED  .US/F                                                                                              : DELTA-T LONG SPACING FAR FROM AIT-PI-DITE-LDT-CNT-PI-LSS-GR LOG
DTLNED  .US/F                                                                                              : DELTA-T LONG SPACING NEAR FROM AIT-PI-DITE-LDT-CNT-PI-LSS-GR LOG
DTWS    .US/F                                                                                              : COMPRESSIONAL SONIC [DTED SPL. TO DTLNED @ 10865.5'-15946.5']
GRRED   .GAPI                                                                                              : GAMMA RAY FROM AIT-PI-DITE-LDT-CNT LOG
GRSED   .GAPI                                                                                              : GAMMA RAY FROM BCS-CALIPER-GR-PI-LSS LOG [ADJ. TO GRRED]
GRWS    .GAPI                                                                                              : GAMMA RAY [GRRED]
IDPHED  .OHMM                                                                                              : DEEP INDUCTION PHASOR FROM AIT-PI-DITE-LDT-CNT- PI-LSS-GR LOG
LCALED  .IN                                                                                                : LOWER CALIPER FROM HOSTILE LDL-CN-GR LOG
MRESWS  .OHMM                                                                                              : MEDIUM RESISTIVITY [AO30ED]
NPHILSED.V/V                                                                                               : NEUTRON POROSITY LIMESTONE FROM AIT-PI-DITE-LDT-CNT LOG
NPOWS   .V/V                                                                                               : NEUTRON POROSITY [NPHILSED]
PEFED   .B/E                                                                                               : PHOTOELECTRIC FACTOR FROM AIT-PI-DITE-LDT-CNT LOG
PEFLED  .B/E                                                                                               : HLDT PEF LONG SPACING FROM HOSTILE LDL-CN-GR LOG
PEFSED  .B/E                                                                                               : SHORT SPACED CORRECTED PHOTOELECTRIC FACTOR FROM HOSTILE LDL-CN-GR LOG
PEFWS   .B/E                                                                                               : PHOTOELECTRIC FACTOR [PEFED SPL. TO PEFSED @ 10847.5']
RHOMED  .G/C3                                                                                              : CORRECTED BULK DENSITY FROM HOSTILE LDL-CN-GR LOG
SPRED   .MV                                                                                                : SPONTANEOUS POTENTIAL  FROM AIT-PI-DITE-LDT-CNT LOG
SPWS    .MV                                                                                                : SPONTANEOUS POTENTIAL [BASELINE 0, MV SPRED]
SRESWS  .OHMM                                                                                              : SHALLOW RESISTIVITY [AO10ED]
TENDED  .LBF                                                                                               : DIFFERENTIAL TENSION FROM HOSTILE LDL-CN-GR LOG
TENRED  .LBF                                                                                               : TENSION FROM AIT-PI-DITE-LDT-CNT LOG
TENSED  .LBF                                                                                               : TOTAL TENSION FROM BCS-CALIPER-GR LOG [ADJ. TO GRRED]
~Params ----------------------------------------------------
PD  .                     GL : PERMANENT DATUM
EPD .FT                 3759 : ELEVATION PERMANENT DATUM
LMF .                     KB : LOG MEASURED FROM
DAPD.FT                 37.2 : FEET ABOVE PERMANENT DATUM
DMF .                     KB : DRILLING MEASURED FROM
EKB .FT                 4131 : KELLY BUSHING
EDF .FT                 4121 : DRILLING FLOOR
EGL .FT                 3759 : GROUND LEVEL
DATE.               06/04/96 : RUN DATE
RUN .                      4 : RUN NUMBER
DD  .FT                17800 : DEPTH DRILLER
DL  .FT                17800 : DEPTH LOGGER
BLI .FT                17797 : BOTTOM LOG INTERVAL
TLI .FT                15944 : TOP LOG INTERVAL
CS  .IN                    7 : CASING SIZE
CBD .FT                15950 : CASING BOTTOM DRILLER
CBL .FT                15944 : CASING BOTTOM LOGGER
BS  .IN                5.875 : BIT SIZE
BSD .FT                17800 : BIT SIZE AT DEPTH
DFT .              OIL BASED : DRILLING FLUID TYPE
DFD .                     18 : DRILLING FLUID DENSITY
DFV .                     88 : DRILLING FLUID VISCOSITY
RMC .OHMM      OIL BASED MUD : RESISTIVITY MUD CAKE
MCST.DEGF      OIL BASED MUD : MUD CAKE SAMPLE TEMPERATURE
TCS .HRS                2100 : TIME CIRCULATED STOPPED
TLAB.HRS                1500 : TIME LOGGER AT BOTTOM
LUN .                   2019 : LOGGING UNIT NUMBER
LUL .                  TYLER : LOGGING UNIT LOCATION
ENGI.                 FERRIS : RECORDING ENGINEER
WITN.              MCGINNUSS : WITNESSED BY
CLNT.                A2DTECH : CLIENT CODE
ORIG.               5' PRINT : ORIGIN OF DATA
UWI .         42289312310000 : UNIQUE WELL ID
DICO. A2D Technologies, Inc. : DIGITIZING COMPANY
~Other -----------------------------------------------------
~ASCII -----------------------------------------------------
# ...
 7400.00000    1.53670    1.33730    1.32690    1.00950    1.07490   15.33520   14.91680  930.31910    2.66680    0.03740    2.19700    0.30000    -999.25    0.30000    1.07490    -999.25    0.03740   99.04340    -999.25    -999.25   99.04340   48.28840   54.41160   48.28840    -999.25    -999.25    1.32690    0.30000    0.30000    4.49560    -999.25    -999.25    4.49560    -999.25  -41.99620   -5.78300    1.53670    -999.25 2593.02950 2761.86550
 7450.00000    1.62670    1.64690    1.44360    1.33240    1.30650   15.89800   14.68830  765.40380    2.43830    0.04600    2.19700    0.30000    -999.25    0.30000    1.30650    -999.25    0.04600   88.54010    -999.25    -999.25   88.54010   47.47810   45.35480   47.47810    -999.25    -999.25    1.44360    0.29910    0.29910    4.68230    -999.25    -999.25    4.68230    -999.25  -43.29260   -7.21780    1.62670    -999.25 2690.41110 2744.30270
 7500.00000    2.15660    2.14300    1.57650    1.51060    1.37390   15.01420   14.78440  727.85500    2.53440   -0.00950    2.19700    0.30000    -999.25    0.30000    1.37390    -999.25   -0.00950  102.01170    -999.25    -999.25  102.01170   43.38400   46.22940   43.38400    -999.25    -999.25    1.57650    0.26790    0.26790    4.43960    -999.25    -999.25    4.43960    -999.25  -45.88500   -9.94850    2.15660    -999.25 2672.18850 2753.08450
 7550.00000   12.74680   12.23110   11.53510   10.79560   10.53620   12.78820   12.92150   94.91090    0.67150    0.00270    2.65820    0.03030    -999.25    0.03030   10.53620    -999.25    0.00270   57.51450    -999.25    -999.25   57.51450   29.69000   32.11020   29.69000    -999.25    -999.25   11.53510    0.02110    0.02110    5.06740    -999.25    -999.25    5.06740    -999.25  -42.12200   -6.32390   12.74680    -999.25 2648.60400 2798.77220
 7600.00000   19.52720   17.71220   13.01630   11.95110   11.61170   12.97090   13.10060   86.12000    0.85060    0.01470    2.66010    0.02920    -999.25    0.02920   11.61170    -999.25    0.01470   58.68220    -999.25    -999.25   58.68220   35.08490   38.89050   35.08490    -999.25    -999.25   13.01630    0.03740    0.03740    4.84000    -999.25    -999.25    4.84000    -999.25  -42.38640   -6.72660   19.52720    -999.25 2665.43680 2776.01510
 7650.00000   10.36980   10.99050   10.15470    6.95450    6.44920   13.19290   13.21340  155.05800    0.96340    0.00840    2.65250    0.03360    -999.25    0.03360    6.44920    -999.25    0.00840   62.12570    -999.25    -999.25   62.12570   36.16590   36.34010   36.16590    -999.25    -999.25   10.15470    0.07390    0.07390    4.37320    -999.25    -999.25    4.37320    -999.25  -40.08970   -4.56830   10.36980    -999.25 2661.18680 2780.52000
 7700.00000    9.68840   12.66100    7.70780    8.41970    6.42420   13.39510   13.43410  155.66140    1.18410    0.00300    2.63700    0.04270    -999.25    0.04270    6.42420    -999.25    0.00300   62.03230    -999.25    -999.25   62.03230   46.26570   47.98660   46.26570    -999.25    -999.25    7.70780    0.05550    0.05550    4.70470    -999.25    -999.25    4.70470    -999.25  -41.13110   -5.74800    9.68840    -999.25 2703.42330 2794.69170
 7750.00000   11.93880   12.47970    9.70980    9.32450    8.79970   13.41700   13.53260  113.64020    1.28260    0.01390    2.65730    0.03080    -999.25    0.03080    8.79970    -999.25    0.01390   62.22270    -999.25    -999.25   62.22270   36.51460   35.69750   36.51460    -999.25    -999.25    9.70980    0.06940    0.06940    4.43470    -999.25    -999.25    4.43470    -999.25  -40.28030   -5.03560   11.93880    -999.25 2721.17190 2805.42630
 7800.00000    1.97370    2.19700    2.11650    2.00040    2.05670   17.02990   17.00110  486.21580    4.75110    0.07530    2.19700    0.30000    -999.25    0.30000    2.05670    -999.25    0.07530   88.46610    -999.25    -999.25   88.46610   57.29940   58.62090   57.29940    -999.25    -999.25    2.11650    0.30000    0.30000    4.41930    -999.25    -999.25    4.41930    -999.25  -43.23480   -8.12840    1.97370    -999.25 2735.49560 2772.07130
 7850.00000   21.34630   24.11620   17.24310   12.71290   10.04600   14.08370   14.30850   99.54210    2.05850    0.04060    2.40900    0.17600    -999.25    0.17600   10.04600    -999.25    0.04060   58.09400    -999.25    -999.25   58.09400   35.98030   35.59240   35.98030    -999.25    -999.25   17.24310    0.05850    0.05850    5.00170    -999.25    -999.25    5.00170    -999.25  -43.70750   -8.73950   21.34630    -999.25 2728.51950 2785.93160
 7900.00000    2.79090    2.70420    2.57740    2.43700    2.29010   15.84260   15.19740  436.66220    2.94740    0.02450    2.19870    0.29900    -999.25    0.29900    2.29010    -999.25    0.02450   91.20730    -999.25    -999.25   91.20730   65.63960   54.14200   65.63960    -999.25    -999.25    2.57740    0.28900    0.28900    4.47580    -999.25    -999.25    4.47580    -999.25  -42.87290   -8.04320    2.79090    -999.25 2762.84250 2872.61210
 7950.00000    5.81180    5.22620    4.86630    4.52830    4.34100   13.83110   14.00930  230.36170    1.75930    0.01560    2.63630    0.04310    -999.25    0.04310    4.34100    -999.25    0.01560   73.65470    -999.25    -999.25   73.65470   63.68360   62.78240   63.68360    -999.25    -999.25    4.86630    0.15560    0.15560    4.32970    -999.25    -999.25    4.32970    -999.25  -38.52270   -3.83140    5.81180    -999.25 2712.04270 2872.66770
 8000.00000   17.14630   27.70480   14.12380   12.72560    9.12270   14.31110   14.08960  109.61670    1.83960    0.02330    2.64600    0.03740    -999.25    0.03740    9.12270    -999.25    0.02330   62.44110    -999.25    -999.25   62.44110   42.34670   44.74080   42.34670    -999.25    -999.25   14.12380    0.09740    0.09740    4.33300    -999.25    -999.25    4.33300    -999.25  -38.19490   -3.64190   17.14630    -999.25 2766.41700 2879.96560
 8050.00000   20.33640   23.10740   18.85990   17.97550   16.68450   13.68660   13.51870   59.93590    1.26870    0.00870    2.66830    0.02440    -999.25    0.02440   16.68450    -999.25    0.00870   58.74560    -999.25    -999.25   58.74560   50.36600   45.49560   50.36600    -999.25    -999.25   18.85990    0.03990    0.03990    4.44800    -999.25    -999.25    4.44800    -999.25  -40.27730   -5.86270   20.33640    -999.25 2799.42110 2977.64040
 8100.00000   46.52590   56.45700   35.37050   29.12430   26.25760   14.29290   13.68620   38.08420    1.43620    0.01020    2.66500    0.02630    -999.25    0.02630   26.25760    -999.25    0.01020   55.31980    -999.25    -999.25   55.31980   35.58040   37.28220   35.58040    -999.25    -999.25   35.37050    0.01500    0.01500    5.08260    -999.25    -999.25    5.08260    -999.25  -37.82890   -3.55260   46.52590    -999.25 2803.36690 2898.68580
 8150.00000    4.71660    4.75110    4.62350    4.32460    4.19610   14.46250   13.77930  238.31650    1.52930    0.00970    2.63190    0.04570    -999.25    0.04570    4.19610    -999.25    0.00970   74.72870    -999.25    -999.25   74.72870   71.48160   70.23380   71.48160    -999.25    -999.25    4.62350    0.15090    0.15090    4.18280    -999.25    -999.25    4.18280    -999.25  -37.16490   -3.02700    4.71660    -999.25 2772.18160 2950.74580
 8200.00000    4.19370    4.51270    3.66220    3.67100    3.24660   14.95360   14.24530  308.01450    1.99530    0.01120    2.36220    0.20340    -999.25    0.20340    3.24660    -999.25    0.01120   80.55030    -999.25    -999.25   80.55030   54.94820   64.77010   54.94820    -999.25    -999.25    3.66220    0.17660    0.17660    4.78180    -999.25    -999.25    4.78180    -999.25  -47.05280  -13.05320    4.19370    -999.25 2839.39720 2882.38230
 8250.00000   14.91290   27.90900   24.01700   17.28320   15.18010   14.66070   13.53230   65.87570    1.28230    0.01210    2.66430    0.02670    -999.25    0.02670   15.18010    -999.25    0.01210   56.29550    -999.25    -999.25   56.29550   32.53110   28.52130   32.53110    -999.25    -999.25   24.01700    0.01600    0.01600    4.94530    -999.25    -999.25    4.94530    -999.25  -40.72340   -6.86220   14.91290    -999.25 2852.12300 2968.06130
