~Version ---------------------------------------------------
VERS. 2.0 : CWLS log ASCII Standard -VERSION 2.0
WRAP. YES : MULTIPLE LINES PER DEPTH STEP
~Well ------------------------------------------------------
STRT.FT                   500.0 : START DEPTH
STOP.FT                  4650.0 : STOP DEPTH
STEP.FT                50.00000 : STEP LENGTH
NULL.                   -999.25 : NULL VALUE
COMP. PRAIRIE PRODUCING COMPANY : COMPANY
WELL.       HENSLEY T. HURTS #1 : WELL
FLD .                        WC : FIELD
LOC .                           : LOCATION
CNTY.                  GONZALES : COUNTY
STAT.                     TEXAS : STATE
CTRY.  UNITED STATES OF AMERICA : COUNTRY
SRVC.              Schlumberger : SERVICE COMPANY
DATE.               20-Aug-1976 : LOGDATE
API .            42177301620000 : API NUMBER
UWI .            42177301620000 : UNIQUE WELL ID
SLAT.WGS84           29.3870974 : SURFACE LATITUDE
SLON.WGS84          -97.8021181 : SURFACE LONGITUDE
~Curve Information -----------------------------------------
DEPT    .FT    : DEPTH FEET
CALDED  .IN    : CALIPER FROM DENSITY LOG [ADJ TO ILDED]
CALWS   .IN    : CALIPER [CALDED]
CONDWS  .MMHO  : CONDUCTIVITY [1000/DRESWS]
CORRED  .G/C3  : DENSITY CORRECTION FROM DENSITY LOG [ADJ TO ILDED]
DCORWS  .G/C3  : DENSITY CORRECTION [CORRED]
DENWS   .G/C3  : BULK DENSITY [RHOBED]
DPHILSED.V/V   : DENSITY POROSITY [M=2.71 F=1.0] FROM DENSITY LOG [ADJ TO ILDED]
DPHISSED.V/V   : DENSITY POROSITY [M=2.65 F=1.0] FROM DENSITY LOG [ADJ TO ILDED]
DPOWS   .V/V   : DENSITY POROSITY [M=2.71 F=1.0] [CALCULATED FROM DENWS]
DRESWS  .OHMM  : DEEP RESISTIVITY [ILDED]
GRDED   .GAPI  : GAMMA RAY FROM DENSITY LOG [ADJ TO ILDED]
GRWS    .GAPI  : GAMMA RAY [GRDED, CSG ABOVE 526F]
ILDED   .OHMM  : INDUCTION LOG DEEP RESISTIVITY
ILMED   .OHMM  : INDUCTION LOG MEDIUM RESISTIVITY
LL8ED   .OHMM  : 8 INCH LATEROLOG RESISTIVITY
MRESWS  .OHMM  : MEDIUM RESISTIVITY [ILMED]
NPHILSED.V/V   : NEUTRON POROSITY LIMESTONE FROM DENSITY LOG [ADJ TO ILDED]
NPHISSED.V/V   : NEUTRON POROSITY SANDSTONE FROM DENSITY LOG [ADJ TO ILDED]
NPOWS   .V/V   : NEUTRON POROSITY LIMESTONE [CONVERTED DPHISSED TO LIMESTONE AND SPL WITH NPHILSED @4382F]
RHOBED  .G/C3  : BULK DENSITY FROM DENSITY LOG [ADJ TO ILDED]
SPRED   .MV    : SPONTANEOUS POTENTIAL FROM RESISTIVITY LOG
SPWS    .MV    : SPONTANEOUS POTENTIAL [BASELINE 0 MV] [SPRED]
SRESWS  .OHMM  : SHALLOW RESISTIVITY [LL8ED]
~Params ----------------------------------------------------
PD  .                     GL : PERMANENT DATUM
EPD .FT                  448 : ELEVATION PERMANENT DATUM
LMF .                     KB : LOG MEASURED FROM
DAPD.FT                   12 : FEET ABOVE PERMANENT DATUM
DMF .                     KB : DRILLING MEASURED FROM
EKB .FT                  460 : KELLY BUSHING
EDF .FT                  458 : DRILLING FLOOR
EGL .FT                  448 : GROUND LEVEL
DATE.               08/20/76 : RUN DATE
RUN .                      1 : RUN NUMBER
DD  .FT                 4690 : DEPTH DRILLER
DL  .FT                 4692 : DEPTH LOGGER
BLI .FT                 4686 : BOTTOM LOG INTERVAL
TLI .FT                  526 : TOP LOG INTERVAL
CS  .IN                8.625 : CASING SIZE
CBD .FT                  518 : CASING BOTTOM DRILLER
CBL .FT                  526 : CASING BOTTOM LOGGER
BS  .IN                7.875 : BIT SIZE
BSD .FT                 4690 : BIT SIZE AT DEPTH
DFT .                  LO PH : DRILLING FLUID TYPE
DFD .                    9.6 : DRILLING FLUID DENSITY
DFV .                     40 : DRILLING FLUID VISCOSITY
DFPH.                     10 : DRILLING FLUID PH
DFL .                    5.4 : DRILLING FLUID LOSS
MSS .               FLOWLINE : MUD SAMPLE SOURCE
RMS .OHMM               1.07 : RESISTIVITY MUD SAMPLE
MST .DEGF                 86 : MUD SAMPLE TEMPERATURE
RMF .OHMM               1.11 : RESISTIVITY MUD FILTRATE SAMPLE
MFST.DEGF                 74 : MUD FILTRATE SAMPLE TEMPERATURE
RMC .OHMM               0.95 : RESISTIVITY MUD CAKE
MCST.DEGF                 86 : MUD CAKE SAMPLE TEMPERATURE
MFSS.                   MEAS : MUD FILTRATE SAMPLE SOURCE
MCSS.                  CHART : MUD CAKE SAMPLE SOURCE
RMB .OHMM               0.68 : RESISTIVITY MUD AT BHT
TCS .HRS                   4 : TIME CIRCULATED STOPPED
LUN .                   7694 : LOGGING UNIT NUMBER
LUL .                  PLEAS : LOGGING UNIT LOCATION
ENGI.               BREVETTI : RECORDING ENGINEER
WITN.       SMITH ALLBRITTON : WITNESSED BY
CLNT.                A2DTECH : CLIENT CODE
ORIG.        2" 5" 25" PRINT : ORIGIN OF DATA
UWI .         42177301620000 : UNIQUE WELL ID
DICO. A2D Technologies, Inc. : DIGITIZING COMPANY
~Other -----------------------------------------------------
~ASCII -----------------------------------------------------
  500.00000    -999.25    -999.25    -999.25    -999.25    -999.25    -999.25    -999.25    -999.25    -999.25    -999.25   32.30040   32.30040    -999.25    -999.25    -999.25    -999.25    -999.25    0.48400    0.44230    -999.25    -999.25    -999.25    -999.25
  550.00000   10.99890   10.99890   13.03080    0.08370    0.08370    2.06130    -999.25    0.35320    0.37940   76.74110   35.79380   35.79380   76.74110   36.82430   53.87540   36.82430    -999.25    0.46310    0.42140    2.06130  -28.43330   -9.28360   53.87540
  600.00000   13.49440   13.49440    9.57400    0.16290    0.16290    2.05430    -999.25    0.34930    0.38350  104.44970   37.48410   37.48410  104.44970   38.94630   51.93770   38.94630    -999.25    0.51500    0.47330    2.05430  -24.24460   -7.65960   51.93770
  650.00000   11.66180   11.66180   80.66860    0.08080    0.08080    2.29690    -999.25    0.20840    0.24160   12.39640   93.21540   93.21540   12.39640   11.38030   13.09270   11.38030    -999.25    0.52060    0.47890    2.29690  -46.35200  -32.33180   13.09270
  700.00000   13.72120   13.72120   10.32640    0.01520    0.01520    2.08110    -999.25    0.33310    0.36780   96.83900   44.38460   44.38460   96.83900   44.24110   51.36150   44.24110    -999.25    0.39400    0.35100    2.08110  -22.11990  -10.31540   51.36150
  750.00000   10.71330   10.71330    9.37340    0.03080    0.03080    2.08850    -999.25    0.33360    0.36350  106.68460   43.59590   43.59590  106.68460   49.70750   65.79610   49.70750    -999.25    0.42880    0.38660    2.08850  -19.94090   -9.03900   65.79610
  800.00000   11.39950   11.39950    8.06220    0.04810    0.04810    2.06150    -999.25    0.35470    0.37920  124.03570   48.28000   48.28000  124.03570   53.38630   78.52830   53.38630    -999.25    0.44850    0.40680    2.06150  -20.70760  -10.70840   78.52830
  850.00000   11.64210   11.64210    6.35590    0.15420    0.15420    2.10590    -999.25    0.32880    0.35330  157.33450   46.65260   46.65260  157.33450   63.95490   99.57940   63.95490    -999.25    0.42590    0.38360    2.10590  -23.20300  -14.10650   99.57940
  900.00000    9.07710    9.07710   17.31380    0.12640    0.12640    2.01670    -999.25    0.38450    0.40540   57.75730   62.71350   62.71350   57.75730   39.59230   48.63980   39.59230    -999.25    0.49470    0.45300    2.01670  -17.98590   -9.79210   48.63980
  950.00000    8.95680    8.95680   47.50570    0.12420    0.12420    2.09260    -999.25    0.33060    0.36110   21.05010   69.12330   69.12330   21.05010   18.86060   20.20560   18.86060    -999.25    0.48140    0.43970    2.09260  -26.08630  -18.79510   20.20560
 1000.00000    8.48960    8.48960  132.67180    0.11550    0.11550    2.25000    -999.25    0.24070    0.26900    7.53740   93.68470   93.68470    7.53740    6.99140    7.93290    6.99140    -999.25    0.47870    0.43700    2.25000  -14.64550   -8.25700    7.93290
 1050.00000    7.93630    7.93630  141.65310    0.04340    0.04340    2.16390    -999.25    0.28830    0.31940    7.05950   89.90800   89.90800    7.05950    6.79340    8.39030    6.79340    -999.25    0.49520    0.45350    2.16390   -7.63210   -2.12300    8.39030
 1100.00000    7.99440    7.99440   90.10880    0.05540    0.05540    2.11590    -999.25    0.32250    0.34740   11.09770   68.81650   68.81650   11.09770   10.83800   14.55510   10.83800    -999.25    0.45330    0.41160    2.11590  -15.30930   -8.37180   14.55510
 1150.00000    8.00250    8.00250   64.98110    0.03840    0.03840    2.04390    -999.25    0.36290    0.38950   15.38910   62.41300   62.41300   15.38910   15.40990   18.59750   15.40990    -999.25    0.44930    0.40760    2.04390  -15.26730   -6.90140   18.59750
 1200.00000    7.95750    7.95750  148.76520    0.08690    0.08690    2.13970    -999.25    0.30640    0.33350    6.72200   85.82230   85.82230    6.72200    6.36540    7.75820    6.36540    -999.25    0.51280    0.47110    2.13970  -15.67780   -5.88350    7.75820
 1250.00000    8.47360    8.47360  190.49800    0.09720    0.09720    2.21430    -999.25    0.26170    0.28990    5.24940   93.56960   93.56960    5.24940    5.00150    6.80640    5.00150    -999.25    0.54010    0.49840    2.21430  -17.29100   -6.06820    6.80640
 1300.00000    7.94570    7.94570   68.57300    0.09590    0.09590    2.11910    -999.25    0.32470    0.34560   14.58300   51.74130   51.74130   14.58300   15.15150   17.61630   15.15150    -999.25    0.42800    0.38570    2.11910  -16.49390   -4.24840   17.61630
 1350.00000    7.93170    7.93170  112.19060    0.03600    0.03600    2.32970    -999.25    0.20120    0.22240    8.91340   75.48660   75.48660    8.91340    8.43420   11.21950    8.43420    -999.25    0.35840    0.31490    2.32970  -17.20270   -4.41060   11.21950
 1400.00000    7.97290    7.97290  113.43910    0.05730    0.05730    2.11060    -999.25    0.32080    0.35050    8.81530   84.69750   84.69750    8.81530    9.13800   11.31190    9.13800    -999.25    0.45640    0.41470    2.11060  -19.39130   -6.05260   11.31190
 1450.00000    7.89010    7.89010   84.89400    0.04800    0.04800    2.10930    -999.25    0.32530    0.35130   11.77940   63.20340   63.20340   11.77940   12.05860   12.49780   12.05860    -999.25    0.43180    0.38960    2.10930  -18.80470   -4.91950   12.49780
 1500.00000    8.14630    8.14630  144.65290    0.06890    0.06890    2.20620    -999.25    0.26330    0.29460    6.91310   86.15970   86.15970    6.91310    7.12260    7.99290    7.12260    -999.25    0.44270    0.40080    2.20620  -21.14560   -6.71380    7.99290
 1550.00000    8.22530    8.22530  280.32400    0.03060    0.03060    2.21730    -999.25    0.26200    0.28810    3.56730   93.34630   93.34630    3.56730    3.62850    5.30020    3.62850    -999.25    0.44670    0.40490    2.21730  -17.74590   -2.76750    5.30020
 1600.00000    7.84810    7.84810   76.40410    0.05750    0.05750    2.02620    -999.25    0.37660    0.39990   13.08830   77.66350   77.66350   13.08830   14.29410   15.49260   14.29410    -999.25    0.46810    0.42640    2.02620  -20.50940   -4.98450   15.49260
 1650.00000    7.80210    7.80210   57.26950    0.07760    0.07760    2.08890    -999.25    0.33860    0.36320   17.46130   56.82440   56.82440   17.46130   18.05340   18.74990   18.05340    -999.25    0.44170    0.39980    2.08890  -20.84010   -4.76860   18.74990
 1700.00000    7.93500    7.93500  190.38550    0.05640    0.05640    2.09930    -999.25    0.31940    0.35710    5.25250   77.39390   77.39390    5.25250    5.55450    8.78150    5.55450    -999.25    0.47330    0.43160    2.09930  -22.85980   -6.24170    8.78150
 1750.00000    7.78330    7.78330   56.29930    0.04160    0.04160    2.03350    -999.25    0.36640    0.39560   17.76220   51.19590   51.19590   17.76220   18.67310   19.02880   18.67310    -999.25    0.44970    0.40800    2.03350  -22.58680   -5.42220   19.02880
 1800.00000    8.56280    8.56280  424.73670    0.05240    0.05240    2.13280    -999.25    0.30830    0.33750    2.35440   87.08080   87.08080    2.35440    2.47510    3.29040    2.47510    -999.25    0.53120    0.48950    2.13280  -20.25830   -2.54710    3.29040
 1850.00000    8.35400    8.35400  471.56470    0.06850    0.06850    2.15710    -999.25    0.29800    0.32330    2.12060   96.59380   96.59380    2.12060    2.01780    3.03470    2.01780    -999.25    0.55850    0.51680    2.15710  -18.75070   -0.76470    3.03470
 1900.00000    8.44000    8.44000  314.25790    0.08030    0.08030    2.18580    -999.25    0.27780    0.30650    3.18210   89.72640   89.72640    3.18210    3.31380    5.13880    3.31380    -999.25    0.47840    0.43670    2.18580  -24.17710   -6.06270    5.13880
 1950.00000    7.93480    7.93480   65.28310    0.08190    0.08190    2.10770    -999.25    0.32130    0.35220   15.31790   48.51700   48.51700   15.31790   15.83120   14.94010   15.83120    -999.25    0.41410    0.37150    2.10770  -24.97140   -6.72850   14.94010
 2000.00000    8.84240    8.84240  233.17630    0.06930    0.06930    2.27100    -999.25    0.23300    0.25670    4.28860   78.20250   78.20250    4.28860    4.60850    5.72210    4.60850    -999.25    0.42690    0.38460    2.27100  -21.44490   -3.07360    5.72210
