~Version ---------------------------------------------------
VERS. 2.0 : CWLS log ASCII Standard -VERSION 2.0
WRAP. YES : Multiple lines per depth step
~Well ------------------------------------------------------
STRT.FT                   3800.0 : START DEPTH
STOP.FT                   8500.0 : STOP DEPTH
STEP.FT                 50.00000 : STEP LENGTH
NULL.                    -999.25 : NULL VALUE
COMP. CHAMPLIN PETROLEUM COMPANY : COMPANY
WELL.     MARYANN ZGABAY UNIT #1 : WELL
FLD .                   GIDDINGS : FIELD
LOC .                            : LOCATION
CNTY.                   BURLESON : COUNTY
STAT.                      TEXAS : STATE
CTRY.   UNITED STATES OF AMERICA : COUNTRY
SRVC.               Schlumberger : SERVICE COMPANY
DATE.                22-Jun-1980 : LOGDATE
API .             42051306560000 : API NUMBER
UWI .             42051306560000 : UNIQUE WELL ID
SLAT.WGS84         30.3487905786 : SURFACE LATITUDE
SLON.WGS84        -96.7442146113 : SURFACE LONGITUDE
~Curve Information -----------------------------------------
DEPT    .FT    : Depth Curve
CALDED  .IN    : CALIPER FROM COMPENSATED NEUTRON-FORMATION DENSITY LOG
CALSED  .IN    : CALIPER FROM SONIC-DENSITY LOG
CALWS   .IN    : CALIPER [CALDED]
CONDWS  .MMHO  : CONDUCTIVITY [1000/DRESWS]
DCORWS  .G/C3  : DENSITY CORRECTION [DRHOED]
DENWS   .G/C3  : BULK DENSITY [RHOBED]
DPHI1ED .V/V   : DENSITY POROSITY FROM SONIC-DENSITY LOG
DPHILSED.V/V   : DENSITY POROSITY LIMESTONE [M=2.71 F=1.0] FROM COMPENSATED NEUTRON-FORMATION DENSITY LOG
DPHISSED.V/V   : DENSITY POROSITY SANDSTONE [M=2.65 F=1.0] FROM COMPENSATED NEUTRON-FORMATION DENSITY LOG
DPOWS   .V/V   : DENSITY POROSITY [DPHISSED  CONVERTED TO LIMESTONE (M=2.71 F=1.0),SPL. TO DPHILSED @ 5602.5']
DRESWS  .OHMM  : DEEP RESISTIVITY [ILDED]
DRHOED  .G/C3  : BULK DENSITY CORRECTION  FROM COMPENSATED NEUTRON-FORMATION DENSITY LOG
DTED    .US/F  : SONIC FROM DUAL INDUCTION-SFL-SONIC LOG [ADJ. TO GRDED]
DTWS    .US/F  : COMPRESSIONAL SONIC [DTED]
GRDED   .GAPI  : GAMMA RAY  FROM COMPENSATED NEUTRON-FORMATION DENSITY LOG [GRDED IN CASING FROM 3781' - 3796']
GRRED   .GAPI  : GAMMA RAY FROM DUAL INDUCTION-SFL-SONIC LOG [ADJ. TO GRDED] [GRRED RESCALED TO 0-150 FROM 0-75]
GRSED   .GAPI  : GAMMA RAY FROM SONIC-DENSITY LOG
GRWS    .G/C3  : GAMMA RAY [GRRED SPL. TO GRDED @ 3783']
ILDED   .OHMM  : DEEP INDUCTION FROM DUAL INDUCTION-SFL-SONIC LOG [ADJ. TO GRDED]
ILMED   .OHMM  : MEDIUM INDUCTION FROM DUAL INDUCTION-SFL-SONIC LOG [ADJ. TO GRDED]
MRESWS  .OHMM  : MEDIUM RESISTIVITY [ILMED]
NPHILSED.V/V   : NEUTRON POROSITY LIMESTONE  FROM COMPENSATED NEUTRON-FORMATION DENSITY LOG
NPHISSED.V/V   : NEUTRON POROSITY SANDSTONE  FROM COMPENSATED NEUTRON-FORMATION DENSITY LOG [NPHISSED IN CASING FROM 3781' - 3796']
NPOWS   .V/V   : NEUTRON POROSITY LIMESTONE[NPHISSED MATRIX CONVERTED TO LIMESTONE SPL. TO NPHILSED @ 5600']
RHOBED  .G/C3  : BULK DENSITY FROM COMPENSATED NEUTRON-FORMATION DENSITY LOG
SFLUED  .OHMM  : SHALLOW FOUCUSED FROM DUAL INDUCTION-SFL-SONIC [ADJ. TO GRDED]
SPHIED  .V/V   : SONIC POROSITY FROM SONIC-DENSITY LOG [ADJ. TO DTED]
SPOWS   .V/V   : SONIC POROSITY [ SPHI SPL. TO SPHIED FROM 7501.5'-8116.5']
SPRED   .MV    : SPOTANEOUS POTENTIAL FROM DUAL INDUCTION-SFL-SONIC [ADJ. TO GRDED]
SPWS    .MV    : SPONTANEOUS POTENTIAL [BASELINE 0 MV, SPRED]
SRESWS  .OHMM  : SHALLOW RESISTIVITY [SFLUED]
~Params ----------------------------------------------------
PD  .                     GL : PERMANENT DATUM
EPD .FT                  279 : ELEVATION PERMANENT DATUM
LMF .                     KB : LOG MEASURED FROM
DAPD.FT                 16.3 : FEET ABOVE PERMANENT DATUM
DMF .                     KB : DRILLING MEASURED FROM
EKB .FT                295.3 : KELLY BUSHING
EDF .FT                294.3 : DRILLING FLOOR
EGL .FT                  279 : GROUND LEVEL
DATE.                6-22-80 : RUN DATE
RUN .                      1 : RUN NUMBER
DD  .FT                 8522 : DEPTH DRILLER
DL  .FT                 8523 : DEPTH LOGGER
BLI .FT                 8516 : BOTTOM LOG INTERVAL
TLI .FT                 3796 : TOP LOG INTERVAL
CS  .IN                9.625 : CASING SIZE
CBD .FT                 3784 : CASING BOTTOM DRILLER
CBL .FT                 3796 : CASING BOTTOM LOGGER
BS  .IN                 8.75 : BIT SIZE
BSD .FT                 8522 : BIT SIZE AT DEPTH
DFT .                 BEN-EX : DRILLING FLUID TYPE
DFD .                    9.5 : DRILLING FLUID DENSITY
DFV .                     44 : DRILLING FLUID VISCOSITY
DFPH.                    9.5 : DRILLING FLUID PH
DFL .                    6.6 : DRILLING FLUID LOSS
MSS .               MUD TANK : MUD SAMPLE SOURCE
RMS .OHMM               2.06 : RESISTIVITY MUD SAMPLE
MST .DEGF                 94 : MUD SAMPLE TEMPERATURE
RMF .OHMM               1.52 : RESISTIVITY MUD FILTRATE SAMPLE
MFST.DEGF                 94 : MUD FILTRATE SAMPLE TEMPERATURE
RMC .OHMM               3.04 : RESISTIVITY MUD CAKE
MCST.DEGF                 94 : MUD CAKE SAMPLE TEMPERATURE
MFSS.                      C : MUD FILTRATE SAMPLE SOURCE
MCSS.                      C : MUD CAKE SAMPLE SOURCE
RMB .OHMM              0.988 : RESISTIVITY MUD AT BHT
TCS .HRS                 300 : TIME CIRCULATED STOPPED
TLAB.HRS                1000 : TIME LOGGER AT BOTTOM
LUN .                   7750 : LOGGING UNIT NUMBER
LUL .                BRENHAM : LOGGING UNIT LOCATION
ENGI.            KRONEBITTER : RECORDING ENGINEER
WITN.             PRESTRIDGE : WITNESSED BY
CLNT.                A2DTECH : CLIENT CODE
ORIG.          1" 2.5" PRINT : ORIGIN OF DATA
UWI .         42051306560000 : UNIQUE WELL ID
DICO. A2D Technologies, Inc. : DIGITIZING COMPANY
~Other -----------------------------------------------------
~ASCII -----------------------------------------------------
# ...
 4950.00000   11.50000    -999.25   11.50000  572.50820    0.08550    2.39660    -999.25    -999.25    0.14960    0.17940    1.74670    0.08550  103.30290  103.30290  102.43340   98.92260    -999.25  102.43340    1.74670    1.70010    1.70010    -999.25    0.38110    0.33790    2.39660    3.96400    -999.25    0.37900   23.47190   -7.93550    3.96400
 5000.00000   11.20590    -999.25   11.20590  593.15500    0.06420    2.42410    -999.25    -999.25    0.13940    0.16960    1.68590    0.06420  102.08490  102.08490   93.81470   91.10900    -999.25   93.81470    1.68590    1.68090    1.68090    -999.25    0.38290    0.33970    2.42410    3.90860    -999.25    0.37020   28.39130   -3.74890    3.90860
 5050.00000   11.04200    -999.25   11.04200  509.58010    0.07640    2.42070    -999.25    -999.25    0.14250    0.17260    1.96240    0.07640   96.88770   96.88770   97.34510   99.46180    -999.25   97.34510    1.96240    1.99710    1.99710    -999.25    0.32750    0.28370    2.42070    4.01650    -999.25    0.33250   30.14350   -2.72950    4.01650
 5100.00000   11.08970    -999.25   11.08970  549.78280    0.09660    2.37950    -999.25    -999.25    0.15670    0.18630    1.81890    0.09660   98.08980   98.08980   95.57520   99.97000    -999.25   95.57520    1.81890    1.84470    1.84470    -999.25    0.31930    0.27540    2.37950    3.64590    -999.25    0.34120   30.09690   -3.50890    3.64590
 5150.00000   11.94120    -999.25   11.94120  649.43500    0.11280    2.38760    -999.25    -999.25    0.16030    0.18980    1.53980    0.11280  101.10030  101.10030   92.92030  105.53580    -999.25   92.92030    1.53980    1.50420    1.50420    -999.25    0.35390    0.31030    2.38760    3.38900    -999.25    0.36300   31.79940   -2.53930    3.38900
 5200.00000   13.05880    -999.25   13.05880  679.20940    0.08330    2.37600    -999.25    -999.25    0.16140    0.19080    1.47230    0.08330  102.14600  102.14600   96.68070  104.83580    -999.25   96.68070    1.47230    1.46790    1.46790    -999.25    0.35440    0.31080    2.37600    3.49360    -999.25    0.37060   31.03120   -4.04030    3.49360
 5250.00000   12.36760    -999.25   12.36760  586.13210    0.05680    2.29090    -999.25    -999.25    0.20620    0.23410    1.70610    0.05680   95.07620   95.07620   96.45980   94.71860    -999.25   96.45980    1.70610    1.72650    1.72650    -999.25    0.36120    0.31770    2.29090    3.67260    -999.25    0.31940   32.22660   -3.57770    3.67260
 5300.00000   12.20590    -999.25   12.20590  669.38880    0.09220    2.37620    -999.25    -999.25    0.16920    0.19840    1.49390    0.09220   98.52840   98.52840  104.71950   90.32580    -999.25  104.71950    1.49390    1.48970    1.48970    -999.25    0.35220    0.30860    2.37620    3.49960    -999.25    0.34440   31.61320   -4.92390    3.49960
 5350.00000   11.63230    -999.25   11.63230  774.23350    0.09290    2.37200    -999.25    -999.25    0.17050    0.19960    1.29160    0.09290  101.81440  101.81440   97.34440   96.01660    -999.25   97.34440    1.29160    1.29710    1.29710    -999.25    0.35390    0.31030    2.37200    3.26490    -999.25    0.36820   35.77420   -1.49560    3.26490
 5400.00000   11.38240    -999.25   11.38240 1042.64410    0.03170    2.42600    -999.25    -999.25    0.13790    0.16810    0.95910    0.03170  111.38410  111.38410  110.36580  117.36500    -999.25  110.36580    0.95910    0.97060    0.97060    -999.25    0.40980    0.36710    2.42600    2.07190    -999.25    0.43760   34.75430   -3.24850    2.07190
 5450.00000   11.17650    -999.25   11.17650  532.31130    0.08130    2.50890    -999.25    -999.25    0.08990    0.12180    1.87860    0.08130   92.07630   92.07630   85.08170   74.57720    -999.25   85.08170    1.87860    1.83370    1.83370    -999.25    0.28360    0.23960    2.50890    3.79220    -999.25    0.29770   29.67850   -9.05700    3.79220
 5500.00000    9.64710    -999.25    9.64710  529.26860    0.04640    2.39730    -999.25    -999.25    0.15400    0.18370    1.88940    0.04640   85.75100   85.75100   56.19470   50.37020    -999.25   56.19470    1.88940    2.02020    2.02020    -999.25    0.24740    0.20350    2.39730   16.63930    -999.25    0.25180   12.67620  -26.79210   16.63930
 5550.00000   11.99510    -999.25   11.99510  945.71590    0.05310    2.36900    -999.25    -999.25    0.16840    0.19760    1.05740    0.05310  110.34460  110.34460   95.79650   89.34440    -999.25   95.79650    1.05740    1.03890    1.03890    -999.25    0.41170    0.36910    2.36900    3.13310    -999.25    0.43000   35.29800   -4.90310    3.13310
 5600.00000   11.67640    -999.25   11.67640  669.52330    0.02160    2.46880    -999.25    0.11100    0.11120    0.14240    1.49360    0.02160   99.42500   99.42500   88.93810   94.66640    -999.25   88.93810    1.49360    1.56170    1.56170    0.32930    0.32930    0.32930    2.46880    3.69760    -999.25    0.35090   37.25670   -3.67730    3.69760
 5650.00000   10.36760    -999.25   10.36760  490.19610    0.04790    2.49630    -999.25    0.11470    -999.25    0.11470    2.04000    0.04790   88.46570   88.46570   77.65210   78.60940    -999.25   77.65210    2.04000    2.06940    2.06940    0.23000    -999.25    0.23000    2.49630    4.17870    -999.25    0.27150   35.13910   -7.00810    4.17870
 5700.00000   10.58820    -999.25   10.58820  522.35690    0.12170    2.49260    -999.25    0.12950    -999.25    0.12950    1.91440    0.12170   89.99730   89.99730   80.53130   75.92760    -999.25   80.53130    1.91440    1.93690    1.93690    0.25690    -999.25    0.25690    2.49260    4.34000    -999.25    0.28260   33.22520  -10.34110    4.34000
 5750.00000    9.66180    -999.25    9.66180  538.59000    0.16150    2.34030    -999.25    0.24260    -999.25    0.24260    1.85670    0.16150   87.29590   87.29590   61.94600   55.83180    -999.25   61.94600    1.85670    2.05960    2.05960    0.30870    -999.25    0.30870    2.34030    7.23420    -999.25    0.26300   30.64730  -14.33810    7.23420
 5800.00000   11.26460    -999.25   11.26460  987.06940    0.02430    2.36010    -999.25    0.20210    -999.25    0.20210    1.01310    0.02430  106.60590  106.60590   89.38050   84.84760    -999.25   89.38050    1.01310    1.01080    1.01080    0.34990    -999.25    0.34990    2.36010    3.21970    -999.25    0.40290   35.75740  -10.64710    3.21970
 5850.00000   11.98520    -999.25   11.98520  859.10650    0.05260    2.40250    -999.25    0.17100    -999.25    0.17100    1.16400    0.05260  104.24360  104.24360   82.30090   78.20480    -999.25   82.30090    1.16400    1.16500    1.16500    0.35790    -999.25    0.35790    2.40250    3.22050    -999.25    0.38580   36.34580  -11.47780    3.22050
 5900.00000   12.61760    -999.25   12.61760  758.38010    0.05970    2.41070    -999.25    0.17680    -999.25    0.17680    1.31860    0.05970  103.30540  103.30540   78.76430   69.64720    -999.25   78.76430    1.31860    1.31520    1.31520    0.35820    -999.25    0.35820    2.41070    3.09080    -999.25    0.37900   38.11320  -11.12950    3.09080
 5950.00000   11.98530    -999.25   11.98530  956.11440    0.04300    2.39840    -999.25    0.19000    -999.25    0.19000    1.04590    0.04300  106.20850  106.20850   87.33460   84.49840    -999.25   87.33460    1.04590    1.05080    1.05080    0.31180    -999.25    0.31180    2.39840    3.26440    -999.25    0.40010   44.67600   -5.98580    3.26440
 6000.00000   11.83490    -999.25   11.83490  664.31940    0.03760    2.45680    -999.25    0.15710    -999.25    0.15710    1.50530    0.03760   94.46270   94.46270   87.24620   97.62400    -999.25   87.24620    1.50530    1.50410    1.50410    0.30160    -999.25    0.30160    2.45680    2.73000    -999.25    0.31490   44.02370   -8.05730    2.73000
 6050.00000   11.45590    -999.25   11.45590  595.13180    0.08480    2.37280    -999.25    0.19550    -999.25    0.19550    1.68030    0.08480   88.79290   88.79290   87.16810   79.08140    -999.25   87.16810    1.68030    1.75850    1.75850    0.26360    -999.25    0.26360    2.37280    3.65500    -999.25    0.27390   41.95860  -11.54150    3.65500
