~Version ---------------------------------------------------
VERS. 2.0 : CWLS log ASCII Standard -VERSION 2.0
WRAP.  NO : One line per depth step
~Well ------------------------------------------------------
STRT.FT                          300.0 : START DEPTH
STOP.FT                        14400.0 : STOP DEPTH
STEP.FT                       50.00000 : STEP LENGTH
NULL.                          -999.25 : NULL VALUE
COMP.    AMERADA PETROLEUM CORPORATION : COMPANY
WELL.                MABEL GRIMES B #1 : WELL
FLD .               LOWE RANCH EDWARDS : FIELD
LOC .                                  : LOCATION
CNTY.                        MC MULLEN : COUNTY
STAT.                            TEXAS : STATE
CTRY.         UNITED STATES OF AMERICA : COUNTRY
SRVC. Schlumberger Well Surveying Corp : SERVICE COMPANY
DATE.                      20-Feb-1958 : LOGDATE
API .                   42311013640000 : API NUMBER
UWI .                   42311013640000 : UNIQUE WELL ID
SLAT.WGS84               28.3207374348 : SURFACE LATITUDE
SLON.WGS84              -98.6948976176 : SURFACE LONGITUDE
~Curve Information -----------------------------------------
DEPT  .FT    : DEPTH
ASNED .OHMM  : AMPLIFIED SHORT NORMAL 16 IN.
CALMED.IN    : CALIPER FROM MICRO LOG (ADJ TO RES.)
CALWS .IN    : CALIPER (CALMED)
CILDED.MMHO  : CONDUCTIVITY FROM LOG
CONDWS.MMHO  : CONDUCTIVITY (1000/DRESws)
DRESWS.OHMM  : DEEP RESISTIVITY (LNED/ILDED @ 5122) (IF DRESws<1, THEN 1000/CILDED)
GRNED .CU    : GAMMA RAY FROM NEUTRON LOG (ADJ TO RES.)
GRWS  .CU    : GAMMA RAY (GRNED)
ILDED .OHMM  : DEEP INDUCTION RESISTIVITY
LNED  .OHMM  : LONG NORMAL 64 IN.
LT18ED.OHMM  : LATERAL
NEUTED.CU    : NEUTRON FROM GAMMA RAY NEUTRON LOG (ADJ TO RES.)
NEUTWS.CU    : NEUTRON FROM GAMMA RAY NEUTRON LOG (NEUTED)
SPWS  .MV    : SPONTANEOUS POTENTIAL BASELINE 0 MV (SPRED)
SPRED .MV    : SPONTANEOUS POTENTIAL FROM RESISTIVITY
SRESWS.OHMM  : SHALLOW RESISTIVITY (ASNED)
~Params ----------------------------------------------------
PD  .                     GL : PERMANENT DATUM
LMF .                     KB : LOG MEASURED FROM
DAPD.F                 16.05 : FEET ABOVE PERMANENT DATUM
DMF .                     KB : DRILLING MEASURED FROM
EDF .F                   323 : DRILLING FLOOR
DATE.               02/20/58 : RUN DATE
RUN .                      3 : RUN NUMBER
DD  .F                 14409 : DEPTH DRILLER
DL  .F                 14411 : DEPTH LOGGER
BLI .F                 14405 : BOTTOM LOG INTERVAL
TLI .F                 13725 : TOP LOG INTERVAL
CBD .F                 13725 : CASING BOTTOM DRILLER
CBL .F                 13725 : CASING BOTTOM LOGGER
BS  .IN                 8.75 : BIT SIZE
BSD .F                 14409 : BIT SIZE AT DEPTH
DFT .               OIL EMUL : DRILLING FLUID TYPE
DFD .                   12.4 : DRILLING FLUID DENSITY
DFV .                     46 : DRILLING FLUID VISCOSITY
DFPH.                     12 : DRILLING FLUID PH
DFL .                    6.5 : DRILLING FLUID LOSS
MSS .                MUD PIT : MUD SAMPLE SOURCE
RMS .OHMM               0.82 : RESISTIVITY MUD SAMPLE
MST .F                    78 : MUD SAMPLE TEMPERATURE
RMF .OHMM               0.16 : RESISTIVITY MUD FILTRATE SAMPLE
MFST.F                   310 : MUD FILTRATE SAMPLE TEMPERATURE
RMC .OHMM               0.31 : RESISTIVITY MUD CAKE
MCST.F                   310 : MUD CAKE SAMPLE TEMPERATURE
RMB .OHMM               0.21 : RESISTIVITY MUD AT BHT
TCS .HRS                   2 : TIME CURCULATED STOPPED
LUL .                    VIC : LOGGING UNIT LOCATION
ENGI.                WHITNEY : RECORDING ENGINEER
WITN.                 GOLSON : WITNESSED BY
CLNT.                A2DTECH : CLIENT CODE
ORIG.               2" PRINT : ORIGIN OF DATA
UWI .         42311013640000 : UNIQUE WELL ID
DICO. A2D Technologies, Inc. : DIGITIZING COMPANY
~Other -----------------------------------------------------
~ASCII -----------------------------------------------------
# ...
 8900.00000    2.98840    -999.25    -999.25  370.81660  391.77280    2.55250    -999.25    -999.25    2.55250    -999.25    -999.25    -999.25    -999.25   -4.89040  -24.46250    2.98840
 8950.00000    2.80080    -999.25    -999.25  408.52370  458.65250    2.18030    -999.25    -999.25    2.18030    -999.25    -999.25    -999.25    -999.25   -4.25740  -23.79120    2.80080
 9000.00000    3.46700    -999.25    -999.25  334.67200  372.50890    2.68450    -999.25    -999.25    2.68450    -999.25    -999.25    -999.25    -999.25   -5.50560  -25.00110    3.46700
 9050.00000    4.01660    -999.25    -999.25  269.74570  303.25090    3.29760    -999.25    -999.25    3.29760    -999.25    -999.25    -999.25    -999.25   -5.90160  -25.35870    4.01660
 9100.00000    4.68780    -999.25    -999.25  214.19010  249.33300    4.01070    -999.25    -999.25    4.01070    -999.25    -999.25    -999.25    -999.25   -5.93920  -25.35800    4.68780
 9150.00000    3.31700    -999.25    -999.25  217.08990  253.56900    3.94370    -999.25    -999.25    3.94370    -999.25    -999.25    -999.25    -999.25   -7.05450  -26.43500    3.31700
 9200.00000    2.66640    -999.25    -999.25  371.70340  428.22880    2.33520    -999.25    -999.25    2.33520    -999.25    -999.25    -999.25    -999.25   -4.13360  -23.47580    2.66640
 9250.00000    2.80570    -999.25    -999.25  349.62070  407.96340    2.45120    -999.25    -999.25    2.45120    -999.25    -999.25    -999.25    -999.25   -4.83040  -24.13430    2.80570
 9300.00000    2.24560    -999.25    -999.25  456.05340  487.82870    2.04990    -999.25    -999.25    2.04990    -999.25    -999.25    -999.25    -999.25   -4.47990  -23.74550    2.24560
 9350.00000    2.93590    -999.25    -999.25  336.01070  364.29870    2.74500    -999.25    -999.25    2.74500    -999.25    -999.25    -999.25    -999.25   -5.95150  -25.17880    2.93590
 9400.00000    2.81280    -999.25    -999.25  318.16820  397.89910    2.51320    -999.25    -999.25    2.51320    -999.25    -999.25    -999.25    -999.25   -4.33250  -23.52140    2.81280
 9450.00000    2.00380    -999.25    -999.25  525.43580  563.15820    1.77570    -999.25    -999.25    1.77570    -999.25    -999.25    -999.25    -999.25   -4.23620  -23.38680    2.00380
 9500.00000    2.61830    -999.25    -999.25  322.88180  423.47760    2.36140    -999.25    -999.25    2.36140    -999.25    -999.25    -999.25    -999.25   -4.27470  -23.38700    2.61830
 9550.00000    2.88490    -999.25    -999.25  354.30610  393.31370    2.54250    -999.25    -999.25    2.54250    -999.25    -999.25    -999.25    -999.25   -3.95520  -23.02920    2.88490
 9600.00000    2.49200    -999.25    -999.25  430.61130  482.34610    2.07320    -999.25    -999.25    2.07320    -999.25    -999.25    -999.25    -999.25   -3.99290  -23.02850    2.49200
 9650.00000    2.61570    -999.25    -999.25  340.69610  401.15530    2.49280    -999.25    -999.25    2.49280    -999.25    -999.25    -999.25    -999.25   -4.38970  -23.38700    2.61570
 9700.00000    3.19930    -999.25    -999.25  291.43190  335.21050    2.98320    -999.25    -999.25    2.98320    -999.25    -999.25    -999.25    -999.25   -4.78770  -23.74670    3.19930
 9750.00000    2.43070    -999.25    -999.25  412.53910  433.20050    2.30840    -999.25    -999.25    2.30840    -999.25    -999.25    -999.25    -999.25   -3.39110  -22.31180    2.43070
 9800.00000    2.37540    -999.25    -999.25  392.23560  440.99490    2.26760    -999.25    -999.25    2.26760    -999.25    -999.25    -999.25    -999.25   -3.78810  -22.67040    2.37540
 9850.00000    2.34520    -999.25    -999.25  406.29180  427.67940    2.33820    -999.25    -999.25    2.33820    -999.25    -999.25    -999.25    -999.25   -3.28830  -22.13230    2.34520
 9900.00000    2.40780    -999.25    -999.25  410.84120  446.72770    2.23850    -999.25    -999.25    2.23850    -999.25    -999.25    -999.25    -999.25   -3.32650  -22.13220    2.40780
 9950.00000    2.96910    -999.25    -999.25  273.98340  291.95380    3.42520    -999.25    -999.25    3.42520    -999.25    -999.25    -999.25    -999.25   -3.18590  -21.95330    2.96910
 10000.00000    2.67990    -999.25    -999.25  394.55530  497.41340    2.01040    -999.25    -999.25    2.01040    -999.25    -999.25    -999.25    -999.25   -3.40370  -22.13270    2.67990
 10050.00000    2.72010    -999.25    -999.25  376.17770  496.45030    2.01430    -999.25    -999.25    2.01430    -999.25    -999.25    -999.25    -999.25   -4.24740  -22.93810    2.72010
 10100.00000    2.41270    -999.25    -999.25  440.05470  534.27360    1.87170    -999.25    -999.25    1.87170    -999.25    -999.25    -999.25    -999.25   -4.01630  -22.66870    2.41270
 10150.00000    3.24150    -999.25    -999.25  319.27710  394.32180    2.53600    -999.25    -999.25    2.53600    -999.25    -999.25    -999.25    -999.25   -4.95100  -23.56510    3.24150
 10200.00000    3.15800    -999.25    -999.25  318.60780  399.82410    2.50110    -999.25    -999.25    2.50110    -999.25    -999.25    -999.25    -999.25   -4.81060  -23.38630    3.15800
 10250.00000    3.29420    -999.25    -999.25  402.08970  365.25680    2.73780    -999.25    -999.25    2.73780    -999.25    -999.25    -999.25    -999.25   -1.44670  -19.98410    3.29420
 10300.00000    2.63940    -999.25    -999.25  431.04080  479.50130    2.08550    -999.25    -999.25    2.08550    -999.25    -999.25    -999.25    -999.25   -3.99020  -22.48930    2.63940
 10350.00000    2.54850    -999.25    -999.25  455.15400  534.27360    1.87170    -999.25    -999.25    1.87170    -999.25    -999.25    -999.25    -999.25   -3.85140  -22.31220    2.54850
 10400.00000    2.45840    -999.25    -999.25  456.49260  555.40120    1.80050    -999.25    -999.25    1.80050    -999.25    -999.25    -999.25    -999.25   -4.06830  -22.49070    2.45840
 10450.00000    2.60750    -999.25    -999.25  419.00800  545.70260    1.83250    -999.25    -999.25    1.83250    -999.25    -999.25    -999.25    -999.25   -4.28650  -22.67060    2.60750
 10500.00000    2.38790    -999.25    -999.25  492.63720  558.69040    1.78990    -999.25    -999.25    1.78990    -999.25    -999.25    -999.25    -999.25   -3.96600  -22.31180    2.38790
 10550.00000    2.69540    -999.25    -999.25  425.70140  481.57960    2.07650    -999.25    -999.25    2.07650    -999.25    -999.25    -999.25    -999.25   -3.64550  -21.95300    2.69540
 10600.00000    2.71180    -999.25    -999.25  411.86760  492.90220    2.02880    -999.25    -999.25    2.02880    -999.25    -999.25    -999.25    -999.25   -1.16720  -19.44440    2.71180
 10650.00000    3.02850    -999.25    -999.25  370.14720  404.57990    2.47170    -999.25    -999.25    2.47170    -999.25    -999.25    -999.25    -999.25   -1.32280  -19.62410    3.02850
 10700.00000    3.93180    -999.25    -999.25  281.12450  296.82400    3.36900    -999.25    -999.25    3.36900    -999.25    -999.25    -999.25    -999.25   -2.55140  -20.87680    3.93180
 10750.00000    4.00480    -999.25    -999.25  253.90740  263.67140    3.79260    -999.25    -999.25    3.79260    -999.25    -999.25    -999.25    -999.25   -3.42480  -21.77420    4.00480
 10800.00000    4.01070    -999.25    -999.25  245.82650  267.93130    3.73230    -999.25    -999.25    3.73230    -999.25    -999.25    -999.25    -999.25   -2.68530  -21.05880    4.01070
 10850.00000    3.57530    -999.25    -999.25  330.65590  362.88420    2.75570    -999.25    -999.25    2.75570    -999.25    -999.25    -999.25    -999.25   -2.48170  -20.87930    3.57530
 10900.00000    3.77040    -999.25    -999.25  291.86320  355.16410    2.81560    -999.25    -999.25    2.81560    -999.25    -999.25    -999.25    -999.25   -2.45790  -20.87960    3.77040
 10950.00000    3.09560    -999.25    -999.25  396.92100  448.79280    2.22820    -999.25    -999.25    2.22820    -999.25    -999.25    -999.25    -999.25   -1.89450  -20.34020    3.09560
 11000.00000    3.83230    -999.25    -999.25  283.80190  313.99150    3.18480    -999.25    -999.25    3.18480    -999.25    -999.25    -999.25    -999.25   -2.76630  -21.23610    3.83230
