~Version ---------------------------------------------------
VERS. 2.0 : CWLS log ASCII Standard -VERSION 2.0
WRAP. YES : Multiple lines per depth step
~Well ------------------------------------------------------
STRT.FT                   2500.0 : START DEPTH
STOP.FT                  17250.0 : STOP DEPTH
STEP.FT                 50.00000 : STEP LENGTH
NULL.                    -999.25 : NULL VALUE
COMP. CHAMPLIN PETROLEUM COMPANY : COMPANY
WELL.    FRIAR RANCH GAS UNIT #1 : WELL
FLD .                    WILDCAT : FIELD
LOC .                            : LOCATION
CNTY.                    DE WITT : COUNTY
STAT.                      TEXAS : STATE
CTRY.   UNITED STATES OF AMERICA : COUNTRY
SRVC.                    Unknown : SERVICE COMPANY
DATE.                27-Nov-1979 : LOGDATE
API .             42123309830000 : API NUMBER
UWI .             42123309830000 : UNIQUE WELL ID
SLAT.WGS84           29.12059862 : SURFACE LATITUDE
SLON.WGS84          -97.21043026 : SURFACE LONGITUDE
~Curve Information -----------------------------------------
DEPT    .FT    : DEPTH FEET
ACED    .US/F  : DELTA TIME (ACOUSTIC) FROM SONIC LOG [DEP ADJ TO DTED]
CALDED  .IN    : CALIPER FROM DENSITY LOG [DEP ADJ TO GRRED]
CALRED  .IN    : CALIPER FROM RESISTIVITY LOG
CALWS   .IN    : CALIPER [CALDED]
CONDWS  .MMHO  : CONDUCTIVITY [1000/DRESWS]
CORRED  .G/C3  : DENSITY CORRECTION FROM DENSITY LOG
DCORWS  .G/C3  : DENSITY CORRECTION [CORRED]
DENWS   .G/C3  : BULK DENSITY [M=2.71 F=1.0] [RHOBED]
DPHILSED.V/V   : DENSITY POROSITY [M=2.71 F=1.0] FROM DENSITY LOG [DEP ADJ TO GRRED]
DPHISSED.V/V   : DENSITY POROSITY [M=2.65 F=1.0][7100-10800F M=2.68] FROM DENSITY LOG
DPOLSWS .V/V   : DENSITY POROSITY [M=2.71 F=1.0] [CAL FR DENWS]
DRESWS  .OHMM  : DEEP RESISTIVITY [ILDED]
DTED    .US/F  : DELTA TIME FROM SONIC LOG
DTWS    .US/F  : DELTA TIME [2490 DTED 15878 ACED]
GRDED   .GAPI  : GAMMA RAY FROM DENSITY LOG [DEP ADJ TO GRRED]
GRRED   .GAPI  : GAMMA RAY FROM RESISTIVITY LOG
GRWS    .GAPI  : GAMMA RAY [2490 GRDED 17231 GRRED]
ILDED   .OHMM  : INDUCTION LOG DEEP RESISTIVITY
ILMED   .OHMM  : INDUCTION LOG MEDIUM RESISTIVITY
MRESWS  .OHMM  : MEDIUM RESISTIVITY [ILMED]
NPHILSED.V/V   : NEUTRON POROSITY LIMESTONE FROM DENSITY LOG [DEP ADJ TO GRRED]
NPHISSED.V/V   : NEUTRON POROSITY SANDSTONE FROM DENSITY LOG
NPOLSWS .V/V   : NEUTRON POROSITY LIMESTONE [2490 NPOLSCAL 14943 NPHILSED] [NPHISSED WAS CONVERTED TO NPOLSCAL USING POWERLOG MODULE]
RHOBED  .G/C3  : BULK DENSITY FROM DENSITY LOG [DEP ADJ TO GRRED]
SFLED   .OHMM  : SPHERICALLY FOCUSED LOG RESISTIVITY
SPHILSED.V/V   : SONIC POROSITY FROM SONIC LOG [DEP ADJ TO DTED] [LIMESTONE M=47.5, F=189]
SPOWS   .V/V   : SONIC POROSITY [CAL FR DTWS] [LIMESTONE M=47.5, F=189]
SPRED   .MV    : SPONTANEOUS POTENTIAL FROM RESISTIVITY LOG [SHIFTS ARE REMOVED]
SPWS    .MV    : SPONTANEOUS POTENTIAL [BASELINE 0 MV] [SPRED]
SRESWS  .OHMM  : SHALLOW RESISTIVITY [SFLED]
~Params ----------------------------------------------------
PD  .                     GL : PERMANENT DATUM
EPD .FT                223.8 : ELEVATION PERMANENT DATUM
LMF .                     KB : LOG MEASURED FROM
DAPD.FT                   26 : FEET ABOVE PERMANENT DATUM
DMF .                     KB : DRILLING MEASURED FROM
EKB .FT                249.8 : KELLY BUSHING
EDF .FT                248.8 : DRILLING FLOOR
EGL .FT                223.8 : GROUND LEVEL
DATE.               11/27/79 : RUN DATE
RUN .                      1 : RUN NUMBER
DD  .FT                17252 : DEPTH DRILLER
DL  .FT                17259 : DEPTH LOGGER
BLI .FT                17258 : BOTTOM LOG INTERVAL
TLI .FT                15013 : TOP LOG INTERVAL
CS  .IN                    7 : CASING SIZE
CBD .FT                15015 : CASING BOTTOM DRILLER
CBL .FT                15018 : CASING BOTTOM LOGGER
BS  .IN                5.875 : BIT SIZE
BSD .FT                17252 : BIT SIZE AT DEPTH
DFT .               OIL FAZE : DRILLING FLUID TYPE
DFD .                   12.8 : DRILLING FLUID DENSITY
DFV .                     45 : DRILLING FLUID VISCOSITY
DFL .                   13.6 : DRILLING FLUID LOSS
TCS .HRS                 545 : TIME CIRCULATED STOPPED
TLAB.HRS                1500 : TIME LOGGER AT BOTTOM
LUN .                   8011 : LOGGING UNIT NUMBER
LUL .                   VICT : LOGGING UNIT LOCATION
ENGI.                   SHEA : RECORDING ENGINEER
WITN.            BLANKENSHIP : WITNESSED BY
CLNT.                A2DTECH : CLIENT CODE
ORIG.            1" 5" PRINT : ORIGIN OF DATA
UWI .         42123309830000 : UNIQUE WELL ID
DICO. A2D Technologies, Inc. : DIGITIZING COMPANY
~Other -----------------------------------------------------
~ASCII -----------------------------------------------------
# ...
 4900.00000    -999.25   15.47570    -999.25   15.47570 1019.67980    0.02640    0.02640    2.27400    -999.25    0.22820    0.25500    0.98070  129.44580  129.44580  101.45390    -999.25  101.45390    0.98070    1.01500    1.01500    -999.25    0.38800    0.34490    2.27400    1.14150    -999.25    0.57910  -20.07570   -2.17330    1.14150
 4950.00000    -999.25   16.83090    -999.25   16.83090  998.30290    0.03040    0.03040    2.32030    -999.25    0.20750    0.22790    1.00170  124.28900  124.28900   89.43930    -999.25   89.43930    1.00170    1.05310    1.05310    -999.25    0.39780    0.35490    2.32030    1.08570    -999.25    0.54270  -19.80580   -1.83300    1.08570
 5000.00000    -999.25   15.25710    -999.25   15.25710  748.33500    0.11640    0.11640    2.46410    -999.25    0.10650    0.14380    1.33630   97.61870   97.61870   70.29320    -999.25   70.29320    1.33630    1.58140    1.58140    -999.25    0.36720    0.32380    2.46410    2.10150    -999.25    0.35420  -22.02010   -3.97690    2.10150
 5050.00000    -999.25   15.74100    -999.25   15.74100  835.00340    0.02110    0.02110    2.34660    -999.25    0.18600    0.21250    1.19760  110.22170  110.22170   87.54820    -999.25   87.54820    1.19760    1.25820    1.25820    -999.25    0.41510    0.37250    2.34660    1.40680    -999.25    0.44330  -21.66720   -3.55360    1.40680
 5100.00000    -999.25   13.22140    -999.25   13.22140 1495.88640    0.06790    0.06790    2.06250    -999.25    0.35050    0.37870    0.66850  159.95870  159.95870   76.94290    -999.25   76.94290    0.66850    0.69810    0.69810    -999.25    0.54640    0.50470    2.06250    0.85110    -999.25    0.79480  -20.05010   -1.86610    0.85110
 5150.00000    -999.25   12.97760    -999.25   12.97760 1161.44020    0.07170    0.07170    2.14560    -999.25    0.30920    0.33010    0.86100  138.16690  138.16690   86.39130    -999.25   86.39130    0.86100    0.89260    0.89260    -999.25    0.56760    0.52590    2.14560    1.05350    -999.25    0.64080  -19.94200   -1.70590    1.05350
 5200.00000    -999.25   13.85790    -999.25   13.85790  868.80970    0.04740    0.04740    2.07110    -999.25    0.34050    0.37360    1.15100  117.17760  117.17760   82.47340    -999.25   82.47340    1.15100    1.20450    1.20450    -999.25    0.44410    0.40230    2.07110    1.21590    -999.25    0.49240  -23.59030   -5.30620    1.21590
 5250.00000    -999.25   12.40310    -999.25   12.40310 1506.47790    0.02100    0.02100    2.10460    -999.25    0.32940    0.35400    0.66380  148.35970  148.35970   87.10190    -999.25   87.10190    0.66380    0.68880    0.68880    -999.25    0.53690    0.49520    2.10460    0.84460    -999.25    0.71280  -21.48240   -3.15030    0.84460
 5300.00000    -999.25   14.60340    -999.25   14.60340 1547.02980    0.00390    0.00390    2.08800    -999.25    0.34310    0.36370    0.64640  151.40120  151.40120   81.96040    -999.25   81.96040    0.64640    0.68650    0.68650    -999.25    0.55410    0.51240    2.08800    0.76040    -999.25    0.73430  -21.16410   -2.78390    0.76040
 5350.00000    -999.25   12.89600    -999.25   12.89600 1446.55000    0.05820    0.05820    2.04880    -999.25    0.35440    0.38670    0.69130  156.30960  156.30960   78.00110    -999.25   78.00110    0.69130    0.71460    0.71460    -999.25    0.51490    0.47320    2.04880    0.84160    -999.25    0.76900  -21.05980   -2.63160    0.84160
 5400.00000    -999.25   14.21190    -999.25   14.21190 1575.79580    0.01260    0.01260    2.20630    -999.25    0.27060    0.29460    0.63460  140.12920  140.12920   90.82270    -999.25   90.82270    0.63460    0.65980    0.65980    -999.25    0.53000    0.48830    2.20630    0.83580    -999.25    0.65460  -20.97940   -2.50320    0.83580
 5450.00000    -999.25   15.44270    -999.25   15.44270 1408.05410    0.04190    0.04190    2.30180    -999.25    0.21290    0.23870    0.71020  126.69800  126.69800   94.56620    -999.25   94.56620    0.71020    0.73490    0.73490    -999.25    0.46730    0.42560    2.30180    0.99900    -999.25    0.55970  -20.01250   -1.48830    0.99900
 5500.00000    -999.25   16.68700    -999.25   16.68700 1153.13650    0.02300    0.02300    2.33790    -999.25    0.19560    0.21760    0.86720  118.83040  118.83040   88.03050    -999.25   88.03050    0.86720    0.89760    0.89760    -999.25    0.41670    0.37420    2.33790    1.30830    -999.25    0.50410  -22.66580   -4.09360    1.30830
 5550.00000    -999.25   17.50400    -999.25   17.50400 1174.26030   -0.00050   -0.00050    2.28630    -999.25    0.22040    0.24780    0.85160  125.19690  125.19690   82.54210    -999.25   82.54210    0.85160    0.89120    0.89120    -999.25    0.47780    0.43610    2.28630    0.99560    -999.25    0.54910  -22.63080   -4.01060    0.99560
 5600.00000    -999.25   18.57290    -999.25   18.57290 1155.93570    0.03460    0.03460    2.33530    -999.25    0.20010    0.21910    0.86510  131.19770  131.19770   90.33320    -999.25   90.33320    0.86510    0.90480    0.90480    -999.25    0.44210    0.40020    2.33530    0.95100    -999.25    0.59150  -22.31730   -3.64900    0.95100
 5650.00000    -999.25   17.88130    -999.25   17.88130 1462.20200    0.01630    0.01630    2.28810    -999.25    0.22060    0.24670    0.68390  125.90640  125.90640   94.35840    -999.25   94.35840    0.68390    0.71470    0.71470    -999.25    0.48070    0.43900    2.28810    0.89200    -999.25    0.55410  -21.75060   -3.03430    0.89200
 5700.00000    -999.25   17.93040    -999.25   17.93040 1133.14450    0.04320    0.04320    2.35610    -999.25    0.18310    0.20700    0.88250  126.15630  126.15630   87.08170    -999.25   87.08170    0.88250    0.92620    0.92620    -999.25    0.43460    0.39250    2.35610    1.10380    -999.25    0.55590  -21.36330   -2.59900    1.10380
 5750.00000    -999.25   15.86580    -999.25   15.86580  846.88350    0.02430    0.02430    2.45280    -999.25    0.12360    0.15040    1.18080  104.07410  104.07410   84.59260    -999.25   84.59260    1.18080    1.23870    1.23870    -999.25    0.40250    0.35970    2.45280    1.26650    -999.25    0.39980  -22.29320   -3.48090    1.26650
 5800.00000    -999.25   14.87500    -999.25   14.87500 1105.95000    0.02380    0.02380    2.33080    -999.25    0.19510    0.22180    0.90420  117.54890  117.54890   88.91800    -999.25   88.91800    0.90420    0.93570    0.93570    -999.25    0.47250    0.43080    2.33080    1.08770    -999.25    0.49500  -20.42210   -1.56180    1.08770
 5850.00000    -999.25   14.23230    -999.25   14.23230  976.37180    0.09290    0.09290    2.23800    -999.25    0.24490    0.27600    1.02420  114.57210  114.57210   78.19350    -999.25   78.19350    1.02420    1.06850    1.06850    -999.25    0.43250    0.39040    2.23800    1.37250    -999.25    0.47400  -21.53060   -2.62220    1.37250
 5900.00000    -999.25   13.79790    -999.25   13.79790  975.60980    0.02330    0.02330    2.34530    -999.25    0.18600    0.21330    1.02500  113.83520  113.83520   91.17040    -999.25   91.17040    1.02500    1.06050    1.06050    -999.25    0.41850    0.37600    2.34530    1.13820    -999.25    0.46880  -20.41190   -1.45550    1.13820
 5950.00000    -999.25   13.27170    -999.25   13.27170 1162.25010    0.02970    0.02970    2.31040    -999.25    0.20720    0.23370    0.86040  117.21260  117.21260   85.49210    -999.25   85.49210    0.86040    0.89210    0.89210    -999.25    0.45000    0.40830    2.31040    1.00920    -999.25    0.49270  -22.24230   -3.23790    1.00920
 6000.00000    -999.25   13.12010    -999.25   13.12010 1121.07620    0.01700    0.01700    2.33390    -999.25    0.19240    0.21990    0.89200  113.45100  113.45100   89.14230    -999.25   89.14230    0.89200    0.92380    0.92380    -999.25    0.45420    0.41250    2.33390    1.16260    -999.25    0.46610  -22.79870   -3.79660    1.16260
 6050.00000    -999.25   14.94850    -999.25   14.94850  882.92430    0.02350    0.02350    2.25830    -999.25    0.23910    0.26420    1.13260  112.50940  112.50940   75.42780    -999.25   75.42780    1.13260    1.17160    1.17160    -999.25    0.40410    0.36130    2.25830    0.91440    -999.25    0.45940  -23.19970   -4.21660    0.91440
