~Version ---------------------------------------------------
VERS. 2.0 : CWLS log ASCII Standard -VERSION 2.0
WRAP.  NO : One line per depth step
~Well ------------------------------------------------------
STRT.FT                          300.0 : START DEPTH
STOP.FT                        14400.0 : STOP DEPTH
STEP.FT                       50.00000 : STEP LENGTH
NULL.                          -999.25 : NULL VALUE
COMP.    AMERADA PETROLEUM CORPORATION : COMPANY
WELL.                MABEL GRIMES B #1 : WELL
FLD .               LOWE RANCH EDWARDS : FIELD
LOC .                                  : LOCATION
CNTY.                        MC MULLEN : COUNTY
STAT.                            TEXAS : STATE
CTRY.         UNITED STATES OF AMERICA : COUNTRY
SRVC. Schlumberger Well Surveying Corp : SERVICE COMPANY
DATE.                      20-Feb-1958 : LOGDATE
API .                   42311013640000 : API NUMBER
UWI .                   42311013640000 : UNIQUE WELL ID
SLAT.WGS84               28.3207374348 : SURFACE LATITUDE
SLON.WGS84              -98.6948976176 : SURFACE LONGITUDE
~Curve Information -----------------------------------------
DEPT  .FT    : DEPTH
ASNED .OHMM  : AMPLIFIED SHORT NORMAL 16 IN.
CALMED.IN    : CALIPER FROM MICRO LOG (ADJ TO RES.)
CALWS .IN    : CALIPER (CALMED)
CILDED.MMHO  : CONDUCTIVITY FROM LOG
CONDWS.MMHO  : CONDUCTIVITY (1000/DRESws)
DRESWS.OHMM  : DEEP RESISTIVITY (LNED/ILDED @ 5122) (IF DRESws<1, THEN 1000/CILDED)
GRNED .CU    : GAMMA RAY FROM NEUTRON LOG (ADJ TO RES.)
GRWS  .CU    : GAMMA RAY (GRNED)
ILDED .OHMM  : DEEP INDUCTION RESISTIVITY
LNED  .OHMM  : LONG NORMAL 64 IN.
LT18ED.OHMM  : LATERAL
NEUTED.CU    : NEUTRON FROM GAMMA RAY NEUTRON LOG (ADJ TO RES.)
NEUTWS.CU    : NEUTRON FROM GAMMA RAY NEUTRON LOG (NEUTED)
SPWS  .MV    : SPONTANEOUS POTENTIAL BASELINE 0 MV (SPRED)
SPRED .MV    : SPONTANEOUS POTENTIAL FROM RESISTIVITY
SRESWS.OHMM  : SHALLOW RESISTIVITY (ASNED)
~Params ----------------------------------------------------
PD  .                     GL : PERMANENT DATUM
LMF .                     KB : LOG MEASURED FROM
DAPD.F                 16.05 : FEET ABOVE PERMANENT DATUM
DMF .                     KB : DRILLING MEASURED FROM
EDF .F                   323 : DRILLING FLOOR
DATE.               02/20/58 : RUN DATE
RUN .                      3 : RUN NUMBER
DD  .F                 14409 : DEPTH DRILLER
DL  .F                 14411 : DEPTH LOGGER
BLI .F                 14405 : BOTTOM LOG INTERVAL
TLI .F                 13725 : TOP LOG INTERVAL
CBD .F                 13725 : CASING BOTTOM DRILLER
CBL .F                 13725 : CASING BOTTOM LOGGER
BS  .IN                 8.75 : BIT SIZE
BSD .F                 14409 : BIT SIZE AT DEPTH
DFT .               OIL EMUL : DRILLING FLUID TYPE
DFD .                   12.4 : DRILLING FLUID DENSITY
DFV .                     46 : DRILLING FLUID VISCOSITY
DFPH.                     12 : DRILLING FLUID PH
DFL .                    6.5 : DRILLING FLUID LOSS
MSS .                MUD PIT : MUD SAMPLE SOURCE
RMS .OHMM               0.82 : RESISTIVITY MUD SAMPLE
MST .F                    78 : MUD SAMPLE TEMPERATURE
RMF .OHMM               0.16 : RESISTIVITY MUD FILTRATE SAMPLE
MFST.F                   310 : MUD FILTRATE SAMPLE TEMPERATURE
RMC .OHMM               0.31 : RESISTIVITY MUD CAKE
MCST.F                   310 : MUD CAKE SAMPLE TEMPERATURE
RMB .OHMM               0.21 : RESISTIVITY MUD AT BHT
TCS .HRS                   2 : TIME CURCULATED STOPPED
LUL .                    VIC : LOGGING UNIT LOCATION
ENGI.                WHITNEY : RECORDING ENGINEER
WITN.                 GOLSON : WITNESSED BY
CLNT.                A2DTECH : CLIENT CODE
ORIG.               2" PRINT : ORIGIN OF DATA
UWI .         42311013640000 : UNIQUE WELL ID
DICO. A2D Technologies, Inc. : DIGITIZING COMPANY
~Other -----------------------------------------------------
~ASCII -----------------------------------------------------
  300.00000    1.69740    -999.25    -999.25    -999.25  658.89180    1.51770    -999.25    -999.25    -999.25    1.51770    1.41820    -999.25    -999.25  -10.06780  -28.76550    1.69740
  350.00000    1.12230    -999.25    -999.25    -999.25 1191.32710    0.83940    -999.25    -999.25    -999.25    0.83940    2.32340    -999.25    -999.25   -5.47110  -24.28550    1.12230
  400.00000    2.95340    -999.25    -999.25    -999.25  497.73530    2.00910    -999.25    -999.25    -999.25    2.00910    1.51430    -999.25    -999.25  -40.65860  -59.58970    2.95340
  450.00000    1.25020    -999.25    -999.25    -999.25  918.18930    1.08910    -999.25    -999.25    -999.25    1.08910    1.38360    -999.25    -999.25   -7.56530  -26.61310    1.25020
  500.00000    1.95560    -999.25    -999.25    -999.25  602.26450    1.66040    -999.25    -999.25    -999.25    1.66040    2.46850    -999.25    -999.25  -25.36770  -44.53220    1.95560
  550.00000    1.53190    -999.25    -999.25    -999.25  982.22170    1.01810    -999.25    -999.25    -999.25    1.01810    1.48780    -999.25    -999.25   -6.30140  -25.58260    1.53190
  600.00000    1.68110    -999.25    -999.25    -999.25  602.11940    1.66080    -999.25    -999.25    -999.25    1.66080    1.62850    -999.25    -999.25   -4.86960  -24.10370    1.68110
  650.00000    2.27430    -999.25    -999.25    -999.25  470.72120    2.12440    -999.25    -999.25    -999.25    2.12440    1.41850    -999.25    -999.25   -3.85490  -23.02960    2.27430
  700.00000    2.45870    -999.25    -999.25    -999.25  513.76900    1.94640    -999.25    -999.25    -999.25    1.94640    2.35810    -999.25    -999.25  -13.40890  -32.52420    2.45870
  750.00000    1.58390    -999.25    -999.25    -999.25  658.63130    1.51830    -999.25    -999.25    -999.25    1.51830    1.62860    -999.25    -999.25   -5.94420  -25.00010    1.58390
  800.00000    2.02570    -999.25    -999.25    -999.25  565.54690    1.76820    -999.25    -999.25    -999.25    1.76820    2.95910    -999.25    -999.25  -14.42480  -33.42130    2.02570
  850.00000    2.74090    -999.25    -999.25    -999.25  421.01720    2.37520    -999.25    -999.25    -999.25    2.37520    2.71390    -999.25    -999.25  -17.71200  -36.64910    2.74090
  900.00000    3.96370    -999.25    -999.25    -999.25  392.52630    2.54760    -999.25    -999.25    -999.25    2.54760    2.25870    -999.25    -999.25  -40.17380  -59.05150    3.96370
  950.00000    1.60060    -999.25    -999.25    -999.25  658.63130    1.51830    -999.25    -999.25    -999.25    1.51830    2.39880    -999.25    -999.25   -5.28570  -24.10410    1.60060
 1000.00000    1.61040    -999.25    -999.25    -999.25  561.67150    1.78040    -999.25    -999.25    -999.25    1.78040    3.17550    -999.25    -999.25   -4.74800  -23.50700    1.61040
 1050.00000    2.64180    -999.25    -999.25    -999.25  408.76390    2.44640    -999.25    -999.25    -999.25    2.44640    2.74900    -999.25    -999.25  -10.95030  -29.64990    2.64180
 1100.00000    1.55610    -999.25    -999.25    -999.25  658.93510    1.51760    -999.25    -999.25    -999.25    1.51760    1.52350    -999.25    -999.25   -4.38840  -23.02860    1.55610
 1150.00000    2.08940    -999.25    -999.25    -999.25  577.40060    1.73190    -999.25    -999.25    -999.25    1.73190    2.35780    -999.25    -999.25   -4.31330  -22.89410    2.08940
 1200.00000    2.59670    -999.25    -999.25    -999.25  419.53350    2.38360    -999.25    -999.25    -999.25    2.38360    1.00710    -999.25    -999.25  -10.06650  -28.58790    2.59670
 1250.00000    2.82210    -999.25    -999.25    -999.25  414.80010    2.41080    -999.25    -999.25    -999.25    2.41080    2.88900    -999.25    -999.25  -23.74200  -42.20400    2.82210
 1300.00000    4.10830    -999.25    -999.25    -999.25  361.32390    2.76760    -999.25    -999.25    -999.25    2.76760    2.11840    -999.25    -999.25  -39.39070  -57.79330    4.10830
 1350.00000    3.44100    -999.25    -999.25    -999.25  434.14080    2.30340    -999.25    -999.25    -999.25    2.30340    3.58960    -999.25    -999.25  -31.07440  -49.41760    3.44100
 1400.00000    2.25640    -999.25    -999.25    -999.25  513.82180    1.94620    -999.25    -999.25    -999.25    1.94620    1.41840    -999.25    -999.25  -11.96480  -30.24860    2.25640
 1450.00000    1.64250    -999.25    -999.25    -999.25  624.76570    1.60060    -999.25    -999.25    -999.25    1.60060    2.42810    -999.25    -999.25   -6.41680  -24.64120    1.64250
 1500.00000    2.52110    -999.25    -999.25    -999.25  658.80490    1.51790    -999.25    -999.25    -999.25    1.51790    1.66370    -999.25    -999.25  -12.16840  -30.33340    2.52110
 1550.00000    2.40670    -999.25    -999.25    -999.25  565.48290    1.76840    -999.25    -999.25    -999.25    1.76840    1.97840    -999.25    -999.25  -12.98690  -31.09250    2.40670
 1600.00000    1.47300    -999.25    -999.25    -999.25  629.20780    1.58930    -999.25    -999.25    -999.25    1.58930    1.83840    -999.25    -999.25   -6.41550  -24.46170    1.47300
 1650.00000    1.62060    -999.25    -999.25    -999.25  811.62240    1.23210    -999.25    -999.25    -999.25    1.23210    1.80350    -999.25    -999.25   -4.86320  -22.85000    1.62060
 1700.00000    1.53930    -999.25    -999.25    -999.25  861.69750    1.16050    -999.25    -999.25    -999.25    1.16050    1.45340    -999.25    -999.25   -4.38460  -22.31210    1.53930
 1750.00000    1.53360    -999.25    -999.25    -999.25  918.18930    1.08910    -999.25    -999.25    -999.25    1.08910    1.80340    -999.25    -999.25   -4.98120  -22.84930    1.53360
 1800.00000    1.38440    -999.25    -999.25    -999.25  861.25230    1.16110    -999.25    -999.25    -999.25    1.16110    1.23690    -999.25    -999.25   -4.50360  -22.31230    1.38440
 1850.00000    3.03810    -999.25    -999.25    -999.25  434.06540    2.30380    -999.25    -999.25    -999.25    2.30380    1.38330    -999.25    -999.25  -20.77790  -38.61880    3.03810
 1900.00000    1.45660    -999.25    -999.25    -999.25  746.65870    1.33930    -999.25    -999.25    -999.25    1.33930    1.24310    -999.25    -999.25   -4.93140  -23.02900    1.45660
 1950.00000    1.55390    -999.25    -999.25    -999.25  746.60290    1.33940    -999.25    -999.25    -999.25    1.33940    1.44470    -999.25    -999.25   -5.16670  -23.52090    1.55390
 2000.00000    1.95600    -999.25    -999.25    -999.25  674.76390    1.48200    -999.25    -999.25    -999.25    1.48200    1.66310    -999.25    -999.25   -4.95580  -23.56660    1.95600
 2050.00000    1.63330    -999.25    -999.25    -999.25  746.38010    1.33980    -999.25    -999.25    -999.25    1.33980    1.52320    -999.25    -999.25   -4.87820  -23.74560    1.63330
 2100.00000    3.04310    -999.25    -999.25    -999.25  356.68430    2.80360    -999.25    -999.25    -999.25    2.80360    2.36420    -999.25    -999.25   -7.26930  -26.39340    3.04310
 2150.00000    5.61270    -999.25    -999.25    -999.25  327.48230    3.05360    -999.25    -999.25    -999.25    3.05360    3.06440    -999.25    -999.25  -45.68430  -65.06500    5.61270
 2200.00000    3.01450    -999.25    -999.25    -999.25  367.17460    2.72350    -999.25    -999.25    -999.25    2.72350    2.78420    -999.25    -999.25  -15.21810  -34.85540    3.01450
 2250.00000    2.61510    -999.25    -999.25    -999.25  455.24900    2.19660    -999.25    -999.25    -999.25    2.19660    4.98980    -999.25    -999.25   -6.53910  -26.43310    2.61510
 2300.00000    1.96760    -999.25    -999.25    -999.25  835.63130    1.19670    -999.25    -999.25    -999.25    1.19670    1.83830    -999.25    -999.25   -2.25010  -22.40070    1.96760
 2350.00000    1.68300    -999.25    -999.25    -999.25  842.17620    1.18740    -999.25    -999.25    -999.25    1.18740    1.41860    -999.25    -999.25   -1.46720  -22.17890    1.68300
 2400.00000    6.51420    -999.25    -999.25    -999.25  248.91100    4.01750    -999.25    -999.25    -999.25    4.01750    3.44940    -999.25    -999.25  -45.74230  -67.47200    6.51420
