~Version ---------------------------------------------------
VERS. 2.0 : CWLS log ASCII Standard -VERSION 2.0
WRAP. YES : Multiple lines per depth step
~Well ------------------------------------------------------
STRT.FT                  300.0 : START DEPTH
STOP.FT                10000.0 : STOP DEPTH
STEP.FT               50.00000 : STEP LENGTH
NULL.                  -999.25 : NULL VALUE
COMP.     TEXAS OIL & GAS CORP : COMPANY
WELL.     SILVER LAKE RANCH #1 : WELL
FLD .                  WILDCAT : FIELD
LOC .                          : LOCATION
CNTY.                   DIMMIT : COUNTY
STAT.                    TEXAS : STATE
CTRY. UNITED STATES OF AMERICA : COUNTRY
SRVC.                  Unknown : SERVICE COMPANY
DATE.              08-Nov-1979 : LOGDATE
API .           42127318560000 : API NUMBER
UWI .           42127318560000 : UNIQUE WELL ID
SLAT.WGS84       28.3952279901 : SURFACE LATITUDE
SLON.WGS84      -99.4517773834 : SURFACE LONGITUDE
~Curve Information -----------------------------------------
DEPT  .FT    : DEPTH
CALDED.IN    : CALIPER FROM DENSITY LOG (ADJ TO RES.)
CALWS .IN    : CALIPER (CALDED)
CONDWS.MMHO  : CONDUCTIVITY (1000/DRESws)
DCORWS.G/C3  : DENSITY CORRECTION (DRHOED)
DENWS .G/C3  : BULK DENSITY  (RHOBED LS)
DPHIED.V/V   : DENSITY POROSITY  (ADJ TO RES.)
DPOWS .V/V   : DENSITY POROSITY (M=2.71 F=1 DPHIED)
DRESWS.OHMM  : DEEP RESISTIVITY (RLLDED)
DRHOED.G/C3  : DENSITY CORRECTION (ADJ TO RES.)
DTED  .US/F  : DELTA TIME
DTWS  .US/F  : DELTA TIME  (DTED)
GRWS  .GAPI  : GAMMA RAY (GRRED) CASED TOP-1519
GRRED .GAPI  : GAMMA RAY FROM RESISTIVITY LOG
MRESWS.OHMM  : MEDIUM RESISTIVITY (RILMED)
NPHIED.V/V   : NEUTRON POROSITY (ADJ TO RES.)
NPOWS .V/V   : NEUTRON POROSITY LIMESTONE (NPHIED)
RHOBED.G/C3  : BULK DENSITY (ADJ TO RES.)
RILDED.OHMM  : DEEP INDUCTION RESISTIVITY
RILMED.OHMM  : MEDIUM INDUCTION RESISTIVITY
RLL8ED.OHMM  : LATEROLOG-8 RESISTIVITY
SPWS  .MV    : SPONTANEOUS POTENTIAL BASELINE 0 MV (SPRED)
SPRED .MV    : SPONTANEOUS POTENTIAL FROM RESISTIVITY
SRESWS.OHMM  : SHALLOW RESISTIVITY (RLL8ED)
~Params ----------------------------------------------------
EKB .F                  460.5 : KELLY BUSHING
EGL .F                    0.0 : GROUND LEVEL
EDF .F                    0.0 : DRILLING FLOOR
EPD .F                    0.0 : PERMANENT DATUM
TD  .F                10015.0 : TOTAL DEPTH
DATE.             09-NOV-1979 : DATE LOGGED
CLNT.                 A2DTECH : CLIENT CODE
SL  . 21900' FWL & 11800' FSL : SURFACE LOCATION
PD  .                      GL : PERMANENT DATUM
LMF .                      KB : LOG MEASURED FROM
DMF .                      KB : DRILLING MEASURED FROM
DAPD.F                     15 : FEET ABOVE PERMANENT DATUM
DD  .F                  10015 : DEPTH DRILLER
DL  .F                   9992 : DEPTH LOGGER
BLI .F                   9986 : BOTTOM LOG INTERVAL
TLI .F                   1519 : TOP LOG INTERVAL
CS1 .IN                 8.625 : CASING SIZE
CBD1.          8.625" @ 1520' : CASING DRILLER 1
CBL1.F                   1519 : CASING LOGGER 1
BS1 .IN                 7.875 : BIT SIZE
BSD1.F                  10015 : DEPTH DRILLED WITH BIT1
DFT .  LIGNITE-LIGNOSULFONATE : TYPE FLUID IN HOLE
DFD .                    10.8 : DENSITY
DFV .                      53 : VISCOSITY
DFPH.                      11 : PH
DFL .                     3.6 : FLUID LOSS
MSS .              CIRC. TANK : SOURCE OF SAMPLE
RMS .OHMM                0.92 : RM
RMF .OHMM                0.68 : RMF
RMC .OHMM                 1.0 : RMC
MFSS.                    MEAS : SOURCE RMF.
MCSS.                    CALC : SOURCE RMC.
RMB .OHMM                0.31 : RM. AT BHT
BHT .F                    220 : BHT.
TCS .HRS                  300 : TIME CIRC. STOPPED
TLAB.                     900 : TIME LOGGER AT BOTTOM
LUN .                    8132 : LOGGING UNIT NUMBER
LUL .                  LAREDO : LOGGING UNIT LOCATION
ENGI.                   FOGAL : RECORDED BY
WITN.                  FISHER : WITNESSED BY
ORIG.                5" PRINT : ORIGIN OF DATA
UWI .          42127318560000 : UNIQUE WELL ID
DICO.  A2D TECHNOLOGIES, INC. : DIGITIZING COMPANY
~Other -----------------------------------------------------
~ASCII -----------------------------------------------------
# ...
 4950.00000    -999.25    -999.25  239.63580    -999.25    -999.25    -999.25    -999.25    4.17300    -999.25   85.25900   85.25900   88.94200   88.94200    4.22200    -999.25    -999.25    -999.25    4.17300    4.22200    4.09800   -7.33280  -22.21700    4.09800
 5000.00000    -999.25    -999.25  225.02250    -999.25    -999.25    -999.25    -999.25    4.44400    -999.25   80.25000   80.25000   91.80100   91.80100    4.58000    -999.25    -999.25    -999.25    4.44400    4.58000    5.20700   -6.71290  -21.64700    5.20700
 5050.00000    -999.25    -999.25  342.23140    -999.25    -999.25    -999.25    -999.25    2.92200    -999.25   91.02500   91.02500   88.38300   88.38300    2.88100    -999.25    -999.25    -999.25    2.92200    2.88100    3.00300   -5.44010  -20.42400    3.00300
 5100.00000    -999.25    -999.25  336.02150    -999.25    -999.25    -999.25    -999.25    2.97600    -999.25   90.17000   90.17000   94.74600   94.74600    3.03600    -999.25    -999.25    -999.25    2.97600    3.03600    3.08700   -6.00220  -21.03600    3.08700
 5150.00000    -999.25    -999.25  346.38030    -999.25    -999.25    -999.25    -999.25    2.88700    -999.25   91.78200   91.78200   93.46100   93.46100    2.85300    -999.25    -999.25    -999.25    2.88700    2.85300    3.03200   -5.09530  -20.17900    3.03200
 5200.00000    -999.25    -999.25  354.98760    -999.25    -999.25    -999.25    -999.25    2.81700    -999.25   91.71800   91.71800   97.51900   97.51900    2.86900    -999.25    -999.25    -999.25    2.81700    2.86900    2.94900   -5.24450  -20.37800    2.94900
 5250.00000    -999.25    -999.25  295.68300    -999.25    -999.25    -999.25    -999.25    3.38200    -999.25   89.02700   89.02700   92.30700   92.30700    3.35400    -999.25    -999.25    -999.25    3.38200    3.35400    3.51800   -5.23460  -20.41800    3.51800
 5300.00000    -999.25    -999.25  256.41020    -999.25    -999.25    -999.25    -999.25    3.90000    -999.25   84.98900   84.98900   94.18200   94.18200    3.87500    -999.25    -999.25    -999.25    3.90000    3.87500    4.06000   -5.58280  -20.81600    4.06000
 5350.00000    -999.25    -999.25  193.53590    -999.25    -999.25    -999.25    -999.25    5.16700    -999.25   81.05400   81.05400   89.77400   89.77400    5.12800    -999.25    -999.25    -999.25    5.16700    5.12800    5.72000   -6.78390  -22.06700    5.72000
 5400.00000    -999.25    -999.25  132.99640    -999.25    -999.25    -999.25    -999.25    7.51900    -999.25   73.63300   73.63300   83.22200   83.22200    7.60200    -999.25    -999.25    -999.25    7.51900    7.60200    7.48900   -4.88800  -20.22100    7.48900
 5450.00000    -999.25    -999.25  261.02840    -999.25    -999.25    -999.25    -999.25    3.83100    -999.25   82.52000   82.52000   85.92100   85.92100    3.80400    -999.25    -999.25    -999.25    3.83100    3.80400    4.28900   -6.24920  -21.63200    4.28900
 5500.00000    -999.25    -999.25  301.11410    -999.25    -999.25    -999.25    -999.25    3.32100    -999.25   86.40600   86.40600   81.54400   81.54400    3.90600    -999.25    -999.25    -999.25    3.32100    3.90600    3.68900  -24.80430  -40.23700    3.68900
 5550.00000    -999.25    -999.25  231.96480    -999.25    -999.25    -999.25    -999.25    4.31100    -999.25   79.74800   79.74800  116.50800  116.50800    4.25800    -999.25    -999.25    -999.25    4.31100    4.25800    4.02300  -12.67250  -28.15500    4.02300
 5600.00000    -999.25    -999.25  260.14570    -999.25    -999.25    -999.25    -999.25    3.84400    -999.25   76.64200   76.64200   65.92300   65.92300    4.36800    -999.25    -999.25    -999.25    3.84400    4.36800    5.27500  -28.25960  -43.79200    5.27500
 5650.00000    -999.25    -999.25  182.18260    -999.25    -999.25    -999.25    -999.25    5.48900    -999.25   75.47000   75.47000   83.23400   83.23400    5.54000    -999.25    -999.25    -999.25    5.48900    5.54000    5.85700   -8.72920  -24.28500    5.85700
 5700.00000    -999.25    -999.25  388.95370    -999.25    -999.25    -999.25    -999.25    2.57100    -999.25   81.71000   81.71000   65.12000   65.12000    3.29200    -999.25    -999.25    -999.25    2.57100    3.29200    4.07400  -39.27990  -54.73000    4.07400
 5750.00000    -999.25    -999.25  170.88170    -999.25    -999.25    -999.25    -999.25    5.85200    -999.25   74.68600   74.68600   73.15600   73.15600    5.96000    -999.25    -999.25    -999.25    5.85200    5.96000    6.65100   -7.91150  -23.25600    6.65100
 5800.00000    -999.25    -999.25  184.67220    -999.25    -999.25    -999.25    -999.25    5.41500    -999.25   78.08200   78.08200  101.70300  101.70300    5.49000    -999.25    -999.25    -999.25    5.41500    5.49000    5.54000   -4.90120  -20.14000    5.54000
 5850.00000    -999.25    -999.25  172.56250    -999.25    -999.25    -999.25    -999.25    5.79500    -999.25   74.77500   74.77500  107.65500  107.65500    6.29300    -999.25    -999.25    -999.25    5.79500    6.29300    8.53900   -4.20480  -19.33800    8.53900
 5900.00000    -999.25    -999.25  303.85900    -999.25    -999.25    -999.25    -999.25    3.29100    -999.25   87.87700   87.87700   95.87200   95.87200    3.29100    -999.25    -999.25    -999.25    3.29100    3.29100    3.70600   -1.19250  -16.22000    3.70600
 5950.00000    -999.25    -999.25  287.68700    -999.25    -999.25    -999.25    -999.25    3.47600    -999.25   89.15900   89.15900   96.43400   96.43400    3.38200    -999.25    -999.25    -999.25    3.47600    3.38200    3.20200   -4.21020  -19.13200    3.20200
 6000.00000    -999.25    -999.25  192.19680    -999.25    -999.25    -999.25    -999.25    5.20300    -999.25   80.25400   80.25400   92.76400   92.76400    5.39000    -999.25    -999.25    -999.25    5.20300    5.39000    5.39000   -5.17980  -19.99600    5.39000
 6050.00000    -999.25    -999.25  195.31250    -999.25    -999.25    -999.25    -999.25    5.12000    -999.25   78.69900   78.69900  101.53000  101.53000    5.27700    -999.25    -999.25    -999.25    5.12000    5.27700    5.45600   -5.38050  -20.09100    5.45600
 6100.00000    -999.25    -999.25  196.00160    -999.25    -999.25    -999.25    -999.25    5.10200    -999.25   75.00000   75.00000   94.16100   94.16100    5.05600    -999.25    -999.25    -999.25    5.10200    5.05600    5.64200   -6.21320  -20.81800    5.64200
 6150.00000    -999.25    -999.25  199.60080    -999.25    -999.25    -999.25    -999.25    5.01000    -999.25   77.91700   77.91700  104.79500  104.79500    4.87500    -999.25    -999.25    -999.25    5.01000    4.87500    5.08500   -5.87280  -20.37200    5.08500
 6200.00000    -999.25    -999.25  199.00500    -999.25    -999.25    -999.25    -999.25    5.02500    -999.25   79.58300   79.58300  106.33100  106.33100    4.91900    -999.25    -999.25    -999.25    5.02500    4.91900    5.39000   -5.02850  -19.42200    5.39000
 6250.00000    -999.25    -999.25  196.00160    -999.25    -999.25    -999.25    -999.25    5.10200    -999.25   80.62800   80.62800  102.44800  102.44800    4.93500    -999.25    -999.25    -999.25    5.10200    4.93500    4.77400   -5.03510  -19.32300    4.77400
 6300.00000    -999.25    -999.25  216.07610    -999.25    -999.25    -999.25    -999.25    4.62800    -999.25   79.34000   79.34000  105.65000  105.65000    4.65700    -999.25    -999.25    -999.25    4.62800    4.65700    4.61500   -6.59880  -20.78100    4.61500
 6350.00000    -999.25    -999.25  260.14570    -999.25    -999.25    -999.25    -999.25    3.84400    -999.25   84.90300   84.90300  114.56800  114.56800    3.74000    -999.25    -999.25    -999.25    3.84400    3.74000    3.74000   -5.35050  -19.42700    3.74000
 6400.00000    -999.25    -999.25  203.29340    -999.25    -999.25    -999.25    -999.25    4.91900    -999.25   78.25900   78.25900  103.10400  103.10400    4.83000    -999.25    -999.25    -999.25    4.91900    4.83000    4.91900   -6.64810  -20.61900    4.91900
 6450.00000    -999.25    -999.25  222.86610    -999.25    -999.25    -999.25    -999.25    4.48700    -999.25   78.48300   78.48300  102.26100  102.26100    4.61500    -999.25    -999.25    -999.25    4.48700    4.61500    4.60800   -7.94380  -21.80900    4.60800
