~Version ---------------------------------------------------
VERS. 2.0 : CWLS log ASCII Standard -VERSION 2.0
WRAP.  NO : ONE LINE PER DEPTH STEP
~Well ------------------------------------------------------
STRT.F                  1550.0 : START DEPTH
STOP.F                  9700.0 : STOP DEPTH
STEP.F                50.00000 : STEP LENGTH
NULL.                  -999.25 : NULL VALUE
COMP.     MARATHON OIL COMPANY : COMPANY
WELL.              NEWELL #A-2 : WELL
FLD .               BEAR GRASS : FIELD
LOC .                          : LOCATION
CNTY.                     LEON : COUNTY
STAT.                    TEXAS : STATE
CTRY. UNITED STATES OF AMERICA : COUNTRY
SRVC.                   Reeves : SERVICE COMPANY
DATE.              02-Nov-1999 : LOGDATE
API .           42289313060000 : API NUMBER
UWI .           42289313060000 : UNIQUE WELL ID
SLAT.WGS84       31.3636770246 : SURFACE LATITUDE
SLON.WGS84      -96.2532956557 : SURFACE LONGITUDE
~Curve Information -----------------------------------------
DEPT   .F    0   1   0  0 : 1 MEASURED DEPTH
GRR    .GAPI 06 310 01 00 : GAMMA RAY FROM RESISTIVITY LOG
SPR    .MV   06 010 01 00 : SPONTANEOUS POTENTIAL FROM RESISTIVITY LOG
TENR   .LB   06 635 00 00 : TENSION FROM RESISTIVITY LOG
DCALR  .IN   06 280 01 00 : DIFFERENTIAL CALIPER FROM RESISTIVITY LOG
SFE    .OHMM 06 220 06 00 : SHALLOW FOCUSSED ELECTRIC RESISTIVITY
ILM    .OHMM 06 120 44 00 : INDUCTION MEDIUM RESISTIVITY
ILD    .OHMM 06 120 46 00 : INDUCTION DEEP RESISTIVITY
NPHI_LS.DEC  42 890 01 00 : NEUTRON POROSITY LIMESTONE
DCOR   .G/C3 45 356 01 00 : DENSITY CORRECTION
DPHI_LS.DEC  45 890 10 00 : DENSITY POROSITY LIMESTONE
PE     .B/E  45 358 01 00 : PHOTO ELECTRIC CROSS SECTION
CALXD  .IN   45 280 13 00 : CALIPER FROM X AXIS OF X-Y CALIPER(S) FROM DENSITY LOG
~Params ----------------------------------------------------
PD  .                     GL : PERMANENT DATUM
EPD .FT                  525 : ELEVATION PERMANENT DATUM
LMF .                     KB : LOG MEASURED FROM
DAPD.FT                   17 : FEET ABOVE PERMANENT DATUM
DMF .                     KB : DRILLING MEASURED FROM
EKB .FT                  542 : KELLY BUSHING
EDF .FT                  540 : DRILLING FLOOR
EGL .FT                  525 : GROUND LEVEL
DATE.               11/02/99 : RUN DATE
RUN .                      1 : RUN NUMBER
DD  .FT                 9700 : DEPTH DRILLER
DL  .FT                 9705 : DEPTH LOGGER
BLI .FT                 9704 : BOTTOM LOG INTERVAL
TLI .FT                 1514 : TOP LOG INTERVAL
CS  .IN                8.625 : CASING SIZE
CBD .FT                 1515 : CASING BOTTOM DRILLER
CBL .FT                 1514 : CASING BOTTOM LOGGER
BS  .IN                7.875 : BIT SIZE
BSD .FT                 9700 : BIT SIZE AT DEPTH
DFT .                   DISP : DRILLING FLUID TYPE
DFD .                   10.1 : DRILLING FLUID DENSITY
DFV .                     50 : DRILLING FLUID VISCOSITY
DFPH.                    9.1 : DRILLING FLUID PH
DFL .                     10 : DRILLING FLUID LOSS
MSS .               FLOWLINE : MUD SAMPLE SOURCE
RMS .OHMM               1.22 : RESISTIVITY MUD SAMPLE
MST .DEGF                 80 : MUD SAMPLE TEMPERATURE
RMF .OHMM               0.91 : RESISTIVITY MUD FILTRATE SAMPLE
MFST.DEGF                 80 : MUD FILTRATE SAMPLE TEMPERATURE
RMC .OHMM               1.51 : RESISTIVITY MUD CAKE
MCST.DEGF                 80 : MUD CAKE SAMPLE TEMPERATURE
MFSS.                   MEAS : MUD FILTRATE SAMPLE SOURCE
MCSS.                   MEAS : MUD CAKE SAMPLE SOURCE
RMB .OHMM               0.45 : RESISTIVITY MUD AT BHT
TCS .HRS                   6 : TIME CIRCULATED STOPPED
LUN .                  V1049 : LOGGING UNIT NUMBER
LUL .                   KLCR : LOGGING UNIT LOCATION
ENGI.                 LEESON : RECORDING ENGINEER
WITN.                LAMBERT : WITNESSED BY
CLNT.                A2DTECH : CLIENT CODE
ORIG.         1" 2" 5" PRINT : ORIGIN OF DATA
UWI .         42289313060000 : UNIQUE WELL ID
DICO. A2D Technologies, Inc. : DIGITIZING COMPANY
~Other -----------------------------------------------------
~ASCII -----------------------------------------------------
 1550.00000   72.74540  -64.01690 1068.84630    -999.25    3.69170    3.89560    4.37090    -999.25    -999.25    -999.25    -999.25    -999.25
 1600.00000   72.06990  -59.97580 1057.17240    -999.25    2.69960    2.41460    2.75630    -999.25    -999.25    -999.25    -999.25    -999.25
 1650.00000   71.88990  -57.92610 1059.09910    -999.25    2.99430    2.81930    3.21200    -999.25    -999.25    -999.25    -999.25    -999.25
 1700.00000   87.20610  -55.27640 1045.69180    -999.25    2.63400    2.21660    2.54940    -999.25    -999.25    -999.25    -999.25    -999.25
 1750.00000   87.71090  -47.68760 1031.08980    -999.25    2.24170    1.88480    2.14080    -999.25    -999.25    -999.25    -999.25    -999.25
 1800.00000   78.62250  -47.54110 1041.25560    -999.25    2.22650    1.84810    2.12650    -999.25    -999.25    -999.25    -999.25    -999.25
 1850.00000   79.75250  -48.35350 1061.75890    -999.25    2.42390    2.09420    2.53880    -999.25    -999.25    -999.25    -999.25    -999.25
 1900.00000   84.58110  -47.48960 1063.63260    -999.25    2.03100    1.69470    1.91070    -999.25    -999.25    -999.25    -999.25    -999.25
 1950.00000   82.87880  -47.52810 1072.80240    -999.25    1.79710    1.34320    1.52730    -999.25    -999.25    -999.25    -999.25    -999.25
 2000.00000   77.73370  -47.91210 1075.57970    -999.25    1.89600    1.46880    1.69610    -999.25    -999.25    -999.25    -999.25    -999.25
 2050.00000   80.53610  -47.78180 1086.24060    -999.25    2.08350    1.76100    1.99270    -999.25    -999.25    -999.25    -999.25    -999.25
 2100.00000   89.42500  -46.91100 1043.06080    -999.25    2.06910    1.70130    1.89940    -999.25    -999.25    -999.25    -999.25    -999.25
 2150.00000   86.32960  -48.81710 1166.95530    -999.25    2.22620    1.88660    2.11650    -999.25    -999.25    -999.25    -999.25    -999.25
 2200.00000   78.28620  -47.20450 1178.00760    -999.25    2.05900    1.60190    1.80940    -999.25    -999.25    -999.25    -999.25    -999.25
 2250.00000   87.02650  -50.98970 1179.16240    -999.25    2.39210    2.04680    2.26690    -999.25    -999.25    -999.25    -999.25    -999.25
 2300.00000   81.69930  -45.78860 1187.49170    -999.25    1.99870    1.56080    1.74690    -999.25    -999.25    -999.25    -999.25    -999.25
 2350.00000   69.19710  -44.03520 1239.45180    -999.25    1.68610    1.36150    1.52060    -999.25    -999.25    -999.25    -999.25    -999.25
 2400.00000   72.82430  -44.87170 1260.59270    -999.25    1.47840    1.11700    1.22040    -999.25    -999.25    -999.25    -999.25    -999.25
 2450.00000   83.24050  -47.62230 1252.48710    -999.25    1.61950    1.22920    1.39090    -999.25    -999.25    -999.25    -999.25    -999.25
 2500.00000   84.74690  -44.32520 1319.91140    -999.25    1.52350    1.10760    1.23260    -999.25    -999.25    -999.25    -999.25    -999.25
 2550.00000   76.77360  -43.17760 1319.12400    -999.25    1.50570    1.08510    1.20630    -999.25    -999.25    -999.25    -999.25    -999.25
 2600.00000   74.82730  -49.03800 1374.18320    -999.25    2.46050    1.98110    2.17240    -999.25    -999.25    -999.25    -999.25    -999.25
 2650.00000   38.88630  -46.57600 1399.31520    -999.25    3.72790    3.63570    3.95450    -999.25    -999.25    -999.25    -999.25    -999.25
 2700.00000   58.04210  -43.21360 1414.06040    -999.25    1.70530    1.48660    1.61520    -999.25    -999.25    -999.25    -999.25    -999.25
 2750.00000   73.70070  -41.59980 1394.09410    -999.25    1.47630    1.10810    1.22700    -999.25    -999.25    -999.25    -999.25    -999.25
 2800.00000   73.73150  -40.40990 1452.71090    -999.25    1.45930    1.16160    1.23460    -999.25    -999.25    -999.25    -999.25    -999.25
 2850.00000   69.49140  -42.07180 1436.69850    -999.25    1.74750    1.48680    1.62410    -999.25    -999.25    -999.25    -999.25    -999.25
 2900.00000   76.40080  -39.96950 1458.62010    -999.25    1.59120    1.26930    1.37400    -999.25    -999.25    -999.25    -999.25    -999.25
 2950.00000   85.54060  -42.77820 1456.13050    -999.25    1.60430    1.28150    1.41090    -999.25    -999.25    -999.25    -999.25    -999.25
 3000.00000   71.78920  -41.58080 1495.95040    -999.25    1.32640    0.95830    1.05560    -999.25    -999.25    -999.25    -999.25    -999.25
 3050.00000  101.56220  -42.31870 1511.41600    -999.25    1.53730    1.18870    1.29100    -999.25    -999.25    -999.25    -999.25    -999.25
 3100.00000   89.76250  -41.44750 1532.25960    -999.25    1.52320    1.18840    1.26690    -999.25    -999.25    -999.25    -999.25    -999.25
 3150.00000   79.58300  -40.30390 1515.26930    -999.25    1.36330    1.01680    1.08700    -999.25    -999.25    -999.25    -999.25    -999.25
 3200.00000   72.99210  -42.34710 1537.13890    -999.25    1.49390    1.21490    1.28680    -999.25    -999.25    -999.25    -999.25    -999.25
 3250.00000   81.40900  -42.27720 1575.33730    -999.25    1.49990    1.16200    1.23910    -999.25    -999.25    -999.25    -999.25    -999.25
 3300.00000   79.39650  -43.62720 1613.93030    -999.25    1.42460    1.09110    1.16770    -999.25    -999.25    -999.25    -999.25    -999.25
 3350.00000   78.80140  -42.74250 1575.80150    -999.25    1.56950    1.21330    1.29020    -999.25    -999.25    -999.25    -999.25    -999.25
 3400.00000   87.27210  -41.04030 1612.44910    -999.25    1.51280    1.17770    1.22760    -999.25    -999.25    -999.25    -999.25    -999.25
 3450.00000   84.68660  -42.84950 1637.03980    -999.25    1.49820    1.13160    1.20200    -999.25    -999.25    -999.25    -999.25    -999.25
 3500.00000   71.56210  -42.99850 1612.28150    -999.25    1.29860    0.90690    0.96890    -999.25    -999.25    -999.25    -999.25    -999.25
 3550.00000   69.75820  -39.48610 1644.49370    -999.25    1.50150    1.06450    1.13140    -999.25    -999.25    -999.25    -999.25    -999.25
 3600.00000   72.94450  -58.03480 1688.39700    -999.25    2.80400    2.72720    2.87480    -999.25    -999.25    -999.25    -999.25    -999.25
 3650.00000   81.16910  -61.87650 1715.36040    -999.25    2.92190    2.61030    2.73980    -999.25    -999.25    -999.25    -999.25    -999.25
 3700.00000   85.01570  -46.20450 1714.73720    -999.25    2.02260    1.66750    1.75960    -999.25    -999.25    -999.25    -999.25    -999.25
 3750.00000  100.99890  -43.44650 1750.22090    -999.25    1.88940    1.56440    1.68040    -999.25    -999.25    -999.25    -999.25    -999.25
 3800.00000   87.66680  -43.88950 1751.04390    -999.25    1.65700    1.17290    1.23350    -999.25    -999.25    -999.25    -999.25    -999.25
 3850.00000   73.94830  -45.68120 1759.86320    -999.25    1.79100    1.41910    1.50000    -999.25    -999.25    -999.25    -999.25    -999.25
 3900.00000   71.92620  -45.14280 1811.64280    -999.25    1.93530    1.63780    1.72990    -999.25    -999.25    -999.25    -999.25    -999.25
 3950.00000   84.45100  -42.81260 1787.85900    -999.25    1.56400    1.09510    1.17390    -999.25    -999.25    -999.25    -999.25    -999.25
 4000.00000   94.46560  -44.93560 1874.38670    -999.25    1.56730    1.21090    1.26770    -999.25    -999.25    -999.25    -999.25    -999.25
 4050.00000   92.32620  -45.34740 1902.27610    -999.25    1.50580    1.08700    1.15490    -999.25    -999.25    -999.25    -999.25    -999.25
 4100.00000   72.56610  -42.82730 1853.36520    -999.25    1.45860    1.05180    1.09850    -999.25    -999.25    -999.25    -999.25    -999.25
 4150.00000   73.82470  -38.71350 1901.73900    -999.25    1.52650    1.09750    1.13580    -999.25    -999.25    -999.25    -999.25    -999.25
 4200.00000   73.59570  -40.02400 1865.34500    -999.25    1.39020    1.00440    1.03220    -999.25    -999.25    -999.25    -999.25    -999.25
 4250.00000   83.48570  -39.81790 1870.60240    -999.25    1.45520    1.05000    1.06750    -999.25    -999.25    -999.25    -999.25    -999.25
 4300.00000   89.72390  -40.82610 1916.21450    -999.25    1.57110    1.15680    1.20520    -999.25    -999.25    -999.25    -999.25    -999.25
