~Version ---------------------------------------------------
VERS.      2.0 : CWLS log ASCII Standard -VERSION 2.0
WRAP.      YES : Multiple lines per depth step
CREA. 08/18/12 : LAS Creation Date
~Well ------------------------------------------------------
STRT.FT                 2900.0 : START DEPTH
STOP.FT                17850.0 : STOP DEPTH
STEP.FT               50.00000 : STEP LENGTH
NULL.                  -999.25 : NULL VALUE
COMP. AMOCO PRODUCTION COMPANY : COMPANY
WELL.   JIMMY HILL GAS UNIT #1 : WELL
FLD .                  WILDCAT : FIELD
LOC .                          : LOCATION
CNTY.                     LEON : COUNTY
STAT.                    TEXAS : STATE
CTRY. UNITED STATES OF AMERICA : COUNTRY
SRVC.             Schlumberger : SERVICE COMPANY
DATE.              04-Jun-1996 : LOGDATE
API .           42289312310000 : API NUMBER
UWI .           42289312310000 : UNIQUE WELL ID
SLAT.WGS84       31.2538599246 : SURFACE LATITUDE
SLON.WGS84      -96.2196025838 : SURFACE LONGITUDE
~Curve Information -----------------------------------------
DEPT    .FT                                                                                                : DEPTH FEET
AO10ED  .OHMM                                                                                              : ARRAY INDUCTION ONE FOOT RESISTIVITY A10 FROM AIT-PI-DITE-LDT-CNT LOG
AO20ED  .OHMM                                                                                              : ARRAY INDUCTION ONE FOOT RESISTIVITY A20 FROM AIT-PI-DITE-LDT-CNT LOG
AO30ED  .OHMM                                                                                              : ARRAY INDUCTION ONE FOOT RESISTIVITY A30 FROM AIT-PI-DITE-LDT-CNT LOG
AO60ED  .OHMM                                                                                              : ARRAY INDUCTION ONE FOOT RESISTIVITY A60 FROM AIT-PI-DITE-LDT-CNT LOG
AO90ED  .OHMM                                                                                              : ARRAY INDUCTION ONE FOOT RESISTIVITY A90 FROM AIT-PI-DITE-LDT-CNT LOG
CALSED  .IN                                                                                                : CALIPER FROM BCS-CALIPER-GR LOG [ADJ. TO GRRED]
CALWS   .IN                                                                                                : CALIPER [DCALED+BITS]
CONDWS  .MMHO                                                                                              : CONDUCTIVITY [1000/DRESWS]
DCALED  .IN                                                                                                : DIFFERENTIAL CALIPER FROM AIT-PI-DITE-LDT-CNT LOG
DCORWS  .G/C3                                                                                              : DENSITY CORRECTION [DRHED SPL. TO DRHOED @ 10860']
DENWS   .G/C3 :   FORMATION BULK DENSITY [RHOMED, DENWS CALCULATED FROM DPOWS FROM 7004'-10889'] [M:2.71,F : 1.0]
DPHILSED.V/V                                                      :   DENSITY POROSITY LIMESTONE [M:2.71,F : 1.0] FROM AIT-PI-DITE-LDT-CNT LOG
DPOLSED .V/V                                                                                               : DENSITY POROSITY LIMESTONE FROM HOSTILE LDL-CN-GR LOG
DPOWS   .V/V                                                                                               : DENSITY POROSITY [DPHILSED SPL. TO DPOLSED @ 10852']
DRESWS  .OHMM                                                                                              : DEEP RESISTIVITY [AO30ED SPL. TO IDPHED]
DRHED   .G/C3                                                                                              : BULK DENSITY CORRECTION FROM HOSTILE LDL-CN-GR LOG
DRHOED  .G/C3                                                                                              : BULK DENSITY CORRECTION FROM AIT-PI-DITE-LDT-CNT LOG
DTED    .US/F                                                                                              : DELTA T FROM BCS-CALIPER-GR LOG [ADJ. TO GRRED/NPHILSED]
DTLFED  .US/F                                                                                              : DELTA-T LONG SPACING FAR FROM AIT-PI-DITE-LDT-CNT-PI-LSS-GR LOG
DTLNED  .US/F                                                                                              : DELTA-T LONG SPACING NEAR FROM AIT-PI-DITE-LDT-CNT-PI-LSS-GR LOG
DTWS    .US/F                                                                                              : COMPRESSIONAL SONIC [DTED SPL. TO DTLNED @ 10865.5'-15946.5']
GRRED   .GAPI                                                                                              : GAMMA RAY FROM AIT-PI-DITE-LDT-CNT LOG
GRSED   .GAPI                                                                                              : GAMMA RAY FROM BCS-CALIPER-GR-PI-LSS LOG [ADJ. TO GRRED]
GRWS    .GAPI                                                                                              : GAMMA RAY [GRRED]
IDPHED  .OHMM                                                                                              : DEEP INDUCTION PHASOR FROM AIT-PI-DITE-LDT-CNT- PI-LSS-GR LOG
LCALED  .IN                                                                                                : LOWER CALIPER FROM HOSTILE LDL-CN-GR LOG
MRESWS  .OHMM                                                                                              : MEDIUM RESISTIVITY [AO30ED]
NPHILSED.V/V                                                                                               : NEUTRON POROSITY LIMESTONE FROM AIT-PI-DITE-LDT-CNT LOG
NPOWS   .V/V                                                                                               : NEUTRON POROSITY [NPHILSED]
PEFED   .B/E                                                                                               : PHOTOELECTRIC FACTOR FROM AIT-PI-DITE-LDT-CNT LOG
PEFLED  .B/E                                                                                               : HLDT PEF LONG SPACING FROM HOSTILE LDL-CN-GR LOG
PEFSED  .B/E                                                                                               : SHORT SPACED CORRECTED PHOTOELECTRIC FACTOR FROM HOSTILE LDL-CN-GR LOG
PEFWS   .B/E                                                                                               : PHOTOELECTRIC FACTOR [PEFED SPL. TO PEFSED @ 10847.5']
RHOMED  .G/C3                                                                                              : CORRECTED BULK DENSITY FROM HOSTILE LDL-CN-GR LOG
SPRED   .MV                                                                                                : SPONTANEOUS POTENTIAL  FROM AIT-PI-DITE-LDT-CNT LOG
SPWS    .MV                                                                                                : SPONTANEOUS POTENTIAL [BASELINE 0, MV SPRED]
SRESWS  .OHMM                                                                                              : SHALLOW RESISTIVITY [AO10ED]
TENDED  .LBF                                                                                               : DIFFERENTIAL TENSION FROM HOSTILE LDL-CN-GR LOG
TENRED  .LBF                                                                                               : TENSION FROM AIT-PI-DITE-LDT-CNT LOG
TENSED  .LBF                                                                                               : TOTAL TENSION FROM BCS-CALIPER-GR LOG [ADJ. TO GRRED]
~Params ----------------------------------------------------
PD  .                     GL : PERMANENT DATUM
EPD .FT                 3759 : ELEVATION PERMANENT DATUM
LMF .                     KB : LOG MEASURED FROM
DAPD.FT                 37.2 : FEET ABOVE PERMANENT DATUM
DMF .                     KB : DRILLING MEASURED FROM
EKB .FT                 4131 : KELLY BUSHING
EDF .FT                 4121 : DRILLING FLOOR
EGL .FT                 3759 : GROUND LEVEL
DATE.               06/04/96 : RUN DATE
RUN .                      4 : RUN NUMBER
DD  .FT                17800 : DEPTH DRILLER
DL  .FT                17800 : DEPTH LOGGER
BLI .FT                17797 : BOTTOM LOG INTERVAL
TLI .FT                15944 : TOP LOG INTERVAL
CS  .IN                    7 : CASING SIZE
CBD .FT                15950 : CASING BOTTOM DRILLER
CBL .FT                15944 : CASING BOTTOM LOGGER
BS  .IN                5.875 : BIT SIZE
BSD .FT                17800 : BIT SIZE AT DEPTH
DFT .              OIL BASED : DRILLING FLUID TYPE
DFD .                     18 : DRILLING FLUID DENSITY
DFV .                     88 : DRILLING FLUID VISCOSITY
RMC .OHMM      OIL BASED MUD : RESISTIVITY MUD CAKE
MCST.DEGF      OIL BASED MUD : MUD CAKE SAMPLE TEMPERATURE
TCS .HRS                2100 : TIME CIRCULATED STOPPED
TLAB.HRS                1500 : TIME LOGGER AT BOTTOM
LUN .                   2019 : LOGGING UNIT NUMBER
LUL .                  TYLER : LOGGING UNIT LOCATION
ENGI.                 FERRIS : RECORDING ENGINEER
WITN.              MCGINNUSS : WITNESSED BY
CLNT.                A2DTECH : CLIENT CODE
ORIG.               5' PRINT : ORIGIN OF DATA
UWI .         42289312310000 : UNIQUE WELL ID
DICO. A2D Technologies, Inc. : DIGITIZING COMPANY
~Other -----------------------------------------------------
~ASCII -----------------------------------------------------
# ...
 11000.00000    -999.25    -999.25    -999.25    -999.25    -999.25    -999.25    9.01310   58.07940    0.51310   -0.01290    2.62100    -999.25    0.04970    0.04970   17.21780   -0.01290    -999.25    -999.25   57.70760   57.82470   57.82470   46.63600    -999.25   46.63600   17.21780    8.91640    -999.25    0.02060    0.02060    -999.25    4.25610    2.63870    2.63870    2.62100    -999.25    -999.25    -999.25 4021.41750 4033.61280    -999.25
 11050.00000    -999.25    -999.25    -999.25    -999.25    -999.25    -999.25    8.84360   42.11400    0.34360   -0.00890    2.65310    -999.25    0.02540    0.02540   23.74510   -0.00890    -999.25    -999.25   59.07360   59.19230   59.19230   62.84740    -999.25   62.84740   23.74510    8.79800    -999.25    0.05650    0.05650    -999.25    4.41630    3.02020    3.02020    2.65310    -999.25    -999.25    -999.25 4021.07300 4033.97920    -999.25
 11100.00000    -999.25    -999.25    -999.25    -999.25    -999.25    -999.25    8.80500   49.12920    0.30500   -0.00680    2.54430    -999.25    0.09490    0.09490   20.35450   -0.00680    -999.25    -999.25   58.71250   58.82550   58.82550   27.59160    -999.25   27.59160   20.35450    8.80430    -999.25    0.00890    0.00890    -999.25    4.15330    2.78310    2.78310    2.54430    -999.25    -999.25    -999.25 4043.22090 4051.99340    -999.25
 11150.00000    -999.25    -999.25    -999.25    -999.25    -999.25    -999.25    8.84890   34.87610    0.34890   -0.00430    2.57860    -999.25    0.07410    0.07410   28.67290   -0.00430    -999.25    -999.25   58.53150   58.67000   58.67000   29.57570    -999.25   29.57570   28.67290    8.78910    -999.25    0.00960    0.00960    -999.25    3.54690    2.79240    2.79240    2.57860    -999.25    -999.25    -999.25 4071.54080 4058.24900    -999.25
 11200.00000    -999.25    -999.25    -999.25    -999.25    -999.25    -999.25    8.84290   33.05120    0.34290    0.00490    2.61160    -999.25    0.05600    0.05600   30.25610    0.00490    -999.25    -999.25   55.62160   55.77960   55.77960   30.92620    -999.25   30.92620   30.25610    8.81600    -999.25    0.01220    0.01220    -999.25    3.93440    3.59010    3.59010    2.61160    -999.25    -999.25    -999.25 4095.38210 4087.17650    -999.25
 11250.00000    -999.25    -999.25    -999.25    -999.25    -999.25    -999.25    8.71400   61.39560    0.21400   -0.00210    2.66190    -999.25    0.02230    0.02230   16.28780   -0.00210    -999.25    -999.25   53.72590   53.87560   53.87560   38.41830    -999.25   38.41830   16.28780    8.71160    -999.25    0.02820    0.02820    -999.25    5.35110    3.43800    3.43800    2.66190    -999.25    -999.25    -999.25 4094.78200 4099.59810    -999.25
 11300.00000    -999.25    -999.25    -999.25    -999.25    -999.25    -999.25    8.74740   75.73290    0.24740   -0.01620    2.55750    -999.25    0.08840    0.08840   13.20430   -0.01620    -999.25    -999.25   59.85610   60.02160   60.02160   34.78850    -999.25   34.78850   13.20430    8.71110    -999.25    0.03570    0.03570    -999.25    5.40160    3.36600    3.36600    2.55750    -999.25    -999.25    -999.25 4094.90330 4107.89400    -999.25
 11350.00000    -999.25    -999.25    -999.25    -999.25    -999.25    -999.25    8.79540   29.30200    0.29540   -0.00490    2.63090    -999.25    0.04410    0.04410   34.12740   -0.00490    -999.25    -999.25   56.49600   56.60990   56.60990   34.27860    -999.25   34.27860   34.12740    8.71820    -999.25    0.01730    0.01730    -999.25    3.90240    2.69570    2.69570    2.63090    -999.25    -999.25    -999.25 4117.49950 4106.19820    -999.25
 11400.00000    -999.25    -999.25    -999.25    -999.25    -999.25    -999.25    8.74590   16.92160    0.24590   -0.00690    2.62200    -999.25    0.04980    0.04980   59.09610   -0.00690    -999.25    -999.25   54.53300   54.65600   54.65600   25.40130    -999.25   25.40130   59.09610    8.70640    -999.25    0.00710    0.00710    -999.25    3.55000    2.57840    2.57840    2.62200    -999.25    -999.25    -999.25 4126.29880 4139.19240    -999.25
 11450.00000    -999.25    -999.25    -999.25    -999.25    -999.25    -999.25    8.74340   13.26400    0.24340    0.00090    2.58750    -999.25    0.06980    0.06980   75.39220    0.00090    -999.25    -999.25   55.54570   55.65960   55.65960   25.54200    -999.25   25.54200   75.39220    8.70200    -999.25    0.00210    0.00210    -999.25    6.06980    4.52310    4.52310    2.58750    -999.25    -999.25    -999.25 4129.94580 4130.82760    -999.25
 11500.00000    -999.25    -999.25    -999.25    -999.25    -999.25    -999.25    8.85890   14.47840    0.35890   -0.00890    2.57440    -999.25    0.07640    0.07640   69.06820   -0.00890    -999.25    -999.25   57.45930   57.57450   57.57450   43.77950    -999.25   43.77950   69.06820    8.79340    -999.25    0.00780    0.00780    -999.25    4.03290    2.73620    2.73620    2.57440    -999.25    -999.25    -999.25 4169.08150 4135.69090    -999.25
 11550.00000    -999.25    -999.25    -999.25    -999.25    -999.25    -999.25    8.86230   46.38070    0.36230   -0.00570    2.57820    -999.25    0.07380    0.07380   21.56070   -0.00570    -999.25    -999.25   57.66830   57.78260   57.78260   21.93250    -999.25   21.93250   21.56070    8.79270    -999.25    0.00920    0.00920    -999.25    3.20850    2.54200    2.54200    2.57820    -999.25    -999.25    -999.25 4154.04540 4158.23340    -999.25
 11600.00000    -999.25    -999.25    -999.25    -999.25    -999.25    -999.25    8.83600   43.27170    0.33600   -0.01110    2.60930    -999.25    0.05770    0.05770   23.10980   -0.01110    -999.25    -999.25   57.29350   57.40730   57.40730   33.22420    -999.25   33.22420   23.10980    8.81340    -999.25    0.01100    0.01100    -999.25    3.50600    2.86000    2.86000    2.60930    -999.25    -999.25    -999.25 4182.06790 4153.43120    -999.25
 11650.00000    -999.25    -999.25    -999.25    -999.25    -999.25    -999.25    8.83890   12.41860    0.33890   -0.01220    2.63520    -999.25    0.04290    0.04290   80.52450   -0.01220    -999.25    -999.25   55.21890   55.33190   55.33190   24.64060    -999.25   24.64060   80.52450    8.81020    -999.25    0.00280    0.00280    -999.25    3.42090    2.48820    2.48820    2.63520    -999.25    -999.25    -999.25 4193.77980 4208.04390    -999.25
 11700.00000    -999.25    -999.25    -999.25    -999.25    -999.25    -999.25    8.85550   48.06420    0.35550   -0.01450    2.59100    -999.25    0.06780    0.06780   20.80550   -0.01450    -999.25    -999.25   61.65600   61.88880   61.88880   47.08460    -999.25   47.08460   20.80550    8.81710    -999.25    0.02440    0.02440    -999.25    4.13730    2.93350    2.93350    2.59100    -999.25    -999.25    -999.25 4198.70260 4208.65530    -999.25
 11750.00000    -999.25    -999.25    -999.25    -999.25    -999.25    -999.25    8.85480   49.54980    0.35480   -0.01090    2.70240    -999.25   -0.00070   -0.00070   20.18170   -0.01090    -999.25    -999.25   60.23020   60.42400   60.42400  101.91910    -999.25  101.91910   20.18170    8.82980    -999.25    0.06520    0.06520    -999.25    4.17430    3.22230    3.22230    2.70240    -999.25    -999.25    -999.25 4250.15190 4264.25880    -999.25
 11800.00000    -999.25    -999.25    -999.25    -999.25    -999.25    -999.25    8.85880   13.50010    0.35880   -0.00730    2.62700    -999.25    0.04770    0.04770   74.07350   -0.00730    -999.25    -999.25   55.86340   55.97140   55.97140   34.87820    -999.25   34.87820   74.07350    8.82710    -999.25    0.00270    0.00270    -999.25    4.17780    2.86350    2.86350    2.62700    -999.25    -999.25    -999.25 4184.62060 4227.66850    -999.25
 11850.00000    -999.25    -999.25    -999.25    -999.25    -999.25    -999.25    8.85870   60.04600    0.35870   -0.01490    2.69640    -999.25    0.00680    0.00680   16.65390   -0.01490    -999.25    -999.25   63.23790   63.25510   63.25510  119.34680    -999.25  119.34680   16.65390    8.82380    -999.25    0.12120    0.12120    -999.25    5.31080    3.41310    3.41310    2.69640    -999.25    -999.25    -999.25 4194.72560 4221.78080    -999.25
