~Version ---------------------------------------------------
VERS. 2.0 : CWLS log ASCII Standard -VERSION 2.0
WRAP.  NO : ONE LINE PER DEPTH STEP
~Well ------------------------------------------------------
STRT.F                       2550.0 : START DEPTH
STOP.F                      16500.0 : STOP DEPTH
STEP.F                     50.00000 : STEP LENGTH
NULL.                       -999.25 : NULL VALUE
COMP.       UNION PACIFIC RESOURCES : COMPANY
WELL. UPR T BAR X LIGHTNING UNIT #1 : WELL
FLD .                       WILDCAT : FIELD
LOC .                               : LOCATION
CNTY.                     ROBERTSON : COUNTY
STAT.                         TEXAS : STATE
CTRY.      UNITED STATES OF AMERICA : COUNTRY
SRVC.                               : SERVICE COMPANY
DATE.                               : LOGDATE
API .                42395304830000 : API NUMBER
UWI .                42395304830000 : UNIQUE WELL ID
SLAT.WGS84            31.1540924699 : SURFACE LATITUDE
SLON.WGS84           -96.3276535393 : SURFACE LONGITUDE
~Curve Information -----------------------------------------
DEPT.F                 : 
DCAL.IN   07 280 30 00 : DIFFERENTIAL CALIPER
AT90.OHMM 07 120 90 00 : 2FT VERT. RES. 90IN D.I.
AT20.OHMM 07 120 20 00 : 2FT VERT. RES. 20IN D.I.
SP  .MV   07 010 01 00 : SPONTANEOUS POTENTIAL
GR  .GAPI 07 310 01 00 : GAMMA RAY - GAPI
ILD .OHMM 07 120 46 00 : DEEP INDUCTION RESISTIVITY
SFL .OHMM 07 220 01 00 : SPHERICAL FOCUSED RESISTIVITY
DT  .US/F 07 520 00 00 : 
AT30.OHMM 06 120 30 00 : 
HDRA.G/C3 45 356 01 00 : 
PEFZ.B/E  45 358 01 00 : 
ILM .OHMM 00 120 44 00 : MEDIUM IND.
DPHI.DEC  45 890 10 00 : 
NPHI.DEC  42 890 01 00 : 
CAL .IN   07 280 01 00 : 
~Params ----------------------------------------------------
EKB .F                399.0 : KELLY BUSHING
EGL .F                  373 : ELEVATION GROUND LEVEL
EDF .F                  398 : ELEVATION DERRICK FLOOR
EPD .F                  373 : ELEVATION PERMANENT DATUM
TD  .F              16500.0 : TOTAL DEPTH
CLNT.               A2DTECH : CLIENT CODE
PD  .                    GL : PERMANENT DATUM
LMF .                   RKB : LOG MEASURED FROM
DMF .                   RKB : DRILLING MEASURED FROM
DAPD.F                 26.9 : FEET ABOVE PERMANENT DATUM
DATE.           26-MAY-1997 : DATE LOGGED
DD  .F                16500 : DEPTH DRILLER
DL  .F                16500 : DEPTH LOGGER
BLI .F                16498 : BOTTOM LOG INTERVAL
TLI .F                15524 : TOP LOG INTERVAL
CS1 .IN               7.625 : CASING SIZE
CBD1.        7.625" @ 15550 : CASING DRILLER 1
CBL1.F                15524 : CASING LOGGER 1
BS1 .IN                6.75 : BIT SIZE
BSD1.F                16500 : DEPTH DRILLED WITH BIT1
DFT .         LOW-LIME DISP : TYPE FLUID IN HOLE
DFD .                  17.7 : DENSITY
DFV .                  46 S : VISCOSITY
DFPH.                  11.3 : PH
DFL .                  18.2 : FLUID LOSS
MSS .              FLOWLINE : SOURCE OF SAMPLE
RMS .OHMM              0.75 : RM
RMF .OHMM              0.56 : RMF
MFSS.                  CALC : SOURCE RMF.
RMC .OHMM              0.94 : RMC
MCSS.                  CALC : SOURCE RMC.
RMB .OHMM               0.4 : RM. AT BHT
BHT .F                  360 : BHT.
TCS .HRS                 17 : TIME CIRC. STOPPED
LUN .               HL 6542 : LOGGING UNIT NUMBER
LUL .                 TYLER : LOGGING UNIT LOCATION
ENGI.                DIDUCH : RECORDED BY
WITN.               CLAWSON : WITNESSED BY
ORIG.              5" PRINT : ORIGIN OF DATA
UWI .        42395304830000 : UNIQUE WELL ID
DICO. A2D TECHNOLOGIES INC. : DIGITIZING COMPANY
SL  .       845' FWL & 1' F : SURFACE LOCATION
~Other -----------------------------------------------------
~ASCII -----------------------------------------------------
# ...
 7150.00000    3.11140   13.56950    2.94610  -51.05260   46.08530    -999.25    -999.25  160.80700    4.43930    0.13670    5.36310    -999.25    0.11370    0.35000    -999.25
 7200.00000    2.51580    8.31230    5.74540  -61.74180   56.66020    -999.25    -999.25   68.42720    8.16080    0.20000    6.90630    -999.25    0.23960    0.12340    -999.25
 7250.00000    1.47740    3.06060    4.00160  -62.81630   59.14680    -999.25    -999.25  144.51710    4.25060    0.02920    4.93760    -999.25    0.04540    0.10740    -999.25
 7300.00000    1.69730   47.50850   33.19720  -72.54940   48.59620    -999.25    -999.25   89.99980   56.48520    0.03830    6.34360    -999.25    0.03760    0.02580    -999.25
 7350.00000    1.29090    6.09360    4.34870  -63.83630   71.56340    -999.25    -999.25   68.89160    4.50270    0.02290    5.03140    -999.25    0.01260    0.16560    -999.25
 7400.00000    2.57160    2.95300    7.59400  -60.80870   61.56600    -999.25    -999.25  103.86340    8.63780    0.02600    5.12500    -999.25    0.03530    0.06890    -999.25
 7450.00000    1.78850   28.95780   12.45700  -53.96710   84.51830    -999.25    -999.25   96.63350   19.64400    0.00720    5.18750    -999.25    0.02120    0.10160    -999.25
 7500.00000    3.85470    5.06710    8.53920  -57.58760   68.14480    -999.25    -999.25   62.68950    7.41250    0.09810    5.91780    -999.25    0.05320    0.18590    -999.25
 7550.00000    1.72980    2.83920    3.89540  -58.77020   87.18210    -999.25    -999.25   74.11210    3.90100    0.03540    4.61460    -999.25    0.03450    0.15640    -999.25
 7600.00000    2.72640    4.17710    3.96580  -55.21190   80.40350    -999.25    -999.25   65.23440    4.27940    0.06730    5.24980    -999.25    0.09830    0.14530    -999.25
 7650.00000    2.03710    8.44560    9.83110  -63.24750   78.54080    -999.25    -999.25   62.13270    9.96440    0.05580    5.65330    -999.25    0.04700    0.09060    -999.25
 7700.00000    5.95600    6.91590    2.00000  -55.25170   71.88470    -999.25    -999.25   85.71220    1.87480    0.09580    6.07640    -999.25    0.31060    0.32420    -999.25
 7750.00000    2.37960    3.50600    3.41760  -50.85590   93.22500    -999.25    -999.25   76.61530    3.35490    0.05110    4.59380    -999.25    0.02980    0.17500    -999.25
 7800.00000    1.80120    6.84210   14.58110  -85.31980   50.60010    -999.25    -999.25   52.77280   23.71730    0.07370    9.87510    -999.25    0.11340    0.05000    -999.25
 7850.00000    1.81960   19.36550   19.30630  -73.98870   44.62620    -999.25    -999.25   55.73180   31.22390    0.09970    4.75520    -999.25    0.02900    0.02660    -999.25
 7900.00000    1.83850   10.13900   13.22330  -62.90160   51.40150    -999.25    -999.25   57.73100   18.82000    0.02450    5.28150    -999.25    0.01970    0.09000    -999.25
 7950.00000    1.87760   19.74110   17.38810  -62.98790   52.04380    -999.25    -999.25   57.94720   21.41270    0.03700    5.40620    -999.25    0.02120    0.03770    -999.25
 8000.00000    2.31730    5.58560    5.04540  -59.06250   53.23410    -999.25    -999.25   56.96390   10.87550    0.08420    5.62500    -999.25    0.05550    0.06250    -999.25
 8050.00000    2.36820   24.00010   15.44830  -70.93630   54.60720    -999.25    -999.25   55.65400   23.59350    0.02450    5.53120    -999.25    0.03760    0.03120    -999.25
 8100.00000    2.67740   96.78600   30.75610 -106.56400   66.86960    -999.25    -999.25   52.17010  112.89720    0.09340    5.43750    -999.25    0.05640    0.04530    -999.25
 8150.00000    2.02810   34.93540   23.00320  -96.86160   50.02080    -999.25    -999.25   53.94080   42.67490    0.14040    4.95490    -999.25    0.01730    0.04370    -999.25
 8200.00000    1.63270  311.59390  331.65440 -117.50000   42.12000    -999.25    -999.25   50.21840  250.98700    0.09500    5.83110    -999.25    0.05790    0.00630    -999.25
 8250.00000    2.17270   65.07440  158.71540 -106.24950   76.11140    -999.25    -999.25   53.44090  169.31380    0.11540    5.88490    -999.25    0.06020    0.01950    -999.25
 8300.00000    1.53940   38.06650   22.27200 -105.60410   40.14880    -999.25    -999.25   52.44380   55.41240    0.04800    5.59410    -999.25    0.04770    0.01620    -999.25
 8350.00000    2.10190   37.65970   37.32870 -113.99550   27.37560    -999.25    -999.25   51.31300   42.30920    0.09190    4.81220    -999.25    0.02120   -0.00080    -999.25
 8400.00000    2.22170   11.44990   22.23720  -99.06690   46.02800    -999.25    -999.25   51.61010    9.94000    0.03070    5.75000    -999.25    0.03110    0.02800    -999.25
 8450.00000    1.40250  117.39940  342.51110  -71.52650   44.69340    -999.25    -999.25   49.96880  384.62690    0.03540    5.21900    -999.25   -0.00060   -0.00310    -999.25
 8500.00000    1.53150   21.02610   24.98240  -97.47300   64.87720    -999.25    -999.25   56.50210   18.97230    0.01630    5.06270    -999.25    0.00720    0.03130    -999.25
 8550.00000    1.69520   85.09460   88.28410 -108.71180   52.07830    -999.25    -999.25   52.10240   76.36640    0.01980    5.28880    -999.25   -0.00370    0.00860    -999.25
 8600.00000    1.63310    8.38900    8.64820  -72.65600   67.72110    -999.25    -999.25   99.61780    9.48580    0.03580    5.15630    -999.25    0.04310    0.09150    -999.25
 8650.00000    1.45930   29.37390   30.75610  -77.71950   62.92920    -999.25    -999.25   96.09450   32.45040    0.00790    5.43770    -999.25    0.02630    0.03950    -999.25
 8700.00000    8.70260    1.66060    0.61240  -45.98410  107.71030    -999.25    -999.25   95.85560    1.41060    0.07600    7.34400    -999.25    0.35000    0.35000    -999.25
 8750.00000    6.27250    6.91580    1.32880  -49.73930   97.11840    -999.25    -999.25  100.56020    2.02130    0.06790    7.81280    -999.25    0.35000    0.35000    -999.25
 8800.00000    8.17530    3.02800    1.91570  -48.67810  113.89540    -999.25    -999.25  114.05890    2.29200    0.09350    5.59370    -999.25    0.35000    0.34830    -999.25
 8850.00000    8.26930    5.29820    0.94170  -54.25930  120.95020    -999.25    -999.25   82.63190    2.47020    0.20000    3.65620    -999.25    0.19090    -999.25    -999.25
 8900.00000    3.09490    2.90080    1.85490  -51.01840   90.42390    -999.25    -999.25   68.75370    9.39120    0.07300    7.83610    -999.25    0.30830    0.12030    -999.25
 8950.00000    1.22830   10.17540    5.04540  -49.25190   55.21800    -999.25    -999.25   57.75700   12.21680    0.08870    5.62500    -999.25   -0.01230    0.09220    -999.25
 9000.00000   10.33250    3.91430    0.75820  -40.97330  110.79180    -999.25    -999.25  122.97200    0.81780    0.07750    9.64020    -999.25    0.34910    -999.25    -999.25
 9050.00000    2.82790    3.83380    3.98210  -69.22980   58.33970    -999.25    -999.25   58.22260    5.24460    0.01880    5.46870    -999.25    0.06670    0.08440    -999.25
 9100.00000    2.14620  140.37980   77.59160 -116.66670   52.90990    -999.25    -999.25   50.17480  102.16950   -0.00220    5.43750    -999.25    0.01110    0.00910    -999.25
 9150.00000    2.84620   26.15100   15.95540 -132.38990   58.09970    -999.25    -999.25   53.89290   20.07370    0.01040    5.14080    -999.25    0.00870    0.05000    -999.25
 9200.00000    2.56530   43.14020   43.86610 -122.05480   50.93610    -999.25    -999.25   51.70510   39.66230    0.01660    5.52340    -999.25    0.03710    0.01900    -999.25
 9250.00000    3.32270  335.09070   38.55460 -152.09770   52.61850    -999.25    -999.25   50.43680   78.01910    0.04480    6.31250    -999.25    0.10620    0.02660    -999.25
 9300.00000    2.37800  112.28590   61.67100  -91.25000   50.83680    -999.25    -999.25   51.02020   99.16140    0.01820    5.38280    -999.25    0.01260    0.01020    -999.25
 9350.00000    1.19750    2.03610    8.18830  -74.91720   75.00080    -999.25    -999.25   53.94080   11.45440    0.16760    3.37500    -999.25    0.03370    0.02500    -999.25
 9400.00000    1.68980   99.71670   48.32900  -99.37790   35.65240    -999.25    -999.25   55.39760   75.78390    0.02290    5.59370    -999.25    0.03600    0.05470    -999.25
